     2.11           OBSERVATION DATA    M (MIXED)           RINEX VERSION / TYPE
CONVBIN 2.4.3                           20210831 054526 UTC PGM / RUN BY / DATE 
log: logs/21_08_31_02_34_40_ncrd_VZ.rtcm                    COMMENT             
format: RTCM 3, station ID: 1153                            COMMENT             
1153                                                        MARKER NAME         
                                                            MARKER NUMBER       
                                                            OBSERVER / AGENCY   
                    TRIMBLE ALLOY                           REC # / TYPE / VERS 
                    GPPNULLANTENNA                          ANT # / TYPE        
  1027044.1724 -5080539.2390  3704298.3756                  APPROX POSITION XYZ 
        0.0000        0.0000        0.0000                  ANTENNA: DELTA H/E/N
     1     1                                                WAVELENGTH FACT L1/2
     7    C1    L1    P2    L2    C2    C5    L5            # / TYPES OF OBSERV 
  2021     8    31     2    34   58.0000000     GPS         TIME OF FIRST OBS   
  2021     8    31     3     4   44.0000000     GPS         TIME OF LAST OBS    
                                                            END OF HEADER       
 21  8 31  2 34 58.0000000  0 13G 3G16G22G26G29G31G32R 7R 9R16E 7E21
                                E27
  21851819.010   114832098.676                    89479572.364    21851819.903  
  21851817.223    85751238.995  
  21212978.227   111474982.602    21212976.994    86863626.291                  
                                
  22308004.445   117229365.843    22308000.638    91347553.249                  
                                
  20037481.241   105297714.649                    82050200.401    20037482.009  
  20037477.846    78631444.882  
  24187268.969   127104983.912                    99042801.269    24187268.344  
                                
  21397119.652   112442689.664                    87617697.055    21397117.686  
                                
  23331699.452   122608907.954                    95539408.745    23331700.346  
  23331697.844    91558583.435  
  19243675.609   103012917.537    19243672.607    80121139.327                  
                                
  19593873.954   104630252.197    19593869.165    81379095.486                  
                                
  22195735.142   118565665.290    22195731.426    92217731.983                  
                                
  26893439.721   141325975.149                                                  
                                
  23859322.650   125381645.513                                                  
                                
  24126956.835   126788084.379                                                  
                                
 21  8 31  2 34 59.0000000  0 13G 3G16G22G26G29G31G32R 7R 9R16E 7E21
                                E27
  21851878.889   114832413.657                    89479817.793    21851879.586  
  21851877.155    85751474.203  
  21212457.130   111472242.699    21212455.629    86861491.304                  
                                
  22308293.172   117230883.774    22308289.581    91348736.042                  
                                
  20037469.304   105297652.236                    82050151.768    20037470.287  
  20037466.016    78631398.275  
  24187322.451   127105265.616                    99043020.777    24187321.325  
                                
  21397454.035   112444446.228                    87619065.801    21397451.569  
                                
  23332262.666   122611866.599                    95541714.169    23332263.149  
  23332260.951    91560792.842  
  19243582.422   103012419.333    19243579.384    80120751.840                  
                                
  19594068.798   104631294.519    19594064.259    81379906.180                  
                                
  22196365.937   118569032.010    22196361.845    92220350.549                  
                                
  26893927.367   141328536.233                                                  
                                
  23859116.209   125380560.721                                                  
                                
  24127252.049   126789635.121                                                  
                                
 21  8 31  2 35  0.0000000  0 13G 3G16G22G26G29G31G32R 7R 9R16E 7E21
                                E27
  21851938.893   114832729.360                    89480063.797    21851939.590  
  21851937.195    85751709.953  
  21211935.909   111469503.385    21211934.426    86859356.774                  
                                
  22308582.132   117232402.251    22308578.505    91349919.275                  
                                
  20037457.689   105297590.499                    82050103.662    20037458.297  
  20037454.241    78631352.170  
  24187376.380   127105547.984                    99043240.812    24187375.629  
                                
  21397788.275   112446203.032                    87620434.735    21397786.220  
                                
  23332825.969   122614825.592                    95544019.875    23332825.058  
  23332823.932    91563002.468  
  19243489.307   103011922.075    19243486.680    80120365.090                  
                                
  19594264.392   104632337.392    19594259.710    81380717.309                  
                                
  22196996.624   118572398.821    22196991.942    92222969.186                  
                                
  26894414.280   141331097.592                                                  
                                
  23858909.769   125379476.363                                                  
                                
  24127547.210   126791186.188                                                  
                                
 21  8 31  2 35  1.0000000  0 13G 3G16G22G26G29G31G32R 7R 9R16E 7E21
                                E27
  21851999.129   114833045.664                    89480310.297    21852000.130  
  21851997.432    85751946.150  
  21211414.669   111466764.524    21211413.293    86857222.599                  
                                
  22308871.056   117233921.178    22308867.554    91351102.854                  
                                
  20037446.074   105297529.339                    82050056.010    20037446.664  
  20037442.590    78631306.503  
  24187430.362   127105830.900                    99043461.289    24187429.576  
                                
  21398122.569   112447959.939                    87621803.749    21398120.371  
                                
  23333389.022   122617784.816                    95546325.714    23333388.611  
  23333386.949    91565212.273  
  19243397.210   103011425.620    19243393.922    80119978.954                  
                                
  19594459.915   104633380.647    19594455.072    81381528.727                  
                                
  22197626.310   118575765.622    22197622.397    92225587.805                  
                                
  26894901.711   141333659.031                                                  
                                
  23858703.596   125378392.298                                                  
                                
  24127842.352   126792737.464                                                  
                                
 21  8 31  2 35  2.0000000  0 13G 3G16G22G26G29G31G32R 7R 9R16E 7E21
                                E27
  21852059.437   114833362.637                    89480557.274    21852060.420  
  21852057.686    85752182.855  
  21210893.823   111464026.170    21210892.197    86855088.819                  
                                
  22309160.267   117235440.559    22309156.550    91352286.787                  
                                
  20037434.549   105297468.804                    82050008.831    20037435.478  
  20037431.082    78631261.292  
  24187483.862   127106114.432                    99043682.208    24187483.201  
                                
  21398457.131   112449716.993                    87623172.886    21398454.951  
                                
  23333952.272   122620744.283                    95548631.833    23333951.521  
  23333950.127    91567422.285  
  19243304.130   103010929.987    19243301.253    80119593.466                  
                                
  19594655.438   104634424.383    19594650.417    81382340.523                  
                                
  22198256.426   118579132.432    22198252.602    92228206.435                  
                                
  26895388.981   141336220.652                                                  
                                
  23858497.226   125377308.603                                                  
                                
  24128137.513   126794289.006                                                  
                                
 21  8 31  2 35  3.0000000  0 13G 3G16G22G26G29G31G32R 7R 9R16E 7E21
                                E27
  21852119.763   114833680.244                    89480804.762    21852120.549  
  21852118.209    85752420.029  
  21210372.673   111461288.309    21210371.279    86852955.423                  
                                
  22309449.423   117236960.421    22309445.760    91353471.096                  
                                
  20037423.113   105297408.865                    82049962.132    20037423.899  
  20037419.700    78631216.539  
  24187538.327   127106398.528                    99043903.620    24187537.755  
                                
  21398791.514   112451474.214                    87624542.159    21398789.280  
                                
  23334515.521   122623704.029                    95550938.109    23334514.092  
  23334513.359    91569632.481  
  19243211.836   103010435.168    19243208.888    80119208.602                  
                                
  19594851.139   104635468.532    19594846.029    81383152.640                  
                                
  22198887.184   118582499.243    22198882.806    92230825.065                  
                                
  26895876.520   141338782.473                                                  
                                
  23858291.089   125376225.243                                                  
                                
  24128432.924   126795840.801                                                  
                                
 21  8 31  2 35  4.0000000  0 13G 3G16G22G26G29G31G32R 7R 9R16E 7E21
                                E27
  21852180.446   114833998.541                    89481052.778    21852181.161  
  21852178.767    85752657.716  
  21209851.809   111458550.958    21209850.308    86850822.425                  
                                
  22309738.329   117238480.782    22309734.934    91354655.795                  
                                
  20037411.873   105297349.557                    82049915.923    20037412.356  
  20037408.389    78631172.250  
  24187592.881   127106683.304                    99044125.505    24187591.612  
                                
  21399125.914   112453231.602                    87625911.552    21399123.842  
                                
  23335078.485   122626664.057                    95553244.581    23335077.377  
  23335076.698    91571842.894  
  19243120.043   103009941.191    19243116.630    80118824.403                  
                                
  19595046.484   104636513.168    19595041.695    81383965.139                  
                                
  22199517.318   118585866.080    22199513.029    92233443.723                  
                                
  26896364.255   141341344.466                                                  
                                
  23858084.952   125375142.262                                                  
                                
  24128727.905   126797392.860                                                  
                                
 21  8 31  2 35  5.0000000  0 13G 3G16G22G26G29G31G32R 7R 9R16E 7E21
                                E27
  21852241.130   114834317.460                    89481301.291    21852241.880  
  21852239.396    85752895.869  
  21209331.106   111455814.101    21209329.408    86848689.809                  
                                
  22310027.665   117240001.595    22310024.377    91355840.844                  
                                
  20037400.705   105297290.853                    82049870.173    20037401.527  
  20037397.167    78631128.413  
  24187647.024   127106968.653                    99044347.848    24187646.595  
                                
  21399460.280   112454989.123                    87627281.053    21399458.225  
                                
  23335641.877   122629624.347                    95555551.309    23335641.716  
  23335639.751    91574053.503  
  19243027.678   103009448.057    19243024.569    80118440.857                  
                                
  19595241.971   104637558.227    19595237.217    81384777.965                  
                                
  22200147.897   118589232.965    22200143.234    92236062.414                  
                                
  26896851.775   141343906.618                                                  
                                
  23857878.887   125374059.620                                                  
                                
  24129023.513   126798945.166                                                  
                                
 21  8 31  2 35  6.0000000  0 13G 3G16G22G26G29G31G32R 7R 9R16E 7E21
                                E27
  21852302.045   114834637.077                    89481550.344    21852302.760  
  21852300.240    85753134.551  
  21208810.331   111453077.801    21208808.883    86846557.622                  
                                
  22310317.625   117241522.949    22310313.944    91357026.319                  
                                
  20037389.590   105297232.810                    82049824.946    20037390.252  
  20037386.213    78631085.071  
  24187701.167   127107254.647                    99044570.698    24187700.559  
                                
  21399794.823   112456746.863                    87628650.710    21399792.661  
                                
  23336205.216   122632584.935                    95557858.249    23336204.465  
  23336203.215    91576264.324  
  19242935.134   103008955.838    19242932.633    80118058.015                  
                                
  19595437.315   104638603.802    19595433.080    81385591.185                  
                                
  22200778.245   118592599.945    22200773.563    92238681.176                  
                                
  26897339.367   141346469.020                                                  
                                
  23857673.000   125372977.375                                                  
                                
  24129319.013   126800497.788                                                  
                                
 21  8 31  2 35  7.0000000  0 13G 3G16G22G26G29G31G32R 7R 9R16E 7E21
                                E27
  21852363.050   114834957.328                    89481799.888    21852363.925  
  21852361.120    85753373.698  
  21208289.931   111450341.968    21208288.269    86844425.816                  
                                
  22310607.246   117243044.742    22310603.494    91358212.134                  
                                
  20037378.690   105297175.348                    82049780.180    20037379.209  
  20037375.242    78631042.161  
  24187755.632   127107541.211                    99044793.997    24187755.435  
                                
  21400129.349   112458504.727                    87630020.478    21400127.670  
                                
  23336768.591   122635545.799                    95560165.400    23336767.358  
  23336766.643    91578475.365  
  19242843.860   103008464.418    19242840.840    80117675.789                  
                                
  19595634.267   104639649.768    19595628.889    81386404.714                  
                                
  22201407.735   118595966.970    22201403.911    92241299.966                  
                                
  26897826.620   141349031.524                                                  
                                
  23857466.970   125371895.462                                                  
                                
  24129614.423   126802050.622                                                  
                                
 21  8 31  2 35  8.0000000  0 13G 3G16G22G26G29G31G32R 7R 9R16E 7E21
                                E27
  21852424.073   114835278.260                    89482049.964    21852425.377  
  21852422.268    85753613.350  
  21207769.335   111447606.672    21207767.798    86842294.412                  
                                
  22310896.903   117244567.022    22310893.151    91359398.324                  
                                
  20037367.951   105297118.540                    82049735.904    20037368.523  
  20037364.467    78630999.737  
  24187810.240   127107828.402                    99045017.771    24187810.597  
                                
  21400464.001   112460262.752                    87631390.377    21400462.071  
                                
  23337332.197   122638506.928                    95562472.800    23337331.715  
  23337329.964    91580686.602  
  19242752.227   103007973.840    19242749.136    80117294.227                  
                                
  19595829.701   104640696.205    19595824.858    81387218.607                  
                                
  22202038.226   118599334.052    22202034.241    92243918.812                  
                                
  26898314.462   141351594.272                                                  
                                
  23857261.047   125370813.927                                                  
                                
  24129910.102   126803603.741                                                  
                                
 21  8 31  2 35  9.0000000  0 13G 3G16G22G26G29G31G32R 7R 9R16E 7E21
                                E27
  21852485.203   114835599.858                    89482300.565    21852486.167  
  21852483.505    85753853.502  
  21207249.293   111444871.889    21207247.345    86840163.421                  
                                
  22311186.667   117246089.807    22311182.861    91360584.907                  
                                
  20037357.158   105297062.348                    82049692.119    20037357.676  
  20037353.763    78630957.769  
  24187864.901   127108116.237                    99045242.037    24187864.490  
                                
  21400798.491   112462020.965                    87632760.399    21400796.472  
                                
  23337895.661   122641468.338                    95564780.381    23337894.964  
  23337893.606    91582898.023  
  19242660.916   103007484.126    19242657.521    80116913.340                  
                                
  19596026.171   104641743.145    19596020.899    81388032.897                  
                                
  22202668.984   118602701.142    22202664.535    92246537.658                  
                                
  26898802.537   141354157.163                                                  
                                
  23857055.411   125369732.764                                                  
                                
  24130205.727   126805157.138                                                  
                                
 21  8 31  2 35 10.0000000  0 13G 3G16G22G26G29G31G32R 7R 9R16E 7E21
                                E27
  21852546.386   114835922.057                    89482551.625    21852547.119  
  21852544.849    85754094.106  
  21206728.590   111442137.573    21206727.124    86838032.783                  
                                
  22311476.682   117247613.029    22311472.768    91361771.834                  
                                
  20037346.508   105297006.719                    82049648.779    20037347.294  
  20037343.202    78630916.233  
  24187919.920   127108404.575                    99045466.744    24187919.920  
                                
  21401133.142   112463779.278                    87634130.531    21401131.355  
                                
  23338459.125   122644429.980                    95567088.120    23338459.626  
  23338457.142    91585109.649  
  19242569.373   103006995.198    19242566.282    80116533.054                  
                                
  19596222.015   104642790.468    19596216.994    81388847.479                  
                                
  22203299.100   118606068.194    22203294.811    92249156.474                  
                                
  26899290.129   141356720.236                                                  
                                
  23856849.899   125368651.896                                                  
                                
  24130501.388   126806710.749                                                  
                                
 21  8 31  2 35 11.0000000  0 13G 3G16G22G26G29G31G32R 7R 9R16E 7E21
                                E27
  21852607.927   114836244.952                    89482803.247    21852608.481  
  21852606.176    85754335.233  
  21206208.440   111439403.809    21206206.975    86835902.577                  
                                
  22311766.142   117249136.753    22311762.693    91362959.151                  
                                
  20037336.037   105296951.757                    82049605.946    20037336.930  
  20037332.695    78630875.192  
  24187974.831   127108693.580                    99045691.934    24187974.241  
                                
  21401467.829   112465537.790                    87635500.789    21401465.506  
                                
  23339023.536   122647391.939                    95569396.122    23339022.535  
  23339020.713    91587321.484  
  19242478.188   103006507.152    19242475.061    80116153.460                  
                                
  19596417.734   104643838.297    19596413.214    81389662.452                  
                                
  22203929.626   118609435.270    22203925.266    92251775.308                  
                                
  26899777.846   141359283.471                                                  
                                
  23856644.191   125367571.435                                                  
                                
  24130797.013   126808264.648                                                  
                                
 21  8 31  2 35 12.0000000  0 13G 3G16G22G26G29G31G32R 7R 9R16E 7E21
                                E27
  21852669.522   114836568.534                    89483055.375    21852670.022  
  21852667.735    85754576.866  
  21205688.327   111436670.552    21205686.808    86833772.767                  
                                
  22312056.335   117250660.979    22312052.743    91364146.858                  
                                
  20037325.744   105296897.426                    82049563.617    20037326.531  
  20037322.331    78630834.616  
  24188029.492   127108983.219                    99045917.628    24188029.224  
                                
  21401802.337   112467296.475                    87636871.198    21401800.085  
                                
  23339587.214   122650354.185                    95571704.366    23339586.071  
  23339584.641    91589533.556  
  19242387.485   103006019.978    19242384.018    80115774.550                  
                                
  19596614.526   104644886.577    19596609.487    81390477.776                  
                                
  22204560.277   118612802.400    22204555.757    92254394.196                  
                                
  26900265.402   141361846.873                                                  
                                
  23856438.554   125366491.349                                                  
                                
  24131092.763   126809818.823                                                  
                                
 21  8 31  2 35 13.0000000  0 13G 3G16G22G26G29G31G32R 7R 9R16E 7E21
                                E27
  21852731.188   114836892.755                    89483308.031    21852731.670  
  21852729.561    85754818.982  
  21205167.927   111433937.812    21205166.730    86831643.363                  
                                
  22312346.653   117252185.695    22312342.829    91365334.953                  
                                
  20037315.505   105296843.714                    82049521.745    20037316.149  
  20037312.092    78630794.504  
  24188085.422   127109273.466                    99046143.788    24188084.797  
                                
  21402136.970   112469055.331                    87638241.726    21402135.022  
                                
  23340150.857   122653316.681                    95574012.818    23340149.964  
  23340148.212    91591745.803  
  19242296.496   103005533.639    19242293.154    80115396.281                  
                                
  19596811.103   104645935.312    19596805.832    81391293.462                  
                                
  22205190.482   118616169.633    22205186.122    92257013.154                  
                                
  26900753.280   141364410.484                                                  
                                
  23856233.168   125365411.607                                                  
                                
  24131388.531   126811373.265                                                  
                                
 21  8 31  2 35 14.0000000  0 13G 3G16G22G26G29G31G32R 7R 9R16E 7E21
                                E27
  21852793.050   114837217.608                    89483561.163    21852793.658  
  21852791.353    85755061.564  
  21204648.081   111431205.547    21204646.795    86829514.323                  
                                
  22312636.935   117253710.854    22312633.093    91366523.386                  
                                
  20037305.517   105296790.571                    82049480.351    20037306.339  
  20037302.014    78630754.821  
  24188140.423   127109564.261                    99046370.372    24188140.691  
                                
  21402471.764   112470814.292                    87639612.354    21402469.638  
                                
  23340714.142   122656279.459                    95576321.423    23340713.749  
  23340712.034    91593958.256  
  19242205.810   103005048.083    19242202.433    80115018.626                  
                                
  19597007.984   104646984.457    19597002.320    81392109.461                  
                                
  22205820.544   118619536.918    22205816.398    92259632.153                  
                                
  26901241.229   141366974.253                                                  
                                
  23856027.906   125364332.200                                                  
                                
  24131684.335   126812927.915                                                  
                                
 21  8 31  2 35 15.0000000  0 13G 3G16G22G26G29G31G32R 7R 9R16E 7E21
                                E27
  21852854.966   114837543.167                    89483814.836    21852855.627  
  21852853.304    85755304.677  
  21204128.593   111428473.816    21204126.896    86827385.704                  
                                
  22312927.217   117255236.533    22312923.376    91367712.222                  
                                
  20037295.564   105296738.106                    82049439.463    20037296.028  
  20037292.043    78630715.645  
  24188195.799   127109855.728                    99046597.512    24188195.514  
                                
  21402806.486   112472573.464                    87640983.135    21402804.485  
                                
  23341277.999   122659242.480                    95578630.303    23341277.678  
  23341275.962    91596170.927  
  19242115.357   103004563.397    19242111.926    80114641.651                  
                                
  19597204.257   104648034.069    19597198.915    81392925.826                  
                                
  22206451.160   118622904.292    22206446.835    92262251.224                  
                                
  26901729.018   141369540.2111                                                 
                                
  23855822.555   125363253.185                                                  
                                
  24131980.068   126814482.888                                                  
                                
 21  8 31  2 35 16.0000000  0 13G 3G16G22G26G29G31G32R 7R 9R16E 7E21
                                E27
  21852917.007   114837869.381                    89484069.035    21852917.972  
  21852915.453    85755548.278  
  21203608.605   111425742.625    21203607.193    86825257.506                  
                                
  22313217.678   117256762.719    22313213.872    91368901.462                  
                                
  20037285.628   105296686.275                    82049399.075    20037286.129  
  20037282.108    78630676.938  
  24188251.336   127110147.837                    99046825.096    24188251.158  
                                
  21403141.406   112474332.807                    87642354.050    21403139.029  
                                
  23341841.928   122662205.847                    95580939.374    23341841.660  
  23341839.909    91598383.816  
  19242024.940   103004079.601    19242021.581    80114265.365                  
                                
  19597400.602   104649084.177    19597395.545    81393742.576                  
                                
  22207081.757   118626271.702    22207077.308    92264870.316                  
                                
  26902216.449   141372104.379                                                  
                                
  23855617.330   125362174.544                                                  
                                
  24132276.086   126816038.120                                                  
                                
 21  8 31  2 35 17.0000000  0 13G 3G16G22G26G29G31G32R 7R 9R16E 7E21
                                E27
  21852979.245   114838196.220                    89484323.711    21852980.157  
  21852977.583    85755792.339  
  21203089.206   111423011.880    21203087.633    86823129.655                  
                                
  22313508.264   117258289.316    22313504.315    91370091.009                  
                                
  20037275.890   105296634.986                    82049359.121    20037276.444  
  20037272.388    78630638.645  
  24188307.320   127110440.466                    99047053.137    24188306.373  
                                
  21403476.146   112476092.264                    87643725.062    21403474.180  
                                
  23342405.856   122665169.405                    95583248.679    23342405.535  
  23342403.873    91600596.863  
  19241934.398   103003596.619    19241931.271    80113889.710                  
                                
  19597597.054   104650134.707    19597592.319    81394559.660                  
                                
  22207711.658   118629639.061    22207707.763    92267489.366                  
                                
  26902704.220   141374668.646                                                  
                                
  23855411.979   125361096.210                                                  
                                
  24132572.122   126817593.577                                                  
                                
 21  8 31  2 35 18.0000000  0 13G 3G16G22G26G29G31G32R 7R 9R16E 7E21
                                E27
  21853041.483   114838523.710                    89484578.896    21853042.341  
  21853039.911    85756036.896  
  21202569.074   111420281.643    21202568.038    86821002.204                  
                                
  22313798.779   117259816.400    22313794.812    91371280.947                  
                                
  20037266.366   105296584.335                    82049319.650    20037266.973  
  20037262.756    78630600.816  
  24188363.464   127110733.706                    99047281.637    24188361.767  
                                
  21403810.851   112477851.868                    87645096.193    21403808.617  
                                
  23342970.303   122668133.239                    95585558.149    23342969.946  
  23342967.873    91602810.116  
  19241844.427   103003114.501    19241841.264    80113514.734                  
                                
  19597794.382   104651185.686    19597789.146    81395377.086                  
                                
  22208341.988   118633006.399    22208338.218    92270108.414                  
                                
  26903192.544   141377233.099                                                  
                                
  23855206.825   125360018.235                                                  
                                
  24132868.247   126819149.283                                                  
                                
 21  8 31  2 35 19.0000000  0 13G 3G16G22G26G29G31G32R 7R 9R16E 7E21
                                E27
  21853103.953   114838851.890                    89484834.627    21853105.133  
  21853102.327    85756281.965  
  21202050.319   111417551.948    21202048.496    86818875.167                  
                                
  22314089.026   117261343.997    22314085.505    91372471.287                  
                                
  20037256.788   105296534.338                    82049280.689    20037257.324  
  20037253.268    78630563.481  
  24188419.198   127111027.603                    99047510.652    24188418.644  
                                
  21404145.573   112479611.674                    87646467.464    21404143.858  
                                
  23343533.928   122671097.405                    95587867.845    23343533.785  
  23343532.051    91605023.596  
  19241754.528   103002633.261    19241751.383    80113140.438                  
                                
  19597990.870   104652237.138    19597986.063    81396194.882                  
                                
  22208972.461   118636373.821    22208968.691    92272727.515                  
                                
  26903680.565   141379797.792                                                  
                                
  23855001.777   125358940.664                                                  
                                
  24133164.355   126820705.298                                                  
                                
 21  8 31  2 35 20.0000000  0 13G 3G16G22G26G29G31G32R 7R 9R16E 7E21
                                E27
  21853166.584   114839180.692                    89485090.834    21853167.728  
  21853164.833    85756527.495  
  21201530.955   111414822.735    21201529.079    86816748.508                  
                                
  22314380.076   117262872.044    22314376.413    91373661.970                  
                                
  20037247.282   105296484.925                    82049242.178    20037248.300  
  20037243.761    78630526.583  
  24188475.664   127111322.086                    99047740.097    24188474.788  
                                
  21404480.742   112481371.586                    87647838.822    21404478.848  
                                
  23344097.767   122674061.752                    95590177.763    23344097.427  
  23344095.944    91607237.250  
  19241664.969   103002152.804    19241661.627    80112766.750                  
                                
  19598188.322   104653289.014    19598183.051    81397013.005                  
                                
  22209603.077   118639741.246    22209599.128    92275346.628                  
                                
  26904168.693   141382362.597                                                  
                                
  23854797.052   125357863.396                                                  
                                
  24133460.516   126822261.518                                                  
                                
 21  8 31  2 35 21.0000000  0 13G 3G16G22G26G29G31G32R 7R 9R16E 7E21
                                E27
  21853229.197   114839510.166                    89485347.569    21853230.466  
  21853227.500    85756773.540  
  21201011.414   111412094.056    21201009.841    86814622.264                  
                                
  22314671.037   117264400.586    22314667.196    91374853.047                  
                                
  20037237.900   105296436.137                    82049204.166    20037238.311  
  20037234.505    78630490.155  
  24188531.308   127111617.157                    99047970.047    24188530.915  
                                
  21404815.501   112483131.701                    87649210.346    21404813.356  
                                
  23344661.820   122677026.411                    95592487.879    23344662.196  
  23344660.248    91609451.125  
  19241575.070   103001673.209    19241571.996    80112393.736                  
                                
  19598384.935   104654341.375    19598380.146    81397831.511                  
                                
  22210232.995   118643108.739    22210229.672    92277965.784                  
                                
  26904657.107   141384927.645                                                  
                                
  23854591.969   125356786.521                                                  
                                
  24133756.624   126823818.038                                                  
                                
 21  8 31  2 35 22.0000000  0 13G 3G16G22G26G29G31G32R 7R 9R16E 7E21
                                E27
  21853292.096   114839840.294                    89485604.812    21853293.097  
  21853290.363    85757020.055  
  21200492.390   111409365.870    21200490.496    86812496.403                  
                                
  22314961.802   117265929.601    22314958.246    91376044.490                  
                                
  20037228.751   105296387.956                    82049166.628    20037229.341  
  20037225.267    78630454.174  
  24188587.506   127111912.843                    99048200.453    24188587.935  
                                
  21405150.491   112484891.947                    87650581.960    21405148.508  
                                
  23345227.304   122679991.345                    95594798.222    23345226.589  
  23345224.462    91611665.195  
  19241485.742   103001194.423    19241482.562    80112021.347                  
                                
  19598582.263   104655394.152    19598577.188    81398650.337                  
                                
  22210862.968   118646476.271    22210860.109    92280584.971                  
                                
  26905144.753   141387492.776                                                  
                                
  23854387.190   125355709.986                                                  
                                
  24134052.964   126825374.780                                                  
                                
 21  8 31  2 35 23.0000000  0 13G 3G16G22G26G29G31G32R 7R 9R16E 7E21
                                E27
  21853355.067   114840171.065                    89485862.563    21853355.781  
  21853353.298    85757267.062  
  21199973.438   111406638.177    21199971.347    86810370.928                  
                                
  22315253.175   117267459.083    22315249.243    91377236.296                  
                                
  20037219.656   105296340.377                    82049129.557    20037220.532  
  20037216.279    78630418.646  
  24188643.597   127112209.100                    99048431.304    24188644.044  
                                
  21405485.589   112486652.346                    87651953.704    21405483.409  
                                
  23345791.286   122682956.518                    95597108.737    23345790.982  
  23345788.802    91613879.462  
  19241396.629   103000716.493    19241393.288    80111649.621                  
                                
  19598779.269   104656447.390    19598774.444    81399469.522                  
                                
  22211493.315   118649843.851    22211490.617    92283204.205                  
                                
  26905632.953   141390058.103                                                  
                                
  23854182.358   125354633.792                                                  
                                
  24134349.178   126826931.778                                                  
                                
 21  8 31  2 35 24.0000000  0 13G 3G16G22G26G29G31G32R 7R 9R16E 7E21
                                E27
  21853418.091   114840502.502                    89486120.825    21853419.109  
  21853416.232    85757514.568  
  21199454.271   111403911.033    21199452.502    86808245.885                  
                                
  22315544.350   117268989.072    22315540.330    91378428.493                  
                                
  20037210.686   105296293.455                    82049092.990    20037211.740  
  20037207.362    78630383.603  
  24188700.206   127112506.013                    99048662.685    24188700.403  
                                
  21405820.687   112488412.927                    87653325.586    21405818.686  
                                
  23346355.893   122685922.030                    95599419.528    23346354.446  
  23346352.963    91616093.929  
  19241307.981   103000239.426    19241304.086    80111278.571                  
                                
  19598977.025   104657501.085    19598971.754    81400289.072                  
                                
  22212124.807   118653211.512    22212121.108    92285823.494                  
                                
  26906121.206   141392623.647                                                  
                                
  23853977.650   125353557.988                                                  
                                
  24134645.554   126828489.078                                                  
                                
 21  8 31  2 35 25.0000000  0 13G 3G16G22G26G29G31G32R 7R 9R16E 7E21
                                E27
  21853481.222   114840834.609                    89486379.607    21853482.097  
  21853479.435    85757762.563  
  21198935.390   111401184.379    21198933.443    86806121.221                  
                                
  22315835.455   117270519.542    22315831.666    91379621.072                  
                                
  20037201.876   105296247.135                    82049056.894    20037202.538  
  20037198.428    78630349.019  
  24188757.048   127112803.545                    99048894.504    24188757.048  
                                
  21406155.731   112490173.658                    87654697.588    21406153.819  
                                
  23346920.090   122688887.739                    95601730.486    23346919.607  
  23346917.445    91618308.628  
  19241218.725   102999763.205    19241215.170    80110908.177                  
                                
  19599174.138   104658555.250    19599169.117    81401108.978                  
                                
  22212755.011   118656579.151    22212751.741    92288442.772                  
                                
  26906609.673   141395189.353                                                  
                                
  23853773.068   125352482.527                                                  
                                
  24134942.055   126830046.616                                                  
                                
 21  8 31  2 35 26.0000000  0 13G 3G16G22G26G29G31G32R 7R 9R16E 7E21
                                E27
  21853544.478   114841167.334                    89486638.869    21853545.640  
  21853542.745    85758011.029  
  21198417.082   111398458.197    21198414.669    86803996.921                  
                                
  22316126.541   117272050.441    22316123.092    91380813.984                  
                                
  20037193.210   105296201.410                    82049021.267    20037194.050  
  20037189.850    78630314.868  
  24188813.389   127113101.635                    99049126.807    24188813.532  
                                
  21406490.936   112491934.512                    87656069.677    21406488.613  
                                
  23347484.250   122691853.742                    95604041.671    23347484.376  
  23347482.053    91620523.482  
  19241129.577   102999287.782    19241126.378    80110538.402                  
                                
  19599371.555   104659609.840    19599366.767    81401929.217                  
                                
  22213385.788   118659946.767    22213382.125    92291062.021                  
                                
  26907097.998   141397755.208                                                  
                                
  23853568.467   125351407.404                                                  
                                
  24135238.359   126831604.388                                                  
                                
 21  8 31  2 35 27.0000000  0 13G 3G16G22G26G29G31G32R 7R 9R16E 7E21
                                E27
  21853607.931   114841500.764                    89486898.698    21853609.021  
  21853606.180    85758260.027  
  21197897.647   111395732.593    21197895.789    86801873.074                  
                                
  22316418.271   117273581.883    22316414.482    91382007.315                  
                                
  20037184.579   105296156.352                    82048986.134    20037185.473  
  20037181.255    78630281.216  
  24188870.319   127113400.377                    99049359.579    24188870.587  
                                
  21406825.766   112493695.583                    87657441.943    21406824.158  
                                
  23348048.804   122694820.064                    95606353.079    23348047.750  
  23348046.338    91622738.591  
  19241040.857   102998813.257    19241037.623    80110169.322                  
                                
  19599569.348   104660664.909    19599564.326    81402749.826                  
                                
  22214015.939   118663314.463    22214012.455    92293681.333                  
                                
  26907585.733   141400321.278                                                  
                                
  23853363.778   125350332.692                                                  
                                
  24135534.949   126833162.469                                                  
                                
 21  8 31  2 35 28.0000000  0 13G 3G16G22G26G29G31G32R 7R 9R16E 7E21
                                E27
  21853671.545   114841834.859                    89487159.030    21853672.903  
  21853669.704    85758509.505  
  21197379.070   111393007.500    21197377.337    86799749.630                  
                                
  22316709.339   117275113.808    22316705.890    91383201.026                  
                                
  20037176.056   105296111.895                    82048951.506    20037176.735  
  20037172.750    78630248.020  
  24188926.928   127113699.749                    99049592.847    24188927.607  
                                
  21407160.935   112495456.813                    87658814.339    21407158.648  
                                
  23348613.358   122697786.648                    95608664.705    23348612.393  
  23348611.017    91624953.888  
  19240952.012   102998339.577    19240949.153    80109800.908                  
                                
  19599766.890   104661720.449    19599761.994    81403570.802                  
                                
  22214646.179   118666682.177    22214642.838    92296300.662                  
                                
  26908074.808   141402887.523                                                  
                                
  23853159.303   125349258.340                                                  
                                
  24135831.521   126834720.808                                                  
                                
 21  8 31  2 35 29.0000000  0 13G 3G16G22G26G29G31G32R 7R 9R16E 7E21
                                E27
  21853735.212   114842169.589                    89487419.854    21853736.731  
  21853733.407    85758759.468  
  21196860.904   111390282.894    21196858.867    86797626.560                  
                                
  22317001.355   117276646.192    22316997.459    91384395.087                  
                                
  20037167.747   105296068.054                    82048917.344    20037168.461  
  20037164.476    78630215.286  
  24188984.091   127113999.691                    99049826.574    24188984.431  
                                
  21407496.104   112497218.183                    87660186.821    21407494.389  
                                
  23349177.769   122700753.486                    95610976.553    23349177.215  
  23349175.661    91627169.385  
  19240863.739   102997866.739    19240860.952    80109433.149                  
                                
  19599965.325   104662776.425    19599959.750    81404392.112                  
                                
  22215277.510   118670049.954    22215273.400    92298920.046                  
                                
  26908562.132   141405453.960                                                  
                                
  23852954.988   125348184.309                                                  
                                
  24136128.075   126836279.390                                                  
                                
 21  8 31  2 35 30.0000000  0 13G 3G16G22G26G29G31G32R 7R 9R16E 7E21
                                E27
  21853799.076   114842505.017                    89487681.220    21853800.506  
  21853797.182    85759009.954  
  21196342.649   111387558.816    21196340.379    86795503.900                  
                                
  22317292.852   117278179.078    22317289.296    91385589.543                  
                                
  20037159.563   105296024.862                    82048883.681    20037160.152  
  20037156.203    78630183.021  
  24189041.808   127114300.249                    99050060.778    24189042.005  
                                
  21407831.202   112498979.741                    87661559.464    21407829.665  
                                
  23349742.520   122703720.610                    95613288.542    23349741.483  
  23349740.501    91629385.098  
  19240775.877   102997394.790    19240772.750    80109066.077                  
                                
  19600162.760   104663832.866    19600157.614    81405213.793                  
                                
  22215907.464   118673417.799    22215903.801    92301539.489                  
                                
  26909050.385   141408020.587                                                  
                                
  23852750.709   125347110.676                                                  
                                
  24136424.540   126837838.266                                                  
                                
 21  8 31  2 35 31.0000000  0 13G 3G16G22G26G29G31G32R 7R 9R16E 7E21
                                E27
  21853862.976   114842841.064                    89487943.084    21853864.155  
  21853861.117    85759260.901  
  21195824.179   111384835.246    21195821.981    86793381.642                  
                                
  22317584.635   117279712.444    22317581.169    91386784.372                  
                                
  20037151.414   105295982.268                    82048850.489    20037151.897  
  20037148.091    78630151.219  
  24189099.329   127114601.409                    99050295.470    24189099.204  
                                
  21408166.907   112500741.449                    87662932.223    21408164.799  
                                
  23350307.056   122706688.001                    95615600.831    23350306.412  
  23350305.233    91631601.007  
  19240687.783   102996923.648    19240684.513    80108699.638                  
                                
  19600360.338   104664889.775    19600355.460    81406035.833                  
                                
  22216537.937   118676785.665    22216534.310    92304158.947                  
                                
  26909538.746   141410587.322                                                  
                                
  23852546.413   125346037.387                                                  
                                
  24136721.255   126839397.380                                                  
                                
 21  8 31  2 35 32.0000000  0 13G 3G16G22G26G29G31G32R 7R 9R16E 7E21
                                E27
  21853927.090   114843177.736                    89488205.430    21853928.984  
  21853925.196    85759512.303  
  21195305.995   111382112.128    21195303.797    86791259.729                  
                                
  22317876.240   117281246.219    22317873.059    91387979.523                  
                                
  20037143.409   105295940.244                    82048817.748    20037144.159  
  20037140.050    78630119.844  
  24189156.885   127114903.137                    99050530.554    24189157.510  
                                
  21408502.148   112502503.251                    87664305.054    21408499.879  
                                
  23350871.449   122709655.605                    95617913.253    23350871.270  
  23350869.859    91633817.088  
  19240600.404   102996453.304    19240596.651    80108333.817                  
                                
  19600558.112   104665947.069    19600553.520    81406858.166                  
                                
  22217167.749   118680153.529    22217164.640    92306778.396                  
                                
  26910028.250   141413154.243                                                  
                                
  23852342.259   125344964.409                                                  
                                
  24137018.024   126840956.704                                                  
                                
 21  8 31  2 35 33.0000000  0 13G 3G16G22G26G29G31G32R 7R 9R16E 7E21
                                E27
  21853991.240   114843515.127                    89488468.323    21853991.883  
  21853989.488    85759764.258  
  21194787.990   111379389.593    21194785.524    86789138.279                  
                                
  22318168.523   117282780.560    22318164.968    91389175.118                  
                                
  20037135.475   105295898.877                    82048785.518    20037136.333  
  20037132.223    78630088.955  
  24189214.477   127115205.541                    99050766.186    24189214.709  
                                
  21408837.246   112504265.278                    87665678.071    21408835.316  
                                
  23351436.128   122712623.550                    95620225.931    23351435.431  
  23351434.591    91636033.400  
  19240511.827   102995983.896    19240509.075    80107968.717                  
                                
  19600756.458   104667004.863    19600751.652    81407680.904                  
                                
  22217798.364   118683521.490    22217794.844    92309397.927                  
                                
  26910516.271   141415721.360                                                  
                                
  23852138.195   125343891.853                                                  
                                
  24137315.043   126842516.358                                                  
                                
 21  8 31  2 35 34.0000000  0 13G 3G16G22G26G29G31G32R 7R 9R16E 7E21
                                E27
  21854055.461   114843853.120                    89488731.694    21854056.837  
  21854053.763    85760016.655  
  21194269.574   111376667.499    21194267.573    86787017.166                  
                                
  22318460.503   117284315.311    22318456.947    91390371.026                  
                                
  20037127.666   105295858.097                    82048753.741    20037128.953  
  20037124.450    78630058.509  
  24189272.051   127115508.494                    99051002.242    24189273.069  
                                
  21409172.630   112506027.418                    87667051.158    21409170.432  
                                
  23352001.593   122715591.710                    95622538.803    23352000.539  
  23351999.377    91638249.889  
  19240424.948   102995515.279    19240421.535    80107604.242                  
                                
  19600954.822   104668063.073    19600949.783    81408503.949                  
                                
  22218428.873   118686889.413    22218425.371    92312017.418                  
                                
  26911004.935   141418288.632                                                  
                                
  23851934.292   125342819.597                                                  
                                
  24137611.740   126844076.214                                                  
                                
 21  8 31  2 35 35.0000000  0 13G 3G16G22G26G29G31G32R 7R 9R16E 7E21
                                E27
  21854119.968   114844191.776                    89488995.589    21854121.129  
  21854118.074    85760269.543  
  21193751.873   111373945.933    21193749.675    86784896.466                  
                                
  22318752.680   117285850.553    22318749.070    91391567.321                  
                                
  20037120.108   105295817.945                    82048722.450    20037121.019  
  20037116.766    78630028.521  
  24189330.000   127115812.027                    99051238.805    24189330.089  
                                
  21409507.549   112507789.715                    87668424.381    21409505.565  
                                
  23352566.272   122718560.130                    95624851.876    23352565.825  
  23352564.396    91640466.591  
  19240337.122   102995047.524    19240334.173    80107240.425                  
                                
  19601152.954   104669121.747    19601148.022    81409327.362                  
                                
  22219059.953   118690257.384    22219055.879    92314636.941                  
                                
  26911493.796   141420856.061                                                  
                                
  23851730.245   125341747.696                                                  
                                
  24137908.741   126845636.340                                                  
                                
 21  8 31  2 35 36.0000000  0 13G 3G16G22G26G29G31G32R 7R 9R16E 7E21
                                E27
  21854184.654   114844531.148                    89489260.025    21854185.833  
  21854182.778    85760522.974  
  21193234.350   111371224.934    21193231.777    86782776.202                  
                                
  22319044.999   117287386.341    22319041.318    91392764.032                  
                                
  20037112.674   105295778.444                    82048691.679    20037113.657  
  20037109.279    78629999.028  
  24189387.324   127116116.235                    99051475.862    24189388.307  
                                
  21409843.093   112509552.233                    87669797.772    21409841.217  
                                
  23353131.273   122721528.932                    95627165.196    23353130.326  
  23353129.289    91642683.532  
  19240250.046   102994580.656    19240247.080    80106877.308                  
                                
  19601351.157   104670180.910    19601346.279    81410151.163                  
                                
  22219690.265   118693625.426    22219686.280    92317256.522                  
                                
  26911983.657   141423423.753                                                  
                                
  23851526.306   125340676.223                                                  
                                
  24138205.707   126847196.783                                                  
                                
 21  8 31  2 35 37.0000000  0 13G 3G16G22G26G29G31G32R 7R 9R16E 7E21
                                E27
  21854249.340   114844871.133                    89489524.946    21854250.412  
  21854247.446    85760776.857  
  21192716.595   111368504.395    21192714.022    86780656.299                  
                                
  22319337.515   117288922.551    22319333.655    91393961.081                  
                                
  20037105.187   105295739.531                    82048661.364    20037106.045  
  20037101.828    78629969.976  
  24189445.076   127116421.019                    99051713.349    24189446.452  
                                
  21410178.745   112511314.859                    87671171.242    21410176.529  
                                
  23353695.702   122724497.931                    95629478.717    23353695.076  
  23353694.415    91644900.634  
  19240163.452   102994114.599    19240159.950    80106514.812                  
                                
  19601549.539   104671240.500    19601544.750    81410975.284                  
                                
  22220321.220   118696993.462    22220316.664    92319876.104                  
                                
  26912472.696   141425991.545                                                  
                                
  23851322.528   125339605.058                                                  
                                
  24138502.708   126848757.428                                                  
                                
 21  8 31  2 35 38.0000000  0 13G 3G16G22G26G29G31G32R 7R 9R16E 7E21
                                E27
  21854314.240   114845211.770                    89489790.380    21854315.187  
  21854312.257    85761031.222  
  21192198.769   111365784.373    21192196.392    86778536.801                  
                                
  22319629.548   117290459.248    22319626.082    91395158.505                  
                                
  20037097.861   105295701.227                    82048631.508    20037099.022  
  20037094.573    78629941.370  
  24189503.294   127116726.431                    99051951.322    24189504.384  
                                
  21410514.057   112513077.647                    87672544.843    21410512.145  
                                
  23354261.238   122727467.167                    95631792.420    23354260.273  
  23354259.541    91647117.945  
  19240076.573   102993649.369    19240073.035    80106152.969                  
                                
  19601747.653   104672300.522    19601743.257    81411799.750                  
                                
  22220951.086   118700361.522    22220947.101    92322495.699                  
                                
  26912961.325   141428559.522                                                  
                                
  23851118.910   125338534.252                                                  
                                
  24138799.905   126850318.334                                                  
                                
 21  8 31  2 35 39.0000000  0 13G 3G16G22G26G29G31G32R 7R 9R16E 7E21
                                E27
  21854379.122   114845553.081                    89490056.326    21854379.641  
  21854377.228    85761286.100  
  21191681.300   111363064.849    21191678.905    86776417.692                  
                                
  22319922.243   117291996.424    22319918.580    91396356.318                  
                                
  20037090.695   105295663.546                    82048602.157    20037091.642  
  20037087.372    78629913.234  
  24189561.618   127117032.447                    99052189.781    24189562.351  
                                
  21410849.977   112514840.605                    87673918.574    21410847.654  
                                
  23354826.596   122730436.718                    95634106.343    23354826.364  
  23354824.434    91649335.443  
  19239989.212   102993184.998    19239986.263    80105791.785                  
                                
  19601946.714   104673361.018    19601941.800    81412624.581                  
                                
  22221581.791   118703729.642    22221577.502    92325115.343                  
                                
  26913450.043   141431127.686                                                  
                                
  23850915.346   125337463.800                                                  
                                
  24139096.853   126851879.517                                                  
                                
 21  8 31  2 35 40.0000000  0 13G 3G16G22G26G29G31G32R 7R 9R16E 7E21
                                E27
  21854444.130   114845895.015                    89490322.770    21854445.667  
  21854442.289    85761541.429  
  21191163.920   111360345.813    21191161.365    86774298.967                  
                                
  22320214.813   117293534.060    22320211.185    91397554.476                  
                                
  20037083.673   105295626.472                    82048573.264    20037084.816  
  20037080.278    78629885.553  
  24189619.800   127117339.020                    99052428.665    24189621.194  
                                
  21411185.200   112516603.686                    87675292.417    21411183.038  
                                
  23355391.651   122733406.500                    95636420.436    23355392.097  
  23355389.667    91651553.152  
  19239903.011   102992721.430    19239899.741    80105431.237                  
                                
  19602145.793   104674421.938    19602140.521    81413449.740                  
                                
  22222211.852   118707097.753    22222208.082    92327734.994                  
                                
  26913938.439   141433695.992                                                  
                                
  23850711.604   125336393.695                                                  
                                
  24139393.997   126853440.910                                                  
                                
 21  8 31  2 35 41.0000000  0 13G 3G16G22G26G29G31G32R 7R 9R16E 7E21
                                E27
  21854509.298   114846237.659                    89490589.767    21854510.674  
  21854507.458    85761797.308  
  21190646.451   111357627.363    21190644.182    86772180.696                  
                                
  22320507.543   117295072.233    22320503.915    91398753.052                  
                                
  20037076.829   105295590.070                    82048544.903    20037077.651  
  20037073.380    78629858.366  
  24189678.678   127117646.295                    99052668.102    24189679.661  
                                
  21411520.709   112518366.985                    87676666.416    21411518.457  
                                
  23355957.223   122736376.610                    95638734.840    23355956.937  
  23355954.971    91653771.097  
  19239816.186   102992258.780    19239813.363    80105071.396                  
                                
  19602344.514   104675483.347    19602339.314    81414275.287                  
                                
  22222843.058   118710465.992    22222838.590    92330354.738                  
                                
  26914427.603   141436264.576                                                  
                                
  23850508.093   125335324.009                                                  
                                
  24139691.105   126855002.644                                                  
                                
 21  8 31  2 35 42.0000000  0 13G 3G16G22G26G29G31G32R 7R 9R16E 7E21
                                E27
  21854574.520   114846580.887                    89490857.240    21854576.039  
  21854572.751    85762053.623  
  21190129.518   111354909.365    21190126.891    86770062.774                  
                                
  22320800.023   117296610.841    22320796.539    91399951.958                  
                                
  20037070.021   105295554.220                    82048516.968    20037071.093  
  20037066.572    78629831.594  
  24189737.432   127117954.113                    99052907.940    24189737.985  
                                
  21411856.092   112520130.409                    87678040.509    21411854.216  
                                
  23356522.313   122739346.977                    95641049.416    23356521.991  
  23356520.097    91655989.201  
  19239730.432   102991796.925    19239726.948    80104712.178                  
                                
  19602542.985   104676545.164    19602538.143    81415101.145                  
                                
  22223473.798   118713834.190    22223469.135    92332974.459                  
                                
  26914916.786   141438833.213                                                  
                                
  23850304.565   125334254.617                                                  
                                
  24139988.285   126856564.572                                                  
                                
 21  8 31  2 35 43.0000000  0 13G 3G16G22G26G29G31G32R 7R 9R16E 7E21
                                E27
  21854639.921   114846924.822                    89491125.216    21854641.422  
  21854638.188    85762310.449  
  21189612.478   111352191.887    21189610.012    86767945.254                  
                                
  22321093.468   117298149.924    22321089.483    91401151.255                  
                                
  20037063.302   105295519.007                    82048489.529    20037063.999  
  20037059.818    78629805.305  
  24189795.542   127118262.517                    99053148.278    24189795.899  
                                
  21412191.637   112521893.986                    87679414.725    21412189.975  
                                
  23357087.189   122742317.560                    95643364.172    23357088.368  
  23357085.312    91658207.526  
  19239643.964   102991335.926    19239640.730    80104353.627                  
                                
  19602742.082   104677607.446    19602737.079    81415927.356                  
                                
  22224103.467   118717202.429    22224099.750    92335594.198                  
                                
  26915405.843   141441402.124                                                  
                                
  23850101.073   125333185.603                                                  
                                
  24140285.464   126858126.778                                                  
                                
 21  8 31  2 35 44.0000000  0 13G 3G16G22G26G29G31G32R 7R 9R16E 7E21
                                E27
  21854705.536   114847269.411                    89491393.734    21854706.554  
  21854703.731    85762567.774  
  21189095.456   111349474.937    21189093.043    86765828.157                  
                                
  22321386.073   117299689.506    22321382.410    91402350.927                  
                                
  20037056.673   105295484.433                    82048462.598    20037057.262  
  20037053.278    78629779.485  
  24189853.973   127118571.588                    99053389.092    24189855.510  
                                
  21412527.271   112523657.745                    87680789.082    21412524.733  
                                
  23357652.189   122745288.477                    95645679.182    23357653.261  
  23357650.509    91660426.064  
  19239558.050   102990875.790    19239554.816    80103995.746                  
                                
  19602941.125   104678670.176    19602936.086    81416753.925                  
                                
  22224733.922   118720570.701    22224730.259    92338213.965                  
                                
  26915894.954   141443971.166                                                  
                                
  23849897.688   125332116.959                                                  
                                
  24140583.073   126859689.258                                                  
                                
 21  8 31  2 35 45.0000000  0 13G 3G16G22G26G29G31G32R 7R 9R16E 7E21
                                E27
  21854771.205   114847614.637                    89491662.749    21854772.670  
  21854769.400    85762825.577  
  21188578.201   111346758.465    21188576.021    86763711.426                  
                                
  22321679.215   117301229.548    22321675.373    91403550.963                  
                                
  20037050.276   105295450.449                    82048436.112    20037050.937  
  20037046.809    78629754.108  
  24189913.298   127118881.249                    99053630.363    24189912.870  
                                
  21412863.065   112525421.639                    87682163.550    21412860.671  
                                
  23358217.494   122748259.630                    95647994.352    23358218.244  
  23358215.778    91662644.778  
  19239472.475   102990416.485    19239469.116    80103638.506                  
                                
  19603140.615   104679733.383    19603135.361    81417580.857                  
                                
  22225364.931   118723938.957    22225360.874    92340833.720                  
                                
  26916383.511   141446540.354                                                  
                                
  23849694.463   125331048.659                                                  
                                
  24140880.253   126861251.978                                                  
                                
 21  8 31  2 35 46.0000000  0 13G 3G16G22G26G29G31G32R 7R 9R16E 7E21
                                E27
  21854837.266   114847960.562                    89491932.282    21854838.517  
  21854835.301    85763083.889  
  21188061.536   111344042.545    21188059.356    86761595.124                  
                                
  22321972.481   117302770.105    22321968.335    91404751.396                  
                                
  20037044.004   105295417.114                    82048410.134    20037044.540  
  20037040.465    78629729.219  
  24189972.606   127119191.499                    99053872.153    24189972.141  
                                
  21413198.967   112527185.718                    87683538.154    21413196.930  
                                
  23358783.334   122751231.088                    95650309.765    23358783.584  
  23358781.297    91664863.708  
  19239386.758   102989958.041    19239383.505    80103281.938                  
                                
  19603339.819   104680797.058    19603334.458    81418408.164                  
                                
  22225995.672   118727307.289    22225991.329    92343453.534                  
                                
  26916872.461   141449109.755                                                  
                                
  23849491.275   125329980.731                                                  
                                
  24141177.593   126862814.979                                                  
                                
 21  8 31  2 35 47.0000000  0 13G 3G16G22G26G29G31G32R 7R 9R16E 7E21
                                E27
  21854903.149   114848307.140                    89492202.359    21854904.561  
  21854901.166    85763342.707  
  21187544.818   111341327.130    21187542.620    86759479.221                  
                                
  22322265.640   117304311.139    22322261.602    91405952.206                  
                                
  20037037.767   105295384.407                    82048384.641    20037038.536  
  20037034.211    78629704.792  
  24190031.949   127119502.389                    99054114.387    24190032.056  
                                
  21413534.976   112528949.976                    87684912.903    21413532.278  
                                
  23359349.335   122754202.812                    95652625.403    23359349.943  
  23359346.923    91667082.860  
  19239301.344   102989500.434    19239297.984    80102926.022                  
                                
  19603538.361   104681861.183    19603533.698    81419235.820                  
                                
  22226626.126   118730675.671    22226621.999    92346073.387                  
                                
  26917361.572   141451679.348                                                  
                                
  23849288.211   125328913.184                                                  
                                
  24141475.166   126864378.245                                                  
                                
 21  8 31  2 35 48.0000000  0 13G 3G16G22G26G29G31G32R 7R 9R16E 7E21
                                E27
  21854969.175   114848654.374                    89492472.919    21854970.766  
  21854967.263    85763602.013  
  21187028.456   111338612.246    21187026.044    86757363.724                  
                                
  22322559.014   117305852.660    22322555.083    91407153.392                  
                                
  20037031.620   105295352.310                    82048359.649    20037032.353  
  20037028.118    78629680.832  
  24190090.988   127119813.872                    99054357.105    24190091.631  
                                
  21413870.646   112530714.381                    87686287.768    21413868.144  
                                
  23359914.658   122757174.801                    95654941.230    23359915.158  
  23359912.460    91669302.204  
  19239216.055   102989043.687    19239212.713    80102570.777                  
                                
  19603737.440   104682925.758    19603733.027    81420063.825                  
                                
  22227256.510   118734044.125    22227252.739    92348693.298                  
                                
  26917851.219   141454249.092                                                  
                                
  23849085.183   125327845.993                                                  
                                
  24141772.596   126865941.775                                                  
                                
 21  8 31  2 35 49.0000000  0 13G 3G16G22G26G29G31G32R 7R 9R16E 7E21
                                E27
  21855035.344   114849002.197                    89492743.959    21855036.792  
  21855033.522    85763861.744  
  21186511.613   111335897.808    21186509.522    86755248.578                  
                                
  22322852.370   117307394.587    22322848.260    91408354.891                  
                                
  20037025.527   105295320.773                    82048335.066    20037026.295  
  20037022.096    78629657.276  
  24190150.260   127120125.892                    99054600.219    24190150.403  
                                
  21414206.280   112532478.879                    87687662.702    21414203.599  
                                
  23360480.641   122760147.039                    95657257.230    23360480.194  
  23360477.711    91671521.702  
  19239130.891   102988587.733    19239127.585    80102216.149                  
                                
  19603936.590   104683990.713    19603932.498    81420892.125                  
                                
  22227886.983   118737412.558    22227883.319    92351313.188                  
                                
  26918340.884   141456818.982                                                  
                                
  23848882.155   125326779.095                                                  
                                
  24142070.169   126867505.501                                                  
                                
 21  8 31  2 35 50.0000000  0 13G 3G16G22G26G29G31G32R 7R 9R16E 7E21
                                E27
  21855101.692   114849350.736                    89493015.548    21855103.318  
  21855099.798    85764122.024  
  21185994.984   111333183.933    21185993.089    86753133.866                  
                                
  22323145.708   117308937.042    22323141.651    91409556.813                  
                                
  20037019.702   105295289.894                    82048311.002    20037020.470  
  20037016.253    78629634.219  
  24190209.335   127120438.564                    99054843.875    24190209.888  
                                
  21414541.878   112534243.595                    87689037.805    21414539.162  
                                
  23361046.321   122763119.589                    95659573.504    23361045.392  
  23361043.569    91673741.467  
  19239045.406   102988132.661    19239042.457    80101862.199                  
                                
  19604136.902   104685056.171    19604132.042    81421720.815                  
                                
  22228517.348   118740781.042    22228513.989    92353933.122                  
                                
  26918829.744   141459389.066                                                  
                                
  23848679.110   125325712.599                                                  
                                
  24142367.920   126869069.530                                                  
                                
 21  8 31  2 35 51.0000000  0 13G 3G16G22G26G29G31G32R 7R 9R16E 7E21
                                E27
  21855168.004   114849699.935                    89493287.654    21855169.666  
  21855166.271    85764382.790  
  21185479.087   111330470.560    21185476.657    86751019.558                  
                                
  22323439.510   117310479.995    22323435.204    91410759.105                  
                                
  20037013.894   105295259.652                    82048287.443    20037014.573  
  20037010.481    78629611.631  
  24190269.428   127120751.872                    99055088.007    24190269.893  
                                
  21414877.333   112536008.475                    87690413.034    21414874.921  
                                
  23361612.090   122766092.379                    95661889.966    23361611.911  
  23361608.981    91675961.404  
  19238960.885   102987678.435    19238957.633    80101508.914                  
                                
  19604336.874   104686122.112    19604331.585    81422549.880                  
                                
  22229147.964   118744149.526    22229144.515    92356553.056                  
                                
  26919318.909   141461959.367                                                  
                                
  23848476.350   125324646.487                                                  
                                
  24142665.547   126870633.835                                                  
                                
 21  8 31  2 35 52.0000000  0 13G 3G16G22G26G29G31G32R 7R 9R16E 7E21
                                E27
  21855234.656   114850049.763                    89493560.244    21855236.496  
  21855232.833    85764644.022  
  21184962.208   111327757.680    21184960.385    86748905.626                  
                                
  22323733.366   117312023.400    22323728.917    91411961.759                  
                                
  20037008.230   105295229.993                    82048264.328    20037009.087  
  20037004.870    78629589.485  
  24190329.236   127121065.746                    99055332.587    24190329.414  
                                
  21415213.717   112537773.478                    87691788.355    21415211.037  
                                
  23362177.555   122769065.430                    95664206.623    23362177.966  
  23362174.750    91678181.548  
  19238875.954   102987225.025    19238873.005    80101156.271                  
                                
  19604536.543   104687188.444    19604531.272    81423379.251                  
                                
  22229778.990   118747517.994    22229775.023    92359172.990                  
                                
  26919808.127   141464529.838                                                  
                                
  23848273.250   125323580.678                                                  
                                
  24142963.495   126872198.359                                                  
                                
 21  8 31  2 35 53.0000000  0 13G 3G16G22G26G29G31G32R 7R 9R16E 7E21
                                E27
  21855301.361   114850400.262                    89493833.359    21855302.754  
  21855299.574    85764905.767  
  21184446.472   111325045.334    21184444.345    86746792.105                  
                                
  22324026.740   117313567.281    22324022.773    91413164.794                  
                                
  20037002.690   105295200.957                    82048241.700    20037003.637  
  20036999.313    78629567.807  
  24190389.472   127121380.240                    99055577.651    24190389.615  
                                
  21415549.852   112539538.654                    87693163.817    21415547.189  
                                
  23362742.841   122772038.754                    95666523.510    23362742.877  
  23362740.519    91680401.900  
  19238791.397   102986772.481    19238788.378    80100804.288                  
                                
  19604736.247   104688255.246    19604730.976    81424208.989                  
                                
  22230409.356   118750886.526    22230405.746    92361792.961                  
                                
  26920297.381   141467100.447                                                  
                                
  23848070.741   125322515.247                                                  
                                
  24143261.086   126873763.166                                                  
                                
 21  8 31  2 35 54.0000000  0 13G 3G16G22G26G29G31G32R 7R 9R16E 7E21
                                E27
  21855368.209   114850751.410                    89494106.989    21855369.674  
  21855366.386    85765167.986  
  21183930.486   111322333.496    21183928.234    86744678.984                  
                                
  22324320.417   117315111.664    22324316.790    91414368.200                  
                                
  20036997.437   105295172.554                    82048219.568    20036998.116  
  20036993.917    78629546.599  
  24190449.333   127121695.373                    99055823.201    24190449.566  
                                
  21415885.718   112541303.992                    87694539.404    21415883.055  
                                
  23363308.789   122775012.371                    95668840.640    23363310.076  
  23363306.198    91682622.441  
  19238707.431   102986320.817    19238704.036    80100452.996                  
                                
  19604936.023   104689322.497    19604930.894    81425039.075                  
                                
  22231040.204   118754255.087    22231036.416    92364412.953                  
                                
  26920786.921   141469671.241                                                  
                                
  23847868.106   125321450.195                                                  
                                
  24143558.873   126875328.222                                                  
                                
 21  8 31  2 35 55.0000000  0 13G 3G16G22G26G29G31G32R 7R 9R16E 7E21
                                E27
  21855435.146   114851103.247                    89494381.139    21855436.593  
  21855433.413    85765430.722  
  21183414.768   111319622.180    21183412.106    86742566.280                  
                                
  22324615.042   117316656.522    22324610.735    91415571.990                  
                                
  20036992.183   105295144.762                    82048197.921    20036993.077  
  20036988.627    78629525.845  
  24190509.248   127122011.111                    99056069.242    24190508.748  
                                
  21416221.513   112543069.506                    87695915.130    21416219.297  
                                
  23363874.558   122777986.273                    95671157.964    23363875.201  
  23363871.985    91684843.210  
  19238623.411   102985870.019    19238619.855    80100102.375                  
                                
  19605136.138   104690390.206    19605130.867    81425869.509                  
                                
  22231670.516   118757623.684    22231667.282    92367032.968                  
                                
  26921275.799   141472242.223                                                  
                                
  23847665.471   125320385.501                                                  
                                
  24143856.660   126876893.565                                                  
                                
 21  8 31  2 35 56.0000000  0 13G 3G16G22G26G29G31G32R 7R 9R16E 7E21
                                E27
  21855502.173   114851455.686                    89494655.772    21855503.316  
  21855500.421    85765693.907  
  21182898.514   111316911.331    21182896.513    86740453.929                  
                                
  22324908.826   117318201.817    22324904.734    91416776.118                  
                                
  20036986.930   105295117.569                    82048176.718    20036988.002  
  20036983.517    78629505.536  
  24190569.235   127122327.398                    99056315.696    24190569.967  
                                
  21416557.772   112544835.125                    87697290.932    21416555.074  
                                
  23364440.291   122780960.387                    95673475.432    23364440.845  
  23364438.165    91687064.143  
  19238539.015   102985420.031    19238535.727    80099752.383                  
                                
  19605336.146   104691458.321    19605330.839    81426700.270                  
                                
  22232301.239   118760992.290    22232297.987    92369653.000                  
                                
  26921765.071   141474813.357                                                  
                                
  23847462.747   125319321.133                                                  
                                
  24144154.447   126878459.105                                                  
                                
 21  8 31  2 35 57.0000000  0 13G 3G16G22G26G29G31G32R 7R 9R16E 7E21
                                E27
  21855569.271   114851808.785                    89494930.909    21855570.843  
  21855567.484    85765957.591  
  21182382.725   111314201.010    21182380.723    86738341.991                  
                                
  22325203.040   117319747.599    22325198.876    91417980.617                  
                                
  20036981.909   105295090.988                    82048156.013    20036982.427  
  20036978.371    78629485.692  
  24190629.650   127122644.309                    99056562.634    24190629.757  
                                
  21416893.638   112546600.897                    87698666.865    21416891.440  
                                
  23365006.043   122783934.785                    95675793.156    23365006.543  
  23365004.023    91689285.267  
  19238454.799   102984970.890    19238451.725    80099403.055                  
                                
  19605535.725   104692526.895    19605530.918    81427531.380                  
                                
  22232931.765   118764360.944    22232928.656    92372273.066                  
                                
  26922253.842   141477384.632                                                  
                                
  23847260.130   125318257.107                                                  
                                
  24144452.592   126880024.918                                                  
                                
 21  8 31  2 35 58.0000000  0 13G 3G16G22G26G29G31G32R 7R 9R16E 7E21
                                E27
  21855636.637   114852162.542                    89495206.571    21855637.959  
  21855634.707    85766221.758  
  21181867.043   111311491.196    21181865.184    86736230.448                  
                                
  22325497.575   117321293.842    22325493.143    91419185.482                  
                                
  20036976.995   105295065.018                    82048135.781    20036977.870  
  20036973.421    78629466.297  
  24190689.654   127122961.822                    99056810.042    24190689.690  
                                
  21417229.665   112548366.837                    87700042.913    21417227.306  
                                
  23365572.455   122786909.432                    95678111.063    23365574.295  
  23365570.043    91691506.617  
  19238371.047   102984522.567    19238368.098    80099054.366                  
                                
  19605736.216   104693595.931    19605731.034    81428362.855                  
                                
  22233563.006   118767729.678    22233559.182    92374893.195                  
                                
  26922743.078   141479956.131                                                  
                                
  23847057.942   125317193.452                                                  
                                
  24144750.451   126881590.986                                                  
                                
 21  8 31  2 35 59.0000000  0 13G 3G16G22G26G29G31G32R 7R 9R16E 7E21
                                E27
  21855704.110   114852516.988                    89495482.753    21855705.308  
  21855702.198    85766486.444  
  21181351.825   111308781.920    21181349.520    86734119.323                  
                                
  22325791.627   117322840.622    22325787.446    91420390.763                  
                                
  20036972.170   105295039.691                    82048116.045    20036972.795  
  20036968.650    78629447.386  
  24190749.801   127123279.949                    99057057.965    24190750.641  
                                
  21417565.835   112550132.970                    87701419.118    21417563.226  
                                
  23366138.349   122789884.361                    95680429.217    23366139.707  
  23366136.080    91693728.183  
  19238288.099   102984075.126    19238284.400    80098706.350                  
                                
  19605936.420   104694665.433    19605931.381    81429194.685                  
                                
  22234193.533   118771098.430    22234189.762    92377513.336                  
                                
  26923232.010   141482527.834                                                  
                                
  23846855.469   125316130.184                                                  
                                
  24145048.488   126883157.339                                                  
                                
 21  8 31  2 36  0.0000000  0 13G 3G16G22G26G29G31G32R 7R 9R16E 7E21
                                E27
  21855771.763   114852872.071                    89495759.446    21855773.353  
  21855769.886    85766751.601  
  21180835.821   111306073.124    21180833.999    86732008.569                  
                                
  22326086.645   117324387.834    22326082.106    91421596.387                  
                                
  20036967.417   105295014.957                    82048096.767    20036968.221  
  20036963.968    78629428.913  
  24190810.538   127123598.692                    99057306.338    24190811.628  
                                
  21417901.826   112551899.217                    87702795.419    21417899.307  
                                
  23366705.137   122792859.596                    95682747.533    23366705.512  
  23366702.224    91695949.925  
  19238204.239   102983628.498    19238200.969    80098358.982                  
                                
  19606136.928   104695735.364    19606131.782    81430026.863                  
                                
  22234824.005   118774467.176    22234820.396    92380133.472                  
                                
  26923721.157   141485099.682                                                  
                                
  23846653.298   125315067.245                                                  
                                
  24145346.740   126884723.932                                                  
                                
 21  8 31  2 36  1.0000000  0 13G 3G16G22G26G29G31G32R 7R 9R16E 7E21
                                E27
  21855839.647   114853227.761                    89496036.598    21855840.719  
  21855837.503    85767017.216  
  21180320.836   111303364.825    21180318.835    86729898.213                  
                                
  22326380.841   117325935.500    22326376.534    91422802.349                  
                                
  20036962.842   105294990.818                    82048077.956    20036963.807  
  20036959.358    78629410.885  
  24190871.328   127123918.015                    99057555.143    24190872.490  
                                
  21418238.050   112553665.605                    87704171.819    21418235.530  
                                
  23367271.174   122795835.029                    95685066.065    23367271.745  
  23367268.279    91698171.844  
  19238121.273   102983182.690    19238117.735    80098012.242                  
                                
  19606337.580   104696805.736    19606332.219    81430859.377                  
                                
  22235454.478   118777835.929    22235451.101    92382753.603                  
                                
  26924210.733   141487671.661                                                  
                                
  23846451.021   125314004.637                                                  
                                
  24145644.885   126886290.752                                                  
                                
 21  8 31  2 36  2.0000000  0 13G 3G16G22G26G29G31G32R 7R 9R16E 7E21
                                E27
  21855907.514   114853584.162                    89496314.317    21855908.747  
  21855905.423    85767283.359  
  21179805.619   111300657.045    21179803.564    86727788.262                  
                                
  22326675.590   117327483.671    22326671.033    91424008.718                  
                                
  20036958.339   105294967.331                    82048059.649    20036958.858  
  20036954.909    78629393.341  
  24190932.941   127124237.970                    99057804.468    24190933.155  
                                
  21418573.916   112555432.164                    87705548.374    21418571.289  
                                
  23367837.086   122798810.768                    95687384.841    23367837.371  
  23367834.548    91700393.989  
  19238037.896   102982737.763    19238034.680    80097666.185                  
                                
  19606537.748   104697876.600    19606532.852    81431692.271                  
                                
  22236084.683   118781204.716    22236081.859    92385373.771                  
                                
  26924699.951   141490243.831                                                  
                                
  23846248.833   125312942.416                                                  
                                
  24145943.208   126887857.853                                                  
                                
 21  8 31  2 36  3.0000000  0 13G 3G16G22G26G29G31G32R 7R 9R16E 7E21
                                E27
  21855975.434   114853941.214                    89496592.530    21855976.113  
  21855973.379    85767549.993  
  21179290.204   111297949.808    21179288.364    86725678.726                  
                                
  22326969.911   117329032.341    22326965.640    91425215.478                  
                                
  20036953.979   105294944.448                    82048041.818    20036954.712  
  20036950.602    78629376.258  
  24190993.945   127124558.529                    99058054.240    24190993.731  
                                
  21418910.211   112557198.907                    87706925.055    21418907.781  
                                
  23368403.516   122801786.786                    95689703.806    23368403.337  
  23368400.871    91702616.345  
  19237954.591   102982293.682    19237951.678    80097320.791                  
                                
  19606738.132   104698947.894    19606733.396    81432525.497                  
                                
  22236715.602   118784573.549    22236712.582    92387993.965                  
                                
  26925190.169   141492816.201                                                  
                                
  23846046.913   125311880.566                                                  
                                
  24146241.496   126889425.221                                                  
                                
 21  8 31  2 36  4.0000000  0 13G 3G16G22G26G29G31G32R 7R 9R16E 7E21
                                E27
  21856043.497   114854298.929                    89496871.279    21856044.444  
  21856041.370    85767817.114  
  21178775.130   111295243.076    21178773.468    86723569.589                  
                                
  22327264.732   117330581.492    22327260.425    91426422.607                  
                                
  20036949.744   105294922.196                    82048024.493    20036950.406  
  20036946.331    78629359.639  
  24191055.022   127124879.684                    99058304.507    24191054.414  
                                
  21419246.595   112558965.815                    87708301.857    21419243.504  
                                
  23368970.607   122804763.092                    95692023.017    23368969.767  
  23368967.248    91704838.906  
  19237871.732   102981850.444    19237868.927    80096976.044                  
                                
  19606939.248   104700019.617    19606934.012    81433359.064                  
                                
  22237346.539   118787942.459    22237343.162    92390614.231                  
                                
  26925680.067   141495388.729                                                  
                                
  23845844.993   125310819.067                                                  
                                
  24146539.801   126890992.850                                                  
                                
 21  8 31  2 36  5.0000000  0 13G 3G16G22G26G29G31G32R 7R 9R16E 7E21
                                E27
  21856111.631   114854657.281                    89497150.509    21856112.346  
  21856109.648    85768084.723  
  21178260.502   111292536.848    21178258.376    86721460.831                  
                                
  22327559.892   117332131.089    22327555.228    91427630.078                  
                                
  20036945.688   105294900.537                    82048007.611    20036946.582  
  20036942.186    78629343.469  
  24191116.348   127125201.449                    99058555.219    24191116.062  
                                
  21419583.069   112560732.843                    87709678.760    21419580.085  
                                
  23369536.483   122807739.614                    95694342.392    23369536.930  
  23369533.517    91707061.645  
  19237789.142   102981408.013    19237786.229    80096631.928                  
                                
  19607139.595   104701091.766    19607134.878    81434192.958                  
                                
  22237976.762   118791311.379    22237973.885    92393234.497                  
                                
  26926169.571   141497961.428                                                  
                                
  23845642.948   125309757.900                                                  
                                
  24146837.928   126892560.717                                                  
                                
 21  8 31  2 36  6.0000000  0 13G 3G16G22G26G29G31G32R 7R 9R16E 7E21
                                E27
  21856179.802   114855016.322                    89497430.289    21856180.713  
  21856177.997    85768352.839  
  21177745.731   111289831.149    21177743.480    86719352.501                  
                                
  22327854.892   117333681.206    22327850.246    91428837.964                  
                                
  20036941.668   105294879.547                    82047991.257    20036942.472  
  20036938.219    78629327.793  
  24191177.442   127125523.848                    99058806.455    24191177.782  
                                
  21419919.096   112562500.074                    87711055.834    21419916.719  
                                
  23370103.056   122810716.474                    95696662.002    23370103.485  
  23370100.001    91709284.622  
  19237706.980   102980966.458    19237703.728    80096288.490                  
                                
  19607340.300   104702164.437    19607335.833    81435027.253                  
                                
  22238607.413   118794680.375    22238604.662    92395854.828                  
                                
  26926659.325   141500534.308                                                  
                                
  23845441.100   125308697.147                                                  
                                
  24147136.412   126894128.889                                                  
                                
 21  8 31  2 36  7.0000000  0 13G 3G16G22G26G29G31G32R 7R 9R16E 7E21
                                E27
  21856248.276   114855376.027                    89497710.564    21856249.509  
  21856246.471    85768621.440  
  21177230.996   111287125.995    21177228.602    86717244.586                  
                                
  22328150.106   117335231.800    22328145.353    91430046.224                  
                                
  20036937.701   105294859.152                    82047975.363    20036938.523  
  20036934.323    78629312.565  
  24191238.697   127125846.878                    99059058.160    24191238.590  
                                
  21420255.623   112564267.468                    87712433.015    21420253.139  
                                
  23370670.130   122813693.610                    95698981.835    23370669.540  
  23370666.627    91711507.797  
  19237624.693   102980525.758    19237621.334    80095945.730                  
                                
  19607541.648   104703237.559    19607536.752    81435861.903                  
                                
  22239238.279   118798049.432    22239235.349    92398475.210                  
                                
  26927148.918   141503107.411                                                  
                                
  23845239.448   125307636.749                                                  
                                
  24147434.914   126895697.314                                                  
                                
 21  8 31  2 36  8.0000000  0 13G 3G16G22G26G29G31G32R 7R 9R16E 7E21
                                E27
  21856316.821   114855736.377                    89497991.352    21856318.197  
  21856315.088    85768890.542  
  21176716.082   111284421.323    21176713.885    86715137.059                  
                                
  22328445.034   117336782.865    22328440.531    91431254.834                  
                                
  20036933.787   105294839.371                    82047959.961    20036934.877  
  20036930.553    78629297.794  
  24191299.863   127126170.489                    99059310.336    24191300.524  
                                
  21420591.972   112566035.001                    87713810.305    21420589.309  
                                
  23371236.077   122816670.969                    95701301.880    23371236.685  
  23371232.950    91713731.167  
  19237542.210   102980085.930    19237538.993    80095603.640                  
                                
  19607743.282   104704311.095    19607737.868    81436696.881                  
                                
  22239868.931   118801418.482    22239866.215    92401095.582                  
                                
  26927638.923   141505680.650                                                  
                                
  23845037.546   125306576.700                                                  
                                
  24147733.416   126897265.979                                                  
                                
 21  8 31  2 36  9.0000000  0 13G 3G16G22G26G29G31G32R 7R 9R16E 7E21
                                E27
  21856385.510   114856097.353                    89498272.648    21856386.654  
  21856383.759    85769160.108  
  21176201.383   111281717.161    21176199.525    86713029.913                  
                                
  22328740.195   117338334.396    22328735.728    91432463.828                  
                                
  20036930.178   105294820.221                    82047945.023    20036931.393  
  20036926.944    78629283.493  
  24191361.904   127126494.705                    99059562.962    24191362.012  
                                
  21420928.213   112567802.678                    87715187.733    21420925.765  
                                
  23371802.311   122819648.630                    95703622.122    23371802.883  
  23371799.595    91715954.737  
  19237460.298   102979646.940    19237457.117    80095262.203                  
                                
  19607944.058   104705385.069    19607939.055    81437532.194                  
                                
  22240499.707   118804787.506    22240496.920    92403715.934                  
                                
  26928128.284   141508254.070                                                  
                                
  23844836.055   125305516.982                                                  
                                
  24148032.079   126898834.899                                                  
                                
 21  8 31  2 36 10.0000000  0 13G 3G16G22G26G29G31G32R 7R 9R16E 7E21
                                E27
  21856454.324   114856458.988                    89498554.433    21856455.378  
  21856452.662    85769430.154  
  21175687.327   111279013.484    21175685.093    86710923.163                  
                                
  22329035.480   117339886.376    22329030.995    91433673.166                  
                                
  20036926.783   105294801.655                    82047930.549    20036927.551  
  20036923.316    78629269.627  
  24191423.785   127126819.478                    99059816.060    24191423.731  
                                
  21421264.472   112569570.492                    87716565.249    21421261.649  
                                
  23372368.348   122822626.502                    95705942.567    23372369.706  
  23372366.132    91718178.499  
  19237378.351   102979208.795    19237375.188    80094921.428                  
                                
  19608144.835   104706459.481    19608140.350    81438367.853                  
                                
  22241130.126   118808156.574    22241127.732    92406336.318                  
                                
  26928617.716   141510827.643                                                  
                                
  23844634.546   125304457.620                                                  
                                
  24148330.706   126900404.058                                                  
                                
 21  8 31  2 36 11.0000000  0 13G 3G16G22G26G29G31G32R 7R 9R16E 7E21
                                E27
  21856523.209   114856821.258                    89498836.732    21856524.388  
  21856521.493    85769700.686  
  21175172.788   111276310.320    21175170.555    86708816.797                  
                                
  22329331.016   117341438.851    22329326.299    91434882.878                  
                                
  20036923.405   105294783.681                    82047916.566    20036924.192  
  20036919.939    78629256.209  
  24191486.487   127127144.908                    99060069.589    24191485.737  
                                
  21421600.678   112571338.471                    87717942.892    21421598.730  
                                
  23372935.618   122825604.665                    95708263.211    23372936.869  
  23372932.866    91720402.436  
  19237296.922   102978771.476    19237293.562    80094581.291                  
                                
  19608345.843   104707534.347    19608341.644    81439203.862                  
                                
  22241760.671   118811525.678    22241758.508    92408956.730                  
                                
  26929107.667   141513401.386                                                  
                                
  23844433.037   125303398.604                                                  
                                
  24148629.315   126901973.468                                                  
                                
 21  8 31  2 36 12.0000000  0 13G 3G16G22G26G29G31G32R 7R 9R16E 7E21
                                E27
  21856592.326   114857184.217                    89499119.555    21856593.202  
  21856590.628    85769971.729  
  21174658.393   111273607.699    21174656.213    86706710.865                  
                                
  22329626.516   117342991.808    22329621.924    91436092.976                  
                                
  20036920.046   105294766.356                    82047903.059    20036921.011  
  20036916.633    78629243.270  
  24191548.457   127127470.946                    99060323.656    24191548.189  
                                
  21421937.313   112573106.614                    87719320.677    21421934.900  
                                
  23373502.513   122828583.116                    95710584.072    23373502.924  
  23373499.618    91722626.610  
  19237215.493   102978335.044    19237211.990    80094241.844                  
                                
  19608547.817   104708609.675    19608542.992    81440040.223                  
                                
  22242391.679   118814894.848    22242389.321    92411577.200                  
                                
  26929597.475   141515975.329                                                  
                                
  23844231.492   125302339.981                                                  
                                
  24148927.960   126903543.163                                                  
                                
 21  8 31  2 36 13.0000000  0 13G 3G16G22G26G29G31G32R 7R 9R16E 7E21
                                E27
  21856661.354   114857547.815                    89499402.876    21856662.641  
  21856659.799    85770243.250  
  21174144.069   111270905.559    21174142.050    86704605.306                  
                                
  22329922.177   117344545.217    22329917.442    91437303.434                  
                                
  20036916.740   105294749.630                    82047890.030    20036917.830  
  20036913.452    78629230.786  
  24191610.141   127127797.579                    99060578.162    24191609.694  
                                
  21422273.876   112574874.904                    87720698.563    21422271.821  
                                
  23374069.819   122831561.822                    95712905.144    23374070.623  
  23374066.281    91724850.960  
  19237134.171   102977899.471    19237130.561    80093903.065                  
                                
  19608749.933   104709685.418    19608744.430    81440876.919                  
                                
  22243023.385   118818263.991    22243020.097    92414197.635                  
                                
  26930087.014   141518549.447                                                  
                                
  23844030.108   125301281.690                                                  
                                
  24149226.838   126905113.087                                                  
                                
 21  8 31  2 36 14.0000000  0 13G 3G16G22G26G29G31G32R 7R 9R16E 7E21
                                E27
  21856730.704   114857912.036                    89499686.687    21856732.062  
  21856729.096    85770515.233  
  21173630.406   111268203.906    21173628.137    86702500.117                  
                                
  22330218.070   117346099.102    22330213.264    91438514.239                  
                                
  20036913.613   105294733.496                    82047877.450    20036914.596  
  20036910.379    78629218.734  
  24191672.325   127128124.764                    99060833.111    24191671.771  
                                
  21422610.671   112576643.311                    87722076.541    21422608.312  
                                
  23374636.713   122834540.759                    95715226.410    23374637.392  
  23374633.336    91727075.493  
  19237052.938   102977464.704    19237049.293    80093564.908                  
                                
  19608951.121   104710761.590    19608946.082    81441713.944                  
                                
  22243654.037   118821633.113    22243650.927    92416818.068                  
                                
  26930576.375   141521123.657                                                  
                                
  23843828.885   125300223.719                                                  
                                
  24149525.626   126906683.246                                                  
                                
 21  8 31  2 36 15.0000000  0 13G 3G16G22G26G29G31G32R 7R 9R16E 7E21
                                E27
  21856800.125   114858276.955                    89499971.028    21856801.376  
  21856798.570    85770787.731  
  21173116.350   111265502.814    21173114.134    86700395.370                  
                                
  22330513.838   117347653.482    22330509.121    91439725.445                  
                                
  20036910.754   105294718.014                    82047865.397    20036911.791  
  20036907.413    78629207.174  
  24191735.117   127128452.586                    99061088.568    24191734.170  
                                
  21422947.055   112578411.926                    87723454.683    21422944.375  
                                
  23375203.840   122837520.002                    95717547.880    23375204.448  
  23375200.034    91729300.270  
  19236971.437   102977030.780    19236968.167    80093227.414                  
                                
  19609152.326   104711838.257    19609147.609    81442551.347                  
                                
  22244283.973   118825002.319    22244281.757    92419438.555                  
                                
  26931066.326   141523698.122                                                  
                                
  23843627.590   125299166.146                                                  
                                
  24149824.306   126908253.701                                                  
                                
 21  8 31  2 36 16.0000000  0 13G 3G16G22G26G29G31G32R 7R 9R16E 7E21
                                E27
  21856869.707   114858642.573                    89500255.934    21856870.958  
  21856868.206    85771060.766  
  21172602.365   111262802.276    21172600.221    86698291.060                  
                                
  22330809.946   117349208.396    22330805.121    91440937.071                  
                                
  20036907.967   105294703.204                    82047853.852    20036908.824  
  20036904.625    78629196.113  
  24191797.712   127128781.121                    99061344.542    24191796.872  
                                
  21423283.761   112580180.759                    87724832.980    21423280.884  
                                
  23375770.914   122840499.588                    95719869.617    23375771.110  
  23375767.090    91731525.255  
  19236891.116   102976597.750    19236887.292    80092890.611                  
                                
  19609354.032   104712915.398    19609349.278    81443389.126                  
                                
  22244913.785   118828371.596    22244912.373    92422059.106                  
                                
  26931556.706   141526272.810                                                  
                                
  23843426.385   125298108.991                                                  
                                
  24150123.309   126909824.453                                                  
                                
 21  8 31  2 36 17.0000000  0 13G 3G16G22G26G29G31G32R 7R 9R16E 7E21
                                E27
  21856939.432   114859008.833                    89500541.332    21856940.683  
  21856937.913    85771334.281  
  21172088.452   111260102.258    21172086.504    86696187.154                  
                                
  22331105.928   117350763.771    22331101.247    91442149.052                  
                                
  20036905.376   105294688.992                    82047842.790    20036906.287  
  20036902.016    78629185.502  
  24191860.289   127129110.196                    99061600.994    24191859.414  
                                
  21423619.949   112581949.724                    87726211.410    21423617.894  
                                
  23376337.844   122843479.400                    95722191.564    23376338.988  
  23376334.235    91733750.461  
  19236809.544   102976165.578    19236806.614    80092554.482                  
                                
  19609555.505   104713992.995    19609551.055    81444227.259                  
                                
  22245545.776   118831740.918    22245543.221    92424679.689                  
                                
  26932046.871   141528847.654                                                  
                                
  23843225.430   125297052.176                                                  
                                
  24150422.382   126911395.457                                                  
                                
 21  8 31  2 36 19.0000000  0 13G 3G16G22G26G29G31G32R 7R 9R16E 7E21
                                E27
  21857079.221   114859743.264                    89501113.604    21857080.883  
  21857077.631    85771882.713  
  21171060.733   111254703.662    21171059.250    86691980.456                  
                                
  22331697.929   117353875.868    22331693.390    91444574.058                  
                                
  20036900.354   105294662.327                    82047822.018    20036901.141  
  20036896.924    78629165.596  
  24191985.265   127129770.107                    99062115.230    24191984.425  
                                
  21424293.504   112585488.055                    87728968.545    21424291.235  
                                
  23377471.705   122849439.793                    95726836.008    23377473.117  
  23377468.274    91738201.386  
  19236649.027   102975303.701    19236645.524    80091884.137                  
                                
  19609960.006   104716149.460    19609954.877    81445904.507                  
                                
  22246806.918   118838479.612    22246804.738    92429920.901                  
                                
  26933026.487   141533997.790                                                  
                                
  23842823.288   125294939.537                                                  
                                
  24151020.226   126914538.154                                                  
                                
 21  8 31  2 36 20.0000000  0 13G 3G16G22G26G29G31G32R 7R 9R16E 7E21
                                E27
  21857149.321   114860111.435                    89501400.485    21857150.233  
  21857147.677    85772157.648  
  21170547.856   111252005.102    21170545.766    86689877.680                  
                                
  22331993.822   117355432.602    22331989.641    91445787.097                  
                                
  20036897.996   105294649.903                    82047812.325    20036898.889  
  20036894.440    78629156.316  
  24192048.825   127130100.945                    99062373.031    24192047.807  
                                
  21424630.049   112587257.425                    87730347.281    21424627.655  
                                
  23378039.118   122852420.356                    95729158.534    23378040.905  
  23378035.580    91740427.156  
  19236568.813   102974874.016    19236565.257    80091549.933                  
                                
  19610161.747   104717228.366    19610157.012    81446743.647                  
                                
  22247437.481   118841848.982    22247435.461    92432541.517                  
                                
  26933516.509   141536573.056                                                  
                                
  23842622.458   125293883.729                                                  
                                
  24151319.354   126916109.865                                                  
                                
 21  8 31  2 36 21.0000000  0 13G 3G16G22G26G29G31G32R 7R 9R16E 7E21
                                E27
  21857219.439   114860480.312                    89501687.932    21857220.279  
  21857217.867    85772433.108  
  21170034.015   111249307.106    21170032.460    86687775.352                  
                                
  22332290.073   117356989.864    22332286.017    91447000.552                  
                                
  20036895.726   105294638.135                    82047803.154    20036896.513  
  20036892.260    78629147.529  
  24192111.045   127130432.461                    99062631.344    24192111.653  
                                
  21424966.827   112589026.994                    87731726.175    21424964.307  
                                
  23378606.531   122855401.245                    95731481.305    23378607.282  
  23378602.600    91742653.118  
  19236488.456   102974445.165    19236485.025    80091216.389                  
                                
  19610363.524   104718307.737    19610359.039    81447583.161                  
                                
  22248068.364   118845218.447    22248066.238    92435162.221                  
                                
  26934006.263   141539148.612                                                  
                                
  23842421.521   125292828.331                                                  
                                
  24151618.320   126917681.873                                                  
                                
 21  8 31  2 36 22.0000000  0 13G 3G16G22G26G29G31G32R 7R 9R16E 7E21
                                E27
  21857289.861   114860849.824                    89501975.861    21857290.862  
  21857288.021    85772709.036  
  21169521.013   111246609.617    21169519.137    86685673.405                  
                                
  22332586.895   117358547.584    22332582.499    91448214.362                  
                                
  20036893.654   105294626.976                    82047794.460    20036894.547  
  20036890.098    78629139.200  
  24192174.445   127130764.538                    99062890.105    24192174.373  
                                
  21425303.944   112590796.722                    87733105.177    21425301.549  
                                
  23379173.533   122858382.343                    95733804.290    23379174.266  
  23379169.906    91744879.289  
  19236408.492   102974017.183    19236405.132    80090883.512                  
                                
  19610566.606   104719387.547    19610561.352    81448423.020                  
                                
  22248698.694   118848587.903    22248696.943    92437782.907                  
                                
  26934496.249   141541724.298                                                  
                                
  23842220.798   125291773.273                                                  
                                
  24151917.627   126919254.130                                                  
                                
 21  8 31  2 36 23.0000000  0 13G 3G16G22G26G29G31G32R 7R 9R16E 7E21
                                E27
  21857360.265   114861220.040                    89502264.336    21857361.176  
  21857358.585    85772985.500  
  21169008.047   111243912.689    21169005.867    86683571.905                  
                                
  22332883.628   117360105.834    22332879.000    91449428.583                  
                                
  20036891.688   105294616.470                    82047786.281    20036892.653  
  20036888.132    78629131.353  
  24192238.594   127131097.316                    99063149.413    24192237.790  
                                
  21425640.364   112592566.652                    87734484.348    21425637.880  
                                
  23379740.589   122861363.830                    95736127.486    23379742.572  
  23379737.229    91747105.698  
  19236329.135   102973590.135    19236325.347    80090551.371                  
                                
  19610768.311   104720467.855    19610763.629    81449263.257                  
                                
  22249330.382   118851957.410    22249327.684    92440403.639                  
                                
  26934985.843   141544300.218                                                  
                                
  23842020.040   125290718.618                                                  
                                
  24152216.825   126920826.686                                                  
                                
 21  8 31  2 36 24.0000000  0 13G 3G16G22G26G29G31G32R 7R 9R16E 7E21
                                E27
  21857430.830   114861590.849                    89502553.275    21857431.974  
  21857429.079    85773262.403  
  21168494.456   111241216.204    21168492.972    86681470.748                  
                                
  22333179.807   117361664.481    22333175.876    91450643.111                  
                                
  20036889.669   105294606.523                    82047778.534    20036890.687  
  20036886.256    78629123.933  
  24192301.761   127131430.614                    99063409.135    24192300.957  
                                
  21425977.356   112594336.682                    87735863.583    21425974.550  
                                
  23380308.609   122864345.485                    95738450.858    23380310.557  
  23380304.624    91749332.282  
  19236249.440   102973163.902    19236245.794    80090219.849                  
                                
  19610970.803   104721548.568    19610966.068    81450103.811                  
                                
  22249960.890   118855326.860    22249958.335    92443024.314                  
                                
  26935476.276   141546876.197                                                  
                                
  23841819.531   125289664.262                                                  
                                
  24152516.042   126922399.439                                                  
                                
 21  8 31  2 36 25.0000000  0 13G 3G16G22G26G29G31G32R 7R 9R16E 7E21
                                E27
  21857501.538   114861962.353                    89502842.761    21857502.252  
  21857499.858    85773539.825  
  21167981.311   111238520.264    21167979.953    86679370.009                  
                                
  22333476.326   117363223.645    22333472.716    91451858.046                  
                                
  20036887.900   105294597.209                    82047771.277    20036888.650  
  20036884.487    78629116.976  
  24192365.500   127131764.548                    99063669.336    24192364.517  
                                
  21426314.098   112596106.882                    87737242.971    21426312.078  
                                
  23380875.861   122867327.436                    95740774.461    23380877.291  
  23380871.948    91751559.066  
  19236169.976   102972738.522    19236166.331    80089889.000                  
                                
  19611173.044   104722629.741    19611168.559    81450944.723                  
                                
  22250591.506   118858696.406    22250589.129    92445645.076                  
                                
  26935965.905   141549452.414                                                  
                                
  23841618.844   125288610.284                                                  
                                
  24152815.366   126923972.479                                                  
                                
 21  8 31  2 36 26.0000000  0 13G 3G16G22G26G29G31G32R 7R 9R16E 7E21
                                E27
  21857572.406   114862334.485                    89503132.741    21857573.282  
  21857570.566    85773817.718  
  21167468.684   111235824.838    21167467.022    86677269.679                  
                                
  22333773.077   117364783.284    22333769.664    91453073.354                  
                                
  20036886.292   105294588.526                    82047764.513    20036887.274  
  20036882.771    78629110.487  
  24192429.025   127132099.073                    99063930.007    24192427.738  
                                
  21426651.268   112597877.255                    87738622.483    21426648.784  
                                
  23381442.863   122870309.664                    95743098.279    23381444.865  
  23381439.433    91753786.054  
  19236090.477   102972313.969    19236086.992    80089558.795                  
                                
  19611376.358   104723711.337    19611371.051    81451785.960                  
                                
  22251222.944   118862065.981    22251219.888    92448265.852                  
                                
  26936456.320   141552028.810                                                  
                                
  23841418.336   125287556.679                                                  
                                
  24153115.030   126925545.772                                                  
                                
 21  8 31  2 36 27.0000000  0 13G 3G16G22G26G29G31G32R 7R 9R16E 7E21
                                E27
  21857643.293   114862707.321                    89503423.261    21857644.186  
  21857641.488    85774096.136  
  21166955.825   111233129.944    21166954.235    86675169.771                  
                                
  22334070.417   117366343.427    22334066.575    91454289.048                  
                                
  20036884.844   105294580.482                    82047758.245    20036885.559  
  20036881.217    78629104.490  
  24192492.388   127132434.260                    99064191.190    24192491.584  
                                
  21426987.831   112599647.828                    87740002.134    21426985.455  
                                
  23382010.115   122873292.196                    95745422.321    23382012.081  
  23382006.953    91756013.261  
  19236011.621   102971890.275    19236007.707    80089229.257                  
                                
  19611578.350   104724793.428    19611573.668    81452627.596                  
                                
  22251853.613   118865435.634    22251850.700    92450886.696                  
                                
  26936946.075   141554605.417                                                  
                                
  23841217.899   125286503.459                                                  
                                
  24153414.336   126927119.361                                                  
                                
 21  8 31  2 36 28.0000000  0 13G 3G16G22G26G29G31G32R 7R 9R16E 7E21
                                E27
  21857714.393   114863080.788                    89503714.268    21857715.591  
  21857712.535    85774375.020  
  21166443.253   111230435.542    21166441.501    86673070.230                  
                                
  22334367.222   117367904.023    22334363.505    91455505.096                  
                                
  20036883.522   105294573.026                    82047752.431    20036884.165  
  20036879.877    78629098.917  
  24192556.270   127132770.034                    99064452.818    24192555.341  
                                
  21427324.448   112601418.504                    87741381.893    21427322.411  
                                
  23382578.065   122876274.960                    95747746.555    23382580.941  
  23382574.580    91758240.661  
  19235932.425   102971467.384    19235928.780    80088900.338                  
                                
  19611781.967   104725875.915    19611776.463    81453469.528                  
                                
  22252484.622   118868805.293    22252481.620    92453507.537                  
                                
  26937436.669   141557182.165                                                  
                                
  23841017.677   125285450.555                                                  
                                
  24153713.678   126928693.159                                                  
                                
 21  8 31  2 36 29.0000000  0 13G 3G16G22G26G29G31G32R 7R 9R16E 7E21
                                E27
  21857785.691   114863454.895                    89504005.777    21857786.584  
  21857783.797    85774654.383  
  21165930.287   111227741.654    21165928.875    86670971.103                  
                                
  22334664.098   117369465.085    22334660.702    91456721.503                  
                                
  20036882.253   105294566.180                    82047747.098    20036883.039  
  20036878.519    78629093.809  
  24192620.277   127133106.378                    99064714.899    24192619.133  
                                
  21427661.833   112603189.341                    87742761.756    21427659.921  
                                
  23383145.513   122879257.968                    95750071.002    23383147.693  
  23383142.172    91760468.229  
  19235853.659   102971045.375    19235850.049    80088572.111                  
                                
  19611984.209   104726958.859    19611979.205    81454311.817                  
                                
  22253114.058   118872174.958    22253112.396    92456128.390                  
                                
  26937926.834   141559759.057                                                  
                                
  23840817.401   125284398.010                                                  
                                
  24154013.359   126930267.217                                                  
                                
 21  8 31  2 36 30.0000000  0 13G 3G16G22G26G29G31G32R 7R 9R16E 7E21
                                E27
  21857857.042   114863829.616                    89504297.781    21857857.882  
  21857855.112    85774934.218  
  21165417.946   111225048.261    21165416.356    86668872.347                  
                                
  22334961.295   117371026.601    22334957.811    91457938.277                  
                                
  20036881.002   105294559.935                    82047742.233    20036881.789  
  20036877.321    78629089.146  
  24192684.552   127133443.305                    99064977.482    24192683.247  
                                
  21427998.664   112604960.313                    87744141.734    21427996.788  
                                
  23383713.641   122882241.254                    95752395.627    23383715.499  
  23383710.031    91762696.015  
  19235774.409   102970624.218    19235771.515    80088244.542                  
                                
  19612186.897   104728042.241    19612182.108    81455154.450                  
                                
  22253745.210   118875544.608    22253743.298    92458749.222                  
                                
  26938417.464   141562336.113                                                  
                                
  23840617.035   125283345.796                                                  
                                
  24154312.951   126931841.514                                                  
                                
 21  8 31  2 36 31.0000000  0 13G 3G16G22G26G29G31G32R 7R 9R16E 7E21
                                E27
  21857928.446   114864205.113                    89504590.360    21857929.394  
  21857926.409    85775214.620  
  21164905.069   111222355.450    21164903.961    86666774.061                  
                                
  22335258.546   117372588.667    22335255.062    91459155.468                  
                                
  20036879.859   105294554.383                    82047737.899    20036880.645  
  20036876.303    78629085.002  
  24192749.095   127133780.958                    99065240.562    24192747.254  
                                
  21428335.977   112606731.516                    87745521.916    21428333.762  
                                
  23384280.875   122885224.893                    95754720.526    23384283.377  
  23384277.820    91764924.050  
  19235696.143   102970203.973    19235692.998    80087917.678                  
                                
  19612389.639   104729126.127    19612385.172    81455997.473                  
                                
  22254376.058   118878914.383    22254374.128    92461370.146                  
                                
  26938906.950   141564913.419                                                  
                                
  23840416.831   125282294.025                                                  
                                
  24154612.579   126933416.139                                                  
                                
 21  8 31  2 36 33.0000000  0 13G 3G16G22G26G29G31G32R 7R 9R16E 7E21
                                E27
  21858071.649   114864957.920                    89505176.976    21858072.775  
  21858069.701    85775776.772  
  21163880.960   111216971.286    21163879.423    86662578.611                  
                                
  22335853.442   117375714.136    22335850.118    91461590.901                  
                                
  20036878.036   105294545.019                    82047730.605    20036879.233  
  20036874.498    78629077.999  
  24192877.609   127134457.938                    99065768.070    24192876.519  
                                
  21429010.497   112610274.302                    87748282.524    21429007.888  
                                
  23385417.095   122891192.839                    95759370.869    23385418.346  
  23385413.521    91769380.611  
  19235540.415   102969365.892    19235536.305    80087265.832                  
                                
  19612796.231   104731295.169    19612791.245    81457684.501                  
                                
  22255638.755   118885653.898    22255635.717    92466612.003                  
                                
  26939887.191   141570584.501                                                  
                                
  23840016.725   125280191.454                                                  
                                
  24155212.103   126936566.067                                                  
                                
 21  8 31  2 36 34.0000000  0 13G 3G16G22G26G29G31G32R 7R 9R16E 7E21
                                E27
  21858143.554   114865335.293                    89505471.033    21858144.644  
  21858141.660    85776058.583  
  21163368.869   111214279.960    21163367.225    86660481.471                  
                                
  22336150.747   117377277.566    22336147.745    91462809.156                  
                                
  20036877.411   105294541.249                    82047727.665    20036878.143  
  20036873.801    78629075.183  
  24192942.169   127134797.318                    99066032.538    24192941.169  
                                
  21429347.346   112612045.908                    87749662.991    21429344.630  
                                
  23385985.651   122894177.179                    95761696.354    23385987.563  
  23385981.631    91771609.203  
  19235461.862   102968948.095    19235458.306    80086940.879                  
                                
  19612999.455   104732380.316    19612994.452    81458528.500                  
                                
  22256268.888   118889023.643    22256266.493    92469232.918                  
                                
  26940377.946   141573162.209                                                  
                                
  23839816.717   125279140.687                                                  
                                
  24155511.766   126938141.390                                                  
                                
 21  8 31  2 36 35.0000000  0 13G 3G16G22G26G29G31G32R 7R 9R16E 7E21
                                E27
  21858215.566   114865713.332                    89505765.602    21858216.424  
  21858213.600    85776340.880  
  21162856.404   111211589.158    21162855.099    86658384.746                  
                                
  22336448.159   117378841.466    22336445.407    91464027.784                  
                                
  20036876.821   105294538.085                    82047725.202    20036877.536  
  20036873.229    78629072.832  
  24193006.676   127135137.318                    99066297.460    24193006.087  
                                
  21429684.463   112613817.684                    87751043.596    21429681.801  
                                
  23386553.225   122897161.806                    95764022.015    23386555.602  
  23386549.526    91773837.985  
  19235383.775   102968531.180    19235380.523    80086616.607                  
                                
  19613202.501   104733465.905    19613197.801    81459372.846                  
                                
  22256899.378   118892393.446    22256897.127    92471853.882                  
                                
  26940868.414   141575740.189                                                  
                                
  23839616.781   125278090.281                                                  
                                
  24155811.698   126939716.975                                                  
                                
 21  8 31  2 36 36.0000000  0 13G 3G16G22G26G29G31G32R 7R 9R16E 7E21
                                E27
  21858287.632   114866092.066                    89506060.732    21858288.168  
  21858285.648    85776623.704  
  21162344.617   111208898.912    21162343.134    86656288.445                  
                                
  22336745.857   117380405.891    22336742.926    91465246.816                  
                                
  20036876.213   105294535.600                    82047723.256    20036876.875  
  20036872.765    78629070.974  
  24193071.684   127135477.981                    99066562.907    24193071.362  
                                
  21430021.562   112615589.674                    87752424.358    21430018.936  
                                
  23387120.817   122900146.751                    95766347.953    23387122.872  
  23387117.350    91776067.007  
  19235306.062   102968115.165    19235302.828    80086293.042                  
                                
  19613405.868   104734552.003    19613401.169    81460217.594                  
                                
  22257530.548   118895763.334    22257527.993    92474474.914                  
                                
  26941358.633   141578318.340                                                  
                                
  23839417.059   125277040.276                                                  
                                
  24156111.540   126941292.870                                                  
                                
 21  8 31  2 36 37.0000000  0 13G 3G16G22G26G29G31G32R 7R 9R16E 7E21
                                E27
  21858359.876   114866471.429                    89506356.332    21858360.716  
  21858357.875    85776906.992  
  21161833.116   111206209.147    21161831.311    86654192.526                  
                                
  22337043.626   117381970.762    22337040.874    91466466.196                  
                                
  20036875.749   105294533.678                    82047721.763    20036876.910  
  20036872.354    78629069.536  
  24193136.495   127135819.193                    99066828.784    24193135.905  
                                
  21430358.858   112617361.764                    87753805.224    21430356.678  
                                
  23387688.927   122903131.939                    95768674.069    23387691.017  
  23387685.746    91778296.195  
  19235228.707   102967699.983    19235225.277    80085970.125                  
                                
  19613609.736   104735638.531    19613604.536    81461062.679                  
                                
  22258161.235   118899133.229    22258158.769    92477095.943                  
                                
  26941849.531   141580896.661                                                  
                                
  23839217.212   125275990.606                                                  
                                
  24156411.400   126942868.983                                                  
                                
 21  8 31  2 36 38.0000000  0 13G 3G16G22G26G29G31G32R 7R 9R16E 7E21
                                E27
  21858432.121   114866851.411                    89506652.419    21858432.728  
  21858430.048    85777190.742  
  21161321.008   111203519.874    21161319.632    86652096.992                  
                                
  22337341.628   117383536.087    22337338.644    91467685.933                  
                                
  20036875.552   105294532.354                    82047720.725    20036876.660  
  20036872.121    78629068.546  
  24193201.502   127136161.004                    99067095.120    24193200.770  
                                
  21430695.957   112619133.983                    87755186.167    21430693.902  
                                
  23388257.358   122906117.335                    95771000.361    23388259.538  
  23388253.767    91780525.567  
  19235150.995   102967285.597    19235147.886    80085647.818                  
                                
  19613813.300   104736725.471    19613808.011    81461908.071                  
                                
  22258792.566   118902503.123    22258789.742    92479716.968                  
                                
  26942340.786   141583475.093                                                  
                                
  23839017.543   125274941.257                                                  
                                
  24156711.600   126944445.319                                                  
                                
 21  8 31  2 36 39.0000000  0 13G 3G16G22G26G29G31G32R 7R 9R16E 7E21
                                E27
  21858504.580   114867232.079                    89506949.044    21858505.348  
  21858502.507    85777475.012  
  21160809.382   111200831.130    21160807.863    86650001.864                  
                                
  22337639.522   117385101.924    22337636.717    91468906.058                  
                                
  20036875.427   105294531.671                    82047720.201    20036876.231  
  20036872.014    78629068.039  
  24193266.760   127136503.445                    99067361.958    24193265.885  
                                
  21431033.360   112620906.402                    87756567.258    21431031.287  
                                
  23388825.557   122909103.101                    95773326.890    23388827.434  
  23388821.930    91782755.149  
  19235074.176   102966872.069    19235070.656    80085326.185                  
                                
  19614016.685   104737812.881    19614011.682    81462753.840                  
                                
  22259422.895   118905873.072    22259420.608    92482338.036                  
                                
  26942831.827   141586053.731                                                  
                                
  23838817.928   125273892.300                                                  
                                
  24157011.638   126946021.945                                                  
                                
 21  8 31  2 36 40.0000000  0 13G 3G16G22G26G29G31G32R 7R 9R16E 7E21
                                E27
  21858577.199   114867613.458                    89507246.231    21858578.021  
  21858575.109    85777759.808  
  21160297.756   111198142.973    21160296.452    86647907.191                  
                                
  22337937.720   117386668.280    22337934.844    91470126.597                  
                                
  20036875.499   105294531.662                    82047720.197    20036876.213  
  20036871.943    78629068.037  
  24193331.928   127136846.567                    99067629.317    24193331.464  
                                
  21431370.584   112622679.026                    87757948.538    21431368.440  
                                
  23389393.024   122912089.078                    95775653.679    23389395.436  
  23389390.058    91784984.983  
  19234996.928   102966459.407    19234993.551    80085005.233                  
                                
  19614220.160   104738900.793    19614215.353    81463599.991                  
                                
  22260053.940   118909243.080    22260051.456    92484959.151                  
                                
  26943322.117   141588632.609                                                  
                                
  23838618.474   125272843.751                                                  
                                
  24157311.713   126947598.888                                                  
                                
 21  8 31  2 36 41.0000000  0 13G 3G16G22G26G29G31G32R 7R 9R16E 7E21
                                E27
  21858649.926   114867995.423                    89507543.864    21858650.391  
  21858647.710    85778045.039  
  21159786.327   111195455.250    21159784.879    86645812.867                  
                                
  22338235.758   117388235.034    22338233.113    91471347.443                  
                                
  20036875.695   105294532.196                    82047720.617    20036876.410  
  20036872.032    78629068.434  
  24193397.418   127137190.217                    99067897.096    24193396.185  
                                
  21431707.898   112624451.741                    87759329.869    21431705.986  
                                
  23389961.706   122915075.355                    95777980.618    23389964.154  
  23389958.471    91787214.969  
  19234920.145   102966047.535    19234916.607    80084684.883                  
                                
  19614423.974   104739989.071    19614419.203    81464446.439                  
                                
  22260684.770   118912613.016    22260682.251    92487580.208                  
                                
  26943812.997   141591211.596                                                  
                                
  23838418.985   125271795.481                                                  
                                
  24157611.752   126949175.990                                                  
                                
 21  8 31  2 36 43.0000000  0 13G 3G16G22G26G29G31G32R 7R 9R16E 7E21
                                E27
  21858795.719   114868761.355                    89508140.688    21858796.452  
  21858793.486    85778617.004  
  21158763.986   111190081.406    21158762.092    86641625.451                  
                                
  22338832.476   117391370.011    22338829.456    91473790.291                  
                                
  20036876.249   105294535.166                    82047722.931    20036876.982  
  20036872.604    78629070.654  
  24193528.720   127137879.390                    99068434.089    24193527.362  
                                
  21432382.721   112627997.687                    87762092.947    21432381.060  
                                
  23391098.301   122921048.695                    95782635.138    23391100.195  
  23391095.173    91791675.568  
  19234766.060   102965226.477    19234763.219    80084046.278                  
                                
  19614832.352   104742167.047    19614827.170    81466140.408                  
                                
  22261946.520   118919353.098    22261943.750    92492822.489                  
                                
  26944794.239   141596370.095                                                  
                                
  23838020.291   125269700.082                                                  
                                
  24158212.079   126952331.047                                                  
                                
 21  8 31  2 36 44.0000000  0 13G 3G16G22G26G29G31G32R 7R 9R16E 7E21
                                E27
  21858868.732   114869145.339                    89508439.892    21858869.393  
  21858866.660    85778903.739  
  21158252.414   111187395.265    21158250.842    86639532.354                  
                                
  22339130.996   117392938.236    22339127.923    91475012.271                  
                                
  20036876.607   105294537.578                    82047724.818    20036877.554  
  20036873.033    78629072.457  
  24193594.800   127138224.866                    99068703.311    24193593.692  
                                
  21432719.767   112629770.901                    87763474.670    21432718.087  
                                
  23391667.143   122924035.752                    95784962.729    23391668.233  
  23391663.623    91793906.183  
  19234690.403   102964817.262    19234686.615    80083728.004                  
                                
  19615036.327   104743256.706    19615031.217    81466987.921                  
                                
  22262577.296   118922723.213    22262574.562    92495443.683                  
                                
  26945285.333   141598949.643                                                  
                                
  23837821.016   125268652.933                                                  
                                
  24158512.243   126953908.974                                                  
                                
 21  8 31  2 36 45.0000000  0 13G 3G16G22G26G29G31G32R 7R 9R16E 7E21
                                E27
  21858941.924   114869529.931                    89508739.581    21858942.514  
  21858939.780    85779190.943  
  21157741.378   111184709.631    21157739.895    86637439.650                  
                                
  22339429.158   117394506.919    22339426.621    91476234.630                  
                                
  20036876.946   105294540.588                    82047727.162    20036877.929  
  20036873.658    78629074.708  
  24193660.468   127138570.966                    99068973.020    24193659.950  
                                
  21433057.366   112631544.264                    87764856.516    21433055.580  
                                
  23392235.289   122927023.073                    95787290.528    23392236.825  
  23392232.269    91796136.979  
  19234613.816   102964408.875    19234610.278    80083410.365                  
                                
  19615240.284   104744346.818    19615235.370    81467835.793                  
                                
  22263208.198   118926093.304    22263205.464    92498064.858                  
                                
  26945776.624   141601529.328                                                  
                                
  23837621.794   125267606.119                                                  
                                
  24158812.603   126955487.135                                                  
                                
 21  8 31  2 36 46.0000000  0 13G 3G16G22G26G29G31G32R 7R 9R16E 7E21
                                E27
  21859015.133   114869915.177                    89509039.772    21859016.009  
  21859013.060    85779478.622  
  21157230.592   111182024.488    21157228.787    86635347.331                  
                                
  22339728.054   117396076.057    22339725.123    91477457.335                  
                                
  20036877.625   105294544.213                    82047729.983    20036878.840  
  20036874.266    78629077.412  
  24193726.351   127138917.604                    99069243.146    24193725.780  
                                
  21433395.091   112633317.760                    87766238.453    21433392.839  
                                
  23392804.256   122930010.656                    95789618.501    23392805.400  
  23392800.539    91798367.964  
  19234537.676   102964001.322    19234534.228    80083093.387                  
                                
  19615444.491   104745437.318    19615439.577    81468683.968                  
                                
  22263839.135   118929463.429    22263836.240    92500686.073                  
                                
  26946267.611   141604109.192                                                  
                                
  23837422.536   125266559.659                                                  
                                
  24159112.928   126957065.536                                                  
                                
 21  8 31  2 36 47.0000000  0 13G 3G16G22G26G29G31G32R 7R 9R16E 7E21
                                E27
  21859088.468   114870301.107                    89509340.485    21859089.450  
  21859086.556    85779766.821  
  21156719.395   111179339.917    21156718.019    86633255.452                  
                                
  22340026.627   117397645.714    22340023.732    91478680.447                  
                                
  20036878.483   105294548.482                    82047733.301    20036879.716  
  20036875.123    78629080.602  
  24193792.592   127139264.958                    99069513.793    24193791.341  
                                
  21433732.726   112635091.449                    87767620.551    21433730.153  
                                
  23393372.563   122932998.529                    95791946.720    23393374.421  
  23393369.489    91800599.183  
  19234461.483   102963594.627    19234458.463    80082777.066                  
                                
  19615648.484   104746528.306    19615643.910    81469532.518                  
                                
  22264470.215   118932833.651    22264467.160    92503307.360                  
                                
  26946758.688   141606689.247                                                  
                                
  23837223.565   125265513.578                                                  
                                
  24159413.539   126958644.226                                                  
                                
 21  8 31  2 36 48.0000000  0 13G 3G16G22G26G29G31G32R 7R 9R16E 7E21
                                E27
  21859161.999   114870687.677                    89509641.715    21859162.660  
  21859160.140    85780055.491  
  21156208.734   111176655.821    21156207.161    86631163.947                  
                                
  22340325.558   117399215.817    22340322.574    91479903.892                  
                                
  20036879.466   105294553.342                    82047737.090    20036880.359  
  20036876.070    78629084.229  
  24193858.278   127139612.880                    99069784.906    24193857.617  
                                
  21434070.290   112636865.270                    87769002.750    21434068.003  
                                
  23393941.620   122935986.654                    95794275.132    23393942.852  
  23393937.867    91802830.573  
  19234385.432   102963188.769    19234382.502    80082461.403                  
                                
  19615852.727   104747619.743    19615848.331    81470381.403                  
                                
  22265100.849   118936203.868    22265098.115    92505928.635                  
                                
  26947249.764   141609269.449                                                  
                                
  23837024.611   125264467.843                                                  
                                
  24159713.988   126960223.155                                                  
                                
 21  8 31  2 36 49.0000000  0 13G 3G16G22G26G29G31G32R 7R 9R16E 7E21
                                E27
  21859235.708   114871074.904                    89509943.460    21859236.530  
  21859233.957    85780344.660  
  21155698.144   111173972.259    21155696.554    86629072.857                  
                                
  22340624.167   117400786.398    22340621.576    91481127.719                  
                                
  20036880.502   105294558.826                    82047741.366    20036881.449  
  20036877.125    78629088.324  
  24193924.572   127139961.399                    99070056.479    24193924.215  
                                
  21434407.782   112638639.253                    87770385.081    21434405.531  
                                
  23394509.783   122938975.064                    95796603.749    23394510.641  
  23394506.638    91805062.180  
  19234310.168   102962783.754    19234306.719    80082146.387                  
                                
  19616057.381   104748711.596    19616052.771    81471230.629                  
                                
  22265732.054   118939574.109    22265729.142    92508549.935                  
                                
  26947740.876   141611849.845                                                  
                                
  23836825.657   125263422.461                                                  
                                
  24160014.492   126961802.338                                                  
                                
 21  8 31  2 36 50.0000000  0 13G 3G16G22G26G29G31G32R 7R 9R16E 7E21
                                E27
  21859309.418   114871462.776                    89510245.696    21859310.329  
  21859307.703    85780634.303  
  21155187.555   111171289.196    21155185.911    86626982.163                  
                                
  22340923.188   117402357.446    22340920.489    91482351.917                  
                                
  20036881.646   105294564.921                    82047746.108    20036882.485  
  20036878.250    78629092.871  
  24193991.009   127140310.525                    99070328.514    24193990.777  
                                
  21434745.346   112640413.388                    87771767.521    21434743.005  
                                
  23395078.536   122941963.750                    95798932.582    23395079.608  
  23395075.498    91807293.976  
  19234234.779   102962379.585    19234231.312    80081832.038                  
                                
  19616262.643   104749803.897    19616257.192    81472080.201                  
                                
  22266363.206   118942944.361    22266360.097    92511171.243                  
                                
  26948231.220   141614430.387                                                  
                                
  23836626.597   125262377.433                                                  
                                
  24160315.067   126963381.778                                                  
                                
 21  8 31  2 36 51.0000000  0 13G 3G16G22G26G29G31G32R 7R 9R16E 7E21
                                E27
  21859383.307   114871851.274                    89510548.416    21859384.039  
  21859381.698    85780924.408  
  21154677.216   111168606.614    21154675.322    86624891.845                  
                                
  22341222.208   117403928.943    22341219.813    91483576.458                  
                                
  20036882.950   105294571.585                    82047751.315    20036883.736  
  20036879.519    78629097.857  
  24194057.536   127140660.220                    99070600.997    24194056.446  
                                
  21435082.820   112642187.644                    87773150.056    21435080.819  
                                
  23395647.111   122944952.612                    95801261.611    23395648.772  
  23395644.287    91809525.940  
  19234159.282   102961976.235    19234155.941    80081518.319                  
                                
  19616467.118   104750896.621    19616461.864    81472930.091                  
                                
  22266993.643   118946314.593    22266990.784    92513792.525                  
                                
  26948722.279   141617011.096                                                  
                                
  23836427.839   125261332.731                                                  
                                
  24160615.659   126964961.433                                                  
                                
 21  8 31  2 36 52.0000000  0 13G 3G16G22G26G29G31G32R 7R 9R16E 7E21
                                E27
  21859457.409   114872240.493                    89510851.711    21859458.374  
  21859455.748    85781215.068  
  21154166.680   111165924.622    21154164.875    86622801.985                  
                                
  22341521.407   117405500.974    22341518.941    91484801.419                  
                                
  20036884.469   105294578.948                    82047757.043    20036885.255  
  20036880.967    78629103.357  
  24194124.116   127141010.602                    99070874.060    24194123.741  
                                
  21435420.366   112643962.131                    87774532.782    21435418.383  
                                
  23396216.418   122947941.867                    95803590.882    23396217.758  
  23396213.255    91811758.169  
  19234084.232   102961573.829    19234080.819    80081205.339                  
                                
  19616671.879   104751989.861    19616666.679    81473780.389                  
                                
  22267624.741   118949684.917    22267621.721    92516413.890                  
                                
  26949213.320   141619592.058                                                  
                                
  23836228.975   125260288.467                                                  
                                
  24160916.556   126966541.416                                                  
                                
 21  8 31  2 36 53.0000000  0 13G 3G16G22G26G29G31G32R 7R 9R16E 7E21
                                E27
  21859531.619   114872630.326                    89511155.479    21859532.531  
  21859529.940    85781506.177  
  21153656.573   111163243.111    21153654.375    86620712.490                  
                                
  22341820.820   117407073.436    22341818.122    91486026.708                  
                                
  20036885.970   105294586.885                    82047763.223    20036886.720  
  20036882.450    78629109.280  
  24194190.892   127141361.539                    99071147.508    24194190.124  
                                
  21435758.430   112645736.721                    87775915.573    21435756.107  
                                
  23396785.010   122950931.310                    95805920.330    23396786.618  
  23396782.240    91813990.568  
  19234009.307   102961172.228    19234005.877    80080892.982                  
                                
  19616876.426   104753083.495    19616871.476    81474630.991                  
                                
  22268255.821   118953055.238    22268252.641    92519035.258                  
                                
  26949704.378   141622173.132                                                  
                                
  23836030.522   125259244.505                                                  
                                
  24161217.149   126968121.614                                                  
                                
 21  8 31  2 36 54.0000000  0 13G 3G16G22G26G29G31G32R 7R 9R16E 7E21
                                E27
  21859605.901   114873020.813                    89511459.746    21859606.455  
  21859604.257    85781797.768  
  21153146.430   111160562.099    21153144.250    86618623.387                  
                                
  22342120.019   117408646.359    22342117.339    91487252.360                  
                                
  20036887.596   105294595.422                    82047769.880    20036888.418  
  20036884.058    78629115.652  
  24194257.723   127141713.100                    99071421.450    24194257.383  
                                
  21436095.904   112647511.452                    87777298.489    21436093.850  
                                
  23397353.620   122953921.029                    95808249.983    23397355.318  
  23397351.065    91816223.152  
  19233934.847   102960771.445    19233930.862    80080581.260                  
                                
  19617081.455   104754177.570    19617076.362    81475481.942                  
                                
  22268886.258   118956425.595    22268883.578    92521656.652                  
                                
  26950195.991   141624235.3531                                                 
                                
  23835831.890   125258200.889                                                  
                                
  24161517.759   126969702.055                                                  
                                
 21  8 31  2 36 55.0000000  0 13G 3G16G22G26G29G31G32R 7R 9R16E 7E21
                                E27
  21859680.325   114873411.986                    89511764.559    21859681.130  
  21859678.664    85782089.882  
  21152636.341   111157881.654    21152633.982    86616534.731                  
                                
  22342419.522   117410219.810    22342416.609    91488478.426                  
                                
  20036889.186   105294604.627                    82047777.046    20036890.419  
  20036885.827    78629122.522  
  24194325.089   127142065.310                    99071695.874    24194323.641  
                                
  21436433.861   112649286.406                    87778681.570    21436431.824  
                                
  23397922.981   122956911.058                    95810579.869    23397924.017  
  23397920.032    91818455.947  
  19233859.636   102960371.559    19233856.170    80080270.240                  
                                
  19617286.573   104755272.164    19617281.284    81476333.298                  
                                
  22269517.803   118959796.015    22269514.551    92524278.085                  
                                
  26950687.496   141626816.788                                                  
                                
  23835633.383   125257157.689                                                  
                                
  24161818.638   126971282.795                                                  
                                
 21  8 31  2 36 56.0000000  0 13G 3G16G22G26G29G31G32R 7R 9R16E 7E21
                                E27
  21859754.929   114873803.782                    89512069.863    21859755.536  
  21859753.267    85782382.459  
  21152126.234   111155201.681    21152123.947    86614446.440                  
                                
  22342718.846   117411793.684    22342716.076    91489704.823                  
                                
  20036891.045   105294614.399                    82047784.655    20036891.956  
  20036887.721    78629129.819  
  24194392.705   127142418.060                    99071970.742    24194391.168  
                                
  21436771.496   112651061.454                    87780064.727    21436769.406  
                                
  23398492.038   122959901.338                    95812909.957    23398493.360  
  23398488.946    91820688.936  
  19233784.765   102959972.496    19233781.656    80079959.848                  
                                
  19617491.174   104756367.160    19617486.403    81477184.959                  
                                
  22270149.044   118963166.441    22270145.453    92526899.527                  
                                
  26951178.823   141629398.392                                                  
                                
  23835434.876   125256114.795                                                  
                                
  24162119.427   126972863.744                                                  
                                
 21  8 31  2 36 57.0000000  0 13G 3G16G22G26G29G31G32R 7R 9R16E 7E21
                                E27
  21859829.585   114874196.224                    89512375.657    21859830.926  
  21859827.977    85782675.518  
  21151616.449   111152522.230    21151614.018    86612358.556                  
                                
  22343018.491   117413368.036    22343015.668    91490931.587                  
                                
  20036893.046   105294624.772                    82047792.755    20036894.118  
  20036889.687    78629137.576  
  24194459.642   127142771.415                    99072246.120    24194458.910  
                                
  21437109.114   112652836.675                    87781447.989    21437106.630  
                                
  23399061.613   122962891.834                    95815240.226    23399062.042  
  23399057.914    91822922.121  
  19233710.680   102959574.272    19233707.267    80079650.125                  
                                
  19617697.060   104757462.595    19617691.646    81478036.966                  
                                
  22270780.125   118966536.902    22270776.462    92529520.990                  
                                
  26951670.578   141631980.152                                                  
                                
  23835236.583   125255072.268                                                  
                                
  24162420.359   126974444.960                                                  
                                
 21  8 31  2 36 58.0000000  0 13G 3G16G22G26G29G31G32R 7R 9R16E 7E21
                                E27
  21859904.439   114874589.325                    89512681.972    21859905.243  
  21859902.723    85782969.062  
  21151106.520   111149843.287    21151104.090    86610271.070                  
                                
  22343318.333   117414942.852    22343315.278    91492158.716                  
                                
  20036895.047   105294635.779                    82047801.325    20036896.084  
  20036891.742    78629145.787  
  24194527.205   127143125.409                    99072521.912    24194526.276  
                                
  21437447.178   112654612.037                    87782831.403    21437444.926  
                                
  23399630.437   122965882.633                    95817570.700    23399630.920  
  23399627.150    91825155.512  
  19233636.560   102959176.876    19233633.021    80079341.037                  
                                
  19617901.071   104758558.453    19617896.854    81478889.298                  
                                
  22271410.883   118969907.402    22271407.381    92532142.490                  
                                
  26952161.905   141634562.044                                                  
                                
  23835038.344   125254030.084                                                  
                                
  24162721.470   126976026.419                                                  
                                
 21  8 31  2 36 59.0000000  0 13G 3G16G22G26G29G31G32R 7R 9R16E 7E21
                                E27
  21859979.274   114874983.111                    89512988.820    21859980.043  
  21859977.791    85783263.122  
  21150597.057   111147164.878    21150594.448    86608184.005                  
                                
  22343617.586   117416518.164    22343615.209    91493386.231                  
                                
  20036897.317   105294647.420                    82047810.389    20036898.550  
  20036893.939    78629154.484  
  24194594.536   127143479.987                    99072798.229    24194594.464  
                                
  21437785.278   112656387.581                    87784214.949    21437782.472  
                                
  23400199.548   122968873.739                    95819901.409    23400200.120  
  23400196.153    91827389.100  
  19233562.367   102958780.359    19233558.937    80079032.638                  
                                
  19618106.815   104759654.776    19618102.062    81479742.001                  
                                
  22272041.303   118973277.944    22272038.354    92534764.027                  
                                
  26952653.142   141637144.206                                                  
                                
  23834839.944   125252988.287                                                  
                                
  24163022.456   126977608.160                                                  
                                
 21  8 31  2 37  0.0000000  0 13G 3G16G22G26G29G31G32R 7R 9R16E 7E21
                                E27
  21860054.378   114875377.506                    89513296.142    21860055.146  
  21860052.787    85783557.641  
  21150087.414   111144486.977    21150085.020    86606097.334                  
                                
  22343917.750   117418093.939    22343914.891    91494614.108                  
                                
  20036899.640   105294659.645                    82047819.912    20036900.801  
  20036896.352    78629163.620  
  24194661.884   127143835.182                    99073075.023    24194661.723  
                                
  21438123.181   112658163.268                    87785598.594    21438120.411  
                                
  23400768.390   122971865.063                    95822232.325    23400769.069  
  23400765.174    91829622.883  
  19233488.676   102958384.703    19233485.120    80078724.908                  
                                
  19618312.112   104760751.538    19618307.466    81480595.036                  
                                
  22272672.168   118976648.474    22272669.399    92537385.543                  
                                
  26953144.648   141639726.442                                                  
                                
  23834641.688   125251946.831                                                  
                                
  24163323.388   126979190.133                                                  
                                
 21  8 31  2 37  1.0000000  0 13G 3G16G22G26G29G31G32R 7R 9R16E 7E21
                                E27
  21860129.606   114875772.633                    89513604.023    21860130.446  
  21860127.998    85783852.694  
  21149577.897   111141809.645    21149575.574    86604011.094                  
                                
  22344217.967   117419670.237    22344214.947    91495842.394                  
                                
  20036902.177   105294672.539                    82047829.969    20036903.303  
  20036898.800    78629173.244  
  24194729.089   127144191.013                    99073352.287    24194729.250  
                                
  21438460.977   112659939.146                    87786982.418    21438458.439  
                                
  23401337.376   122974856.707                    95824563.471    23401337.930  
  23401334.517    91831856.901  
  19233415.252   102957989.944    19233411.285    80078417.873                  
                                
  19618517.820   104761848.801    19618513.049    81481448.460                  
                                
  22273302.998   118980019.037    22273300.604    92540007.088                  
                                
  26953635.903   141642308.950                                                  
                                
  23834443.610   125250905.771                                                  
                                
  24163624.517   126980772.405                                                  
                                
 21  8 31  2 37  2.0000000  0 13G 3G16G22G26G29G31G32R 7R 9R16E 7E21
                                E27
  21860204.942   114876168.373                    89513912.385    21860205.925  
  21860203.334    85784148.216  
  21149068.540   111139132.788    21149066.164    86601925.232                  
                                
  22344517.667   117421246.975    22344515.040    91497071.014                  
                                
  20036904.679   105294686.014                    82047840.466    20036905.536  
  20036901.373    78629183.307  
  24194797.724   127144547.449                    99073630.031    24194796.527  
                                
  21438798.969   112661715.166                    87788366.309    21438796.646  
                                
  23401906.808   122977848.591                    95826894.782    23401908.345  
  23401903.770    91834091.078  
  19233341.399   102957595.995    19233337.754    80078111.470                  
                                
  19618723.386   104762946.463    19618718.615    81482302.190                  
                                
  22273933.918   118983389.591    22273931.666    92542628.627                  
                                
  26954127.837   141644891.593                                                  
                                
  23834245.585   125249865.045                                                  
                                
  24163925.735   126982354.906                                                  
                                
 21  8 31  2 37  3.0000000  0 13G 3G16G22G26G29G31G32R 7R 9R16E 7E21
                                E27
  21860280.385   114876564.737                    89514221.245    21860280.689  
  21860278.795    85784444.196  
  21148559.202   111136456.419    21148556.897    86599839.753                  
                                
  22344817.473   117422824.147    22344815.132    91498299.980                  
                                
  20036907.306   105294700.067                    82047851.419    20036908.449  
  20036904.035    78629193.803  
  24194865.377   127144904.436                    99073908.192    24194864.983  
                                
  21439136.962   112663491.305                    87789750.318    21439134.585  
                                
  23402476.919   122980840.728                    95829226.329    23402476.740  
  23402473.310    91836325.479  
  19233267.457   102957202.853    19233264.294    80077805.693                  
                                
  19618929.165   104764044.536    19618924.234    81483156.254                  
                                
  22274564.516   118986760.147    22274562.622    92545250.181                  
                                
  26954619.539   141647474.360                                                  
                                
  23834047.596   125248824.636                                                  
                                
  24164226.774   126983937.630                                                  
                                
 21  8 31  2 37  4.0000000  0 13G 3G16G22G26G29G31G32R 7R 9R16E 7E21
                                E27
  21860355.935   114876961.783                    89514530.641    21860356.775  
  21860354.327    85784740.698  
  21148050.131   111133780.607    21148047.719    86597754.696                  
                                
  22345118.030   117424401.841    22345115.493    91499529.359                  
                                
  20036910.165   105294714.786                    82047862.893    20036911.022  
  20036906.841    78629204.790  
  24194933.583   127145262.084                    99074186.869    24194932.439  
                                
  21439474.794   112665267.635                    87791134.485    21439472.435  
                                
  23403045.940   122983833.129                    95831558.099    23403046.780  
  23403042.545    91838560.060  
  19233194.551   102956810.599    19233191.156    80077500.613                  
                                
  19619134.606   104765143.096    19619129.995    81484010.690                  
                                
  22275196.221   118990130.770    22275193.505    92547871.769                  
                                
  26955111.205   141650057.358                                                  
                                
  23833849.786   125247784.632                                                  
                                
  24164528.082   126985520.645                                                  
                                
 21  8 31  2 37  5.0000000  0 13G 3G16G22G26G29G31G32R 7R 9R16E 7E21
                                E27
  21860431.629   114877359.500                    89514840.543    21860432.468  
  21860430.038    85785037.684  
  21147540.846   111131105.308    21147538.559    86595670.061                  
                                
  22345418.694   117425980.002    22345415.782    91500759.099                  
                                
  20036913.041   105294730.107                    82047874.834    20036914.185  
  20036909.789    78629216.235  
  24195002.039   127145620.333                    99074466.029    24195001.449  
                                
  21439812.929   112667044.127                    87792518.760    21439810.463  
                                
  23403615.408   122986825.803                    95833890.048    23403616.391  
  23403611.906    91840794.853  
  19233121.145   102956419.193    19233118.036    80077196.182                  
                                
  19619340.296   104766242.106    19619335.757    81484865.480                  
                                
  22275826.498   118993501.431    22275824.532    92550493.401                  
                                
  26955603.068   141652640.526                                                  
                                
  23833651.762   125246744.987                                                  
                                
  24164829.622   126987103.909                                                  
                                
 21  8 31  2 37  6.0000000  0 13G 3G16G22G26G29G31G32R 7R 9R16E 7E21
                                E27
  21860507.357   114877757.846                    89515150.945    21860508.019  
  21860505.821    85785335.152  
  21147031.454   111128430.517    21147029.613    86593585.800                  
                                
  22345718.947   117427558.627    22345716.088    91501989.192                  
                                
  20036916.026   105294746.044                    82047887.250    20036917.294  
  20036912.809    78629228.141  
  24195070.048   127145979.175                    99074745.630    24195069.477  
                                
  21440151.065   112668820.756                    87793903.147    21440148.563  
                                
  23404185.180   122989818.744                    95836222.226    23404184.876  
  23404181.392    91843029.856  
  19233048.240   102956028.631    19233045.148    80076892.416                  
                                
  19619546.361   104767341.552    19619541.573    81485720.606                  
                                
  22276457.846   118996872.122    22276455.469    92553115.052                  
                                
  26956095.181   141655223.859                                                  
                                
  23833454.112   125245705.684                                                  
                                
  24165130.768   126988687.420                                                  
                                
 21  8 31  2 37  7.0000000  0 13G 3G16G22G26G29G31G32R 7R 9R16E 7E21
                                E27
  21860583.247   114878156.834                    89515461.836    21860583.426  
  21860581.800    85785633.089  
  21146522.884   111125756.196    21146520.864    86591501.920                  
                                
  22346019.326   117429137.692    22346016.502    91503219.634                  
                                
  20036919.206   105294762.556                    82047900.123    20036920.046  
  20036916.008    78629240.471  
  24195138.290   127146338.610                    99075025.725    24195137.986  
                                
  21440489.272   112670597.521                    87795287.634    21440487.092  
                                
  23404754.755   122992811.957                    95838554.566    23404755.470  
  23404751.038    91845265.002  
  19232975.388   102955638.903    19232972.368    80076589.301                  
                                
  19619752.320   104768441.382    19619747.549    81486576.025                  
                                
  22277088.587   119000242.819    22277086.514    92555736.701                  
                                
  26956586.257   141657807.312                                                  
                                
  23833256.374   125244666.702                                                  
                                
  24165432.058   126990271.156                                                  
                                
 21  8 31  2 37  8.0000000  0 13G 3G16G22G26G29G31G32R 7R 9R16E 7E21
                                E27
  21860659.244   114878556.462                    89515773.245    21860660.155  
  21860657.815    85785931.521  
  21146014.153   111123082.429    21146011.919    86589418.465                  
                                
  22346320.079   117430717.261    22346317.059    91504450.459                  
                                
  20036922.530   105294779.708                    82047913.493    20036923.370  
  20036919.206    78629253.277  
  24195206.675   127146698.643                    99075306.284    24195206.157  
                                
  21440827.961   112672374.456                    87796672.256    21440825.066  
                                
  23405324.705   122995805.444                    95840887.132    23405324.562  
  23405320.721    91847500.405  
  19232903.268   102955250.050    19232899.641    80076286.858                  
                                
  19619957.921   104769541.680    19619953.632    81487431.817                  
                                
  22277720.292   119003613.543    22277717.612    92558358.382                  
                                
  26957077.834   141660390.971                                                  
                                
  23833058.742   125243628.110                                                  
                                
  24165733.562   126991855.171                                                  
                                
 21  8 31  2 37  9.0000000  0 13G 3G16G22G26G29G31G32R 7R 9R16E 7E21
                                E27
  21860735.420   114878956.812                    89516085.211    21860736.563  
  21860734.008    85786230.485  
  21145505.314   111120409.220    21145503.295    86587335.450                  
                                
  22346620.600   117432297.344    22346617.634    91505681.697                  
                                
  20036925.961   105294797.526                    82047927.368    20036926.801  
  20036922.584    78629266.590  
  24195275.453   127147059.360                    99075587.374    24195274.595  
                                
  21441165.704   112674151.599                    87798057.045    21441162.880  
                                
  23405894.334   122998799.209                    95843219.962    23405893.780  
  23405890.296    91849736.015  
  19232830.613   102954862.094    19232827.236    80075985.117                  
                                
  19620164.683   104770642.494    19620159.751    81488288.008                  
                                
  22278351.408   119006984.317    22278348.853    92560980.105                  
                                
  26957569.643   141662974.853                                                  
                                
  23832861.182   125242589.922                                                  
                                
  24166035.191   126993439.483                                                  
                                
 21  8 31  2 37 10.0000000  0 13G 3G16G22G26G29G31G32R 7R 9R16E 7E21
                                E27
  21860811.631   114879357.816                    89516397.681    21860812.596  
  21860810.345    85786529.939  
  21144996.887   111117736.510    21144994.761    86585252.818                  
                                
  22346921.265   117433877.891    22346918.370    91506913.287                  
                                
  20036929.427   105294815.948                    82047941.728    20036930.428  
  20036926.139    78629280.344  
  24195344.713   127147420.667                    99075868.884    24195343.337  
                                
  21441503.714   112675928.894                    87799441.944    21441501.373  
                                
  23406463.534   123001793.277                    95845552.985    23406463.838  
  23406459.889    91851971.834  
  19232757.975   102954474.978    19232754.956    80075684.022                  
                                
  19620370.963   104771743.725    19620366.013    81489144.526                  
                                
  22278982.060   119010355.146    22278979.737    92563601.858                  
                                
  26958060.791   141665558.904                                                  
                                
  23832663.676   125241552.081                                                  
                                
  24166336.713   126995024.047                                                  
                                
 21  8 31  2 37 11.0000000  0 13G 3G16G22G26G29G31G32R 7R 9R16E 7E21
                                E27
  21860888.128   114879759.454                    89516710.660    21860889.165  
  21860886.735    85786829.865  
  21144488.352   111115064.304    21144486.244    86583170.580                  
                                
  22347222.286   117435458.893    22347219.231    91508145.236                  
                                
  20036933.162   105294834.975                    82047956.540    20036933.770  
  20036929.731    78629294.551  
  24195413.259   127147782.561                    99076150.909    24195412.830  
                                
  21441841.867   112677706.325                    87800826.957    21441839.473  
                                
  23407033.824   123004787.573                    95847886.236    23407033.985  
  23407029.678    91854207.835  
  19232685.624   102954088.696    19232682.836    80075383.587                  
                                
  19620577.118   104772845.383    19620572.383    81490001.371                  
                                
  22279612.908   119013725.995    22279610.889    92566223.620                  
                                
  26958553.011   141668143.112                                                  
                                
  23832466.188   125240514.583                                                  
                                
  24166638.163   126996608.834                                                  
                                
 21  8 31  2 37 12.0000000  0 13G 3G16G22G26G29G31G32R 7R 9R16E 7E21
                                E27
  21860964.662   114880161.661                    89517024.059    21860965.376  
  21860963.303    85787130.208  
  21143980.032   111112392.527    21143977.727    86581088.685                  
                                
  22347523.469   117437040.299    22347520.109    91509377.499                  
                                
  20036936.843   105294854.513                    82047971.780    20036937.647  
  20036933.519    78629309.138  
  24195482.537   127148144.989                    99076433.318    24195482.001  
                                
  21442180.343   112679483.820                    87802212.030    21442177.823  
                                
  23407603.470   123007782.063                    95850219.595    23407603.399  
  23407599.521    91856443.978  
  19232614.023   102953703.180    19232610.753    80075083.741                  
                                
  19620783.291   104773947.411    19620778.716    81490858.495                  
                                
  22280243.863   119017096.758    22280241.844    92568845.336                  
                                
  26959044.570   141670727.381                                                  
                                
  23832268.878   125239477.350                                                  
                                
  24166939.793   126998193.803                                                  
                                
 21  8 31  2 37 13.0000000  0 13G 3G16G22G26G29G31G32R 7R 9R16E 7E21
                                E27
  21861041.337   114880564.643                    89517338.080    21861042.481  
  21861039.962    85787431.141  
  21143471.551   111109721.419    21143469.550    86579007.302                  
                                
  22347824.043   117438622.296    22347821.238    91510610.228                  
                                
  20036940.685   105294874.813                    82047987.599    20036941.453  
  20036937.397    78629324.302  
  24195551.261   127148508.136                    99076716.287    24195550.922  
                                
  21442518.407   112681261.603                    87803597.308    21442516.477  
                                
  23408173.349   123010776.956                    95852553.262    23408173.385  
  23408169.490    91858680.388  
  19232542.189   102953318.659    19232538.901    80074784.669                  
                                
  19620990.053   104775049.996    19620985.247    81491716.065                  
                                
  22280875.354   119020467.684    22280873.085    92571467.161                  
                                
  26959535.986   141673311.973                                                  
                                
  23832071.479   125238440.609                                                  
                                
  24167241.297   126999779.159                                                  
                                
 21  8 31  2 37 14.0000000  0 13G 3G16G22G26G29G31G32R 7R 9R16E 7E21
                                E27
  21861118.317   114880968.241                    89517652.565    21861119.282  
  21861116.763    85787732.520  
  21142963.607   111107050.757    21142961.516    86576926.258                  
                                
  22348125.297   117440204.720    22348122.313    91511843.284                  
                                
  20036944.670   105294895.657                    82048003.843    20036945.599  
  20036941.346    78629339.876  
  24195620.396   127148871.843                    99076999.698    24195619.967  
                                
  21442856.667   112683039.479                    87804982.676    21442854.451  
                                
  23408743.425   123013772.021                    95854887.090    23408743.139  
  23408739.386    91860916.987  
  19232470.373   102952934.903    19232467.175    80074486.192                  
                                
  19621196.155   104776152.942    19621191.741    81492573.912                  
                                
  22281506.595   119023838.566    22281504.094    92574088.955                  
                                
  26960027.867   141675896.702                                                  
                                
  23831874.330   125237404.162                                                  
                                
  24167543.051   127001364.697                                                  
                                
 21  8 31  2 37 15.0000000  0 13G 3G16G22G26G29G31G32R 7R 9R16E 7E21
                                E27
  21861195.118   114881372.458                    89517967.540    21861196.458  
  21861193.617    85788034.380  
  21142455.108   111104380.600    21142453.446    86574845.629                  
                                
  22348426.301   117441787.624    22348423.567    91513076.722                  
                                
  20036948.780   105294917.110                    82048020.565    20036949.709  
  20036945.420    78629355.896  
  24195689.442   127149236.149                    99077283.586    24195689.639  
                                
  21443195.196   112684817.517                    87806368.148    21443192.801  
                                
  23409313.161   123016767.377                    95857221.150    23409313.929  
  23409309.301    91863153.761  
  19232399.058   102952551.995    19232395.663    80074188.373                  
                                
  19621402.953   104777256.356    19621398.343    81493432.123                  
                                
  22282137.032   119027209.493    22282135.103    92576710.790                  
                                
  26960518.961   141678481.573                                                  
                                
  23831677.199   125236368.076                                                  
                                
  24167844.805   127002950.491                                                  
                                
 21  8 31  2 37 16.0000000  0 13G 3G16G22G26G29G31G32R 7R 9R16E 7E21
                                E27
  21861272.134   114881777.312                    89518283.017    21861273.063  
  21861270.794    85788336.701  
  21141947.359   111101710.962    21141945.555    86572765.385                  
                                
  22348727.519   117443370.979    22348724.785    91514310.500                  
                                
  20036952.854   105294939.163                    82048037.739    20036954.015  
  20036949.619    78629372.357  
  24195758.756   127149601.056                    99077567.923    24195759.292  
                                
  21443533.421   112686595.676                    87807753.731    21443531.223  
                                
  23409883.593   123019762.959                    95859555.351    23409884.576  
  23409879.323    91865390.730  
  19232327.957   102952169.910    19232324.241    80073891.196                  
                                
  19621609.983   104778360.185    19621605.016    81494290.652                  
                                
  22282768.631   119030580.440    22282766.254    92579332.621                  
                                
  26961011.288   141681066.613                                                  
                                
  23831479.907   125235332.312                                                  
                                
  24168146.738   127004536.508                                                  
                                
 21  8 31  2 37 17.0000000  0 13G 3G16G22G26G29G31G32R 7R 9R16E 7E21
                                E27
  21861349.274   114882182.915                    89518599.073    21861350.346  
  21861347.881    85788639.595  
  21141439.254   111099041.899    21141437.735    86570685.605                  
                                
  22349028.916   117444954.906    22349026.253    91515544.732                  
                                
  20036957.214   105294961.908                    82048055.469    20036958.375  
  20036953.890    78629389.347  
  24195828.177   127149966.627                    99077852.795    24195829.035  
                                
  21443872.146   112688374.078                    87809139.496    21443869.662  
                                
  23410453.705   123022758.893                    95861889.838    23410454.580  
  23410449.452    91867627.958  
  19232256.392   102951788.755    19232253.033    80073594.740                  
                                
  19621816.263   104779464.538    19621811.868    81495149.603                  
                                
  22283399.336   119033951.445    22283397.353    92581954.525                  
                                
  26961503.580   141683651.868                                                  
                                
  23831283.044   125234297.007                                                  
                                
  24168448.563   127006122.870                                                  
                                
 21  8 31  2 37 18.0000000  0 13G 3G16G22G26G29G31G32R 7R 9R16E 7E21
                                E27
  21861426.683   114882589.148                    89518915.619    21861427.612  
  21861425.182    85788942.949  
  21140931.631   111096373.347    21140929.826    86568606.216                  
                                
  22349330.759   117446539.282    22349327.614    91516779.313                  
                                
  20036961.717   105294985.248                    82048073.661    20036962.628  
  20036958.304    78629406.783  
  24195898.206   127150332.793                    99078138.126    24195897.974  
                                
  21444210.174   112690152.618                    87810525.369    21444208.494  
                                
  23411023.208   123025755.076                    95864224.508    23411025.067  
  23411019.599    91869865.366  
  19232185.398   102951408.437    19232181.985    80073298.936                  
                                
  19622023.205   104780569.327    19622018.827    81496008.883                  
                                
  22284030.148   119037322.416    22284028.486    92584576.385                  
                                
  26961995.353   141686237.285                                                  
                                
  23831086.038   125233262.030                                                  
                                
  24168750.568   127007709.462                                                  
                                
 21  8 31  2 37 19.0000000  0 13G 3G16G22G26G29G31G32R 7R 9R16E 7E21
                                E27
  21861504.038   114882995.983                    89519232.624    21861505.342  
  21861502.662    85789246.745  
  21140423.829   111093705.267    21140422.167    86566527.186                  
                                
  22349632.299   117448124.066    22349629.154    91518014.205                  
                                
  20036966.309   105295009.141                    82048092.279    20036967.149  
  20036962.896    78629424.620  
  24195968.145   127150699.505                    99078423.855    24195967.949  
                                
  21444548.864   112691931.240                    87811911.297    21444546.416  
                                
  23411593.284   123028751.453                    95866559.359    23411595.249  
  23411589.710    91872102.920  
  19232114.458   102951028.898    19232111.117    80073003.742                  
                                
  19622230.753   104781674.495    19622225.714    81496868.458                  
                                
  22284661.336   119040693.388    22284659.352    92587198.249                  
                                
  26962487.377   141688822.836                                                  
                                
  23830889.068   125232227.346                                                  
                                
  24169052.519   127009296.242                                                  
                                
 21  8 31  2 37 20.0000000  0 13G 3G16G22G26G29G31G32R 7R 9R16E 7E21
                                E27
  21861581.464   114883403.455                    89519550.146    21861582.626  
  21861580.142    85789551.037  
  21139916.331   111091037.698    21139914.669    86564448.561                  
                                
  22349933.928   117449709.308    22349930.801    91519249.463                  
                                
  20036971.009   105295033.652                    82048111.374    20036971.848  
  20036967.578    78629442.935  
  24196038.067   127151066.825                    99078710.069    24196038.478  
                                
  21444887.392   112693710.026                    87813297.378    21444884.998  
                                
  23412163.037   123031748.126                    95868894.427    23412165.825  
  23412159.893    91874340.689  
  19232043.447   102950650.224    19232040.338    80072709.218                  
                                
  19622436.926   104782780.092    19622432.763    81497728.364                  
                                
  22285292.595   119044064.434    22285290.165    92589820.179                  
                                
  26962979.079   141691408.546                                                  
                                
  23830692.348   125231193.023                                                  
                                
  24169354.541   127010883.288                                                  
                                
 21  8 31  2 37 21.0000000  0 13G 3G16G22G26G29G31G32R 7R 9R16E 7E21
                                E27
  21861659.123   114883811.592                    89519868.173    21861660.392  
  21861657.890    85789855.817  
  21139408.797   111088370.645    21139407.153    86562370.342                  
                                
  22350235.986   117451295.075    22350232.609    91520485.119                  
                                
  20036975.780   105295058.774                    82048130.956    20036976.566  
  20036972.295    78629461.691  
  24196108.292   127151434.772                    99078996.809    24196108.310  
                                
  21445225.635   112695488.985                    87814683.573    21445223.598  
                                
  23412734.024   123034745.052                    95871229.698    23412736.669  
  23412730.272    91876578.668  
  19231973.275   102950272.417    19231969.737    80072415.367                  
                                
  19622644.600   104783886.142    19622639.900    81498588.626                  
                                
  22285923.621   119047435.530    22285921.191    92592442.138                  
                                
  26963470.977   141693994.464                                                  
                                
  23830495.538   125230159.068                                                  
                                
  24169656.366   127012470.587                                                  
                                
 21  8 31  2 37 22.0000000  0 13G 3G16G22G26G29G31G32R 7R 9R16E 7E21
                                E27
  21861736.907   114884220.443                    89520186.756    21861738.337  
  21861735.674    85790161.130  
  21138901.245   111085704.171    21138899.690    86560292.570                  
                                
  22350537.901   117452881.320    22350534.560    91521721.149                  
                                
  20036980.694   105295084.577                    82048151.062    20036981.623  
  20036977.209    78629480.959  
  24196178.267   127151803.398                    99079284.036    24196178.857  
                                
  21445564.235   112697268.147                    87816069.938    21445561.787  
                                
  23413304.850   123037742.292                    95873565.214    23413306.476  
  23413300.454    91878816.852  
  19231902.407   102949895.542    19231899.315    80072122.243                  
                                
  19622852.220   104784992.687    19622847.109    81499449.270                  
                                
  22286554.898   119050806.657    22286552.164    92595064.123                  
                                
  26963963.215   141696580.567                                                  
                                
  23830298.836   125229125.517                                                  
                                
  24169958.407   127014058.197                                                  
                                
 21  8 31  2 37 23.0000000  0 13G 3G16G22G26G29G31G32R 7R 9R16E 7E21
                                E27
  21861814.905   114884629.913                    89520505.835    21861815.960  
  21861813.565    85790466.901  
  21138393.979   111083038.180    21138392.514    86558215.177                  
                                
  22350839.566   117454468.027    22350836.385    91522957.544                  
                                
  20036985.661   105295110.966                    82048171.621    20036986.662  
  20036982.195    78629500.667  
  24196248.028   127152172.560                    99079571.718    24196248.153  
                                
  21445902.925   112699047.433                    87817456.399    21445900.691  
                                
  23413875.587   123040739.787                    95875900.906    23413876.641  
  23413870.816    91881055.225  
  19231832.181   102949519.510    19231828.929    80071829.773                  
                                
  19623059.608   104786099.661    19623054.462    81500310.252                  
                                
  22287185.693   119054177.742    22287183.155    92597686.078                  
                                
  26964455.418   141699166.843                                                  
                                
  23830102.187   125228092.297                                                  
                                
  24170260.607   127015646.024                                                  
                                
 21  8 31  2 37 24.0000000  0 13G 3G16G22G26G29G31G32R 7R 9R16E 7E21
                                E27
  21861893.029   114885040.023                    89520825.405    21861894.190  
  21861891.599    85790773.154  
  21137886.660   111080372.689    21137885.230    86556138.173                  
                                
  22351141.392   117456055.176    22351138.497    91524194.286                  
                                
  20036990.754   105295137.951                    82048192.651    20036991.540  
  20036987.305    78629520.819  
  24196318.628   127152542.348                    99079859.845    24196319.147  
                                
  21446241.757   112700826.864                    87818842.957    21446238.969  
                                
  23414446.109   123043737.546                    95878236.809    23414447.824  
  23414441.320    91883293.810  
  19231762.224   102949144.294    19231758.883    80071537.939                  
                                
  19623266.549   104787207.056    19623261.796    81501171.559                  
                                
  22287816.558   119057548.812    22287814.146    92600308.019                  
                                
  26964947.352   141701753.263                                                  
                                
  23829905.825   125227059.424                                                  
                                
  24170562.898   127017234.098                                                  
                                
 21  8 31  2 37 25.0000000  0 13G 3G16G22G26G29G31G32R 7R 9R16E 7E21
                                E27
  21861971.241   114885450.805                    89521145.481    21861972.510  
  21861969.723    85791079.907  
  21137379.555   111077707.737    21137378.000    86554061.583                  
                                
  22351443.807   117457642.812    22351440.734    91525431.407                  
                                
  20036996.097   105295165.564                    82048214.163    20036997.008  
  20036992.666    78629541.437  
  24196389.140   127152912.737                    99080148.485    24196390.105  
                                
  21446580.304   112702606.461                    87820229.654    21446577.748  
                                
  23415016.452   123046735.537                    95880572.940    23415018.400  
  23415011.806    91885532.582  
  19231692.553   102948769.918    19231688.997    80071246.762                  
                                
  19623473.776   104788314.914    19623469.202    81502033.224                  
                                
  22288447.800   119060919.953    22288445.387    92602930.027                  
                                
  26965439.322   141704339.835                                                  
                                
  23829709.391   125226026.918                                                  
                                
  24170865.009   127018822.424                                                  
                                
 21  8 31  2 37 26.0000000  0 13G 3G16G22G26G29G31G32R 7R 9R16E 7E21
                                E27
  21862049.472   114885862.200                    89521466.062    21862050.580  
  21862048.007    85791387.119  
  21136872.628   111075043.273    21136871.056    86551985.370                  
                                
  22351746.008   117459230.886    22351742.899    91526668.874                  
                                
  20037001.565   105295193.738                    82048236.134    20037002.226  
  20036997.937    78629562.482  
  24196459.776   127153283.719                    99080437.562    24196459.758  
                                
  21446919.100   112704386.171                    87821616.450    21446916.706  
                                
  23415586.814   123049733.795                    95882909.236    23415589.190  
  23415582.400    91887771.534  
  19231622.578   102948396.358    19231619.147    80070956.216                  
                                
  19623681.503   104789423.179    19623676.715    81502895.206                  
                                
  22289078.773   119064291.109    22289076.235    92605552.035                  
                                
  26965932.078   141706926.616                                                  
                                
  23829512.849   125224994.732                                                  
                                
  24171167.478   127020410.984                                                  
                                
 21  8 31  2 37 27.0000000  0 13G 3G16G22G26G29G31G32R 7R 9R16E 7E21
                                E27
  21862127.953   114886274.267                    89521787.140    21862129.096  
  21862126.434    85791694.827  
  21136365.416   111072379.322    21136364.005    86549909.571                  
                                
  22352048.227   117460819.429    22352045.118    91527906.700                  
                                
  20037007.015   105295222.566                    82048258.596    20037007.819  
  20037003.441    78629584.014  
  24196530.376   127153655.308                    99080727.101    24196531.109  
                                
  21447257.790   112706166.061                    87823003.366    21447255.395  
                                
  23416157.318   123052732.317                    95885245.751    23416159.552  
  23416152.922    91890010.699  
  19231552.620   102948023.656    19231549.618    80070666.339                  
                                
  19623889.177   104790531.907    19623884.317    81503757.543                  
                                
  22289709.907   119067662.334    22289707.280    92608174.104                  
                                
  26966424.763   141709513.497                                                  
                                
  23829316.469   125223962.912                                                  
                                
  24171469.858   127021999.800                                                  
                                
 21  8 31  2 37 28.0000000  0 13G 3G16G22G26G29G31G32R 7R 9R16E 7E21
                                E27
  21862206.487   114886687.023                    89522108.777    21862207.506  
  21862205.004    85792003.059  
  21135858.740   111069715.943    21135857.257    86547834.213                  
                                
  22352350.696   117462408.480    22352347.676    91529144.917                  
                                
  20037012.518   105295252.022                    82048281.553    20037013.412  
  20037008.962    78629606.012  
  24196601.191   127154027.554                    99081017.163    24196601.531  
                                
  21447596.283   112707946.139                    87824390.455    21447594.281  
                                
  23416727.447   123055731.162                    95887582.481    23416730.324  
  23416723.784    91892250.088  
  19231483.378   102947651.866    19231480.162    80070377.166                  
                                
  19624096.940   104791641.109    19624092.205    81504620.255                  
                                
  22290341.326   119071033.583    22290338.432    92610796.184                  
                                
  26966917.805   141712100.662                                                  
                                
  23829120.249   125222931.495                                                  
                                
  24171772.255   127023588.910                                                  
                                
 21  8 31  2 37 29.0000000  0 13G 3G16G22G26G29G31G32R 7R 9R16E 7E21
                                E27
  21862285.039   114887100.402                    89522430.882    21862286.219  
  21862283.717    85792311.749  
  21135352.171   111067053.036    21135350.670    86545759.219                  
                                
  22352653.415   117463997.994    22352649.984    91530383.497                  
                                
  20037018.290   105295282.088                    82048304.961    20037018.772  
  20037014.734    78629628.460  
  24196672.042   127154400.355                    99081307.669    24196672.417  
                                
  21447935.383   112709726.336                    87825777.622    21447932.578  
                                
  23417298.184   123058730.209                    95889919.426    23417301.007  
  23417294.467    91894489.625  
  19231414.207   102947280.910    19231410.758    80070088.640                  
                                
  19624304.418   104792750.717    19624299.915    81505483.295                  
                                
  22290973.032   119074404.823    22290969.583    92613418.255                  
                                
  26967409.810   141714688.030                                                  
                                
  23828924.011   125221900.397                                                  
                                
  24172074.742   127025178.236                                                  
                                
 21  8 31  2 37 30.0000000  0 13G 3G16G22G26G29G31G32R 7R 9R16E 7E21
                                E27
  21862363.860   114887514.397                    89522753.470    21862364.610  
  21862362.430    85792620.905  
  21134845.191   111064390.626    21134843.994    86543684.616                  
                                
  22352955.580   117465587.943    22352952.381    91531622.423                  
                                
  20037024.044   105295312.706                    82048328.833    20037024.973  
  20037020.542    78629651.324  
  24196744.054   127154773.732                    99081598.623    24196743.786  
                                
  21448273.876   112711506.660                    87827164.888    21448271.178  
                                
  23417868.759   123061729.497                    95892256.525    23417871.493  
  23417865.204    91896729.362  
  19231345.465   102946910.775    19231341.659    80069800.760                  
                                
  19624511.859   104793860.718    19624507.660    81506346.629                  
                                
  22291604.255   119077775.991    22291600.717    92616040.272                  
                                
  26967902.120   141717275.450                                                  
                                
  23828727.720   125220869.625                                                  
                                
  24172377.175   127026767.780                                                  
                                
 21  8 31  2 37 31.0000000  0 13G 3G16G22G26G29G31G32R 7R 9R16E 7E21
                                E27
  21862442.787   114887929.052                    89523076.571    21862443.984  
  21862441.375    85792930.544  
  21134338.622   111061728.732    21134337.514    86541610.417                  
                                
  22353258.478   117467178.379    22353254.940    91532861.721                  
                                
  20037029.994   105295343.955                    82048353.185    20037030.798  
  20037026.617    78629674.659  
  24196814.851   127155147.736                    99081890.052    24196815.405  
                                
  21448612.762   112713287.143                    87828552.272    21448610.314  
                                
  23418439.407   123064729.073                    95894593.836    23418442.176  
  23418436.155    91898969.303  
  19231276.169   102946541.472    19231272.577    80069513.524                  
                                
  19624720.516   104794971.151    19624715.620    81507210.309                  
                                
  22292234.299   119081147.190    22292231.619    92618662.315                  
                                
  26968394.322   141719868.0151                                                 
                                
  23828531.786   125219839.217                                                  
                                
  24172679.555   127028357.594                                                  
                                
 21  8 31  2 37 32.0000000  0 13G 3G16G22G26G29G31G32R 7R 9R16E 7E21
                                E27
  21862521.715   114888344.414                    89523400.237    21862523.055  
  21862520.267    85793240.717  
  21133832.393   111059067.419    21133831.017    86539536.665                  
                                
  22353561.161   117468769.308    22353557.730    91534101.415                  
                                
  20037036.266   105295375.859                    82048378.049    20037036.927  
  20037032.639    78629698.483  
  24196885.988   127155522.380                    99082181.964    24196885.416  
                                
  21448951.576   112715067.831                    87829939.826    21448949.003  
                                
  23419010.715   123067728.948                    95896931.405    23419012.859  
  23419006.980    91901209.449  
  19231207.302   102946173.042    19231203.853    80069226.958                  
                                
  19624928.672   104796082.089    19624923.794    81508074.369                  
                                
  22292865.808   119084518.489    22292862.753    92621284.439                  
                                
  26968886.185   141722452.8501                                                 
                                
  23828335.602   125218809.223                                                  
                                
  24172982.060   127029947.701                                                  
                                
 21  8 31  2 37 33.0000000  0 12G 3G16G22G26G29G31G32R 7R 9R16E21E27
  21862600.856   114888760.402                    89523724.390    21862602.322  
  21862599.498    85793551.359  
  21133325.931   111056406.591    21133324.662    86537463.289                  
                                
  22353863.720   117470360.691    22353860.324    91535341.450                  
                                
  20037042.360   105295408.364                    82048403.371    20037043.128  
  20037038.786    78629722.765  
  24196957.071   127155897.587                    99082474.327    24196956.767  
                                
  21449290.427   112716848.651                    87831327.471    21449288.175  
                                
  23419581.630   123070729.069                    95899269.180    23419584.078  
  23419578.003    91903449.819  
  19231138.506   102945805.404    19231135.200    80068941.019                  
                                
  19625136.775   104797193.438    19625131.825    81508938.752                  
                                
  22293496.817   119087889.816    22293493.797    92623906.582                  
                                
  23828139.668   125217779.548                                                  
                                
  24173284.797   127031538.031                                                  
                                
 21  8 31  2 37 34.0000000  0 12G 3G16G22G26G29G31G32R 7R 9R16E21E27
  21862680.106   114889177.076                    89524049.083    21862681.124  
  21862678.622    85793862.512  
  21132819.702   111053746.322    21132818.415    86535390.362                  
                                
  22354166.796   117471952.585    22354163.383    91536581.889                  
                                
  20037048.507   105295441.508                    82048429.204    20037049.579  
  20037045.022    78629747.516  
  24197028.851   127156273.452                    99082767.199    24197028.493  
                                
  21449629.134   112718629.667                    87832715.276    21449627.061  
                                
  23420152.975   123073729.496                    95901607.173    23420154.493  
  23420148.936    91905690.395  
  19231069.996   102945438.659    19231066.565    80068655.774                  
                                
  19625345.145   104798305.255    19625340.053    81509803.496                  
                                
  22294127.933   119091261.252    22294124.895    92626528.813                  
                                
  23827944.003   125216750.270                                                  
                                
  24173587.462   127033128.658                                                  
                                
 21  8 31  2 37 35.0000000  0 12G 3G16G22G26G29G31G32R 7R 9R16E21E27
  21862759.587   114889594.354                    89524374.223    21862760.534  
  21862758.140    85794174.114  
  21132313.651   111051086.512    21132312.275    86533317.773                  
                                
  22354469.515   117473544.899    22354466.388    91537822.646                  
                                
  20037054.939   105295475.225                    82048455.480    20037056.012  
  20037051.473    78629772.690  
  24197100.648   127156649.865                    99083060.518    24197100.434  
                                
  21449968.288   112720410.769                    87834103.149    21449965.876  
                                
  23420723.568   123076730.136                    95903945.330    23420726.356  
  23420719.959    91907931.123  
  19231001.718   102945072.737    19230998.306    80068371.167                  
                                
  19625553.194   104799417.495    19625548.441    81510668.567                  
                                
  22294758.727   119094632.677    22294755.886    92629151.030                  
                                
  23827748.265   125215721.297                                                  
                                
  24173890.110   127034719.472                                                  
                                
 21  8 31  2 37 36.0000000  0 12G 3G16G22G26G29G31G32R 7R 9R16E21E27
  21862839.176   114890012.325                    89524699.915    21862840.355  
  21862837.710    85794486.239  
  21131807.672   111048427.265    21131806.278    86531245.637                  
                                
  22354772.699   117475137.718    22354769.429    91539063.813                  
                                
  20037061.533   105295509.593                    82048482.253    20037062.391  
  20037058.013    78629798.359  
  24197171.910   127157026.930                    99083354.350    24197172.464  
                                
  21450307.353   112722192.076                    87835491.181    21450305.012  
                                
  23421294.341   123079731.077                    95906283.707    23421297.485  
  23421290.945    91910172.102  
  19230933.620   102944707.729    19230930.082    80068087.275                  
                                
  19625761.458   104800530.204    19625756.651    81511534.010                  
                                
  22295390.183   119098004.200    22295386.824    92631773.324                  
                                
  23827552.403   125214692.729                                                  
                                
  24174192.847   127036310.601                                                  
                                
 21  8 31  2 37 37.0000000  0 12G 3G16G22G26G29G31G32R 7R 9R16E21E27
  21862918.818   114890430.966                    89525026.115    21862920.283  
  21862917.353    85794798.852  
  21131301.603   111045768.540    21131300.263    86529173.904                  
                                
  22355075.972   117476730.991    22355072.559    91540305.320                  
                                
  20037068.198   105295544.575                    82048509.521    20037069.217  
  20037064.714    78629824.488  
  24197243.404   127157404.608                    99083648.652    24197244.959  
                                
  21450646.221   112723973.550                    87836879.345    21450644.202  
                                
  23421865.381   123082732.301                    95908622.335    23421867.793  
  23421862.093    91912413.281  
  19230865.217   102944343.600    19230862.090    80067804.061                  
                                
  19625970.096   104801643.351    19625965.218    81512399.788                  
                                
  22296020.870   119101375.688    22296017.797    92634395.589                  
                                
  23827356.916   125213664.527                                                  
                                
  24174495.888   127037901.981                                                  
                                
 21  8 31  2 37 38.0000000  0 13G 3G16G22G26G29G31G32R 7R 9R16E 7E21
                                E27
  21862998.657   114890850.222                    89525352.819    21862999.782  
  21862997.084    85795111.941  
  21130795.660   111043110.326    21130794.373    86527102.584                  
                                
  22355379.745   117478324.746    22355375.707    91541547.204                  
                                
  20037075.078   105295580.164                    82048537.243    20037075.667  
  20037071.486    78629851.058  
  24197315.952   127157782.874                    99083943.415    24197315.952  
                                
  21450985.250   112725755.156                    87838267.607    21450983.374  
                                
  23422436.832   123085733.758                    95910961.148    23422438.851  
  23422433.330    91914654.606  
  19230797.440   102943980.314    19230794.241    80067521.501                  
                                
  19626178.485   104802756.912    19626173.785    81513265.889                  
                                
  22296652.951   119104747.158    22296649.020    92637017.839                  
                                
  26971841.471   141737983.339                                                  
                                
  23827161.161   125212636.651                                                  
                                
  24174798.607   127039493.594                                                  
                                
 21  8 31  2 37 39.0000000  0 13G 3G16G22G26G29G31G32R 7R 9R16E 7E21
                                E27
  21863078.638   114891270.095                    89525679.997    21863079.335  
  21863076.994    85795425.480  
  21130290.234   111040452.596    21130288.626    86525031.619                  
                                
  22355683.018   117479918.906    22355678.926    91542789.407                  
                                
  20037081.850   105295616.316                    82048565.425    20037082.672  
  20037078.366    78629878.059  
  24197388.036   127158161.743                    99084238.618    24197387.929  
                                
  21451324.315   112727536.883                    87839655.973    21451322.242  
                                
  23423007.569   123088735.455                    95913300.112    23423010.374  
  23423004.763    91916896.120  
  19230730.145   102943617.820    19230726.500    80067239.561                  
                                
  19626386.945   104803870.871    19626382.317    81514132.308                  
                                
  22297284.014   119108118.553    22297279.957    92639640.030                  
                                
  26972333.834   141740572.315                                                  
                                
  23826965.584   125211609.096                                                  
                                
  24175101.630   127041085.412                                                  
                                
 21  8 31  2 37 40.0000000  0 13G 3G16G22G26G29G31G32R 7R 9R16E 7E21
                                E27
  21863158.674   114891690.686                    89526007.731    21863159.621  
  21863157.030    85795739.561  
  21129784.487   111037795.418    21129782.861    86522961.086                  
                                
  22355986.202   117481513.591    22355982.342    91544032.023                  
                                
  20037088.855   105295653.123                    82048594.108    20037089.820  
  20037085.263    78629905.542  
  24197460.191   127158541.241                    99084534.328    24197460.906  
                                
  21451663.326   112729318.806                    87841044.482    21451661.056  
                                
  23423579.199   123091737.449                    95915639.333    23423582.129  
  23423575.982    91919137.897  
  19230662.314   102943256.229    19230659.009    80066958.328                  
                                
  19626595.548   104804985.333    19626591.027    81514999.103                  
                                
  22297915.648   119111490.055    22297911.038    92642262.310                  
                                
  26972826.412   141743161.458                                                  
                                
  23826769.972   125210581.957                                                  
                                
  24175404.527   127042677.547                                                  
                                
 21  8 31  2 37 41.0000000  0 13G 3G16G22G26G29G31G32R 7R 9R16E 7E21
                                E27
  21863238.906   114892111.847                    89526335.911    21863239.746  
  21863237.119    85796054.064  
  21129278.776   111035138.700    21129277.257    86520890.925                  
                                
  22356289.975   117483108.678    22356285.937    91545274.943                  
                                
  20037095.895   105295690.493                    82048623.221    20037096.431  
  20037092.411    78629933.453  
  24197532.471   127158921.293                    99084830.484    24197533.240  
                                
  21452002.319   112731100.821                    87842433.062    21451999.889  
                                
  23424150.704   123094739.662                    95917978.706    23424152.491  
  23424147.237    91921379.788  
  19230595.037   102942895.442    19230591.356    80066677.714                  
                                
  19626804.365   104806100.170    19626799.755    81515866.199                  
                                
  22298545.299   119114861.545    22298542.171    92644884.569                  
                                
  26973319.597   141745750.783                                                  
                                
  23826574.539   125209555.102                                                  
                                
  24175707.407   127044269.852                                                  
                                
 21  8 31  2 37 42.0000000  0 13G 3G16G22G26G29G31G32R 7R 9R16E 7E21
                                E27
  21863319.155   114892533.739                    89526664.660    21863320.192  
  21863317.440    85796369.119  
  21128773.458   111032482.584    21128771.921    86518821.227                  
                                
  22356593.445   117484704.307    22356589.478    91546518.289                  
                                
  20037103.132   105295728.556                    82048652.878    20037104.097  
  20037099.719    78629961.872  
  24197605.395   127159302.020                    99085127.152    24197606.145  
                                
  21452341.777   112732883.055                    87843821.823    21452339.275  
                                
  23424721.708   123097742.219                    95920318.363    23424724.317  
  23424718.599    91923621.957  
  19230527.957   102942535.594    19230524.115    80066397.831                  
                                
  19627013.504   104807215.527    19627008.787    81516733.703                  
                                
  22299177.004   119118233.155    22299173.359    92647506.930                  
                                
  26973813.068   141748340.258                                                  
                                
  23826379.319   125208528.688                                                  
                                
  24176010.502   127045862.488                                                  
                                
 21  8 31  2 37 43.0000000  0 13G 3G16G22G26G29G31G32R 7R 9R16E 7E21
                                E27
  21863399.602   114892956.279                    89526993.907    21863400.638  
  21863397.851    85796684.646  
  21128268.211   111029826.952    21128266.496    86516751.903                  
                                
  22356897.111   117486300.371    22356893.091    91547761.982                  
                                
  20037110.494   105295767.179                    82048682.992    20037111.495  
  20037107.099    78629990.723  
  24197678.193   127159683.334                    99085424.289    24197678.407  
                                
  21452680.734   112734665.427                    87845210.682    21452678.393  
                                
  23425293.267   123100745.002                    95922658.171    23425295.108  
  23425290.068    91925864.295  
  19230460.180   102942176.567    19230457.035    80066118.589                  
                                
  19627222.161   104808331.289    19627217.676    81517601.506                  
                                
  22299808.299   119121604.747    22299804.439    92650129.279                  
                                
  26974306.306   141750929.917                                                  
                                
  23826183.850   125207502.587                                                  
                                
  24176313.685   127047455.348                                                  
                                
 21  8 31  2 37 44.0000000  0 13G 3G16G22G26G29G31G32R 7R 9R16E 7E21
                                E27
  21863480.191   114893379.476                    89527323.669    21863481.031  
  21863478.315    85797000.670  
  21127762.464   111027171.890    21127760.981    86514683.024                  
                                
  22357201.081   117487896.929    22357196.971    91549006.048                  
                                
  20037118.017   105295806.463                    82048713.605    20037118.875  
  20037114.497    78630020.049  
  24197750.169   127160065.287                    99085721.888    24197751.009  
                                
  21453019.924   112736447.981                    87846599.688    21453017.565  
                                
  23425864.450   123103748.073                    95924998.233    23425866.023  
  23425861.556    91928106.854  
  19230393.618   102941818.411    19230390.115    80065840.027                  
                                
  19627431.175   104809447.495    19627426.654    81518469.681                  
                                
  22300439.772   119124976.417    22300435.680    92652751.679                  
                                
  26974799.116   141753519.823                                                  
                                
  23825988.810   125206476.880                                                  
                                
  24176616.798   127049048.498                                                  
                                
 21  8 31  2 37 45.0000000  0 13G 3G16G22G26G29G31G32R 7R 9R16E 7E21
                                E27
  21863560.816   114893803.322                    89527653.950    21863561.102  
  21863558.851    85797317.178  
  21127257.682   111024517.323    21127255.878    86512614.526                  
                                
  22357505.051   117489493.952    22357500.888    91550250.487                  
                                
  20037125.701   105295846.362                    82048744.687    20037126.541  
  20037122.055    78630049.847  
  24197823.379   127160447.816                    99086019.999    24197824.308  
                                
  21453359.132   112738230.676                    87847988.808    21453356.577  
                                
  23426436.170   123106751.395                    95927338.503    23426438.546  
  23426432.971    91930349.584  
  19230326.591   102941461.100    19230323.339    80065562.119                  
                                
  19627640.564   104810564.143    19627635.883    81519338.194                  
                                
  22301070.960   119128348.044    22301066.975    92655374.056                  
                                
  26975292.194   141756109.882                                                  
                                
  23825793.626   125205451.517                                                  
                                
  24176919.856   127050641.883                                                  
                                
 21  8 31  2 37 46.0000000  0 13G 3G16G22G26G29G31G32R 7R 9R16E 7E21
                                E27
  21863641.530   114894227.810                    89527984.693    21863642.620  
  21863639.779    85797634.158  
  21126752.418   111021863.253    21126750.685    86510546.412                  
                                
  22357808.896   117491091.419    22357804.875    91551495.261                  
                                
  20037133.456   105295886.831                    82048776.221    20037134.224  
  20037129.811    78630080.067  
  24197896.106   127160830.953                    99086318.524    24197896.856  
                                
  21453698.643   112740013.512                    87849378.028    21453696.088  
                                
  23427007.818   123109754.959                    95929678.944    23427009.319  
  23427004.440    91932592.520  
  19230260.351   102941104.603    19230256.741    80065284.843                  
                                
  19627850.079   104811681.193    19627845.147    81520207.006                  
                                
  22301701.897   119131719.687    22301698.163    92657996.443                  
                                
  26975785.236   141758700.064                                                  
                                
  23825598.675   125204426.490                                                  
                                
  24177223.129   127052235.494                                                  
                                
 21  8 31  2 37 47.0000000  0 13G 3G16G22G26G29G31G32R 7R 9R16E 7E21
                                E27
  21863722.459   114894652.980                    89528316.016    21863723.460  
  21863720.583    85797951.667  
  21126247.636   111019209.754    21126245.813    86508478.760                  
                                
  22358112.687   117492689.414    22358109.096    91552740.457                  
                                
  20037141.211   105295927.969                    82048808.283    20037141.765  
  20037137.637    78630110.793  
  24197968.815   127161214.723                    99086617.581    24197969.530  
                                
  21454037.887   112741796.551                    87850767.406    21454035.582  
                                
  23427579.198   123112758.851                    95932019.658    23427581.521  
  23427576.017    91934835.676  
  19230193.824   102940748.996    19230190.340    80065008.258                  
                                
  19628059.128   104812798.741    19628054.286    81521076.217                  
                                
  22302333.585   119135091.401    22302329.279    92660618.880                  
                                
  26976277.813   141761290.498                                                  
                                
  23825403.760   125203401.878                                                  
                                
  24177526.420   127053829.416                                                  
                                
 21  8 31  2 37 48.0000000  0 13G 3G16G22G26G29G31G32R 7R 9R16E 7E21
                                E27
  21863803.388   114895078.789                    89528647.815    21863804.299  
  21863801.637    85798269.637  
  21125742.765   111016556.763    21125740.995    86506411.490                  
                                
  22358416.943   117494287.861    22358413.012    91553985.995                  
                                
  20037149.020   105295969.712                    82048840.808    20037150.199  
  20037145.643    78630141.963  
  24198042.507   127161599.109                    99086917.103    24198043.096  
                                
  21454376.683   112743579.724                    87852156.897    21454374.736  
                                
  23428151.024   123115762.999                    95934360.529    23428152.972  
  23428147.683    91937079.033  
  19230127.620   102940394.217    19230124.028    80064732.321                  
                                
  19628268.696   104813916.746    19628263.693    81521945.771                  
                                
  22302964.290   119138463.112    22302960.627    92663241.315                  
                                
  26976770.748   141763881.053                                                  
                                
  23825208.809   125202377.600                                                  
                                
  24177829.729   127055423.576                                                  
                                
 21  8 31  2 37 49.0000000  0 13G 3G16G22G26G29G31G32R 7R 9R16E 7E21
                                E27
  21863884.460   114895505.211                    89528980.090    21863885.872  
  21863882.798    85798588.069  
  21125238.358   111013904.239    21125235.981    86504344.594                  
                                
  22358721.163   117495886.721    22358717.196    91555231.856                  
                                
  20037157.114   105296012.012                    82048873.776    20037158.062  
  20037153.737    78630173.557  
  24198115.698   127161984.047                    99087217.064    24198115.573  
                                
  21454716.731   112745362.991                    87853546.456    21454714.444  
                                
  23428722.440   123118767.363                    95936701.588    23428724.084  
  23428719.616    91939322.547  
  19230061.361   102940040.263    19230058.020    80064457.014                  
                                
  19628477.353   104815035.114    19628473.100    81522815.627                  
                                
  22303595.942   119141834.811    22303591.797    92665863.750                  
                                
  26977263.880   141766471.745                                                  
                                
  23825013.822   125201353.639                                                  
                                
  24178133.306   127057017.926                                                  
                                
 21  8 31  2 37 50.0000000  0 13G 3G16G22G26G29G31G32R 7R 9R16E 7E21
                                E27
  21863965.943   114895932.340                    89529312.907    21863966.693  
  21863964.102    85798907.025  
  21124733.272   111011252.281    21124731.414    86502278.138                  
                                
  22359025.526   117497486.090    22359021.542    91556478.122                  
                                
  20037165.334   105296054.984                    82048907.254    20037166.263  
  20037161.778    78630205.642  
  24198188.657   127162369.654                    99087517.526    24198189.551  
                                
  21455056.028   112747146.473                    87854936.186    21455053.866  
                                
  23429294.463   123121771.989                    95939042.868    23429295.982  
  23429291.300    91941566.279  
  19229995.282   102939687.218    19229991.940    80064182.433                  
                                
  19628686.903   104816153.971    19628682.578    81523685.847                  
                                
  22304226.433   119145206.552    22304223.020    92668486.218                  
                                
  26977756.618   141769062.664                                                  
                                
  23824819.121   125200330.065                                                  
                                
  24178436.454   127058612.582                                                  
                                
 21  8 31  2 37 51.0000000  0 13G 3G16G22G26G29G31G32R 7R 9R16E 7E21
                                E27
  21864047.425   114896360.118                    89529646.236    21864048.140  
  21864045.460    85799226.472  
  21124228.847   111008600.855    21124226.810    86500212.091                  
                                
  22359330.175   117499085.933    22359326.012    91557724.755                  
                                
  20037173.643   105296098.558                    82048941.207    20037174.626  
  20037170.087    78630238.181  
  24198261.956   127162755.851                    99087818.476    24198262.456  
                                
  21455395.378   112748930.104                    87856326.019    21455392.502  
                                
  23429865.736   123124776.932                    95941384.373    23429868.898  
  23429863.145    91943810.208  
  19229929.952   102939335.007    19229926.200    80063908.491                  
                                
  19628896.917   104817273.282    19628892.146    81524556.415                  
                                
  22304858.943   119148578.365    22304854.225    92671108.734                  
                                
  26978249.499   141771653.782                                                  
                                
  23824624.492   125199306.864                                                  
                                
  24178740.192   127060207.490                                                  
                                
 21  8 31  2 37 52.0000000  0 13G 3G16G22G26G29G31G32R 7R 9R16E 7E21
                                E27
  21864128.908   114896788.519                    89529980.059    21864129.480  
  21864127.032    85799546.379  
  21123724.566   111005949.906    21123722.368    86498146.424                  
                                
  22359634.824   117500686.208    22359630.464    91558971.721                  
                                
  20037182.042   105296142.727                    82048975.620    20037182.953  
  20037178.557    78630271.160  
  24198336.506   127163142.655                    99088119.871    24198336.434  
                                
  21455734.675   112750713.849                    87857715.967    21455732.728  
                                
  23430438.331   123127782.106                    95943726.051    23430439.742  
  23430435.061    91946054.336  
  19229863.998   102938983.606    19229860.495    80063635.182                  
                                
  19629106.414   104818393.007    19629101.911    81525427.312                  
                                
  22305489.755   119151950.163    22305485.484    92673731.232                  
                                
  26978742.452   141774244.982                                                  
                                
  23824429.845   125198283.991                                                  
                                
  24179043.518   127061802.612                                                  
                                
 21  8 31  2 37 53.0000000  0 13G 3G16G22G26G29G31G32R 7R 9R16E 7E21
                                E27
  21864210.498   114897217.558                    89530314.380    21864211.517  
  21864208.640    85799866.770  
  21123220.052   111003299.501    21123217.872    86496081.166                  
                                
  22359939.384   117502286.974    22359934.970    91560219.070                  
                                
  20037190.601   105296187.489                    82049010.509    20037191.691  
  20037187.045    78630304.588  
  24198409.912   127163530.064                    99088421.734    24198410.090  
                                
  21456074.044   112752497.765                    87859106.017    21456072.114  
                                
  23431010.121   123130787.542                    95946067.963    23431012.391  
  23431006.869    91948298.659  
  19229798.561   102938633.072    19229795.041    80063362.542                  
                                
  19629316.589   104819513.161    19629311.657    81526298.548                  
                                
  22306120.871   119155321.958    22306116.672    92676353.755                  
                                
  26979235.976   141776836.358                                                  
                                
  23824235.251   125197261.477                                                  
                                
  24179347.202   127063397.998                                                  
                                
 21  8 31  2 37 54.0000000  0 13G 3G16G22G26G29G31G32R 7R 9R16E 7E21
                                E27
  21864292.320   114897647.261                    89530649.216    21864292.981  
  21864290.480    85800187.655  
  21122716.163   111000649.588    21122713.715    86494016.311                  
                                
  22360243.926   117503888.205    22360239.726    91561466.783                  
                                
  20037199.232   105296232.891                    82049045.880    20037199.964  
  20037195.658    78630338.492  
  24198483.872   127163918.066                    99088724.096    24198484.390  
                                
  21456413.359   112754281.833                    87860496.200    21456411.661  
                                
  23431582.198   123133793.224                    95948410.037    23431584.092  
  23431578.678    91950543.160  
  19229733.179   102938283.408    19229729.766    80063090.585                  
                                
  19629526.139   104820633.790    19629521.529    81527170.141                  
                                
  22306751.898   119158693.785    22306747.895    92678976.278                  
                                
  26979728.858   141779427.951                                                  
                                
  23824040.836   125196239.318                                                  
                                
  24179650.940   127064993.637                                                  
                                
 21  8 31  2 37 55.0000000  0 13G 3G16G22G26G29G31G32R 7R 9R16E 7E21
                                E27
  21864374.107   114898077.660                    89530984.607    21864375.197  
  21864372.284    85800509.061  
  21122211.989   110998000.256    21122209.594    86491951.894                  
                                
  22360549.075   117505489.924    22360544.590    91562714.869                  
                                
  20037208.113   105296278.923                    82049081.761    20037208.917  
  20037204.485    78630372.872  
  24198558.028   127164306.730                    99089026.949    24198558.368  
                                
  21456752.870   112756066.101                    87861886.537    21456750.851  
                                
  23432154.722   123136799.217                    95950752.397    23432156.348  
  23432150.773    91952787.888  
  19229667.814   102937934.668    19229664.615    80062819.347                  
                                
  19629735.850   104821754.910    19629731.526    81528042.124                  
                                
  22307382.853   119162065.714    22307379.154    92681598.890                  
                                
  26980222.221   141782019.715                                                  
                                
  23823846.421   125195217.551                                                  
                                
  24179954.463   127066589.569                                                  
                                
 21  8 31  2 37 56.0000000  0 13G 3G16G22G26G29G31G32R 7R 9R16E 7E21
                                E27
  21864456.072   114898508.669                    89531320.449    21864457.234  
  21864454.303    85800830.918  
  21121708.154   110995351.406    21121705.652    86489887.851                  
                                
  22360854.153   117507092.083    22360849.632    91563963.304                  
                                
  20037216.922   105296325.534                    82049118.081    20037217.673  
  20037213.402    78630407.679  
  24198632.006   127164695.953                    99089330.235    24198632.167  
                                
  21457092.703   112757850.460                    87863276.962    21457090.505  
                                
  23432726.370   123139805.454                    95953094.914    23432727.335  
  23432722.957    91955032.799  
  19229603.003   102937586.752    19229599.554    80062548.746                  
                                
  19629946.043   104822876.403    19629941.505    81528914.394                  
                                
  22308013.790   119165437.571    22308010.395    92684221.452                  
                                
  26980715.782   141784611.613                                                  
                                
  23823651.935   125194196.093                                                  
                                
  24180258.308   127068185.706                                                  
                                
 21  8 31  2 37 57.0000000  0 13G 3G16G22G26G29G31G32R 7R 9R16E 7E21
                                E27
  21864538.234   114898940.394                    89531656.865    21864539.306  
  21864536.483    85801153.310  
  21121203.693   110992703.134    21121201.603    86487824.266                  
                                
  22361158.409   117508694.767    22361154.442    91565212.161                  
                                
  20037225.874   105296372.826                    82049154.932    20037227.090  
  20037222.390    78630442.996  
  24198705.876   127165085.835                    99089634.049    24198706.091  
                                
  21457432.161   112759635.048                    87864667.536    21457430.446  
                                
  23433298.428   123142812.005                    95955437.697    23433299.840  
  23433294.765    91957277.972  
  19229537.870   102937239.727    19229534.815    80062278.841                  
                                
  19630156.094   104823998.374    19630151.501    81529787.033                  
                                
  22308645.192   119168809.533    22308641.672    92686844.096                  
                                
  26981209.110   141787203.752                                                  
                                
  23823457.698   125193175.067                                                  
                                
  24180562.189   127069782.143                                                  
                                
 21  8 31  2 37 58.0000000  0 13G 3G16G22G26G29G31G32R 7R 9R16E 7E21
                                E27
  21864620.449   114899372.755                    89531993.766    21864621.146  
  21864618.680    85801476.177  
  21120699.697   110990055.369    21120697.839    86485761.076                  
                                
  22361463.844   117510297.909    22361459.823    91566461.367                  
                                
  20037234.970   105296420.713                    82049192.237    20037235.899  
  20037231.503    78630478.762  
  24198780.301   127165476.331                    99089938.313    24198780.783  
                                
  21457771.744   112761419.785                    87866058.245    21457770.011  
                                
  23433870.702   123145818.819                    95957780.651    23433872.989  
  23433867.003    91959523.299  
  19229473.363   102936893.522    19229470.075    80062009.572                  
                                
  19630366.251   104825120.803    19630361.909    81530660.041                  
                                
  22309276.647   119172181.462    22309272.734    92689466.705                  
                                
  26981702.902   141789796.044                                                  
                                
  23823263.659   125192154.386                                                  
                                
  24180866.194   127071378.838                                                  
                                
 21  8 31  2 37 59.0000000  0 13G 3G16G22G26G29G31G32R 7R 9R16E 7E21
                                E27
  21864702.807   114899805.765                    89532331.183    21864704.380  
  21864701.110    85801799.538  
  21120195.845   110987408.136    21120194.004    86483698.294                  
                                
  22361768.743   117511901.521    22361764.955    91567710.920                  
                                
  20037244.172   105296469.219                    82049230.041    20037245.084  
  20037240.724    78630514.980  
  24198854.832   127165867.426                    99090243.082    24198854.529  
                                
  21458111.506   112763204.669                    87867449.053    21458109.272  
                                
  23434443.243   123148825.881                    95960123.789    23434444.512  
  23434439.223    91961768.863  
  19229409.267   102936548.156    19229405.550    80061740.952                  
                                
  19630576.516   104826243.686    19630572.174    81531533.392                  
                                
  22309907.567   119175553.424    22309903.886    92692089.333                  
                                
  26982196.266   141792388.512                                                  
                                
  23823069.548   125191134.061                                                  
                                
  24181169.968   127072975.771                                                  
                                
 21  8 31  2 38  0.0000000  0 13G 3G16G22G26G29G31G32R 7R 9R16E 7E21
                                E27
  21864785.327   114900239.424                    89532669.101    21864786.363  
  21864783.540    85802123.369  
  21119692.421   110984761.393    21119690.383    86481635.899                  
                                
  22362073.642   117513505.584    22362070.193    91568960.842                  
                                
  20037253.536   105296518.310                    82049268.289    20037254.733  
  20037250.123    78630551.643  
  24198929.739   127166259.130                    99090548.316    24198929.775  
                                
  21458451.303   112764989.685                    87868839.988    21458449.212  
                                
  23435015.302   123151833.206                    95962467.191    23435017.143  
  23435011.621    91964014.575  
  19229344.617   102936203.630    19229341.222    80061472.983                  
                                
  19630786.727   104827366.977    19630782.492    81532407.060                  
                                
  22310538.308   119178925.392    22310535.038    92694711.979                  
                                
  26982689.612   141794981.112                                                  
                                
  23822875.347   125190114.067                                                  
                                
  24181473.866   127074572.938                                                  
                                
 21  8 31  2 38  1.0000000  0 13G 3G16G22G26G29G31G32R 7R 9R16E 7E21
                                E27
  21864868.060   114900673.743                    89533007.525    21864869.114  
  21864866.166    85802447.696  
  21119188.943   110982115.192    21119187.049    86479573.918                  
                                
  22362379.363   117515110.105    22362375.539    91570211.121                  
                                
  20037263.096   105296568.031                    82049307.040    20037263.935  
  20037259.558    78630588.766  
  24199003.824   127166651.446                    99090853.998    24199003.914  
                                
  21458791.136   112766774.851                    87870231.029    21458788.724  
                                
  23435587.629   123154840.816                    95964810.726    23435589.630  
  23435583.805    91966260.491  
  19229280.681   102935859.989    19229277.036    80061205.711                  
                                
  19630997.350   104828490.719    19630992.954    81533281.081                  
                                
  22311169.906   119182297.392    22311166.243    92697334.628                  
                                
  26983183.190   141797573.946                                                  
                                
  23822681.254   125189094.443                                                  
                                
  24181777.747   127076170.373                                                  
                                
 21  8 31  2 38  2.0000000  0 13G 3G16G22G26G29G31G32R 7R 9R16E 7E21
                                E27
  21864950.794   114901108.672                    89533346.444    21864952.027  
  21864948.900    85802772.483  
  21118685.305   110979469.482    21118683.625    86477512.325                  
                                
  22362684.655   117516715.075    22362681.082    91571461.754                  
                                
  20037272.691   105296618.325                    82049346.241    20037273.495  
  20037269.153    78630626.332  
  24199078.267   127167044.321                    99091160.155    24199078.910  
                                
  21459130.933   112768560.149                    87871622.172    21459128.450  
                                
  23436159.956   123157848.629                    95967154.506    23436161.171  
  23436156.043    91968506.611  
  19229216.818   102935517.176    19229212.958    80060939.074                  
                                
  19631208.168   104829614.842    19631203.576    81534155.400                  
                                
  22311802.005   119185669.399    22311797.556    92699957.309                  
                                
  26983676.875   141800166.916                                                  
                                
  23822487.589   125188075.154                                                  
                                
  24182081.681   127077768.036                                                  
                                
 21  8 31  2 38  3.0000000  0 13G 3G16G22G26G29G31G32R 7R 9R16E 7E21
                                E27
  21865033.742   114901544.276                    89533685.869    21865035.011  
  21865031.794    85803097.781  
  21118182.184   110976824.305    21118180.272    86475451.153                  
                                
  22362990.180   117518320.544    22362986.588    91572712.764                  
                                
  20037282.394   105296669.264                    82049385.927    20037283.163  
  20037278.838    78630664.368  
  24199153.674   127167437.846                    99091466.800    24199153.460  
                                
  21459470.391   112770345.632                    87873013.453    21459467.979  
                                
  23436732.086   123160856.732                    95969498.466    23436733.391  
  23436728.387    91970752.922  
  19229152.578   102935175.230    19229149.130    80060673.114                  
                                
  19631418.701   104830739.422    19631414.055    81535030.072                  
                                
  22312433.586   119189041.465    22312428.886    92702580.013                  
                                
  26984169.846   141802760.062                                                  
                                
  23822293.657   125187056.234                                                  
                                
  24182386.008   127079365.960                                                  
                                
 21  8 31  2 38  4.0000000  0 13G 3G16G22G26G29G31G32R 7R 9R16E 7E21
                                E27
  21865116.690   114901980.535                    89534025.811    21865117.994  
  21865114.653    85803423.552  
  21117678.689   110974179.654    21117677.063    86473390.388                  
                                
  22363296.080   117519926.480    22363292.274    91573964.140                  
                                
  20037292.240   105296720.819                    82049426.100    20037293.044  
  20037288.666    78630702.868  
  24199228.688   127167831.965                    99091773.888    24199228.045  
                                
  21459810.206   112772131.270                    87874404.853    21459807.758  
                                
  23437305.200   123163865.137                    95971842.683    23437306.826  
  23437300.929    91972999.448  
  19229089.036   102934834.112    19229085.427    80060407.797                  
                                
  19631629.341   104831864.448    19631624.767    81535905.089                  
                                
  22313064.398   119192413.516    22313060.217    92705202.729                  
                                
  26984663.263   141805353.360                                                  
                                
  23822099.796   125186037.672                                                  
                                
  24182690.103   127080964.132                                                  
                                
 21  8 31  2 38  5.0000000  0 13G 3G16G22G26G29G31G32R 7R 9R16E 7E21
                                E27
  21865199.870   114902417.468                    89534366.274    21865200.996  
  21865197.887    85803749.833  
  21117175.730   110971535.534    21117174.014    86471330.033                  
                                
  22363601.604   117521532.891    22363597.995    91575215.889                  
                                
  20037302.032   105296773.002                    82049466.753    20037302.658  
  20037298.601    78630741.829  
  24199304.560   127168226.702                    99092081.509    24199304.292  
                                
  21460150.200   112773917.067                    87875796.392    21460147.985  
                                
  23437877.294   123166873.777                    95974187.071    23437879.081  
  23437873.417    91975246.175  
  19229025.708   102934493.846    19229021.920    80060143.143                  
                                
  19631839.713   104832989.937    19631835.496    81536780.467                  
                                
  22313695.496   119195785.609    22313691.547    92707825.458                  
                                
  26985156.645   141807946.846                                                  
                                
  23821906.113   125185019.489                                                  
                                
  24182994.020   127082562.575                                                  
                                
 21  8 31  2 38  6.0000000  0 13G 3G16G22G26G29G31G32R 7R 9R16E 7E21
                                E27
  21865283.193   114902855.024                    89534707.231    21865284.337  
  21865281.067    85804076.579  
  21116672.288   110968891.913    21116670.983    86469270.071                  
                                
  22363907.236   117523139.745    22363903.644    91576467.981                  
                                
  20037312.039   105296825.755                    82049507.868    20037312.914  
  20037308.662    78630781.231  
  24199378.985   127168622.019                    99092389.535    24199378.609  
                                
  21460490.141   112775702.993                    87877188.020    21460487.174  
                                
  23438450.282   123169882.673                    95976531.662    23438450.926  
  23438445.886    91977493.093  
  19228962.005   102934154.413    19228958.539    80059879.141                  
                                
  19632050.818   104834115.811    19632046.279    81537656.153                  
                                
  22314327.148   119199157.708    22314322.931    92710448.207                  
                                
  26985650.330   141810540.479                                                  
                                
  23821712.342   125184001.626                                                  
                                
  24183298.329   127084161.231                                                  
                                
 21  8 31  2 38  7.0000000  0 13G 3G16G22G26G29G31G32R 7R 9R16E 7E21
                                E27
  21865366.660   114903293.284                    89535048.735    21865367.803  
  21865364.408    85804403.860  
  21116169.382   110966248.861    21116168.042    86467210.557                  
                                
  22364213.529   117524747.113    22364209.419    91577720.468                  
                                
  20037322.117   105296879.182                    82049549.502    20037322.993  
  20037318.775    78630821.130  
  24199454.803   127169017.999                    99092698.095    24199454.070  
                                
  21460829.670   112777489.133                    87878579.820    21460827.544  
                                
  23439022.770   123172891.873                    95978876.537    23439022.877  
  23439018.446    91979740.205  
  19228898.892   102933815.899    19228895.229    80059615.851                  
                                
  19632261.779   104835242.218    19632257.223    81538532.243                  
                                
  22314958.550   119202529.900    22314954.279    92713071.015                  
                                
  26986143.658   141813134.364                                                  
                                
  23821518.927   125182984.188                                                  
                                
  24183602.853   127085760.200                                                  
                                
 21  8 31  2 38  8.0000000  0 13G 3G16G22G26G29G31G32R 7R 9R16E 7E21
                                E27
  21865450.162   114903732.137                    89535390.700    21865451.502  
  21865447.981    85804731.570  
  21115666.869   110963606.285    21115665.100    86465151.402                  
                                
  22364519.107   117526354.903    22364515.444    91578973.296                  
                                
  20037332.410   105296933.179                    82049591.580    20037333.232  
  20037329.140    78630861.457  
  24199529.906   127169414.531                    99093007.088    24199528.745  
                                
  21461169.646   112779275.376                    87879971.683    21461167.198  
                                
  23439595.097   123175901.332                    95981221.518    23439595.222  
  23439591.112    91981987.526  
  19228835.725   102933478.183    19228832.312    80059353.185                  
                                
  19632473.081   104836368.989    19632468.238    81539408.625                  
                                
  22315589.487   119205902.067    22315585.574    92715693.803                  
                                
  26986637.129   141815728.346                                                  
                                
  23821325.495   125181967.047                                                  
                                
  24183907.252   127087359.369                                                  
                                
