     2.11           OBSERVATION DATA    M (MIXED)           RINEX VERSION / TYPE
CONVBIN 2.4.3                           20210831 054516 UTC PGM / RUN BY / DATE 
log: logs/21_08_31_02_34_39_ncrd_SNNC.rtcm                  COMMENT             
format: RTCM 3, station ID: 577                             COMMENT             
0577                                                        MARKER NAME         
                                                            MARKER NUMBER       
                                                            OBSERVER / AGENCY   
1704048             LEICA GR10          4.30                REC # / TYPE / VERS 
                    GPPNULLANTENNA                          ANT # / TYPE        
  1025996.0589 -5078764.8687  3706952.9656                  APPROX POSITION XYZ 
        0.0000        0.0000        0.0000                  ANTENNA: DELTA H/E/N
     1     1                                                WAVELENGTH FACT L1/2
     7    C1    L1    C2    L2    P2    C5    L5            # / TYPES OF OBSERV 
  2021     8    31     2    34   46.0000000     GPS         TIME OF FIRST OBS   
  2021     8    31     3     4   43.0000000     GPS         TIME OF LAST OBS    
                                                            END OF HEADER       
 21  8 31  2 34 46.0000000  0 16G 3G 4G16G22G26G29G31G32R 7R 8R 9R16
                                E 7E19E21E27
  21850505.654   114825182.208    21850505.065    89474161.909    21850504.332  
  21850507.388    85746083.627  
  23228385.854   122065990.917    23228383.388    95116343.587    23228382.799  
  23228388.981    91153186.963  
  21221106.470   111517667.194                    86896866.020    21221102.199  
                                
  22305185.106   117214539.075                    91335980.079    22305179.191  
                                
  20037960.952   105300195.954    20037960.399    82052096.863    20037960.005  
  20037961.399    78633264.571  
  24185535.191   127095845.262    24185532.582    99035709.770    24185531.832  
                                
  21392015.187   112415798.898    21392011.077    87596705.853    21392010.184  
                                
  23327243.651   122585492.698    23327243.401    95521157.917    23327242.489  
  23327244.830    91541119.235  
  19244449.999   103017047.001    19244447.444    80124359.176    19244446.443  
                                
  21936118.716   117466919.647    21936116.626    91363150.569    21936116.090  
                                
  19590210.947   104610633.850    19590208.463    81363815.875    19590207.570  
                                
  22186210.363   118514752.985    22186208.183    92178131.942    22186208.398  
                                
  26890256.891   141309254.348                                                  
  26890264.163   105523171.692  
  24005296.432   126148684.698                                                  
  24005300.310    94201954.531  
  23862600.204   125398810.601                                                  
  23862605.297    93641988.785  
  24122405.720   126764098.230                                                  
  24122410.813    94661520.503  
 21  8 31  2 34 47.0000000  0 16G 3G 4G16G22G26G29G31G32R 7R 8R 9R16
                                E 7E19E21E27
  21850564.551   114825491.716    21850563.979    89474403.081    21850563.246  
  21850566.302    85746314.749  
  23227802.788   122062926.848    23227800.322    95113956.006    23227799.715  
  23227805.915    91150898.857  
  21220583.551   111514919.318                    86894724.820    21220579.298  
                                
  22305473.280   117216053.453                    91337160.116    22305467.365  
                                
  20037947.265   105300123.908    20037946.675    82052040.721    20037946.300  
  20037947.676    78633210.775  
  24185587.047   127096117.682    24185584.438    99035922.047    24185583.652  
                                
  21392349.248   112417554.420    21392345.156    87598073.790    21392344.245  
                                
  23327806.346   122588449.645    23327806.078    95523462.031    23327805.167  
  23327807.508    91543327.343  
  19244355.632   103016541.877    19244353.095    80123966.298    19244352.094  
                                
  21935432.421   117463244.628    21935430.348    91360292.219    21935429.812  
                                
  19590404.808   104611669.069    19590402.342    81364621.040    19590401.413  
                                
  22186840.604   118518119.661    22186838.424    92180750.470    22186838.638  
                                
  26890744.054   141311814.460                                                  
  26890751.327   105525083.471  
  24005001.951   126147137.114                                                  
  24005005.810    94200798.879  
  23862392.602   125397719.641                                                  
  23862397.695    93641174.117  
  24122700.005   126765644.714                                                  
  24122705.098    94662675.349  
 21  8 31  2 34 48.0000000  0 16G 3G 4G16G22G26G29G31G32R 7R 8R 9R16
                                E 7E19E21E27
  21850623.626   114825802.078    21850623.018    89474644.924    21850622.303  
  21850625.341    85746546.510  
  23227219.758   122059863.067    23227217.292    95111568.653    23227216.702  
  23227222.885    91148610.980  
  21220060.793   111512172.152                    86892584.175    21220056.522  
                                
  22305761.578   117217568.533                    91338340.697    22305755.664  
                                
  20037933.702   105300052.703    20037933.130    82051985.239    20037932.737  
  20037934.131    78633157.598  
  24185639.028   127096390.932    24185636.437    99036134.969    24185635.669  
                                
  21392683.381   112419310.315    21392679.289    87599442.020    21392678.396  
                                
  23328369.113   122591407.047    23328368.881    95525766.505    23328367.934  
  23328370.275    91545535.790  
  19244261.481   103016037.842    19244258.925    80123574.273    19244257.943  
                                
  21934746.250   117459570.127    21934744.160    91357434.273    21934743.624  
                                
  19590598.812   104612704.938    19590596.328    81365426.719    19590595.399  
                                
  22187470.916   118521486.588    22187468.718    92183369.189    22187468.932  
                                
  26891231.306   141314374.984                                                  
  26891238.579   105526995.541  
  24004707.541   126145590.011                                                  
  24004711.418    94199643.566  
  23862185.089   125396629.255                                                  
  23862190.200    93640359.860  
  24122994.361   126767191.676                                                  
  24122999.472    94663830.539  
 21  8 31  2 34 49.0000000  0 16G 3G 4G16G22G26G29G31G32R 7R 8R 9R16
                                E 7E19E21E27
  21850682.772   114826112.924    21850682.182    89474887.137    21850681.468  
  21850684.505    85746778.638  
  23226636.709   122056799.242    23226634.243    95109181.247    23226633.654  
  23226639.854    91146323.054  
  21219538.070   111509425.344                    86890443.810    21219533.835  
                                
  22306049.967   117219083.937                    91339521.525    22306044.034  
                                
  20037920.229   105299981.948    20037919.675    82051930.107    20037919.300  
  20037920.676    78633104.759  
  24185691.116   127096664.619    24185688.507    99036348.228    24185687.739  
                                
  21393017.514   112421066.200    21393013.422    87600810.240    21393012.529  
                                
  23328931.916   122594364.601    23328931.702    95528071.081    23328930.755  
  23328933.095    91547744.331  
  19244167.454   103015534.515    19244164.916    80123182.796    19244163.916  
                                
  21934060.080   117455895.754    21934058.007    91354576.434    21934057.471  
                                
  19590792.852   104613741.102    19590790.350    81366232.620    19590789.457  
                                
  22188101.192   118524853.431    22188099.012    92185987.852    22188099.226  
                                
  26891718.559   141316935.481                                                  
  26891725.814   105528907.616  
  24004413.148   126144042.978                                                  
  24004417.008    94198488.330  
  23861977.665   125395539.067                                                  
  23861982.740    93639545.758  
  24123288.771   126768738.720                                                  
  24123293.882    94664985.799  
 21  8 31  2 34 50.0000000  0 16G 3G 4G16G22G26G29G31G32R 7R 8R 9R16
                                E 7E19E21E27
  21850742.026   114826424.334    21850741.436    89475129.789    21850740.703  
  21850743.759    85747011.195  
  23226053.679   122053735.381    23226051.213    95106793.828    23226050.605  
  23226056.806    91144035.119  
  21219015.455   111506678.920                    86888303.740    21219011.184  
                                
  22306338.390   117220599.700                    91340702.641    22306332.476  
                                
  20037906.881   105299911.706    20037906.291    82051875.371    20037905.916  
  20037907.292    78633052.319  
  24185743.294   127096938.799    24185740.703    99036561.870    24185739.917  
                                
  21393351.665   112422822.133    21393347.555    87602178.502    21393346.679  
                                
  23329494.737   122597322.285    23329494.487    95530375.765    23329493.575  
  23329495.916    91549953.006  
  19244073.552   103015031.909    19244071.015    80122791.880    19244070.014  
                                
  21933373.963   117452221.596    21933371.890    91351718.756    21933371.336  
                                
  19590986.945   104614777.612    19590984.461    81367038.794    19590983.532  
                                
  22188731.450   118528220.191    22188729.270    92188606.445    22188729.485  
                                
  26892205.829   141319496.080                                                  
  26892213.084   105530819.759  
  24004118.774   126142496.116                                                  
  24004122.634    94197333.208  
  23861770.224   125394449.116                                                  
  23861775.317    93638731.849  
  24123583.164   126770285.928                                                  
  24123588.292    94666141.200  
 21  8 31  2 34 51.0000000  0 16G 3G 4G16G22G26G29G31G32R 7R 8R 9R16
                                E 7E19E21E27
  21850801.476   114826736.776    21850800.886    89475373.249    21850800.172  
  21850803.209    85747244.501  
  23225470.738   122050671.981    23225468.272    95104406.761    23225467.682  
  23225473.847    91141747.507  
  21218492.983   111503933.371                    86886164.355    21218488.748  
                                
  22306626.993   117222116.317                    91341884.418    22306621.096  
                                
  20037893.676   105299842.435    20037893.122    82051821.396    20037892.746  
  20037894.104    78633000.584  
  24185795.650   127097213.960    24185793.041    99036776.283    24185792.291  
                                
  21393685.887   112424578.591    21393681.813    87603547.170    21393680.919  
                                
  23330057.682   122600280.608    23330057.468    95532680.945    23330056.557  
  23330058.880    91552162.124  
  19243979.883   103014530.477    19243977.345    80122401.878    19243976.345  
                                
  21932687.989   117448548.165    21932685.898    91348861.643    21932685.345  
                                
  19591181.199   104615814.942    19591178.734    81367845.609    19591177.804  
                                
  22189361.780   118531587.368    22189359.600    92191225.360    22189359.832  
                                
  26892693.207   141322057.205                                                  
  26892700.462   105532732.272  
  24003824.543   126140949.861                                                  
  24003828.403    94196178.528  
  23861562.961   125393359.893                                                  
  23861568.072    93637918.455  
  24123877.734   126771833.759                                                  
  24123882.827    94667297.030  
 21  8 31  2 34 52.0000000  0 16G 3G 4G16G22G26G29G31G32R 7R 8R 9R16
                                E 7E19E21E27
  21850861.051   114827049.802    21850860.462    89475617.170    21850859.729  
  21850862.785    85747478.259  
  23224887.779   122047608.626    23224885.331    95102019.733    23224884.723  
  23224890.906    91139459.953  
  21217970.617   111501188.280                    86884025.325    21217966.347  
                                
  22306915.667   117223633.362                    91343066.532    22306909.770  
                                
  20037880.613   105299773.731    20037880.042    82051767.863    20037879.648  
  20037881.024    78632949.281  
  24185848.114   127097489.663    24185845.523    99036991.116    24185844.736  
                                
  21394020.145   112426335.158    21394016.071    87604915.924    21394015.159  
                                
  23330620.682   122603239.145    23330620.449    95534986.294    23330619.538  
  23330621.861    91554371.423  
  19243886.356   103014029.790    19243883.801    80122012.457    19243882.818  
                                
  21932002.051   117444875.069    21931999.960    91346004.791    21931999.424  
                                
  19591375.543   104616852.702    19591373.059    81368652.755    19591372.148  
                                
  22189992.146   118534954.509    22189989.948    92193844.246    22189990.162  
                                
  26893180.567   141324618.451                                                  
  26893187.821   105534644.903  
  24003530.329   126139403.827                                                  
  24003534.225    94195024.020  
  23861355.752   125392270.975                                                  
  23861360.827    93637105.312  
  24124172.287   126773381.798                                                  
  24124177.416    94668453.046  
 21  8 31  2 34 53.0000000  0 16G 3G 4G16G22G26G29G31G32R 7R 8R 9R16
                                E 7E19E21E27
  21850920.609   114827362.755    21850920.001    89475861.032    21850919.286  
  21850922.324    85747711.960  
  23224304.730   122044544.642    23224302.264    95099632.215    23224301.657  
  23224307.857    91137171.913  
  21217448.181   111498442.968                    86881886.124    21217443.946  
                                
  22307204.305   117225150.161                    91344248.453    22307198.409  
                                
  20037867.515   105299704.918    20037866.926    82051714.245    20037866.550  
  20037867.926    78632897.900  
  24185900.577   127097765.263    24185897.950    99037205.868    24185897.200  
                                
  21394354.296   112428091.144    21394350.222    87606284.220    21394349.328  
                                
  23331183.592   122606197.213    23331183.341    95537291.279    23331182.430  
  23331184.753    91556580.379  
  19243792.830   103013529.165    19243790.292    80121623.084    19243789.292  
                                
  21931316.041   117441201.602    21931313.986    91343147.650    21931313.432  
                                
  19591569.833   104617890.157    19591567.331    81369459.665    19591566.420  
                                
  22190622.332   118538320.935    22190620.134    92196462.577    22190620.349  
                                
  26893667.873   141327179.135                                                  
  26893675.128   105536557.105  
  24003236.044   126137857.302                                                  
  24003239.904    94193869.152  
  23861148.453   125391181.684                                                  
  23861153.546    93636291.877  
  24124466.805   126774929.361                                                  
  24124471.897    94669608.699  
 21  8 31  2 34 54.0000000  0 16G 3G 4G16G22G26G29G31G32R 7R 8R 9R16
                                E 7E19E21E27
  21850980.327   114827676.583    21850979.720    89476105.580    21850979.005  
  21850982.060    85747946.314  
  23223721.753   122041480.981    23223719.288    95097244.961    23223718.698  
  23223724.881    91134884.106  
  21216925.905   111495698.355                    86879747.464    21216921.652  
                                
  22307493.087   117226667.658                    91345430.923    22307487.190  
                                
  20037854.578   105299636.942    20037853.988    82051661.281    20037853.613  
  20037854.989    78632847.136  
  24185953.166   127098041.647    24185950.575    99037421.241    24185949.788  
                                
  21394688.536   112429847.520    21394684.462    87607652.833    21394683.550  
                                
  23331746.591   122609155.777    23331746.341    95539596.663    23331745.429  
  23331747.752    91558789.705  
  19243699.518   103013029.656    19243696.962    80121234.574    19243695.980  
                                
  21930630.175   117437528.683    21930628.084    91340290.949    21930627.548  
                                
  19591764.248   104618928.284    19591761.746    81370267.094    19591760.835  
                                
  22191252.573   118541687.563    22191250.375    92199081.056    22191250.607  
                                
  26894155.233   141329740.249                                                  
  26894162.469   105538469.607  
  24002941.831   126136311.258                                                  
  24002945.726    94192714.634  
  23860941.280   125390092.968                                                  
  23860946.390    93635478.873  
  24124761.375   126776477.427                                                  
  24124766.504    94670764.710  
 21  8 31  2 34 55.0000000  0 16G 3G 4G16G22G26G29G31G32R 7R 8R 9R16
                                E 7E19E21E27
  21851040.206   114827991.297    21851039.616    89476350.811    21851038.884  
  21851041.939    85748181.332  
  23223138.794   122038417.628    23223136.364    95094857.928    23223135.757  
  23223141.939    91132596.537  
  21216403.772   111492954.496                    86877609.388    21216399.519  
                                
  22307781.975   117228185.863                    91346613.939    22307776.078  
                                
  20037841.802   105299569.805    20037841.212    82051608.966    20037840.837  
  20037842.213    78632797.005  
  24186005.915   127098318.885    24186003.324    99037637.271    24186002.538  
                                
  21395022.829   112431604.254    21395018.755    87609021.717    21395017.844  
                                
  23332309.662   122612114.842    23332309.447    95541902.433    23332308.500  
  23332310.841    91560999.403  
  19243606.420   103012531.225    19243603.847    80120846.908    19243602.864  
                                
  21929944.362   117433856.331    21929942.307    91337434.678    21929941.753  
                                
  19591958.788   104619967.096    19591956.286    81371075.057    19591955.375  
                                
  22191882.867   118545054.430    22191880.669    92201699.733    22191880.883  
                                
  26894642.664   141332301.735                                                  
  26894649.901   105540382.401  
  24002647.725   126134765.690                                                  
  24002651.584    94191560.483  
  23860734.214   125389004.828                                                  
  23860739.324    93634666.307  
  24125056.054   126778025.961                                                  
  24125061.164    94671921.082  
 21  8 31  2 34 56.0000000  0 16G 3G 4G16G22G26G29G31G32R 7R 8R 9R16
                                E 7E19E21E27
  21851100.210   114828306.600    21851099.603    89476596.505    21851098.888  
  21851101.944    85748416.784  
  23222555.871   122035354.284    23222553.405    95092470.909    23222552.816  
  23222558.998    91130308.990  
  21215881.711   111490211.060                    86875471.647    21215877.458  
                                
  22308070.989   117229704.496                    91347797.289    22308065.074  
                                
  20037829.115   105299503.219    20037828.561    82051557.083    20037828.168  
  20037829.544    78632747.280  
  24186058.772   127098596.672    24186056.181    99037853.728    24186055.394  
                                
  21395357.141   112433361.093    21395353.067    87610390.683    21395352.156  
                                
  23332872.804   122615074.101    23332872.590    95544208.356    23332871.643  
  23332873.965    91563209.235  
  19243513.448   103012033.590    19243510.910    80120459.863    19243509.909  
                                
  21929258.620   117430184.222    21929256.547    91334578.595    21929256.011  
                                
  19592153.381   104621006.293    19592150.898    81371883.323    19592149.986  
                                
  22192513.143   118548421.285    22192510.945    92204318.402    22192511.160  
                                
  26895130.113   141334863.335                                                  
  26895137.368   105542295.286  
  24002353.654   126133220.322                                                  
  24002357.514    94190406.470  
  23860527.201   125387916.972                                                  
  23860532.294    93633853.945  
  24125350.767   126779574.687                                                  
  24125355.878    94673077.595  
 21  8 31  2 34 57.0000000  0 16G 3G 4G16G22G26G29G31G32R 7R 8R 9R16
                                E 7E19E21E27
  21851160.268   114828622.265    21851159.696    89476842.479    21851158.982  
  21851162.019    85748652.503  
  23221972.876   122032290.752    23221970.428    95090083.748    23221969.821  
  23221976.021    91128021.297  
  21215359.685   111487467.852                    86873334.083    21215355.450  
                                
  22308360.002   117231223.328                    91348980.791    22308354.106  
                                
  20037816.517   105299436.956    20037815.945    82051505.448    20037815.570  
  20037816.928    78632697.791  
  24186111.700   127098874.734    24186109.091    99038070.400    24186108.304  
                                
  21395691.417   112435117.786    21395687.361    87611759.534    21395686.449  
                                
  23333435.928   122618033.337    23333435.714    95546514.258    23333434.785  
  23333437.090    91565419.058  
  19243420.582   103011536.498    19243418.027    80120073.239    19243417.026  
                                
  21928572.878   117426512.151    21928570.823    91331722.540    21928570.269  
                                
  19592348.011   104622045.633    19592345.527    81372691.701    19592344.616  
                                
  22193143.383   118551787.919    22193141.186    92206936.898    22193141.418  
                                
  26895617.544   141337424.803                                                  
  26895624.799   105544208.073  
  24002059.566   126131674.900                                                  
  24002063.425    94189252.425  
  23860320.206   125386829.190                                                  
  23860325.299    93633041.638  
  24125645.463   126781123.372                                                  
  24125650.592    94674234.083  
 21  8 31  2 34 58.0000000  0 16G 3G 4G16G22G26G29G31G32R 7R 8R 9R16
                                E 7E19E21E27
  21851220.576   114828939.018    21851219.969    89477089.297    21851219.254  
  21851222.291    85748889.044  
  23221390.025   122029227.781    23221387.577    95087697.021    23221386.987  
  23221393.170    91125733.995  
  21214837.856   111484725.584                    86871197.253    21214833.621  
                                
  22308649.195   117232743.079                    91350165.010    22308643.298  
                                
  20037804.116   105299371.747    20037803.526    82051454.633    20037803.151  
  20037804.527    78632649.103  
  24186164.824   127099153.873    24186162.197    99038287.906    24186161.429  
                                
  21396025.836   112436875.078    21396021.744    87613128.850    21396020.850  
                                
  23333999.196   122620993.286    23333998.946    95548820.717    23333998.034  
  23334000.357    91567629.412  
  19243327.967   103011040.689    19243325.412    80119687.610    19243324.429  
                                
  21927887.315   117422840.894    21927885.225    91328867.123    21927884.689  
                                
  19592542.819   104623085.879    19592540.317    81373500.784    19592539.424  
                                
  22193773.713   118555155.067    22193771.515    92209555.793    22193771.748  
                                
  26896105.100   141339986.897                                                  
  26896112.337   105546121.318  
  24001765.620   126130130.195                                                  
  24001769.480    94188098.907  
  23860113.372   125385742.199                                                  
  23860118.465    93632229.924  
  24125940.302   126782672.760                                                  
  24125945.431    94675391.096  
 21  8 31  2 34 59.0000000  0 16G 3G 4G16G22G26G29G31G32R 7R 8R 9R16
                                E 7E19E21E27
  21851280.938   114829256.352    21851280.348    89477336.569    21851279.615  
  21851282.671    85749126.016  
  23220807.155   122026164.789    23220804.707    95085310.275    23220804.099  
  23220810.282    91123446.709  
  21214316.116   111481983.750                    86869060.752    21214311.846  
                                
  22308938.476   117234263.217                    91351349.535    22308932.579  
                                
  20037791.804   105299307.075    20037791.232    82051404.241    20037790.857  
  20037792.215    78632600.811  
  24186218.038   127099433.538    24186215.429    99038505.820    24186214.643  
                                
  21396360.236   112438632.443    21396356.162    87614498.225    21396355.269  
                                
  23334562.463   122623953.443    23334562.249    95551127.321    23334561.337  
  23334563.642    91569839.906  
  19243235.477   103010545.636    19243232.940    80119302.566    19243231.939  
                                
  21927201.770   117419169.936    21927199.715    91326011.947    21927199.161  
                                
  19592737.699   104624126.510    19592735.197    81374310.175    19592734.303  
                                
  22194404.043   118558522.196    22194401.845    92212174.662    22194402.095  
                                
  26896592.674   141342549.069                                                  
  26896599.911   105548034.651  
  24001471.693   126128585.639                                                  
  24001475.553    94186945.529  
  23859906.556   125384655.485                                                  
  23859911.667    93631418.425  
  24126235.159   126784222.322                                                  
  24126240.305    94676548.245  
 21  8 31  2 35  0.0000000  0 16G 3G 4G16G22G26G29G31G32R 7R 8R 9R16
                                E 7E19E21E27
  21851341.442   114829574.338    21851340.852    89477584.354    21851340.138  
  21851343.193    85749363.473  
  23220224.285   122023101.888    23220221.837    95082923.601    23220221.248  
  23220227.430    91121159.485  
  21213794.430   111479242.403                    86866924.640    21213790.195  
                                
  22309227.829   117235783.825                    91352534.427    22309221.950  
                                
  20037779.618   105299243.007    20037779.028    82051354.316    20037778.653  
  20037780.029    78632552.963  
  24186271.359   127099713.787    24186268.768    99038724.193    24186267.982  
                                
  21396694.673   112440389.957    21396690.599    87615867.722    21396689.705  
                                
  23335125.838   122626913.852    23335125.605    95553434.134    23335124.694  
  23335126.999    91572050.592  
  19243143.148   103010051.433    19243140.610    80118918.188    19243139.628  
                                
  21926516.315   117415499.301    21926514.242    91323157.011    21926513.688  
                                
  19592932.667   104625167.588    19592930.166    81375119.903    19592929.237  
                                
  22195034.409   118561889.335    22195032.211    92214793.545    22195032.425  
                                
  26897080.266   141345111.409                                                  
  26897087.486   105549948.086  
  24001177.837   126127041.345                                                  
  24001181.696    94185792.314  
  23859699.830   125383569.111                                                  
  23859704.922    93630607.170  
  24126530.087   126785772.151                                                  
  24126535.233    94677705.583  
 21  8 31  2 35  1.0000000  0 16G 3G 4G16G22G26G29G31G32R 7R 8R 9R16
                                E 7E19E21E27
  21851402.107   114829893.051    21851401.500    89477832.702    21851400.785  
  21851403.841    85749601.471  
  23219641.487   122020039.166    23219639.021    95080537.062    23219638.414  
  23219644.614    91118872.385  
  21213272.887   111476501.622                    86864788.971    21213268.634  
                                
  22309517.307   117237304.987                    91353719.748    22309511.411  
                                
  20037767.556   105299179.632    20037766.984    82051304.937    20037766.591  
  20037767.949    78632505.644  
  24186324.823   127099994.690    24186322.215    99038943.081    24186321.428  
                                
  21397029.145   112442147.703    21397025.089    87617237.394    21397024.196  
                                
  23335689.212   122629874.573    23335688.998    95555741.189    23335688.069  
  23335690.392    91574261.538  
  19243051.015   103009558.155    19243048.460    80118534.526    19243047.477  
                                
  21925830.930   117411829.109    21925828.840    91320302.419    21925828.304  
                                
  19593127.726   104626209.195    19593125.224    81375930.041    19593124.295  
                                
  22195664.756   118565256.551    22195662.540    92217412.484    22195662.773  
                                
  26897567.912   141347674.007                                                  
  26897575.149   105551861.713  
  24000884.034   126125497.376                                                  
  24000887.876    94184639.352  
  23859493.174   125382483.169                                                  
  23859498.285    93629796.241  
  24126825.069   126787322.288                                                  
  24126830.215    94678863.155  
 21  8 31  2 35  2.0000000  0 16G 3G 4G16G22G26G29G31G32R 7R 8R 9R16
                                E 7E19E21E27
  21851462.844   114830212.299    21851462.255    89478081.467    21851461.540  
  21851464.578    85749839.877  
  23219058.671   122016976.447    23219056.205    95078150.530    23219055.633  
  23219061.816    91116585.283  
  21212751.397   111473761.258                    86862653.625    21212747.162  
                                
  22309806.839   117238826.525                    91354905.360    22309800.942  
                                
  20037755.602   105299116.755    20037755.012    82051255.945    20037754.619  
  20037755.995    78632458.691  
  24186378.395   127100276.118    24186375.768    99039162.373    24186374.982  
                                
  21397363.654   112443905.500    21397359.579    87618607.108    21397358.686  
                                
  23336252.658   122632835.478    23336252.444    95558048.390    23336251.515  
  23336253.838    91576472.597  
  19242958.990   103009065.599    19242956.452    80118151.426    19242955.469  
                                
  21925145.564   117408159.152    21925143.509    91317448.009    21925142.955  
                                
  19593322.838   104627251.156    19593320.336    81376740.453    19593319.425  
                                
  22196295.086   118568623.671    22196292.888    92220031.353    22196293.103  
                                
  26898055.558   141350236.655                                                  
  26898062.795   105553775.392  
  24000590.250   126123953.560                                                  
  24000594.109    94183486.505  
  23859286.573   125381397.482                                                  
  23859291.683    93628985.505  
  24127120.086   126788872.592                                                  
  24127125.215    94680020.847  
 21  8 31  2 35  3.0000000  0 16G 3G 4G16G22G26G29G31G32R 7R 8R 9R16
                                E 7E19E21E27
  21851523.742   114830532.277    21851523.152    89478330.800    21851522.420  
  21851525.457    85750078.821  
  23218475.873   122013913.848    23218473.425    95075764.094    23218472.817  
  23218479.018    91114298.282  
  21212230.033   111471021.425                    86860518.692    21212225.798  
                                
  22310096.478   117240348.591                    91356091.387    22310090.599  
                                
  20037743.754   105299054.557    20037743.183    82051207.476    20037742.772  
  20037744.165    78632412.246  
  24186432.055   127100558.192    24186429.447    99039382.174    24186428.660  
                                
  21397698.180   112445663.516    21397694.123    87619976.993    21397693.230  
                                
  23336816.158   122635796.698    23336815.943    95560355.841    23336815.014  
  23336817.319    91578683.912  
  19242867.143   103008573.912    19242864.605    80117769.003    19242863.605  
                                
  21924460.305   117404489.591    21924458.250    91314593.912    21924457.696  
                                
  19593518.057   104628293.606    19593515.555    81377551.250    19593514.644  
                                
  22196925.452   118571990.884    22196923.218    92222650.292    22196923.468  
                                
  26898543.275   141352799.549                                                  
  26898550.494   105555689.237  
  24000296.519   126122410.054                                                  
  24000300.378    94182333.891  
  23859080.042   125380312.196                                                  
  23859085.171    93628175.069  
  24127415.140   126790423.202                                                  
  24127420.286    94681178.777  
 21  8 31  2 35  4.0000000  0 16G 3G 4G16G22G26G29G31G32R 7R 8R 9R16
                                E 7E19E21E27
  21851584.729   114830852.757    21851584.121    89478580.525    21851583.407  
  21851586.462    85750318.141  
  23217893.075   122010851.217    23217890.609    95073377.630    23217890.019  
  23217896.202    91112011.263  
  21211708.722   111468281.962                    86858384.048    21211704.487  
                                
  22310386.171   117241871.000                    91357277.683    22310380.292  
                                
  20037731.997   105298992.836    20037731.425    82051159.385    20037731.050  
  20037732.426    78632366.159  
  24186485.823   127100840.732    24186483.197    99039602.342    24186482.410  
                                
  21398032.723   112447421.532    21398028.649    87621346.871    21398027.756  
                                
  23337379.693   122638758.070    23337379.479    95562663.401    23337378.567  
  23337380.855    91580895.309  
  19242775.421   103008082.918    19242772.884    80117387.117    19242771.883  
                                
  21923775.063   117400820.223    21923773.009    91311739.950    21923772.455  
                                
  19593713.347   104629336.366    19593710.828    81378362.278    19593709.916  
                                
  22197555.763   118575357.954    22197553.566    92225269.114    22197553.780  
                                
  26899030.974   141355362.479                                                  
  26899038.193   105557603.098  
  24000002.823   126120866.661                                                  
  24000006.683    94181181.348  
  23858873.566   125379227.131                                                  
  23858878.694    93627364.789  
  24127710.247   126791973.946                                                  
  24127715.393    94682336.793  
 21  8 31  2 35  5.0000000  0 16G 3G 4G16G22G26G29G31G32R 7R 8R 9R16
                                E 7E19E21E27
  21851645.841   114831173.961    21851645.251    89478830.814    21851644.519  
  21851647.592    85750557.999  
  23217310.294   122007788.745    23217307.828    95070991.288    23217307.257  
  23217313.457    91109724.350  
  21211187.536   111465543.083                    86856249.859    21211183.301  
                                
  22310675.989   117243393.953                    91358464.399    22310670.110  
                                
  20037720.400   105298931.800    20037719.810    82051111.824    20037719.417  
  20037720.811    78632320.571  
  24186539.716   127101123.942    24186537.090    99039823.025    24186536.303  
                                
  21398367.303   112449179.786    21398363.247    87622716.937    21398362.353  
                                
  23337943.282   122641719.761    23337943.068    95564971.215    23337942.156  
  23337944.444    91583106.960  
  19242683.878   103007592.843    19242681.323    80117005.949    19242680.340  
                                
  21923089.912   117397151.251    21923087.857    91308886.310    21923087.285  
                                
  19593908.727   104630379.651    19593906.208    81379173.720    19593905.278  
                                
  22198186.111   118578725.143    22198183.895    92227888.037    22198184.128  
                                
  26899518.727   141357925.632                                                  
  26899525.946   105559517.151  
  23999709.200   126119323.590                                                  
  23999713.059    94180029.051  
  23858667.161   125378142.497                                                  
  23858672.289    93626554.831  
  24128005.407   126793525.008                                                  
  24128010.554    94683495.049  
 21  8 31  2 35  6.0000000  0 16G 3G 4G16G22G26G29G31G32R 7R 8R 9R16
                                E 7E19E21E27
  21851707.114   114831495.900    21851706.524    89479081.675    21851705.792  
  21851708.865    85750798.408  
  23216727.568   122004726.457    23216725.102    95068605.088    23216724.530  
  23216730.731    91107437.576  
  21210666.458   111462804.785                    86854116.115    21210662.205  
                                
  22310965.913   117244917.469                    91359651.556    22310959.999  
                                
  20037708.910   105298871.453    20037708.320    82051064.803    20037707.945  
  20037709.303    78632275.513  
  24186593.734   127101407.844    24186591.125    99040044.249    24186590.339  
                                
  21398701.936   112450938.281    21398697.880    87624087.190    21398696.986  
                                
  23338506.943   122644681.808    23338506.728    95567279.299    23338505.799  
  23338508.104    91585318.873  
  19242592.478   103007103.709    19242589.941    80116625.516    19242588.958  
                                
  21922404.831   117393482.679    21922402.776    91306032.976    21922402.204  
                                
  19594104.178   104631423.472    19594101.677    81379985.584    19594100.765  
                                
  22198816.494   118582092.475    22198814.261    92230507.073    22198814.511  
                                
  26900006.533   141360489.060                                                  
  26900013.753   105561431.391  
  23999415.629   126117780.865                                                  
  23999419.489    94178877.012  
  23858460.845   125377058.286                                                  
  23858465.973    93625745.192  
  24128300.621   126795076.407                                                  
  24128305.768    94684653.559  
 21  8 31  2 35  7.0000000  0 16G 3G 4G16G22G26G29G31G32R 7R 8R 9R16
                                E 7E19E21E27
  21851768.440   114831818.252    21851767.851    89479332.859    21851767.136  
  21851770.191    85751039.132  
  23216144.805   122001664.031    23216142.357    95066218.789    23216141.768  
  23216147.950    91105150.700  
  21210145.433   111460066.757                    86851982.582    21210141.198  
                                
  22311255.856   117246441.213                    91360838.890    22311249.977  
                                
  20037697.509   105298811.484    20037696.920    82051018.074    20037696.527  
  20037697.903    78632230.736  
  24186647.842   127101692.127    24186645.215    99040265.767    24186644.429  
                                
  21399036.551   112452696.696    21399032.495    87625457.382    21399031.602  
                                
  23339070.603   122647643.888    23339070.389    95569587.410    23339069.495  
  23339071.765    91587530.816  
  19242501.221   103006615.166    19242498.684    80116245.536    19242497.701  
                                
  21921719.768   117389814.194    21921717.714    91303179.712    21921717.142  
                                
  19594299.701   104632467.485    19594297.182    81380797.591    19594296.270  
                                
  22199446.824   118585459.652    22199444.626    92233125.991    22199444.841  
                                
  26900494.322   141363052.427                                                  
  26900501.541   105563345.591  
  23999122.059   126116238.152                                                  
  23999125.901    94177724.990  
  23858254.547   125375974.195                                                  
  23858259.676    93624935.651  
  24128595.871   126796627.832                                                  
  24128601.000    94685812.095  
 21  8 31  2 35  8.0000000  0 16G 3G 4G16G22G26G29G31G32R 7R 8R 9R16
                                E 7E19E21E27
  21851829.945   114832141.285    21851829.320    89479584.577    21851828.623  
  21851831.661    85751280.353  
  23215562.061   121998601.697    23215559.595    95063832.554    23215559.023  
  23215565.224    91102863.892  
  21209624.497   111457329.251                    86849849.461    21209620.262  
                                
  22311545.924   117247965.460                    91362026.614    22311540.045  
                                
  20037686.198   105298752.156    20037685.627    82050971.841    20037685.251  
  20037686.609    78632186.428  
  24186702.056   127101977.004    24186699.430    99040487.750    24186698.643  
                                
  21399371.220   112454455.282    21399367.146    87626827.706    21399366.253  
                                
  23339634.335   122650606.248    23339634.121    95571895.741    23339633.191  
  23339635.497    91589742.966  
  19242410.125   103006127.479    19242407.587    80115866.226    19242406.587  
                                
  21921034.759   117386146.089    21921032.705    91300326.744    21921032.151  
                                
  19594495.296   104633511.975    19594492.776    81381609.970    19594491.883  
                                
  22200077.190   118588826.880    22200074.974    92235744.946    22200075.206  
                                
  26900982.146   141365615.973                                                  
  26900989.383   105565259.925  
  23998828.525   126114695.706                                                  
  23998832.385    94176573.166  
  23858048.321   125374890.471                                                  
  23858053.449    93624126.378  
  24128891.139   126798179.533                                                  
  24128896.285    94686970.822  
 21  8 31  2 35  9.0000000  0 16G 3G 4G16G22G26G29G31G32R 7R 8R 9R16
                                E 7E19E21E27
  21851891.486   114832464.816    21851890.879    89479836.673    21851890.164  
  21851893.220    85751521.945  
  23214979.316   121995539.289    23214976.850    95061446.267    23214976.278  
  23214982.443    91100577.044  
  21209103.633   111454592.071                    86847716.598    21209099.398  
                                
  22311836.028   117249490.023                    91363214.581    22311830.131  
                                
  20037675.012   105298693.276    20037674.423    82050925.959    20037674.030  
  20037675.405    78632142.461  
  24186756.342   127102262.341    24186753.716    99040710.091    24186752.947  
                                
  21399705.854   112456213.844    21399701.779    87628198.019    21399700.904  
                                
  23340198.085   122653568.715    23340197.853    95574204.145    23340196.959  
  23340199.246    91591955.189  
  19242319.136   103005640.455    19242316.598    80115487.430    19242315.598  
                                
  21920349.804   117382478.208    21920347.749    91297473.952    21920347.195  
                                
  19594690.944   104634556.765    19594688.424    81382422.589    19594687.531  
                                
  22200707.502   118592193.920    22200705.304    92238363.753    22200705.518  
                                
  26901469.971   141368179.492                                                  
  26901477.190   105567174.255  
  23998535.044   126113153.357                                                  
  23998538.886    94175421.425  
  23857842.130   125373806.953                                                  
  23857847.241    93623317.262  
  24129186.425   126799731.305                                                  
  24129191.553    94688129.628  
 21  8 31  2 35 10.0000000  0 16G 3G 4G16G22G26G29G31G32R 7R 8R 9R16
                                E 7E19E21E27
  21851953.170   114832788.947    21851952.581    89480089.244    21851951.866  
  21851954.921    85751763.988  
  23214396.554   121992476.957    23214394.123    95059060.032    23214393.534  
  23214399.716    91098290.225  
  21208582.858   111451855.366                    86845584.101    21208578.623  
                                
  22312126.221   117251015.009                    91364402.882    22312120.342  
                                
  20037663.898   105298634.960    20037663.326    82050880.520    20037662.933  
  20037664.309    78632098.911  
  24186810.754   127102548.220    24186808.109    99040932.852    24186807.341  
                                
  21400040.523   112457972.541    21400036.466    87629568.432    21400035.555  
                                
  23340761.853   122656531.396    23340761.638    95576512.728    23340760.727  
  23340763.032    91594167.587  
  19242228.325   103005154.226    19242225.770    80115109.250    19242224.769  
                                
  21919664.902   117378810.632    21919662.847    91294621.393    21919662.311  
                                
  19594886.681   104635601.947    19594884.161    81383235.506    19594883.250  
                                
  22201337.814   118595560.904    22201335.616    92240982.510    22201335.848  
                                
  26901957.849   141370743.191                                                  
  26901965.050   105569088.688  
  23998241.563   126111611.205                                                  
  23998245.405    94174269.818  
  23857636.011   125372723.736                                                  
  23857641.122    93622508.358  
  24129481.782   126801283.311                                                  
  24129486.910    94689288.583  
 21  8 31  2 35 11.0000000  0 16G 3G 4G16G22G26G29G31G32R 7R 8R 9R16
                                E 7E19E21E27
  21852014.979   114833113.764    21852014.372    89480342.349    21852013.657  
  21852016.713    85752006.560  
  23213813.827   121989414.734    23213811.361    95056673.884    23213810.789  
  23213816.990    91096003.524  
  21208062.173   111449119.216                    86843452.040    21208057.938  
                                
  22312416.503   117252540.517                    91365591.592    22312410.624  
                                
  20037652.926   105298577.307    20037652.354    82050835.598    20037651.961  
  20037653.319    78632055.867  
  24186865.290   127102834.749    24186862.645    99041156.119    24186861.877  
                                
  21400375.209   112459731.432    21400371.171    87630938.994    21400370.277  
                                
  23341325.692   122659494.402    23341325.477    95578821.559    23341324.566  
  23341326.853    91596380.224  
  19242137.658   103004668.880    19242135.103    80114731.758    19242134.120  
                                
  21918980.090   117375143.417    21918978.035    91291769.120    21918977.463  
                                
  19595082.507   104636647.632    19595079.988    81384048.817    19595079.077  
                                
  22201968.161   118598927.955    22201965.928    92243601.322    22201966.178  
                                
  26902445.727   141373307.077                                                  
  26902452.910   105571003.298  
  23997948.154   126110069.381                                                  
  23997952.013    94173118.454  
  23857429.945   125371640.928                                                  
  23857435.092    93621699.771  
  24129777.157   126802835.611                                                  
  24129782.303    94690447.783  
 21  8 31  2 35 12.0000000  0 16G 3G 4G16G22G26G29G31G32R 7R 8R 9R16
                                E 7E19E21E27
  21852076.967   114833439.455    21852076.359    89480596.139    21852075.645  
  21852078.700    85752249.771  
  23213231.172   121986352.837    23213228.706    95054287.992    23213228.134  
  23213234.335    91093717.035  
  21207541.648   111446383.761                    86841320.519    21207537.413  
                                
  22312706.946   117254066.712                    91366780.837    22312701.067  
                                
  20037642.133   105298520.472    20037641.526    82050791.316    20037641.151  
  20037642.509    78632013.428  
  24186919.969   127103122.084    24186917.324    99041380.021    24186916.538  
                                
  21400709.985   112461490.675    21400705.947    87632309.835    21400705.054  
                                
  23341889.620   122662457.866    23341889.406    95581130.759    23341888.494  
  23341890.782    91598593.211  
  19242047.187   103004184.594    19242044.650    80114355.094    19242043.649  
                                
  21918295.349   117371476.762    21918293.312    91288917.279    21918292.740  
                                
  19595278.459   104637693.956    19595275.940    81384862.626    19595275.010  
                                
  22202598.509   118602295.237    22202596.311    92246220.321    22202596.525  
                                
  26902933.694   141375871.357                                                  
  26902940.913   105572918.173  
  23997654.852   126108527.986                                                  
  23997658.693    94171967.418  
  23857224.005   125370558.659                                                  
  23857229.115    93620891.588  
  24130072.639   126804388.374                                                  
  24130077.767    94691607.314  
 21  8 31  2 35 13.0000000  0 16G 3G 4G16G22G26G29G31G32R 7R 8R 9R16
                                E 7E19E21E27
  21852139.062   114833765.854    21852138.472    89480850.478    21852137.739  
  21852140.813    85752493.506  
  23212648.534   121983291.077    23212646.086    95051902.213    23212645.497  
  23212651.697    91091430.654  
  21207021.195   111443648.870                    86839189.437    21207016.960  
                                
  22312997.461   117255593.438                    91367970.496    22312991.582  
                                
  20037631.430   105298464.298    20037630.840    82050747.548    20037630.465  
  20037631.823    78631971.480  
  24186974.755   127103410.068    24186972.111    99041604.428    24186971.343  
                                
  21401044.797   112463250.129    21401040.759    87633680.841    21401039.866  
                                
  23342453.602   122665421.674    23342453.406    95583440.219    23342452.477  
  23342454.782    91600806.435  
  19241956.877   103003701.196    19241954.340    80113979.118    19241953.339  
                                
  21917610.715   117367810.499    21917608.642    91286065.748    21917608.088  
                                
  19595474.500   104638740.795    19595471.981    81385676.839    19595471.052  
                                
  22203228.892   118605662.692    22203226.694    92248839.452    22203226.909  
                                
  26903421.715   141378435.859                                                  
  26903428.916   105574833.228  
  23997361.585   126106986.916                                                  
  23997365.445    94170816.620  
  23857018.118   125369476.804                                                  
  23857023.246    93620083.714  
  24130368.175   126805941.446                                                  
  24130373.303    94692767.075  
 21  8 31  2 35 14.0000000  0 16G 3G 4G16G22G26G29G31G32R 7R 8R 9R16
                                E 7E19E21E27
  21852201.353   114834093.133    21852200.763    89481105.498    21852200.031  
  21852203.104    85752737.896  
  23212065.968   121980229.632    23212063.503    95049516.673    23212062.931  
  23212069.131    91089144.512  
  21206500.903   111440914.706                    86837058.923    21206496.668  
                                
  22313288.118   117257120.868                    91369160.703    22313282.239  
                                
  20037620.905   105298408.975    20037620.315    82050704.439    20037619.922  
  20037621.280    78631930.165  
  24187029.703   127103698.900    24187027.094    99041829.490    24187026.290  
                                
  21401379.681   112465009.959    21401375.642    87635052.139    21401374.731  
                                
  23343017.709   122668385.966    23343017.495    95585750.059    23343016.584  
  23343018.871    91603020.026  
  19241866.781   103003218.841    19241864.226    80113603.955    19241863.225  
                                
  21916926.153   117364144.801    21916924.116    91283214.652    21916923.544  
                                
  19595670.666   104639788.302    19595668.129    81386491.569    19595667.236  
                                
  22203859.347   118609030.412    22203857.131    92251458.792    22203857.364  
                                
  26903909.807   141381000.746                                                  
  26903916.990   105576748.561  
  23997068.426   126105446.328                                                  
  23997072.268    94169666.180  
  23856812.374   125368395.539                                                  
  23856817.503    93619276.265  
  24130663.800   126807495.001                                                  
  24130668.964    94693927.192  
 21  8 31  2 35 15.0000000  0 16G 3G 4G16G22G26G29G31G32R 7R 8R 9R16
                                E 7E19E21E27
  21852263.823   114834421.369    21852263.216    89481361.266    21852262.483  
  21852265.539    85752983.007  
  23211483.474   121977168.588    23211481.008    95047131.451    23211480.436  
  23211486.637    91086858.675  
  21205980.753   111438181.350                    86834929.041    21205976.518  
                                
  22313578.919   117258649.079                    91370351.510    22313573.040  
                                
  20037610.541   105298354.570    20037609.969    82050662.046    20037609.576  
  20037610.934    78631889.534  
  24187084.847   127103988.627    24187082.220    99042055.265    24187081.416  
                                
  21401714.653   112466770.267    21401710.615    87636423.810    21401709.704  
                                
  23343581.906   122671350.818    23343581.692    95588060.341    23343580.780  
  23343583.050    91605234.047  
  19241776.864   103002737.632    19241774.327    80113229.679    19241773.344  
                                
  21916241.734   117360479.796    21916239.679    91280364.074    21916239.125  
                                
  19595866.958   104640836.552    19595864.438    81387306.875    19595863.527  
                                
  22204489.856   118612398.522    22204487.640    92254078.439    22204487.890  
                                
  26904397.971   141383566.126                                                  
  26904405.154   105578664.267  
  23996775.374   126103906.306                                                  
  23996779.198    94168516.159  
  23856606.737   125367314.923                                                  
  23856611.866    93618469.313  
  24130959.550   126809049.135                                                  
  24130964.696    94695087.744  
 21  8 31  2 35 16.0000000  0 16G 3G 4G16G22G26G29G31G32R 7R 8R 9R16
                                E 7E19E21E27
  21852326.418   114834750.358    21852325.811    89481617.622    21852325.096  
  21852328.152    85753228.685  
  23210900.998   121974107.744    23210898.567    95044746.380    23210897.960  
  23210904.160    91084572.991  
  21205460.747   111435448.606                    86832799.631    21205456.512  
                                
  22313869.862   117260177.880                    91371542.781    22313863.983  
                                
  20037600.338   105298300.890    20037599.748    82050620.218    20037599.355  
  20037600.713    78631849.450  
  24187140.115   127104279.087    24187137.507    99042281.595    24187136.702  
                                
  21402049.680   112468530.824    21402045.641    87637795.675    21402044.748  
                                
  23344146.156   122674316.061    23344145.942    95590370.919    23344145.048  
  23344147.318    91607448.356  
  19241687.162   103002257.393    19241684.625    80112856.160    19241683.624  
                                
  21915557.404   117356815.219    21915555.349    91277513.850    21915554.795  
                                
  19596063.374   104641885.377    19596060.854    81388122.630    19596059.943  
                                
  22205120.400   118615766.750    22205118.166    92256698.173    22205118.416  
                                
  26904886.188   141386131.767                                                  
  26904893.372   105580580.190  
  23996482.376   126102366.639                                                  
  23996486.218    94167366.417  
  23856401.190   125366234.770                                                  
  23856406.318    93617662.716  
  24131255.336   126810603.618                                                  
  24131260.500    94696248.568  
 21  8 31  2 35 17.0000000  0 16G 3G 4G16G22G26G29G31G32R 7R 8R 9R16
                                E 7E19E21E27
  21852389.085   114835079.624    21852388.460    89481874.192    21852387.745  
  21852390.801    85753474.568  
  23210318.485   121971046.607    23210316.019    95042361.088    23210315.448  
  23210321.630    91082287.089  
  21204940.740   111432715.986                    86830670.317    21204936.505  
                                
  22314160.788   117261706.768                    91372734.125    22314154.909  
                                
  20037590.152   105298247.431    20037589.581    82050578.561    20037589.187  
  20037590.545    78631809.533  
  24187195.438   127104569.747    24187192.793    99042508.081    24187192.007  
                                
  21402384.652   112470291.159    21402380.614    87639167.364    21402379.721  
                                
  23344710.406   122677281.186    23344710.192    95592681.402    23344709.298  
  23344711.568    91609662.575  
  19241597.531   103001777.624    19241594.994    80112483.011    19241593.993  
                                
  21914873.038   117353150.610    21914871.001    91274663.596    21914870.447  
                                
  19596259.808   104642934.283    19596257.271    81388938.446    19596256.341  
                                
  22205750.873   118619134.556    22205748.639    92259317.578    22205748.871  
                                
  26905374.370   141388697.211                                                  
  26905381.553   105582495.939  
  23996189.359   126100826.846                                                  
  23996193.201    94166216.565  
  23856195.643   125365154.594                                                  
  23856200.771    93616856.091  
  24131551.140   126812157.975                                                  
  24131556.268    94697409.287  
 21  8 31  2 35 18.0000000  0 16G 3G 4G16G22G26G29G31G32R 7R 8R 9R16
                                E 7E19E21E27
  21852451.841   114835409.392    21852451.216    89482131.152    21852450.501  
  21852453.557    85753720.821  
  23209735.973   121967985.446    23209733.507    95039975.767    23209732.935  
  23209739.136    91080001.144  
  21204420.805   111429983.707                    86828541.270    21204416.570  
                                
  22314451.785   117263235.980                    91373925.721    22314445.906  
                                
  20037580.074   105298194.449    20037579.502    82050537.272    20037579.091  
  20037580.449    78631769.967  
  24187250.832   127104860.856    24187248.187    99042734.922    24187247.401  
                                
  21402719.643   112472051.494    21402715.587    87640539.056    21402714.711  
                                
  23345274.674   122680246.414    23345274.460    95594991.971    23345273.584  
  23345275.836    91611876.860  
  19241508.025   103001298.570    19241505.488    80112110.413    19241504.505  
                                
  21914188.744   117349486.194    21914186.707    91271813.497    21914186.153  
                                
  19596456.278   104643983.487    19596453.758    81389754.493    19596452.847  
                                
  22206381.292   118622502.211    22206379.076    92261936.863    22206379.326  
                                
  26905862.570   141391262.688                                                  
  26905869.753   105584411.711  
  23995896.379   126099287.161                                                  
  23995900.221    94165066.794  
  23855990.131   125364074.614                                                  
  23855995.259    93616049.610  
  24131846.926   126813712.443                                                  
  24131852.090    94698570.089  
 21  8 31  2 35 19.0000000  0 16G 3G 4G16G22G26G29G31G32R 7R 8R 9R16
                                E 7E19E21E27
  21852514.740   114835740.010    21852514.150    89482388.776    21852513.418  
  21852516.491    85753967.711  
  23209153.496   121964924.546    23209151.031    95037590.646    23209150.459  
  23209156.659    91077715.406  
  21203900.995   111427252.134                    86826412.767    21203896.760  
                                
  22314742.907   117264765.875                    91375117.843    22314737.046  
                                
  20037570.157   105298142.266    20037569.549    82050496.614    20037569.174  
  20037570.532    78631731.001  
  24187306.387   127105152.790    24187303.742    99042962.407    24187302.938  
                                
  21403054.687   112473812.180    21403050.649    87641911.017    21403049.755  
                                
  23345839.032   122683212.108    23345838.817    95597302.900    23345837.906  
  23345840.193    91614091.509  
  19241418.733   103000820.550    19241416.214    80111738.622    19241415.213  
                                
  21913504.539   117345822.323    21913502.484    91268963.810    21913501.930  
                                
  19596652.873   104645033.326    19596650.353    81390571.044    19596649.424  
                                
  22207011.764   118625870.131    22207009.549    92264556.344    22207009.781  
                                
  26906350.841   141393828.529                                                  
  26906358.024   105586327.754  
  23995603.470   126097747.917                                                  
  23995607.312    94163917.369  
  23855784.709   125362995.192                                                  
  23855789.855    93615243.551  
  24132142.819   126815267.352                                                  
  24132147.983    94699731.228  
 21  8 31  2 35 20.0000000  0 16G 3G 4G16G22G26G29G31G32R 7R 8R 9R16
                                E 7E19E21E27
  21852577.818   114836071.394    21852577.192    89482646.998    21852576.478  
  21852579.533    85754215.173  
  23208571.056   121961863.855    23208568.608    95035205.692    23208568.018  
  23208574.218    91075429.827  
  21203381.311   111424521.193                    86824284.761    21203377.094  
                                
  22315034.154   117266296.349                    91376310.419    22315028.275  
                                
  20037560.347   105298090.810    20037559.775    82050456.521    20037559.400  
  20037560.740    78631692.579  
  24187362.049   127105445.407    24187359.422    99043190.428    24187358.636  
                                
  21403389.785   112475573.134    21403385.747    87643283.189    21403384.835  
                                
  23346403.460   122686178.193    23346403.246    95599614.130    23346402.335  
  23346404.622    91616306.438  
  19241329.621   103000343.477    19241327.083    80111367.565    19241326.083  
                                
  21912820.423   117342158.915    21912818.386    91266114.493    21912817.832  
                                
  19596849.575   104646083.746    19596847.056    81391388.038    19596846.144  
                                
  22207642.273   118629238.188    22207640.057    92267175.947    22207640.307  
                                
  26906839.165   141396394.648                                                  
  26906846.313   105588244.010  
  23995310.615   126096209.048                                                  
  23995314.474    94162768.207  
  23855579.394   125361916.239                                                  
  23855584.522    93614437.839  
  24132438.783   126816822.639                                                  
  24132443.947    94700892.644  
 21  8 31  2 35 21.0000000  0 16G 3G 4G16G22G26G29G31G32R 7R 8R 9R16
                                E 7E19E21E27
  21852640.949   114836403.222    21852640.341    89482905.567    21852639.627  
  21852642.682    85754462.975  
  23207988.615   121958803.061    23207986.149    95032820.660    23207985.577  
  23207991.778    91073144.175  
  21202861.679   111421790.536                    86822156.979    21202857.444  
                                
  22315325.437   117267827.095                    91377503.206    22315319.576  
                                
  20037550.644   105298039.763    20037550.054    82050416.744    20037549.661  
  20037551.037    78631654.461  
  24187417.818   127105738.429    24187415.173    99043418.763    24187414.369  
                                
  21403724.865   112477334.032    21403720.844    87644655.319    21403719.933  
                                
  23346967.889   122689144.336    23346967.693    95601925.415    23346966.781  
  23346969.051    91618521.417  
  19241240.597   102999867.008    19241238.078    80110996.983    19241237.077  
                                
  21912136.326   117338495.639    21912134.288    91263265.278    21912133.717  
                                
  19597046.331   104647134.385    19597043.811    81392205.201    19597042.900  
                                
  22208272.764   118632606.078    22208270.548    92269795.417    22208270.798  
                                
  26907327.454   141398960.727                                                  
  26907334.638   105590160.241  
  23995017.795   126094670.229                                                  
  23995021.637    94161619.100  
  23855374.096   125360837.412                                                  
  23855379.225    93613632.231  
  24132734.748   126818377.967                                                  
  24132739.894    94702054.097  
 21  8 31  2 35 22.0000000  0 16G 3G 4G16G22G26G29G31G32R 7R 8R 9R16
                                E 7E19E21E27
  21852704.098   114836735.070    21852703.491    89483164.150    21852702.776  
  21852705.831    85754710.777  
  23207406.049   121955741.724    23207403.619    95030435.207    23207403.029  
  23207409.212    91070858.105  
  21202342.030   111419059.768                    86820029.112    21202337.795  
                                
  22315616.702   117269357.688                    91378695.874    22315610.823  
                                
  20037540.923   105297988.697    20037540.334    82050376.953    20037539.940  
  20037541.298    78631616.323  
  24187473.569   127106031.431    24187470.907    99043647.081    24187470.121  
                                
  21404059.855   112479094.463    21404055.835    87646027.084    21404054.924  
                                
  23347532.265   122692110.101    23347532.050    95604236.396    23347531.157  
  23347533.408    91620736.111  
  19241151.627   102999390.724    19241149.090    80110626.540    19241148.107  
                                
  21911452.192   117334832.064    21911450.137    91260415.831    21911449.583  
                                
  19597243.069   104648184.826    19597240.532    81393022.211    19597239.602  
                                
  22208903.129   118635973.365    22208900.895    92272414.416    22208901.146  
                                
  26907815.672   141401526.329                                                  
  26907822.855   105592076.118  
  23994724.886   126093131.014                                                  
  23994728.728    94160469.688  
  23855168.763   125359758.328                                                  
  23855173.892    93612826.416  
  24133030.641   126819932.925                                                  
  24133035.805    94703215.260  
 21  8 31  2 35 23.0000000  0 16G 3G 4G16G22G26G29G31G32R 7R 8R 9R16
                                E 7E19E21E27
  21852767.480   114837068.097    21852766.854    89483423.650    21852766.139  
  21852769.195    85754959.464  
  23206823.626   121952681.015    23206821.178    95028050.244    23206820.606  
  23206826.807    91068572.504  
  21201822.578   111416330.006                    86817902.023    21201818.343  
                                
  22315908.164   117270889.274                    91379889.315    22315902.285  
                                
  20037531.417   105297938.762    20037530.827    82050338.044    20037530.434  
  20037531.810    78631579.036  
  24187529.535   127106325.542    24187526.873    99043876.263    24187526.104  
                                
  21404394.989   112480855.555    21404390.951    87647399.366    21404390.057  
                                
  23348096.765   122695076.658    23348096.568    95606547.995    23348095.675  
  23348097.944    91622951.395  
  19241062.908   102998915.825    19241060.370    80110257.171    19241059.387  
                                
  21910768.202   117331169.371    21910766.165    91257567.068    21910765.611  
                                
  19597439.950   104649236.258    19597437.412    81393839.995    19597436.501  
                                
  22209533.620   118639341.241    22209531.368    92275033.872    22209531.618  
                                
  26908304.050   141404092.660                                                  
  26908311.215   105593992.527  
  23994432.155   126091592.603                                                  
  23994435.997    94159320.864  
  23854963.574   125358680.109                                                  
  23854968.720    93612021.253  
  24133326.713   126821488.655                                                  
  24133331.859    94704377.002  
 21  8 31  2 35 24.0000000  0 16G 3G 4G16G22G26G29G31G32R 7R 8R 9R16
                                E 7E19E21E27
  21852830.986   114837401.859    21852830.361    89483683.726    21852829.646  
  21852832.737    85755208.708  
  23206241.221   121949620.465    23206238.791    95025665.404    23206238.201  
  23206244.384    91066287.039  
  21201303.233   111413600.854                    86815775.416    21201298.998  
                                
  22316199.715   117272421.405                    91381083.193    22316193.836  
                                
  20037522.054   105297889.519    20037521.464    82050299.673    20037521.071  
  20037522.447    78631542.268  
  24187585.626   127106620.381    24187582.981    99044106.003    24187582.195  
                                
  21404730.158   112482616.911    21404726.120    87648771.851    21404725.244  
                                
  23348661.354   122698043.579    23348661.158    95608859.890    23348660.282  
  23348662.534    91625166.964  
  19240974.367   102998441.858    19240971.847    80109888.528    19240970.846  
                                
  21910084.301   117327507.124    21910082.263    91254718.662    21910081.710  
                                
  19597636.956   104650288.229    19597634.418    81394658.193    19597633.507  
                                
  22210164.110   118642709.232    22210161.877    92277653.419    22210162.127  
                                
  26908792.446   141406659.223                                                  
  26908799.612   105595909.121  
  23994139.461   126090054.512                                                  
  23994143.303    94158172.292  
  23854758.491   125357602.333                                                  
  23854763.619    93611216.418  
  24133622.803   126823044.740                                                  
  24133627.985    94705539.010  
 21  8 31  2 35 25.0000000  0 16G 3G 4G16G22G26G29G31G32R 7R 8R 9R16
                                E 7E19E21E27
  21852894.671   114837736.571    21852894.064    89483944.542    21852893.331  
  21852896.422    85755458.658  
  23205658.887   121946560.307    23205656.421    95023280.866    23205655.867  
  23205662.050    91064001.870  
  21200784.048   111410872.498                    86813649.424    21200779.831  
                                
  22316491.408   117273954.329                    91382277.676    22316485.547  
                                
  20037512.851   105297841.206    20037512.279    82050262.029    20037511.868  
  20037513.226    78631506.190  
  24187641.913   127106916.088    24187639.251    99044336.426    24187638.465  
                                
  21405065.417   112484378.701    21405061.378    87650144.674    21405060.485  
                                
  23349226.069   122701011.061    23349225.855    95611172.216    23349224.961  
  23349227.231    91627382.939  
  19240886.040   102997969.039    19240883.520    80109520.785    19240882.520  
                                
  21909400.524   117323845.534    21909398.487    91251870.757    21909397.916  
                                
  19597834.087   104651340.954    19597831.549    81395476.979    19597830.638  
                                
  22210794.655   118646077.540    22210792.439    92280273.216    22210792.671  
                                
  26909280.932   141409226.260                                                  
  26909288.079   105597826.067  
  23993846.873   126088516.981                                                  
  23993850.715    94157024.140  
  23854553.515   125356525.211                                                  
  23854558.644    93610412.076  
  24133919.017   126824601.374                                                  
  24133924.199    94706701.433  
 21  8 31  2 35 26.0000000  0 16G 3G 4G16G22G26G29G31G32R 7R 8R 9R16
                                E 7E19E21E27
  21852958.481   114838071.825    21852957.874    89484205.782    21852957.141  
  21852960.233    85755709.008  
  23205076.572   121943500.150    23205074.141    95020896.323    23205073.552  
  23205079.734    91061716.670  
  21200264.935   111408144.535                    86811523.743    21200260.700  
                                
  22316783.192   117275487.610                    91383472.441    22316777.331  
                                
  20037503.756   105297793.381    20037503.166    82050224.758    20037502.773  
  20037504.131    78631470.470  
  24187698.290   127107212.294    24187695.610    99044567.239    24187694.824  
                                
  21405400.675   112486140.523    21405396.655    87651517.525    21405395.744  
                                
  23349790.784   122703978.677    23349790.570    95613484.642    23349789.676  
  23349791.945    91629599.018  
  19240797.856   102997496.919    19240795.319    80109153.576    19240794.336  
                                
  21908716.784   117320184.184    21908714.765    91249023.038    21908714.211  
                                
  19598031.307   104652394.011    19598028.752    81396296.026    19598027.841  
                                
  22211425.181   118649445.737    22211422.965    92282892.920    22211423.197  
                                
  26909769.435   141411793.360                                                  
  26909776.600   105599743.050  
  23993554.322   126086979.586                                                  
  23993558.164    94155876.083  
  23854348.575   125355448.327                                                  
  23854353.722    93609607.903  
  24134215.268   126826158.143                                                  
  24134220.432    94707863.951  
 21  8 31  2 35 27.0000000  0 16G 3G 4G16G22G26G29G31G32R 7R 8R 9R16
                                E 7E19E21E27
  21853022.345   114838407.506    21853021.738    89484467.351    21853021.005  
  21853024.097    85755959.683  
  23204494.220   121940439.852    23204491.772    95018511.682    23204491.200  
  23204497.383    91059431.385  
  21199745.876   111405416.839                    86809398.263    21199741.641  
                                
  22317074.993   117277021.130                    91384667.391    22317069.132  
                                
  20037494.732   105297745.933    20037494.124    82050187.786    20037493.749  
  20037495.107    78631435.045  
  24187754.720   127107508.879    24187752.058    99044798.341    24187751.254  
                                
  21405735.916   112487902.283    21405731.896    87652890.323    21405731.002  
                                
  23350355.517   122706946.346    23350355.284    95615797.114    23350354.409  
  23350356.660    91631815.143  
  19240709.780   102997025.403    19240707.243    80108786.841    19240706.260  
                                
  21908033.080   117316522.944    21908031.043    91246175.407    21908030.489  
                                
  19598228.546   104653447.261    19598226.008    81397115.220    19598225.079  
                                
  22212055.671   118652813.684    22212053.456    92285512.432    22212053.688  
                                
  26910257.920   141414360.395                                                  
  26910265.086   105601659.992  
  23993261.752   126085442.217                                                  
  23993265.594    94154728.056  
  23854143.671   125354371.558                                                  
  23854148.818    93608803.833  
  24134511.501   126827714.933                                                  
  24134516.683    94709026.497  
 21  8 31  2 35 28.0000000  0 16G 3G 4G16G22G26G29G31G32R 7R 8R 9R16
                                E 7E19E21E27
  21853086.334   114838743.753    21853085.727    89484729.364    21853084.994  
  21853088.068    85756210.783  
  23203911.833   121937379.572    23203909.403    95016127.059    23203908.849  
  23203915.014    91057146.119  
  21199226.888   111402689.589                    86807273.133    21199222.653  
                                
  22317366.919   117278555.074                    91385862.673    22317361.040  
                                
  20037485.797   105297699.041    20037485.208    82050151.246    20037484.814  
  20037486.190    78631400.035  
  24187811.258   127107805.986    24187808.596    99045029.853    24187807.791  
                                
  21406071.175   112489664.126    21406067.154    87654263.190    21406066.261  
                                
  23350920.267   122709914.201    23350920.053    95618109.734    23350919.177  
  23350921.429    91634031.400  
  19240621.829   102996554.689    19240619.309    80108420.730    19240618.308  
                                
  21907349.429   117312862.006    21907347.409    91243328.011    21907346.820  
                                
  19598425.855   104654500.917    19598423.318    81397934.730    19598422.389  
                                
  22212686.162   118656181.628    22212683.946    92288131.937    22212684.179  
                                
  26910746.442   141416927.535                                                  
  26910753.571   105603577.017  
  23992969.254   126083905.047                                                  
  23992973.096    94153580.169  
  23853938.839   125353295.091                                                  
  23853943.967    93607999.978  
  24134807.787   126829271.930                                                  
  24134812.969    94710189.184  
 21  8 31  2 35 29.0000000  0 16G 3G 4G16G22G26G29G31G32R 7R 8R 9R16
                                E 7E19E21E27
  21853150.484   114839080.868    21853149.877    89484992.049    21853149.144  
  21853152.235    85756462.514  
  23203329.553   121934319.587    23203327.105    95013742.656    23203326.533  
  23203332.698    91054861.071  
  21198708.043   111399963.055                    86805148.561    21198703.808  
                                
  22317658.935   117280089.691                    91387058.474    22317653.074  
                                
  20037477.041   105297652.964    20037476.434    82050115.340    20037476.059  
  20037477.399    78631365.620  
  24187867.939   127108103.926    24187865.294    99045262.015    24187864.490  
                                
  21406406.505   112491426.342    21406402.484    87655636.340    21406401.591  
                                
  23351485.125   122712882.560    23351484.910    95620422.734    23351484.035  
  23351486.286    91636248.019  
  19240534.110   102996085.023    19240531.572    80108055.432    19240530.589  
                                
  21906665.867   117309201.592    21906663.848    91240481.031    21906663.276  
                                
  19598623.308   104655555.226    19598620.735    81398754.737    19598619.824  
                                
  22213316.724   118659549.834    22213314.473    92290751.646    22213314.723  
                                
  26911235.034   141419495.081                                                  
  26911242.182   105605494.318  
  23992676.828   126082368.341                                                  
  23992680.670    94152432.629  
  23853734.095   125352219.172                                                  
  23853739.224    93607196.530  
  24135104.163   126830829.371                                                  
  24135109.345    94711352.210  
 21  8 31  2 35 30.0000000  0 16G 3G 4G16G22G26G29G31G32R 7R 8R 9R16
                                E 7E19E21E27
  21853214.759   114839418.605    21853214.134    89485255.219    21853213.419  
  21853216.492    85756714.723  
  23202747.273   121931259.694    23202744.843    95011358.324    23202744.271  
  23202750.454    91052576.072  
  21198189.287   111397236.985                    86803024.355    21198185.052  
                                
  22317951.040   117281624.760                    91388254.631    22317945.179  
                                
  20037468.375   105297607.477    20037467.785    82050079.900    20037467.392  
  20037468.750    78631331.653  
  24187924.744   127108402.410    24187922.082    99045494.599    24187921.278  
                                
  21406741.871   112493188.672    21406737.850    87657009.584    21406736.939  
                                
  23352050.018   122715851.141    23352049.822    95622735.917    23352048.946  
  23352051.180    91638464.817  
  19240446.534   102995616.168    19240443.978    80107690.769    19240443.013  
                                
  21905982.359   117305541.491    21905980.340    91237634.286    21905979.786  
                                
  19598820.796   104656609.946    19598818.259    81399575.073    19598817.348  
                                
  22213947.250   118662918.043    22213945.035    92293371.357    22213945.267  
                                
  26911723.627   141422062.732                                                  
  26911730.775   105607411.726  
  23992384.437   126080831.849                                                  
  23992388.279    94151285.247  
  23853529.406   125351143.579                                                  
  23853534.570    93606393.332  
  24135400.574   126832387.035                                                  
  24135405.756    94712515.405  
 21  8 31  2 35 31.0000000  0 16G 3G 4G16G22G26G29G31G32R 7R 8R 9R16
                                E 7E19E21E27
  21853279.105   114839756.818    21853278.480    89485518.766    21853277.783  
  21853280.839    85756967.293  
  23202164.957   121928199.687    23202162.509    95008973.898    23202161.937  
  23202168.138    91050291.026  
  21197670.603   111394511.249                    86800900.408    21197666.368  
                                
  22318243.216   117283160.119                    91389451.013    22318237.355  
                                
  20037459.798   105297562.428    20037459.208    82050044.797    20037458.833  
  20037460.173    78631298.014  
  24187981.639   127108701.339    24187978.977    99045727.529    24187978.173  
                                
  21407077.219   112494950.984    21407073.216    87658382.819    21407072.323  
                                
  23352614.929   122718819.803    23352614.733    95625049.158    23352613.857  
  23352616.091    91640681.683  
  19240359.047   102995147.964    19240356.527    80107326.611    19240355.544  
                                
  21905298.905   117301881.564    21905296.886    91234787.674    21905296.296  
                                
  19599018.374   104657664.953    19599015.837    81400395.636    19599014.908  
                                
  22214577.759   118666286.109    22214575.543    92295990.969    22214575.775  
                                
  26912212.255   141424630.398                                                  
  26912219.385   105609329.134  
  23992092.064   126079295.430                                                  
  23992095.888    94150137.934  
  23853324.752   125350068.163                                                  
  23853329.898    93605590.265  
  24135697.003   126833944.778                                                  
  24135702.167    94713678.668  
 21  8 31  2 35 32.0000000  0 16G 3G 4G16G22G26G29G31G32R 7R 8R 9R16
                                E 7E19E21E27
  21853343.577   114840095.603    21853342.951    89485782.754    21853342.255  
  21853345.310    85757220.279  
  23201582.695   121925139.732    23201580.265    95006589.517    23201579.675  
  23201585.858    91048005.968  
  21197151.991   111391785.942                    86798776.794    21197147.756  
                                
  22318535.446   117284695.868                    91390647.705    22318529.585  
                                
  20037451.346   105297517.895    20037450.738    82050010.095    20037450.345  
  20037451.703    78631264.767  
  24188038.606   127109000.764    24188035.943    99045960.845    24188035.157  
                                
  21407412.585   112496713.361    21407408.564    87659756.098    21407407.671  
                                
  23353179.894   122721788.655    23353179.698    95627362.553    23353178.804  
  23353181.056    91642898.683  
  19240271.721   102994680.528    19240269.201    80106963.050    19240268.219  
                                
  21904615.486   117298221.897    21904613.467    91231941.266    21904612.895  
                                
  19599216.023   104658720.311    19599213.450    81401216.468    19599212.539  
                                
  22215208.267   118669654.134    22215206.052    92298610.541    22215206.284  
                                
  26912700.866   141427198.131                                                  
  26912708.014   105611246.604  
  23991799.727   126077759.203                                                  
  23991803.551    94148990.743  
  23853120.169   125348993.010                                                  
  23853125.316    93604787.400  
  24135993.468   126835502.703                                                  
  24135998.632    94714842.045  
 21  8 31  2 35 33.0000000  0 16G 3G 4G16G22G26G29G31G32R 7R 8R 9R16
                                E 7E19E21E27
  21853408.209   114840435.180    21853407.602    89486047.364    21853406.887  
  21853409.942    85757473.851  
  23201000.415   121922079.938    23200997.967    95004205.267    23200997.395  
  23201003.578    91045721.086  
  21196633.503   111389061.254                    86796653.662    21196629.268  
                                
  22318827.819   117286232.222                    91391844.866    22318821.940  
                                
  20037443.001   105297474.104    20037442.393    82049975.977    20037442.018  
  20037443.358    78631232.062  
  24188095.751   127109300.932    24188093.070    99046194.740    24188092.266  
                                
  21407748.004   112498476.014    21407744.001    87661129.596    21407743.108  
                                
  23353744.931   122724757.891    23353744.716    95629676.249    23353743.841  
  23353746.092    91645115.966  
  19240184.574   102994214.070    19240182.054    80106600.249    19240181.071  
                                
  21903932.139   117294562.712    21903930.120    91229095.233    21903929.566  
                                
  19599413.762   104659776.236    19599411.207    81402037.745    19599410.278  
                                
  22215838.794   118673022.313    22215836.578    92301230.234    22215836.810  
                                
  26913189.566   141429766.182                                                  
  26913196.714   105613164.289  
  23991507.461   126076223.347                                                  
  23991511.303    94147843.831  
  23852915.676   125347918.354                                                  
  23852920.823    93603984.886  
  24136290.004   126837061.010                                                  
  24136295.187    94716005.713  
 21  8 31  2 35 34.0000000  0 16G 3G 4G16G22G26G29G31G32R 7R 8R 9R16
                                E 7E19E21E27
  21853472.931   114840775.359    21853472.305    89486312.430    21853471.590  
  21853474.664    85757727.885  
  23200418.153   121919020.260    23200415.723    95001821.102    23200415.169  
  23200421.334    91043436.254  
  21196115.087   111386337.026                    86794530.886    21196110.852  
                                
  22319120.246   117287769.016                    91393042.368    22319114.402  
                                
  20037434.763   105297430.906    20037434.174    82049942.314    20037433.781  
  20037435.121    78631199.806  
  24188152.967   127109601.640    24188150.305    99046429.059    24188149.501  
                                
  21408083.459   112500238.796    21408079.439    87662503.185    21408078.545  
                                
  23354310.003   122727727.359    23354309.806    95631990.113    23354308.913  
  23354311.164    91647333.419  
  19240097.605   102993748.428    19240095.086    80106238.085    19240094.085  
                                
  21903248.881   117290903.819    21903246.862    91226249.435    21903246.290  
                                
  19599611.590   104660832.576    19599609.017    81402859.340    19599608.106  
                                
  22216469.320   118676390.466    22216467.104    92303849.922    22216467.372  
                                
  26913678.266   141432334.326                                                  
  26913685.413   105615082.083  
  23991215.231   126074687.707                                                  
  23991219.073    94146697.093  
  23852711.219   125346844.005                                                  
  23852716.383    93603182.615  
  24136586.577   126838619.539                                                  
  24136591.759    94717169.550  
 21  8 31  2 35 35.0000000  0 16G 3G 4G16G22G26G29G31G32R 7R 8R 9R16
                                E 7E19E21E27
  21853537.777   114841115.993    21853537.152    89486577.861    21853536.437  
  21853539.511    85757982.239  
  23199835.909   121915960.449    23199833.461    94999436.838    23199832.907  
  23199839.072    91041151.328  
  21195596.742   111383613.101                    86792408.351    21195592.507  
                                
  22319412.744   117289306.086                    91394240.083    22319406.883  
                                
  20037426.615   105297388.101    20037426.025    82049908.964    20037425.650  
  20037426.990    78631167.837  
  24188210.273   127109902.773    24188207.593    99046663.713    24188206.789  
                                
  21408418.896   112502001.525    21408414.876    87663876.740    21408413.982  
                                
  23354875.093   122730696.903    23354874.896    95634304.041    23354874.021  
  23354876.254    91649550.923  
  19240010.744   102993283.408    19240008.189    80105876.405    19240007.224  
                                
  21902565.623   117287245.083    21902563.622    91223403.753    21902563.032  
                                
  19599809.454   104661889.175    19599806.881    81403681.139    19599805.969  
                                
  22217099.829   118679758.454    22217097.613    92306469.466    22217097.845  
                                
  26914166.966   141434902.455                                                  
  26914174.096   105616999.840  
  23990923.037   126073152.119                                                  
  23990926.861    94145550.377  
  23852506.815   125345769.800                                                  
  23852511.961    93602380.447  
  24136883.167   126840178.110                                                  
  24136888.349    94718333.409  
 21  8 31  2 35 36.0000000  0 16G 3G 4G16G22G26G29G31G32R 7R 8R 9R16
                                E 7E19E21E27
  21853602.767   114841457.580    21853602.142    89486844.033    21853601.427  
  21853604.500    85758237.325  
  23199253.718   121912901.042    23199251.288    94997052.888    23199250.698  
  23199256.881    91038866.705  
  21195078.558   111380890.003                    86790286.452    21195074.306  
                                
  22319705.385   117290843.925                    91395438.399    22319699.524  
                                
  20037418.663   105297346.215    20037418.056    82049876.326    20037417.681  
  20037419.021    78631136.558  
  24188267.758   127110204.813    24188265.078    99046899.067    24188264.274  
                                
  21408754.405   112503764.714    21408750.403    87665250.659    21408749.509  
                                
  23355440.290   122733666.994    23355440.093    95636618.391    23355439.200  
  23355441.451    91651768.849  
  19239924.079   102992819.532    19239921.542    80105515.613    19239920.559  
                                
  21901882.490   117283586.950    21901880.471    91220558.538    21901879.917  
                                
  19600007.443   104662946.507    19600004.887    81404503.507    19600003.976  
                                
  22217730.391   118683126.750    22217728.157    92309089.245    22217728.407  
                                
  26914655.773   141437471.092                                                  
  26914662.903   105618917.960  
  23990630.914   126071617.094                                                  
  23990634.756    94144404.094  
  23852302.536   125344696.256                                                  
  23852307.665    93601578.776  
  24137179.864   126841737.241                                                  
  24137185.046    94719497.698  
 21  8 31  2 35 37.0000000  0 16G 3G 4G16G22G26G29G31G32R 7R 8R 9R16
                                E 7E19E21E27
  21853667.917   114841799.887    21853667.274    89487110.756    21853666.577  
  21853669.633    85758492.950  
  23198671.563   121909841.798    23198669.133    94994669.058    23198668.543  
  23198674.726    91036582.213  
  21194560.464   111378167.463                    86788164.997    21194556.247  
                                
  22319998.133   117292382.330                    91396637.151    22319992.272  
                                
  20037410.801   105297305.009    20037410.211    82049844.218    20037409.836  
  20037411.176    78631105.795  
  24188325.350   127110507.521    24188322.670    99047134.944    24188321.865  
                                
  21409089.985   112505528.118    21409085.965    87666624.737    21409085.054  
                                
  23356005.523   122736637.427    23356005.326    95638933.012    23356004.451  
  23356006.684    91653987.048  
  19239837.593   102992356.581    19239835.056    80105155.539    19239834.073  
                                
  21901199.429   117279929.259    21901197.428    91217713.666    21901196.856  
                                
  19600205.556   104664004.374    19600202.983    81405326.292    19600202.072  
                                
  22218360.953   118686495.156    22218358.737    92311709.114    22218358.987  
                                
  26915144.616   141440039.947                                                  
  26915151.728   105620836.263  
  23990338.881   126070082.389                                                  
  23990342.704    94143258.057  
  23852098.311   125343623.134                                                  
  23852103.458    93600777.426  
  24137476.615   126843296.692                                                  
  24137481.797    94720662.234  
 21  8 31  2 35 38.0000000  0 16G 3G 4G16G22G26G29G31G32R 7R 8R 9R16
                                E 7E19E21E27
  21853733.122   114842142.574    21853732.496    89487377.788    21853731.781  
  21853734.855    85758748.842  
  23198089.373   121906782.357    23198086.925    94992285.083    23198086.353  
  23198092.535    91034297.567  
  21194042.423   111375445.152                    86786043.718    21194038.188  
                                
  22320290.917   117293920.908                    91397836.043    22320285.074  
                                
  20037403.046   105297264.138    20037402.438    82049812.370    20037402.045  
  20037403.403    78631075.270  
  24188382.995   127110810.553    24188380.351    99047371.075    24188379.547  
                                
  21409425.512   112507291.405    21409421.509    87667998.729    21409420.616  
                                
  23356570.774   122739607.864    23356570.595    95641247.640    23356569.719  
  23356571.953    91656205.216  
  19239751.214   102991894.182    19239748.677    80104795.901    19239747.694  
                                
  21900516.386   117276271.623    21900514.402    91214868.838    21900513.813  
                                
  19600403.688   104665062.398    19600401.133    81406149.202    19600400.221  
                                
  22218991.479   118689863.318    22218989.263    92314328.795    22218989.514  
                                
  26915633.423   141442608.684                                                  
  26915640.570   105622754.475  
  23990046.829   126068547.658                                                  
  23990050.671    94142111.994  
  23851894.122   125342550.091                                                  
  23851899.268    93599976.123  
  24137773.348   126844856.120                                                  
  24137778.548    94721826.739  
 21  8 31  2 35 39.0000000  0 16G 3G 4G16G22G26G29G31G32R 7R 8R 9R16
                                E 7E19E21E27
  21853798.522   114842486.301    21853797.897    89487645.636    21853797.182  
  21853800.255    85759005.539  
  23197507.271   121903723.441    23197504.841    94989901.514    23197504.269  
  23197510.452    91032013.310  
  21193524.561   111372723.777                    86783923.163    21193520.326  
                                
  22320583.879   117295460.367                    91399035.626    22320578.000  
                                
  20037395.451   105297224.297    20037394.862    82049781.330    20037394.469  
  20037395.809    78631045.520  
  24188440.873   127111114.612    24188438.193    99047608.006    24188437.407  
                                
  21409761.146   112509055.255    21409757.143    87669373.162    21409756.250  
                                
  23357136.167   122742578.949    23357135.971    95643562.776    23357135.113  
  23357137.329    91658423.887  
  19239665.050   102991433.039    19239662.530    80104437.231    19239661.547  
                                
  21899833.521   117272614.770    21899831.502    91212024.628    21899830.930  
                                
  19600601.981   104666121.287    19600599.407    81406972.787    19600598.496  
                                
  22219622.095   118693231.915    22219619.861    92316948.832    22219620.129  
                                
  26916122.355   141445177.993                                                  
  26916129.467   105624673.126  
  23989754.921   126067013.602                                                  
  23989758.727    94140966.432  
  23851690.076   125341477.812                                                  
  23851695.222    93599175.397  
  24138070.242   126846416.213                                                  
  24138075.406    94722991.753  
 21  8 31  2 35 40.0000000  0 16G 3G 4G16G22G26G29G31G32R 7R 8R 9R16
                                E 7E19E21E27
  21853864.048   114842830.588    21853863.405    89487913.909    21853862.708  
  21853865.763    85759262.636  
  23196925.188   121900664.504    23196922.758    94987517.927    23196922.168  
  23196928.351    91029729.034  
  21193006.770   111370002.777                    86781802.904    21193002.553  
                                
  22320876.896   117297000.204                    91400235.504    22320871.035  
                                
  20037387.964   105297184.964    20037387.375    82049750.680    20037386.982  
  20037388.322    78631016.144  
  24188498.804   127111419.149    24188496.142    99047845.305    24188495.338  
                                
  21410096.798   112510819.149    21410092.795    87670747.623    21410091.902  
                                
  23357701.597   122745550.210    23357701.383    95645878.049    23357700.525  
  23357702.758    91660642.686  
  19239579.046   102990972.601    19239576.509    80104079.118    19239575.526  
                                
  21899150.656   117268958.192    21899148.655    91209180.623    21899148.065  
                                
  19600800.327   104667180.513    19600797.772    81407796.631    19600796.860  
                                
  22220252.675   118696600.425    22220250.459    92319568.791    22220250.691  
                                
  26916611.287   141447747.381                                                  
  26916618.399   105626591.814  
  23989463.012   126065479.686                                                  
  23989466.854    94139820.976  
  23851486.065   125340405.772                                                  
  23851491.229    93598374.848  
  24138367.135   126847976.463                                                  
  24138372.317    94724156.865  
 21  8 31  2 35 41.0000000  0 16G 3G 4G16G22G26G29G31G32R 7R 8R 9R16
                                E 7E19E21E27
  21853929.717   114843175.706    21853929.091    89488182.834    21853928.376  
  21853931.450    85759520.356  
  23196343.140   121897605.840    23196340.692    94985134.546    23196340.138  
  23196346.303    91027444.974  
  21192489.123   111367282.470                    86779683.182    21192484.888  
                                
  22321170.019   117298540.696                    91401435.887    22321164.158  
                                
  20037380.638   105297146.411    20037380.031    82049720.639    20037379.637  
  20037380.978    78630987.363  
  24188556.932   127111724.469    24188554.252    99048083.222    24188553.448  
                                
  21410432.539   112512583.386    21410428.536    87672122.353    21410427.643  
                                
  23358267.062   122748521.908    23358266.884    95648193.651    23358266.008  
  23358268.242    91662861.818  
  19239493.221   102990513.212    19239490.702    80103721.818    19239489.701  
                                
  21898467.917   117265302.143    21898465.915    91206337.034    21898465.326  
                                
  19600998.816   104668240.347    19600996.261    81408620.947    19600995.331  
                                
  22220883.326   118699969.195    22220881.093    92322188.948    22220881.343  
                                
  26917100.291   141450317.122                                                  
  26917107.403   105628510.783  
  23989171.193   126063946.226                                                  
  23989175.035    94138675.859  
  23851282.180   125339334.273                                                  
  23851287.308    93597574.705  
  24138664.119   126849537.140                                                  
  24138669.318    94725322.311  
 21  8 31  2 35 42.0000000  0 16G 3G 4G16G22G26G29G31G32R 7R 8R 9R16
                                E 7E19E21E27
  21853995.475   114843521.263    21853994.849    89488452.100    21853994.134  
  21853997.226    85759778.398  
  23195761.075   121894547.059    23195758.609    94982751.087    23195758.055  
  23195764.238    91025160.824  
  21191971.528   111364562.465                    86777563.697    21191967.293  
                                
  22321463.232   117300081.448                    91402636.473    22321457.353  
                                
  20037373.365   105297108.263    20037372.776    82049690.914    20037372.383  
  20037373.723    78630958.869  
  24188615.096   127112030.195    24188612.416    99048321.449    24188611.629  
                                
  21410768.226   112514347.556    21410764.224    87673497.034    21410763.330  
                                
  23358832.581   122751493.668    23358832.384    95650509.306    23358831.527  
  23358833.743    91665080.983  
  19239407.521   102990054.454    19239405.002    80103365.001    19239404.001  
                                
  21897785.195   117261646.244    21897783.194    91203493.561    21897782.604  
                                
  19601197.341   104669300.429    19601194.768    81409445.455    19601193.856  
                                
  22221513.906   118703337.757    22221511.690    92324808.947    22221511.941  
                                
  26917589.295   141452886.821                                                  
  26917596.407   105630429.712  
  23988879.392   126062412.786                                                  
  23988883.234    94137530.762  
  23851078.294   125338262.906                                                  
  23851083.440    93596774.656  
  24138961.120   126851097.850                                                  
  24138966.302    94726487.776  
 21  8 31  2 35 43.0000000  0 16G 3G 4G16G22G26G29G31G32R 7R 8R 9R16
                                E 7E19E21E27
  21854061.322   114843867.358    21854060.714    89488721.784    21854059.982  
  21854063.073    85760036.843  
  23195178.991   121891488.270    23195176.561    94980367.615    23195176.007  
  23195182.154    91022876.660  
  21191454.006   111361842.830                    86775444.499    21191449.753  
                                
  22321756.480   117301622.550                    91403837.330    22321750.619  
                                
  20037366.200   105297070.611    20037365.610    82049661.574    20037365.217  
  20037366.557    78630930.757  
  24188673.367   127112336.378    24188670.687    99048560.034    24188669.882  
                                
  21411103.967   112516111.764    21411099.965    87674871.741    21411099.071  
                                
  23359398.118   122754465.569    23359397.921    95652825.072    23359397.063  
  23359399.279    91667300.262  
  19239321.947   102989596.408    19239319.427    80103008.743    19239318.444  
                                
  21897102.527   117257990.587    21897100.525    91200650.270    21897099.954  
                                
  19601395.919   104670360.827    19601393.346    81410270.209    19601392.435  
                                
  22222144.504   118706706.222    22222142.288    92327428.867    22222142.520  
                                
  26918078.298   141455456.567                                                  
  26918085.410   105632348.683  
  23988587.627   126060879.489                                                  
  23988591.433    94136385.771  
  23850874.462   125337191.780                                                  
  23850879.626    93595974.795  
  24139258.139   126852658.710                                                  
  24139263.338    94727653.353  
 21  8 31  2 35 44.0000000  0 16G 3G 4G16G22G26G29G31G32R 7R 8R 9R16
                                E 7E19E21E27
  21854127.187   114844213.470    21854126.580    89488991.482    21854125.847  
  21854128.938    85760295.304  
  23194596.819   121888428.914    23194594.388    94977983.703    23194593.817  
  23194599.999    91020592.078  
  21190936.447   111359123.057                    86773325.191    21190932.212  
                                
  22322049.711   117303163.494                    91405038.060    22322043.868  
                                
  20037359.034   105297032.936    20037358.427    82049632.215    20037358.052  
  20037359.392    78630902.623  
  24188731.638   127112642.565    24188728.940    99048798.618    24188728.136  
                                
  21411439.583   112517875.482    21411435.581    87676246.064    21411434.687  
                                
  23359963.583   122757437.109    23359963.404    95655140.563    23359962.547  
  23359964.762    91669519.273  
  19239236.425   102989138.550    19239233.906    80102652.629    19239232.905  
                                
  21896419.787   117254334.592    21896417.786    91197806.716    21896417.214  
                                
  19601594.480   104671421.019    19601591.889    81411094.810    19601590.977  
                                
  22222774.959   118710074.032    22222772.725    92330048.258    22222772.993  
                                
  26918567.213   141458025.838                                                  
  26918574.325   105634267.308  
  23988295.772   126059345.797                                                  
  23988299.596    94135240.474  
  23850670.576   125336120.360                                                  
  23850675.723    93595174.705  
  24139555.086   126854219.185                                                  
  24139560.286    94728818.634  
 21  8 31  2 35 45.0000000  0 16G 3G 4G16G22G26G29G31G32R 7R 8R 9R16
                                E 7E19E21E27
  21854193.160   114844560.102    21854192.516    89489261.585    21854191.801  
  21854194.893    85760554.159  
  23194014.646   121885369.534    23194012.198    94975599.773    23194011.644  
  23194017.809    91018307.486  
  21190418.961   111356403.677                    86771206.196    21190414.743  
                                
  22322343.013   117304704.789                    91406239.072    22322337.152  
                                
  20037351.958   105296995.748    20037351.369    82049603.235    20037350.958  
  20037352.316    78630874.857  
  24188789.980   127112949.191    24188787.300    99049037.550    24188786.496  
                                
  21411775.217   112519639.241    21411771.214    87677620.418    21411770.321  
                                
  23360529.084   122760408.786    23360528.870    95657456.153    23360528.012  
  23360530.228    91671738.379  
  19239151.029   102988681.421    19239148.510    80102297.086    19239147.527  
                                
  21895737.101   117250678.804    21895735.082    91194963.328    21895734.528  
                                
  19601793.076   104672481.560    19601790.503    81411919.675    19601789.592  
                                
  22223405.396   118713441.725    22223403.180    92332667.571    22223403.412  
                                
  26919056.127   141460595.168                                                  
  26919063.257   105636185.959  
  23988003.935   126057812.260                                                  
  23988007.759    94134095.307  
  23850466.745   125335049.183                                                  
  23850471.891    93594374.807  
  24139852.051   126855779.789                                                  
  24139857.251    94729984.024  
 21  8 31  2 35 46.0000000  0 16G 3G 4G16G22G26G29G31G32R 7R 8R 9R16
                                E 7E19E21E27
  21854259.436   114844908.292    21854258.792    89489532.906    21854258.060  
  21854261.151    85760814.166  
  23193432.634   121882311.161    23193430.204    94973216.625    23193429.632  
  23193435.814    91016023.635  
  21189901.742   111353685.709                    86769088.298    21189897.507  
                                
  22322636.583   117306247.461                    91407441.159    22322630.704  
                                
  20037345.168   105296960.076    20037344.578    82049575.441    20037344.167  
  20037345.508    78630848.213  
  24188848.608   127113257.352    24188845.928    99049277.682    24188845.124  
                                
  21412111.048   112521404.057    21412107.045    87678995.603    21412106.151  
                                
  23361094.799   122763381.617    23361094.603    95659772.645    23361093.727  
  23361095.961    91673958.354  
  19239065.973   102988226.035    19239063.453    80101942.897    19239062.453  
                                
  21895054.630   117247024.268    21895052.628    91192120.913    21895052.039  
                                
  19601991.923   104673543.476    19601989.367    81412745.607    19601988.438  
                                
  22224036.029   118716810.376    22224033.796    92335287.637    22224034.046  
                                
  26919545.274   141463165.578                                                  
  26919552.368   105638105.407  
  23987712.349   126056279.879                                                  
  23987716.173    94132950.988  
  23850263.127   125333979.260                                                  
  23850268.291    93593575.834  
  24140149.249   126857341.549                                                  
  24140154.431    94731150.270  
 21  8 31  2 35 47.0000000  0 16G 3G 4G16G22G26G29G31G32R 7R 8R 9R16
                                E 7E19E21E27
  21854325.855   114845257.398    21854325.212    89489804.943    21854324.497  
  21854327.570    85761074.875  
  23192850.729   121879253.149    23192848.281    94970833.763    23192847.727  
  23192853.874    91013740.059  
  21189384.684   111350968.507                    86766971.000    21189380.467  
                                
  22322930.279   117307790.864                    91408643.810    22322924.418  
                                
  20037338.539   105296925.271    20037337.949    82049548.322    20037337.556  
  20037338.896    78630822.235  
  24188907.398   127113566.341    24188904.699    99049518.457    24188903.931  
                                
  21412446.967   112523169.297    21412442.965    87680371.115    21412442.053  
                                
  23361660.604   122766354.997    23361660.408    95662089.562    23361659.550  
  23361661.766    91676178.727  
  19238981.113   102987771.749    19238978.575    80101589.566    19238977.593  
                                
  21894372.283   117243370.333    21894370.282    91189278.967    21894369.710  
                                
  19602190.930   104674606.086    19602188.339    81413572.084    19602187.428  
                                
  22224666.717   118720179.352    22224664.465    92337907.945    22224664.715  
                                
  26920034.492   141465736.410                                                  
  26920041.604   105640025.193  
  23987420.851   126054748.015                                                  
  23987424.675    94131807.070  
  23850059.652   125332909.950                                                  
  23850064.799    93592777.329  
  24140446.518   126858903.820                                                  
  24140451.718    94732316.909  
 21  8 31  2 35 48.0000000  0 16G 3G 4G16G22G26G29G31G32R 7R 8R 9R16
                                E 7E19E21E27
  21854392.381   114845607.005    21854391.738    89490077.367    21854391.041  
  21854394.115    85761335.941  
  23192268.806   121876195.089    23192266.358    94968450.860    23192265.804  
  23192271.969    91011456.442  
  21188867.679   111348251.668                    86764853.985    21188863.444  
                                
  22323224.045   117309334.598                    91409846.722    22323218.166  
                                
  20037332.016   105296890.947    20037331.409    82049521.578    20037331.016  
  20037332.356    78630796.596  
  24188966.294   127113875.787    24188963.596    99049759.584    24188962.792  
                                
  21412782.851   112524934.530    21412778.884    87681746.623    21412777.973  
                                
  23362226.445   122769328.480    23362226.248    95664406.559    23362225.390  
  23362227.606    91678399.191  
  19238896.360   102987318.162    19238893.841    80101236.776    19238892.840  
                                
  21893689.972   117239716.590    21893687.971    91186437.166    21893687.381  
                                
  19602389.973   104675669.007    19602387.400    81414398.800    19602386.488  
                                
  22225297.350   118723548.241    22225295.134    92340528.194    22225295.385  
                                
  26920523.710   141468307.289                                                  
  26920530.822   105641944.988  
  23987129.354   126053216.257                                                  
  23987133.178    94130663.222  
  23849856.214   125331840.848                                                  
  23849861.360    93591978.976  
  24140743.858   126860466.206                                                  
  24140749.023    94733483.626  
 21  8 31  2 35 49.0000000  0 16G 3G 4G16G22G26G29G31G32R 7R 8R 9R16
                                E 7E19E21E27
  21854459.033   114845957.305    21854458.389    89490350.323    21854457.657  
  21854460.748    85761597.535  
  23191686.884   121873137.159    23191684.436    94966068.076    23191683.882  
  23191690.047    91009172.942  
  21188350.782   111345535.364                    86762737.391    21188346.565  
                                
  22323517.901   117310878.857                    91411050.036    22323512.040  
                                
  20037325.601   105296857.250    20037325.012    82049495.322    20037324.601  
  20037325.941    78630771.447  
  24189025.297   127114185.855    24189022.599    99050001.194    24189021.795  
                                
  21413118.807   112526699.955    21413114.804    87683122.282    21413113.911  
                                
  23362792.339   122772302.282    23362792.160    95666723.819    23362791.284  
  23362793.482    91680619.894  
  19238811.804   102986865.457    19238809.284    80100884.668    19238808.284  
                                
  21893007.715   117236063.269    21893005.732    91183595.696    21893005.160  
                                
  19602589.123   104676732.383    19602586.532    81415225.862    19602585.621  
                                
  22225928.037   118726917.199    22225925.822    92343148.490    22225926.054  
                                
  26921012.982   141470878.341                                                  
  26921020.076   105643864.947  
  23986837.928   126051684.788                                                  
  23986841.752    94129519.604  
  23849652.828   125330772.128                                                  
  23849657.993    93591180.915  
  24141041.199   126862028.873                                                  
  24141046.399    94734650.561  
 21  8 31  2 35 50.0000000  0 16G 3G 4G16G22G26G29G31G32R 7R 8R 9R16
                                E 7E19E21E27
  21854525.666   114846307.487    21854525.023    89490623.195    21854524.308  
  21854527.382    85761859.031  
  23191104.854   121870078.555    23191102.424    94963684.747    23191101.852  
  23191108.017    91006888.910  
  21187833.849   111342818.813                    86760620.596    21187829.614  
                                
  22323811.704   117312422.805                    91412253.113    22323805.825  
                                
  20037319.151   105296823.410    20037318.561    82049468.957    20037318.168  
  20037319.490    78630746.172  
  24189084.265   127114495.798    24189081.567    99050242.707    24189080.763  
                                
  21413454.637   112528464.774    21413450.652    87684497.467    21413449.741  
                                
  23363358.126   122775275.556    23363357.929    95669040.656    23363357.071  
  23363359.287    91682840.203  
  19238727.248   102986412.806    19238724.728    80100532.611    19238723.727  
                                
  21892325.422   117232409.564    21892323.421    91180753.929    21892322.849  
                                
  19602788.184   104677795.438    19602785.611    81416052.687    19602784.700  
                                
  22226558.564   118730285.381    22226556.348    92345768.183    22226556.598  
                                
  26921502.128   141473448.803                                                  
  26921509.204   105645784.437  
  23986546.395   126050152.813                                                  
  23986550.219    94128375.597  
  23849449.372   125329703.000                                                  
  23849454.536    93590382.536  
  24141338.486   126863591.041                                                  
  24141343.686    94735817.105  
 21  8 31  2 35 51.0000000  0 16G 3G 4G16G22G26G29G31G32R 7R 8R 9R16
                                E 7E19E21E27
  21854592.657   114846659.524    21854592.014    89490897.511    21854591.317  
  21854594.391    85762121.913  
  23190523.057   121867021.229    23190520.626    94961302.418    23190520.055  
  23190526.219    91004605.856  
  21187317.220   111340103.949                    86758505.127    21187312.967  
                                
  22324105.828   117313968.423                    91413457.495    22324099.967  
                                
  20037313.057   105296791.378    20037312.468    82049443.997    20037312.057  
  20037313.397    78630722.254  
  24189143.590   127114807.518    24189140.892    99050485.609    24189140.088  
                                
  21413790.718   112530230.936    21413786.733    87685873.702    21413785.840  
                                
  23363924.216   122778250.309    23363924.020    95671358.648    23363923.180  
  23363925.378    91685061.603  
  19238643.067   102985962.197    19238640.547    80100182.139    19238639.546  
                                
  21891643.397   117228757.415    21891641.396    91177913.373    21891640.824  
                                
  19602987.585   104678860.159    19602985.011    81416880.806    19602984.082  
                                
  22227189.340   118733654.748    22227187.089    92348388.799    22227187.339  
                                
  26921991.507   141476020.621                                                  
  26921998.583   105647704.962  
  23986255.148   126048622.290                                                  
  23986258.972    94127232.673  
  23849246.237   125328635.412                                                  
  23849251.383    93589585.315  
  24141636.005   126865154.650                                                  
  24141641.205    94736984.741  
 21  8 31  2 35 52.0000000  0 16G 3G 4G16G22G26G29G31G32R 7R 8R 9R16
                                E 7E19E21E27
  21854659.827   114847012.459    21854659.184    89491172.526    21854658.469  
  21854661.542    85762385.471  
  23189941.330   121863964.270    23189938.900    94958920.372    23189938.346  
  23189944.493    91002323.053  
  21186800.751   111337389.854                    86756390.250    21186796.499  
                                
  22324400.077   117315514.772                    91414662.442    22324394.216  
                                
  20037307.125   105296760.211    20037306.535    82049419.716    20037306.124  
  20037307.464    78630698.974  
  24189203.076   127115120.105    24189200.378    99050729.180    24189199.592  
                                
  21414126.888   112531997.503    21414122.885    87687250.248    21414121.992  
                                
  23364490.396   122781225.579    23364490.200    95673677.040    23364489.360  
  23364491.558    91687283.390  
  19238559.082   102985512.693    19238556.563    80099832.525    19238555.562  
                                
  21890961.498   117225105.872    21890959.496    91175073.286    21890958.924  
                                
  19603187.092   104679925.570    19603184.519    81417709.460    19603183.572  
                                
  22227820.134   118737024.428    22227817.901    92351009.666    22227818.169  
                                
  26922481.011   141478592.883                                                  
  26922488.087   105649625.799  
  23985964.008   126047092.274                                                  
  23985967.832    94126090.121  
  23849043.191   125327568.444                                                  
  23849048.355    93588788.540  
  24141933.649   126866718.767                                                  
  24141938.849    94738152.744  
 21  8 31  2 35 53.0000000  0 16G 3G 4G16G22G26G29G31G32R 7R 8R 9R16
                                E 7E19E21E27
  21854727.193   114847366.465    21854726.550    89491448.372    21854725.853  
  21854728.926    85762649.817  
  23189359.712   121860907.813    23189357.281    94956538.722    23189356.710  
  23189362.874    91000040.640  
  21186284.426   111334676.684                    86754276.098    21186280.191  
                                
  22324694.505   117317062.019                    91415868.089    22324688.644  
                                
  20037301.407   105296730.077    20037300.781    82049396.235    20037300.406  
  20037301.746    78630676.471  
  24189262.759   127115433.712    24189260.061    99050973.547    24189259.256  
                                
  21414463.165   112533764.655    21414459.180    87688627.249    21414458.269  
                                
  23365056.683   122784201.523    23365056.487    95675995.962    23365055.647  
  23365057.845    91689505.689  
  19238475.348   102985064.466    19238472.828    80099483.909    19238471.846  
                                
  21890279.741   117221455.099    21890277.739    91172233.800    21890277.150  
                                
  19603386.779   104680991.872    19603384.188    81418538.806    19603383.276  
                                
  22228451.036   118740394.540    22228448.802    92353630.862    22228449.053  
                                
  26922970.605   141481165.734                                                  
  26922977.681   105651547.073  
  23985672.975   126045562.936                                                  
  23985676.799    94124948.092  
  23848840.306   125326502.244                                                  
  23848845.470    93587992.352  
  24142231.437   126868283.565                                                  
  24142236.637    94739321.257  
 21  8 31  2 35 54.0000000  0 16G 3G 4G16G22G26G29G31G32R 7R 8R 9R16
                                E 7E19E21E27
  21854794.684   114847721.181    21854794.059    89491724.779    21854793.344  
  21854796.436    85762914.702  
  23188778.111   121857851.506    23188775.681    94954157.184    23188775.109  
  23188781.274    90997758.342  
  21185768.244   111331964.056                    86752162.360    21185764.009  
                                
  22324989.040   117318609.773                    91417074.131    22324983.179  
                                
  20037295.796   105296700.612    20037295.188    82049373.275    20037294.795  
  20037296.135    78630654.470  
  24189322.549   127115747.962    24189319.850    99051218.418    24189319.064  
                                
  21414799.478   112535531.985    21414795.493    87690004.394    21414794.582  
                                
  23365623.078   122787177.796    23365622.881    95678315.124    23365622.041  
  23365624.239    91691728.219  
  19238391.792   102984617.160    19238389.273    80099136.002    19238388.290  
                                
  21889598.055   117217804.695    21889596.054    91169394.596    21889595.482  
                                
  19603586.554   104682058.654    19603583.963    81419368.526    19603583.052  
                                
  22229081.938   118743764.694    22229079.722    92356252.089    22229079.954  
                                
  26923460.234   141483738.802                                                  
  26923467.310   105653468.529  
  23985382.014   126044033.907                                                  
  23985385.855    94123806.273  
  23848637.475   125325436.447                                                  
  23848642.657    93587196.467  
  24142529.260   126869848.659                                                  
  24142534.460    94740490.001  
 21  8 31  2 35 55.0000000  0 16G 3G 4G16G22G26G29G31G32R 7R 8R 9R16
                                E 7E19E21E27
  21854862.283   114848076.378    21854861.640    89492001.554    21854860.907  
  21854864.016    85763179.958  
  23188196.492   121854795.140    23188194.062    94951775.602    23188193.490  
  23188199.655    90995476.004  
  21185252.115   111329251.793                    86750048.908    21185247.880  
                                
  22325283.629   117320157.841                    91418280.418    22325277.768  
                                
  20037290.257   105296671.585    20037289.667    82049350.654    20037289.274  
  20037290.596    78630632.796  
  24189382.446   127116062.685    24189379.747    99051463.658    24189378.961  
                                
  21415135.791   112537299.327    21415131.806    87691381.539    21415130.895  
                                
  23366189.437   122790154.160    23366189.240    95680634.367    23366188.400  
  23366190.598    91693950.840  
  19238308.362   102984170.544    19238305.842    80098788.634    19238304.860  
                                
  21888916.388   117214154.481    21888914.404    91166555.540    21888913.815  
                                
  19603786.383   104683125.704    19603783.792    81420198.454    19603782.863  
                                
  22229712.821   118747134.741    22229710.606    92358873.234    22229710.838  
                                
  26923949.881   141486311.885                                                  
  26923956.975   105655389.987  
  23985091.052   126042504.977                                                  
  23985094.894    94122664.542  
  23848434.715   125324370.843                                                  
  23848439.861    93586400.730  
  24142827.101   126871413.846                                                  
  24142832.318    94741658.816  
 21  8 31  2 35 56.0000000  0 16G 3G 4G16G22G26G29G31G32R 7R 8R 9R16
                                E 7E19E21E27
  21854929.917   114848431.808    21854929.274    89492278.509    21854928.559  
  21854931.633    85763445.374  
  23187614.837   121851738.463    23187612.389    94949393.781    23187611.835  
  23187618.000    90993193.416  
  21184736.004   111326539.614                    86747935.524    21184731.769  
                                
  22325578.236   117321705.968                    91419486.755    22325572.357  
                                
  20037284.789   105296642.763    20037284.181    82049328.197    20037283.788  
  20037285.128    78630611.275  
  24189442.378   127116377.545    24189439.662    99051709.004    24189438.876  
                                
  21415472.050   112539066.384    21415468.065    87692758.472    21415467.172  
                                
  23366755.795   122793130.375    23366755.599    95682953.495    23366754.759  
  23366756.957    91696173.338  
  19238225.003   102983724.350    19238222.483    80098441.594    19238221.501  
                                
  21888234.720   117210504.176    21888232.719    91163716.419    21888232.129  
                                
  19603986.213   104684192.772    19603983.604    81421028.396    19603982.693  
                                
  22230343.634   118750504.415    22230341.400    92361494.089    22230341.668  
                                
  26924439.474   141488884.700                                                  
  26924446.550   105657311.250  
  23984800.073   126040975.871                                                  
  23984803.915    94121522.690  
  23848231.919   125323305.177                                                  
  23848237.084    93585604.939  
  24143124.924   126872978.864                                                  
  24143130.124    94742827.503  
 21  8 31  2 35 57.0000000  0 16G 3G 4G16G22G26G29G31G32R 7R 8R 9R16
                                E 7E19E21E27
  21854997.551   114848787.237    21854996.908    89492555.465    21854996.193  
  21854999.285    85763710.796  
  23187033.076   121848681.217    23187030.610    94947011.515    23187030.056  
  23187036.238    90990910.407  
  21184219.857   111323827.283                    86745822.020    21184215.622  
                                
  22325872.788   117323253.922                    91420692.951    22325866.927  
                                
  20037279.303   105296613.894    20037278.677    82049305.702    20037278.302  
  20037279.642    78630589.719  
  24189502.293   127116692.391    24189499.595    99051954.336    24189498.773  
                                
  21415808.202   112540832.949    21415804.217    87694135.020    21415803.324  
                                
  23367322.082   122796106.208    23367321.886    95685272.333    23367321.046  
  23367323.244    91698395.553  
  19238141.680   102983278.311    19238139.160    80098094.677    19238138.177  
                                
  21887552.999   117206853.591    21887550.998    91160877.081    21887550.408  
                                
  19604186.006   104685259.647    19604183.397    81421858.189    19604182.486  
                                
  22230974.303   118753873.460    22230972.087    92364114.459    22230972.355  
                                
  26924928.960   141491457.035                                                  
  26924936.036   105659232.154  
  23984509.022   126039446.378                                                  
  23984512.846    94120380.536  
  23848029.070   125322239.195                                                  
  23848034.234    93584808.924  
  24143422.639   126874543.485                                                  
  24143427.857    94743995.887  
 21  8 31  2 35 58.0000000  0 16G 3G 4G16G22G26G29G31G32R 7R 8R 9R16
                                E 7E19E21E27
  21855065.418   114849143.793    21855064.775    89492833.298    21855064.042  
  21855067.133    85763977.045  
  23186451.385   121845624.531    23186448.955    94944629.687    23186448.383  
  23186454.548    90988627.819  
  21183703.907   111321115.932                    86743709.281    21183699.672  
                                
  22326167.538   117324802.815                    91421899.885    22326161.659  
                                
  20037273.996   105296586.107    20037273.406    82049284.053    20037272.995  
  20037274.335    78630568.970  
  24189562.404   127117008.299    24189559.688    99052200.501    24189558.884  
                                
  21416144.497   112542600.144    21416140.512    87695512.055    21416139.619  
                                
  23367888.495   122799082.760    23367888.298    95687591.719    23367887.458  
  23367889.656    91700618.303  
  19238058.607   102982833.587    19238056.087    80097748.783    19238055.086  
                                
  21886871.403   117203203.825    21886869.438    91158038.379    21886868.848  
                                
  19604385.961   104686327.434    19604383.352    81422688.695    19604382.440  
                                
  22231605.115   118757243.023    22231602.882    92366735.238    22231603.132  
                                
  26925418.607   141494030.027                                                  
  26925425.665   105661153.535  
  23984218.115   126037917.604                                                  
  23984221.939    94119238.919  
  23847826.382   125321174.052                                                  
  23847831.528    93584013.523  
  24143720.534   126876108.838                                                  
  24143725.752    94745164.812  
 21  8 31  2 35 59.0000000  0 16G 3G 4G16G22G26G29G31G32R 7R 8R 9R16
                                E 7E19E21E27
  21855133.427   114849501.308    21855132.802    89493111.882    21855132.069  
  21855135.179    85764244.029  
  23185869.802   121842568.259    23185867.354    94942248.181    23185866.800  
  23185872.965    90986345.545  
  21183188.117   111318405.402                    86741597.180    21183183.865  
                                
  22326462.430   117326352.485                    91423107.413    22326456.569  
                                
  20037268.885   105296559.231    20037268.278    82049263.112    20037267.885  
  20037269.225    78630548.908  
  24189622.677   127117325.125    24189619.978    99052447.374    24189619.174  
                                
  21416480.864   112544367.806    21416476.897    87696889.452    21416475.967  
                                
  23368455.032   122802059.892    23368454.818    95689911.565    23368453.978  
  23368456.194    91702841.497  
  19237975.730   102982390.006    19237973.211    80097403.777    19237972.228  
                                
  21886189.968   117199554.767    21886187.985    91155200.232    21886187.413  
                                
  19604586.058   104687395.996    19604583.467    81423519.797    19604582.538  
                                
  22232235.963   118760612.950    22232233.747    92369356.299    22232233.980  
                                
  26925908.308   141496603.482                                                  
  26925915.384   105663075.275  
  23983927.314   126036389.405                                                  
  23983931.120    94118097.731  
  23847623.801   125320109.572                                                  
  23847628.965    93583218.617  
  24144018.500   126877674.730                                                  
  24144023.718    94746334.162  
 21  8 31  2 36  0.0000000  0 16G 3G 4G16G22G26G29G31G32R 7R 8R 9R16
                                E 7E19E21E27
  21855201.491   114849858.962    21855200.865    89493390.573    21855200.133  
  21855203.242    85764511.099  
  23185288.148   121839511.576    23185285.699    94939866.348    23185285.146  
  23185291.310    90984062.940  
  21182672.292   111315694.864                    86739485.074    21182668.075  
                                
  22326757.323   117327902.126                    91424314.924    22326751.462  
                                
  20037263.793   105296532.466    20037263.185    82049242.256    20037262.792  
  20037264.114    78630528.911  
  24189683.002   127117642.022    24189680.269    99052694.302    24189679.482  
                                
  21416817.159   112546135.101    21416813.192    87698266.563    21416812.280  
                                
  23369021.516   122805036.785    23369021.301    95692231.217    23369020.462  
  23369022.659    91705064.492  
  19237892.925   102981946.747    19237890.406    80097059.020    19237889.405  
                                
  21885508.515   117195905.524    21885506.514    91152361.935    21885505.924  
                                
  19604786.155   104688464.472    19604783.546    81424350.836    19604782.635  
                                
  22232866.722   118763982.347    22232864.506    92371976.941    22232864.738  
                                
  26926397.955   141499176.606                                                  
  26926405.031   105664996.747  
  23983636.460   126034860.953                                                  
  23983640.284    94116956.344  
  23847421.220   125319044.928                                                  
  23847426.366    93582423.583  
  24144316.430   126879240.378                                                  
  24144321.648    94747503.307  
 21  8 31  2 36  1.0000000  0 16G 3G 4G16G22G26G29G31G32R 7R 8R 9R16
                                E 7E19E21E27
  21855269.339   114850215.486    21855268.714    89493668.384    21855267.999  
  21855271.090    85764777.332  
  23184706.136   121836453.174    23184703.688    94937483.172    23184703.116  
  23184709.298    90981779.092  
  21182156.271   111312983.049                    86737371.972    21182152.018  
                                
  22327051.965   117329450.459                    91425521.416    22327046.086  
                                
  20037258.485   105296504.541    20037257.860    82049220.495    20037257.485  
  20037258.807    78630508.051  
  24189743.078   127117957.757    24189740.380    99052940.327    24189739.576  
                                
  21417153.150   112547900.764    21417149.183    87699642.404    21417148.272  
                                
  23369587.714   122808012.157    23369587.517    95694549.689    23369586.677  
  23369588.875    91707286.355  
  19237809.923   102981502.516    19237807.404    80096713.506    19237806.421  
                                
  21884826.740   117192254.786    21884824.775    91149522.476    21884824.185  
                                
  19604985.985   104689531.606    19604983.411    81425180.829    19604982.464  
                                
  22233497.159   118767349.936    22233494.907    92374596.174    22233495.175  
                                
  26926887.316   141501748.122                                                  
  26926894.392   105666917.034  
  23983345.302   126033330.961                                                  
  23983349.126    94115813.822  
  23847218.353   125317978.851                                                  
  23847223.517    93581627.485  
  24144614.074   126880804.507                                                  
  24144619.292    94748671.320  
 21  8 31  2 36  2.0000000  0 16G 3G 4G16G22G26G29G31G32R 7R 8R 9R16
                                E 7E19E21E27
  21855337.653   114850574.442    21855337.009    89493948.090    21855336.295  
  21855339.386    85765045.391  
  23184124.517   121833396.702    23184122.069    94935101.506    23184121.515  
  23184127.680    90979496.651  
  21181640.660   111310273.532                    86735260.655    21181636.443  
                                
  22327347.036   117331001.042                    91426729.658    22327341.158  
                                
  20037253.625   105296479.003    20037253.017    82049200.592    20037252.624  
  20037253.947    78630488.985  
  24189803.618   127118275.890    24189800.902    99053188.220    24189800.116  
                                
  21417489.534   112549668.364    21417485.549    87701019.753    21417484.638  
                                
  23370154.305   122810989.580    23370154.090    95696869.766    23370153.250  
  23370155.430    91709509.768  
  19237727.458   102981060.949    19237724.938    80096370.062    19237723.938  
                                
  21884145.412   117188606.228    21884143.429    91146684.709    21884142.821  
                                
  19605186.261   104690601.012    19605183.652    81426012.589    19605182.740  
                                
  22234127.900   118770719.350    22234125.684    92377216.830    22234125.934  
                                
  26927377.016   141504321.566                                                  
  26927384.075   105668838.766  
  23983054.538   126031803.011                                                  
  23983058.362    94114672.829  
  23847015.897   125316914.917                                                  
  23847021.043    93580832.996  
  24144912.094   126882370.663                                                  
  24144917.330    94749840.857  
 21  8 31  2 36  3.0000000  0 16G 3G 4G16G22G26G29G31G32R 7R 8R 9R16
                                E 7E19E21E27
  21855406.091   114850934.135    21855405.448    89494228.366    21855404.733  
  21855407.824    85765313.997  
  23183542.916   121830340.374    23183540.450    94932719.952    23183539.896  
  23183546.061    90977214.341  
  21181125.157   111307564.590                    86733149.787    21181120.940  
                                
  22327642.215   117332552.177                    91427938.333    22327636.336  
                                
  20037248.890   105296454.139    20037248.282    82049181.220    20037247.889  
  20037249.211    78630470.427  
  24189864.266   127118594.653    24189861.568    99053436.607    24189860.764  
                                
  21417825.918   112551436.199    21417821.952    87702397.284    21417821.040  
                                
  23370720.967   122813967.353    23370720.735    95699190.115    23370719.913  
  23370722.093    91711733.423  
  19237645.135   102980620.294    19237642.616    80096027.330    19237641.615  
                                
  21883464.138   117184958.074    21883462.137    91143847.256    21883461.565  
                                
  19605386.626   104691670.907    19605384.017    81426844.729    19605383.106  
                                
  22234758.676   118774088.875    22234756.460    92379837.567    22234756.728  
                                
  26927866.770   141506895.274                                                  
  26927873.847   105670760.702  
  23982763.862   126030275.408                                                  
  23982767.668    94113532.084  
  23846813.494   125315851.403                                                  
  23846818.658    93580038.821  
  24145210.203   126883937.145                                                  
  24145215.403    94751010.639  
 21  8 31  2 36  4.0000000  0 16G 3G 4G16G22G26G29G31G32R 7R 8R 9R16
                                E 7E19E21E27
  21855474.690   114851294.629    21855474.047    89494509.277    21855473.332  
  21855476.441    85765583.197  
  23182961.351   121827284.299    23182958.920    94930338.606    23182958.349  
  23182964.513    90974932.211  
  21180609.814   111304856.314                    86731039.445    21180605.579  
                                
  22327937.500   117334103.942                    91429147.512    22327931.622  
                                
  20037244.297   105296430.074    20037243.708    82049162.466    20037243.297  
  20037244.637    78630452.451  
  24189925.092   127118914.217    24189922.376    99053685.632    24189921.572  
                                
  21418162.392   112553204.334    21418158.425    87703775.053    21418157.514  
                                
  23371287.683   122816945.528    23371287.469    95701510.762    23371286.647  
  23371288.827    91713957.385  
  19237562.991   102980180.637    19237560.472    80095685.373    19237559.507  
                                
  21882782.971   117181310.434    21882780.987    91141010.205    21882780.398  
                                
  19605587.099   104692741.383    19605584.490    81427677.327    19605583.578  
                                
  22235389.506   118777458.629    22235387.290    92382458.489    22235387.541  
                                
  26928356.614   141509469.328                                                  
  26928363.672   105672682.863  
  23982473.240   126028748.218                                                  
  23982477.064    94112391.644  
  23846611.217   125314788.413                                                  
  23846616.381    93579245.024  
  24145508.365   126885504.061                                                  
  24145513.583    94752180.728  
 21  8 31  2 36  5.0000000  0 16G 3G 4G16G22G26G29G31G32R 7R 8R 9R16
                                E 7E19E21E27
  21855543.236   114851654.762    21855542.575    89494789.905    21855541.860  
  21855544.951    85765852.132  
  23182379.625   121824227.320    23182377.194    94927956.547    23182376.658  
  23182382.787    90972649.398  
  21180094.346   111302147.540                    86728928.711    21180090.129  
                                
  22328232.697   117335655.162                    91430356.255    22328226.818  
                                
  20037239.651   105296405.580    20037239.026    82049143.382    20037238.651  
  20037239.973    78630434.163  
  24189985.829   127119233.344    24189983.095    99053934.298    24189982.309  
                                
  21418498.687   112554971.617    21418494.720    87705152.160    21418493.809  
                                
  23371854.274   122819922.972    23371854.078    95703830.841    23371853.238  
  23371855.418    91716180.790  
  19237480.830   102979740.762    19237478.310    80095343.247    19237477.327  
                                
  21882101.661   117177662.130    21882099.677    91138172.635    21882099.105  
                                
  19605787.446   104693811.284    19605784.837    81428509.472    19605783.926  
                                
  22236020.158   118780827.372    22236017.924    92385078.625    22236018.174  
                                
  26928846.279   141512042.516                                                  
  26928853.337   105674604.402  
  23982182.476   126027220.269                                                  
  23982186.300    94111250.647  
  23846408.814   125313724.755                                                  
  23846413.979    93578450.738  
  24145806.385   126887070.194                                                  
  24145811.603    94753350.245  
 21  8 31  2 36  6.0000000  0 16G 3G 4G16G22G26G29G31G32R 7R 8R 9R16
                                E 7E19E21E27
  21855612.085   114852016.541    21855611.442    89495071.811    21855610.727  
  21855613.800    85766122.286  
  23181798.113   121821171.423    23181795.665    94925575.338    23181795.111  
  23181801.276    90970367.410  
  21179579.164   111299440.262                    86726819.146    21179574.930  
                                
  22328528.161   117337207.867                    91431566.157    22328522.282  
                                
  20037235.291   105296382.712    20037234.666    82049125.567    20037234.291  
  20037235.613    78630417.086  
  24190046.852   127119554.091    24190044.135    99054184.235    24190043.331  
                                
  21418835.215   112556740.030    21418831.248    87706530.144    21418830.318  
                                
  23372421.097   122822901.663    23372420.901    95706151.894    23372420.079  
  23372422.241    91718405.133  
  19237399.007   102979302.740    19237396.488    80095002.564    19237395.487  
                                
  21881420.619   117174015.192    21881418.635    91135336.128    21881418.063  
                                
  19605988.079   104694882.656    19605985.488    81429342.763    19605984.541  
                                
  22236650.970   118784197.201    22236648.754    92387699.603    22236649.022  
                                
  26929336.158   141514616.885                                                  
  26929343.216   105676526.811  
  23981891.943   126025693.569                                                  
  23981895.767    94110110.579  
  23846206.680   125312662.452                                                  
  23846211.844    93577657.451  
  24146104.655   126888637.583                                                  
  24146109.872    94754520.693  
 21  8 31  2 36  7.0000000  0 16G 3G 4G16G22G26G29G31G32R 7R 8R 9R16
                                E 7E19E21E27
  21855681.024   114852378.908    21855680.380    89495354.172    21855679.666  
  21855682.739    85766392.899  
  23181216.601   121818115.574    23181214.171    94923194.156    23181213.599  
  23181219.764    90968085.445  
  21179064.054   111296733.429                    86724709.933    21179059.837  
                                
  22328823.697   117338760.976                    91432776.370    22328817.836  
                                
  20037231.039   105296360.384    20037230.431    82049108.166    20037230.038  
  20037231.378    78630400.419  
  24190107.999   127119875.375    24190105.283    99054434.586    24190104.479  
                                
  21419171.760   112558508.558    21419167.775    87707908.219    21419166.864  
                                
  23372987.956   122825880.574    23372987.760    95708473.126    23372986.920  
  23372989.100    91720629.655  
  19237317.328   102978865.513    19237314.809    80094662.494    19237313.808  
                                
  21880739.612   117170368.518    21880737.647    91132499.828    21880737.057  
                                
  19606188.784   104695954.423    19606186.193    81430176.358    19606185.264  
                                
  22237281.818   118787566.980    22237279.602    92390320.537    22237279.834  
                                
  26929826.055   141517191.344                                                  
  26929833.113   105678449.308  
  23981601.482   126024167.069                                                  
  23981605.306    94108970.665  
  23846004.564   125311600.443                                                  
  23846009.728    93576864.406  
  24146402.960   126890205.168                                                  
  24146408.178    94755691.299  
 21  8 31  2 36  8.0000000  0 16G 3G 4G16G22G26G29G31G32R 7R 8R 9R16
                                E 7E19E21E27
  21855749.855   114852740.523    21855749.194    89495635.952    21855748.461  
  21855751.571    85766662.932  
  23180634.840   121815058.389    23180632.374    94920811.932    23180631.820  
  23180637.984    90965802.493  
  21178548.783   111294025.685                    86722600.002    21178544.566  
                                
  22329119.054   117340313.132                    91433985.844    22329113.175  
                                
  20037226.643   105296337.249    20037226.017    82049090.141    20037225.642  
  20037226.964    78630383.149  
  24190168.968   127120195.858    24190166.252    99054684.313    24190165.448  
                                
  21419508.055   112560275.803    21419504.070    87709285.296    21419503.159  
                                
  23373554.601   122828858.311    23373554.404    95710793.439    23373553.565  
  23373555.745    91722853.290  
  19237235.542   102978427.704    19237233.040    80094321.980    19237232.039  
                                
  21880058.409   117166720.725    21880056.444    91129662.661    21880055.854  
                                
  19606389.310   104697025.168    19606386.702    81431009.160    19606385.772  
                                
  22237912.362   118790935.308    22237910.146    92392940.348    22237910.397  
                                
  26930315.738   141519764.567                                                  
  26930322.778   105680370.865  
  23981310.771   126022639.410                                                  
  23981314.595    94107829.876  
  23845802.268   125310537.360                                                  
  23845807.433    93576070.545  
  24146701.033   126891771.579                                                  
  24146706.251    94756861.026  
 21  8 31  2 36  9.0000000  0 16G 3G 4G16G22G26G29G31G32R 7R 8R 9R16
                                E 7E19E21E27
  21855819.044   114853104.183    21855818.419    89495919.324    21855817.686  
  21855820.777    85766934.490  
  23180053.382   121812002.760    23180050.916    94918430.929    23180050.380  
  23180056.526    90963520.683  
  21178033.905   111291319.883                    86720491.585    21178029.670  
                                
  22329414.786   117341867.178                    91435196.791    22329408.907  
                                
  20037222.622   105296316.176    20037222.015    82049073.724    20037221.622  
  20037222.944    78630367.398  
  24190230.349   127120518.342    24190227.632    99054935.604    24190226.828  
                                
  21419844.653   112562044.647    21419840.669    87710663.621    21419839.739  
                                
  23374121.603   122831837.751    23374121.371    95713115.089    23374120.549  
  23374122.729    91725078.199  
  19237154.184   102977992.199    19237151.682    80093983.256    19237150.682  
                                
  21879377.564   117163074.760    21879375.580    91126826.900    21879374.991  
                                
  19606590.176   104698097.821    19606587.567    81431843.439    19606586.638  
                                
  22238543.210   118794305.131    22238540.994    92395561.317    22238541.245  
                                
  26930805.707   141522339.358                                                  
  26930812.765   105682293.611  
  23981020.382   126021113.432                                                  
  23981024.206    94106690.351  
  23845600.313   125309476.067                                                  
  23845605.477    93575278.017  
  24146999.446   126893339.675                                                  
  24147004.664    94758031.998  
 21  8 31  2 36 10.0000000  0 16G 3G 4G16G22G26G29G31G32R 7R 8R 9R16
                                E 7E19E21E27
  21855888.376   114853468.468    21855887.733    89496203.182    21855887.018  
  21855890.109    85767206.508  
  23179471.906   121808947.151    23179469.475    94916049.937    23179468.939  
  23179475.068    90961238.886  
  21177519.081   111288614.524                    86718383.515    21177514.863  
                                
  22329710.590   117343421.652                    91436408.068    22329704.711  
                                
  20037218.727   105296295.641    20037218.119    82049057.720    20037217.708  
  20037219.048    78630352.054  
  24190291.818   127120841.405    24190289.102    99055187.338    24190288.298  
                                
  21420181.270   112563813.580    21420177.285    87712042.010    21420176.356  
                                
  23374688.605   122834817.393    23374688.408    95715436.888    23374687.569  
  23374689.749    91727303.254  
  19237072.987   102977557.489    19237070.468    80093645.148    19237069.467  
                                
  21878696.754   117159429.099    21878694.771    91123991.389    21878694.199  
                                
  19606791.131   104699170.859    19606788.504    81432678.021    19606787.593  
                                
  22239174.022   118797674.892    22239171.824    92398182.240    22239172.075  
                                
  26931295.711   141524914.287                                                  
  26931302.769   105684216.439  
  23980730.046   126019587.651                                                  
  23980733.852    94105550.967  
  23845398.428   125308415.058                                                  
  23845403.593    93574485.698  
  24147297.877   126894907.971                                                  
  24147303.094    94759203.119  
 21  8 31  2 36 11.0000000  0 16G 3G 4G16G22G26G29G31G32R 7R 8R 9R16
                                E 7E19E21E27
  21855957.797   114853833.341    21855957.154    89496487.499    21855956.439  
  21855959.530    85767478.988  
  23178890.448   121805891.592    23178888.000    94913668.985    23178887.446  
  23178893.610    90958957.155  
  21177004.363   111285909.623                    86716275.800    21177000.128  
                                
  22330006.483   117344976.552                    91437619.678    22330000.604  
                                
  20037214.921   105296275.663    20037214.313    82049042.148    20037213.920  
  20037215.260    78630337.153  
  24190353.412   127121164.989    24190350.679    99055439.482    24190349.892  
                                
  21420517.887   112565582.618    21420513.920    87713420.481    21420512.991  
                                
  23375255.643   122837797.266    23375255.428    95717758.870    23375254.606  
  23375256.786    91729528.490  
  19236991.915   102977123.559    19236989.414    80093307.650    19236988.413  
                                
  21878016.016   117155783.803    21878014.032    91121156.152    21878013.461  
                                
  19606992.158   104700244.294    19606989.531    81433512.915    19606988.620  
                                
  22239804.870   118801044.670    22239802.655    92400803.178    22239802.905  
                                
  26931785.715   141527489.330                                                  
  26931792.773   105686139.371  
  23980439.728   126018062.084                                                  
  23980443.552    94104411.754  
  23845196.580   125307354.367                                                  
  23845201.726    93573693.637  
  24147596.343   126896476.469                                                  
  24147601.561    94760374.413  
 21  8 31  2 36 12.0000000  0 16G 3G 4G16G22G26G29G31G32R 7R 8R 9R16
                                E 7E19E21E27
  21856027.272   114854198.471    21856026.628    89496772.013    21856025.896  
  21856029.005    85767751.664  
  23178308.954   121802835.751    23178306.506    94911287.810    23178305.970  
  23178312.117    90956675.181  
  21176489.664   111283204.856                    86714168.188    21176485.429  
                                
  22330302.394   117346531.540                    91438831.357    22330296.515  
                                
  20037211.168   105296255.911    20037210.561    82049026.759    20037210.168  
  20037211.508    78630322.404  
  24190415.025   127121488.811    24190412.309    99055691.814    24190411.505  
                                
  21420854.468   112567351.409    21420850.501    87714798.760    21420849.589  
                                
  23375822.680   122840776.999    23375822.466    95720080.742    23375821.644  
  23375823.806    91731753.620  
  19236910.933   102976690.096    19236908.431    80092970.516    19236907.431  
                                
  21877335.278   117152138.490    21877333.312    91118320.912    21877332.704  
                                
  19607193.166   104701317.764    19607190.557    81434347.836    19607189.628  
                                
  22240435.629   118804414.066    22240433.413    92403423.818    22240433.681  
                                
  26932275.684   141530064.147                                                  
  26932282.724   105688062.133  
  23980149.410   126016536.388                                                  
  23980153.216    94103272.438  
  23844994.714   125306293.628                                                  
  23844999.878    93572901.527  
  24147894.809   126898044.828                                                  
  24147900.027    94761545.584  
 21  8 31  2 36 13.0000000  0 16G 3G 4G16G22G26G29G31G32R 7R 8R 9R16
                                E 7E19E21E27
  21856096.872   114854564.118    21856096.210    89497056.933    21856095.496  
  21856098.587    85768024.705  
  23177727.424   121799779.822    23177724.959    94908906.567    23177724.422  
  23177730.569    90954393.185  
  21175975.036   111280500.422                    86712060.843    21175970.783  
                                
  22330598.341   117348086.833                    91440043.275    22330592.462  
                                
  20037207.505   105296236.617    20037206.880    82049011.723    20037206.487  
  20037207.827    78630308.000  
  24190476.727   127121813.074    24190473.993    99055944.486    24190473.206  
                                
  21421191.066   112569120.195    21421187.082    87716177.035    21421186.188  
                                
  23376389.718   122843756.849    23376389.504    95722402.703    23376388.682  
  23376390.844    91733978.831  
  19236830.093   102976257.338    19236827.574    80092633.927    19236826.591  
                                
  21876654.575   117148493.349    21876652.592    91115485.801    21876652.002  
                                
  19607394.264   104702391.515    19607391.638    81435182.976    19607390.726  
                                
  22241066.352   118807783.311    22241064.136    92406044.341    22241064.404  
                                
  26932765.670   141532638.999                                                  
  26932772.711   105689984.901  
  23979859.074   126015010.777                                                  
  23979862.898    94102133.187  
  23844792.901   125305233.089                                                  
  23844798.065    93572109.572  
  24148193.258   126899613.282                                                  
  24148198.475    94762716.837  
 21  8 31  2 36 14.0000000  0 16G 3G 4G16G22G26G29G31G32R 7R 8R 9R16
                                E 7E19E21E27
  21856166.650   114854930.839    21856166.007    89497342.690    21856165.292  
  21856168.366    85768298.551  
  23177146.002   121796724.439    23177143.554    94906525.749    23177142.982  
  23177149.147    90952111.559  
  21175460.569   111277796.947                    86709954.234    21175456.334  
                                
  22330894.502   117349643.047                    91441255.908    22330888.587  
                                
  20037204.021   105296218.368    20037203.413    82048997.505    20037203.002  
  20037204.342    78630294.364  
  24190538.625   127122138.363    24190535.891    99056197.953    24190535.105  
                                
  21421527.755   112570889.571    21421523.770    87717555.764    21421522.876  
                                
  23376956.917   122846737.410    23376956.720    95724725.213    23376955.898  
  23376958.060    91736204.543  
  19236749.486   102975825.856    19236746.985    80092298.333    19236745.984  
                                
  21875974.015   117144848.954    21875972.032    91112651.271    21875971.442  
                                
  19607595.505   104703466.145    19607592.878    81436018.808    19607591.967  
                                
  22241697.182   118811152.982    22241694.966    92408665.217    22241695.216  
                                
  26933255.746   141535214.468                                                  
  26933262.804   105691908.112  
  23979568.899   126013485.873                                                  
  23979572.723    94100994.451  
  23844591.231   125304173.340                                                  
  23844596.413    93571318.190  
  24148491.867   126901182.423                                                  
  24148497.085    94763888.593  
 21  8 31  2 36 15.0000000  0 16G 3G 4G16G22G26G29G31G32R 7R 8R 9R16
                                E 7E19E21E27
  21856236.554   114855298.159    21856235.893    89497628.917    21856235.160  
  21856238.269    85768572.857  
  23176564.580   121793669.115    23176562.132    94904144.984    23176561.578  
  23176567.743    90949829.994  
  21174946.209   111275093.938                    86707847.990    21174941.974  
                                
  22331190.699   117351199.687                    91442468.876    22331184.820  
                                
  20037200.643   105296200.688    20037200.054    82048983.731    20037199.643  
  20037200.965    78630281.168  
  24190600.630   127122464.237    24190597.914    99056451.881    24190597.110  
                                
  21421864.478   112572659.064    21421860.512    87718934.590    21421859.582  
                                
  23377524.115   122849718.167    23377523.901    95727047.878    23377523.097  
  23377525.259    91738430.453  
  19236669.022   102975395.143    19236666.520    80091963.333    19236665.520  
                                
  21875293.492   117141204.884    21875291.526    91109816.995    21875290.918  
                                
  19607796.818   104704541.190    19607794.209    81436854.959    19607793.262  
                                
  22242327.976   118814522.656    22242325.761    92411286.072    22242326.029  
                                
  26933745.858   141537790.021                                                  
  26933752.916   105693831.433  
  23979278.759   126011961.181                                                  
  23979282.583    94099855.889  
  23844389.633   125303113.895                                                  
  23844394.797    93570527.055  
  24148790.476   126902751.775                                                  
  24148795.730    94765060.518  
 21  8 31  2 36 16.0000000  0 16G 3G 4G16G22G26G29G31G32R 7R 8R 9R16
                                E 7E19E21E27
  21856306.493   114855665.745    21856305.850    89497915.349    21856305.135  
  21856308.209    85768847.351  
  23175983.122   121790613.483    23175980.656    94901763.972    23175980.102  
  23175986.267    90947548.198  
  21174431.849   111272391.024                    86705741.829    21174427.614  
                                
  22331486.932   117352756.397                    91443681.895    22331481.053  
                                
  20037197.338   105296183.225    20037196.712    82048970.123    20037196.337  
  20037197.659    78630268.125  
  24190662.672   127122790.280    24190659.956    99056705.945    24190659.151  
                                
  21422201.149   112574428.307    21422197.182    87720313.226    21422196.271  
                                
  23378091.332   122852698.797    23378091.117    95729370.445    23378090.295  
  23378092.457    91740656.246  
  19236588.647   102974964.845    19236586.128    80091628.655    19236585.127  
                                
  21874612.968   117137560.733    21874611.002    91106982.658    21874610.394  
                                
  19607998.148   104705616.256    19607995.521    81437691.121    19607994.610  
                                
  22242958.735   118817891.951    22242956.501    92413906.633    22242956.769  
                                
  26934235.933   141540365.367                                                  
  26934242.992   105695754.574  
  23978988.584   126010436.344                                                  
  23978992.408    94098717.215  
  23844188.017   125302054.410                                                  
  23844193.181    93569735.881  
  24149089.103   126904320.989                                                  
  24149094.339    94766232.332  
 21  8 31  2 36 17.0000000  0 16G 3G 4G16G22G26G29G31G32R 7R 8R 9R16
                                E 7E19E21E27
  21856376.629   114856034.271    21856375.968    89498202.514    21856375.253  
  21856378.344    85769122.542  
  23175401.735   121787558.264    23175399.287    94899383.282    23175398.733  
  23175404.898    90945266.681  
  21173917.650   111269688.934                    86703636.309    21173913.433  
                                
  22331783.325   117354313.879                    91444895.517    22331777.446  
                                
  20037194.175   105296166.675    20037193.585    82048957.229    20037193.174  
  20037194.496    78630255.757  
  24190724.892   127123117.251    24190722.176    99056960.728    24190721.371  
                                
  21422537.926   112576198.008    21422533.941    87721692.214    21422533.012  
                                
  23378658.619   122855679.989    23378658.423    95731693.454    23378657.601  
  23378659.763    91742882.456  
  19236508.487   102974535.716    19236505.985    80091294.888    19236504.984  
                                
  21873932.587   117133917.256    21873930.603    91104148.842    21873930.014  
                                
  19608199.603   104706692.091    19608196.977    81438527.884    19608196.065  
                                
  22243589.529   118821261.604    22243587.314    92416527.479    22243587.564  
                                
  26934726.117   141542941.178                                                  
  26934733.157   105697678.059  
  23978698.534   126008912.066                                                  
  23978702.358    94097578.946  
  23843986.525   125300995.581                                                  
  23843991.708    93568945.186  
  24149387.820   126905890.740                                                  
  24149393.055    94767404.537  
 21  8 31  2 36 18.0000000  0 16G 3G 4G16G22G26G29G31G32R 7R 8R 9R16
                                E 7E19E21E27
  21856446.872   114856403.401    21856446.211    89498490.148    21856445.496  
  21856448.588    85769398.196  
  23174820.349   121784503.063    23174817.883    94897002.608    23174817.329  
  23174823.494    90942985.224  
  21173403.559   111266987.290                    86701531.137    21173399.306  
                                
  22332079.790   117355871.772                    91446109.455    22332073.893  
                                
  20037191.137   105296150.662    20037190.512    82048944.753    20037190.119  
  20037191.459    78630243.808  
  24190787.201   127123444.750    24190784.503    99057215.920    24190783.681  
                                
  21422874.686   112577967.801    21422870.719    87723071.273    21422869.790  
                                
  23379225.979   122858661.385    23379225.764    95734016.618    23379224.960  
  23379227.105    91745108.817  
  19236428.469   102974107.394    19236425.968    80090961.746    19236424.967  
                                
  21873252.242   117130274.062    21873250.258    91101315.242    21873249.686  
                                
  19608401.166   104707768.316    19608398.539    81439364.944    19608397.610  
                                
  22244220.324   118824631.251    22244218.108    92419148.313    22244218.376  
                                
  26935216.282   141545517.090                                                  
  26935223.322   105699601.645  
  23978408.538   126007387.995                                                  
  23978412.362    94096440.839  
  23843785.088   125299937.035                                                  
  23843790.270    93568154.722  
  24149686.572   126907460.690                                                  
  24149691.807    94768576.909  
 21  8 31  2 36 19.0000000  0 16G 3G 4G16G22G26G29G31G32R 7R 8R 9R16
                                E 7E19E21E27
  21856517.294   114856773.508    21856516.633    89498778.538    21856515.918  
  21856519.009    85769674.586  
  23174239.034   121781448.317    23174236.586    94894622.284    23174236.014  
  23174242.179    90940704.089  
  21172889.610   111264286.482                    86699426.607    21172885.357  
                                
  22332376.398   117357430.463                    91447324.019    22332370.501  
                                
  20037188.260   105296135.617    20037187.653    82048933.030    20037187.259  
  20037188.582    78630232.578  
  24190849.707   127123773.191    24190847.009    99057471.839    24190846.187  
                                
  21423211.571   112579738.083    21423207.586    87724450.716    21423206.692  
                                
  23379793.427   122861643.372    23379793.195    95736340.250    23379792.373  
  23379794.535    91747335.652  
  19236348.666   102973680.256    19236346.165    80090629.525    19236345.164  
                                
  21872572.021   117126631.625    21872570.056    91098482.233    21872569.448  
                                
  19608602.854   104708845.320    19608600.227    81440202.613    19608599.298  
                                
  22244851.190   118828001.267    22244848.974    92421769.435    22244849.242  
                                
  26935706.572   141548093.527                                                  
  26935713.612   105701525.601  
  23978118.613   126005864.497                                                  
  23978122.419    94095303.184  
  23843583.776   125298879.187                                                  
  23843588.958    93567364.777  
  24149985.431   126909031.230                                                  
  24149990.649    94769749.726  
 21  8 31  2 36 20.0000000  0 16G 3G 4G16G22G26G29G31G32R 7R 8R 9R16
                                E 7E19E21E27
  21856587.805   114857143.994    21856587.144    89499067.235    21856586.411  
  21856589.521    85769951.243  
  23173657.701   121778393.389    23173655.253    94892241.832    23173654.699  
  23173660.864    90938422.805  
  21172375.715   111261585.909                    86697322.262    21172371.480  
                                
  22332673.042   117358989.356                    91448538.744    22332667.145  
                                
  20037185.455   105296120.889    20037184.847    82048921.554    20037184.454  
  20037185.776    78630221.582  
  24190912.284   127124101.970    24190909.568    99057728.032    24190908.764  
                                
  21423548.419   112581508.245    21423544.435    87725830.061    21423543.523  
                                
  23380360.876   122864625.364    23380360.680    95738663.879    23380359.858  
  23380362.020    91749562.451  
  19236268.970   102973253.659    19236266.469    80090297.728    19236265.468  
                                
  21871891.837   117122989.245    21871889.871    91095649.273    21871889.282  
                                
  19608804.559   104709922.509    19608801.950    81441040.424    19608801.021  
                                
  22245482.020   118831371.025    22245479.822    92424390.357    22245480.072  
                                
  26936196.826   141550669.832                                                  
  26936203.867   105703449.469  
  23977828.706   126004340.990                                                  
  23977832.494    94094165.498  
  23843382.499   125297821.415                                                  
  23843387.681    93566574.883  
  24150284.291   126910601.744                                                  
  24150289.508    94770922.515  
 21  8 31  2 36 21.0000000  0 16G 3G 4G16G22G26G29G31G32R 7R 8R 9R16
                                E 7E19E21E27
  21856658.406   114857515.055    21856657.745    89499356.374    21856657.030  
  21856660.121    85770228.338  
  23173076.368   121775338.476    23173073.902    94889861.378    23173073.366  
  23173079.531    90936141.539  
  21171861.873   111258885.779                    86695218.265    21171857.638  
                                
  22332969.757   117360548.649                    91449753.784    22332963.878  
                                
  20037182.756   105296106.704    20037182.149    82048910.498    20037181.756  
  20037183.078    78630210.982  
  24190974.933   127124431.277    24190972.217    99057984.637    24190971.413  
                                
  21423885.268   112583278.471    21423881.319    87727209.465    21423880.390  
                                
  23380928.361   122867607.541    23380928.164    95740987.653    23380927.342  
  23380929.504    91751789.399  
  19236189.418   102972827.794    19236186.898    80089966.499    19236185.915  
                                
  21871211.688   117119347.145    21871209.741    91092816.529    21871209.133  
                                
  19609006.372   104711000.043    19609003.745    81441878.509    19609002.798  
                                
  22246112.832   118834740.749    22246110.634    92427011.256    22246110.902  
                                
  26936687.099   141553246.248                                                  
  26936694.139   105705373.412  
  23977538.817   126002817.662                                                  
  23977542.623    94093027.948  
  23843181.258   125296763.913                                                  
  23843186.440    93565785.188  
  24150583.168   126912172.434                                                  
  24150588.421    94772095.431  
 21  8 31  2 36 22.0000000  0 16G 3G 4G16G22G26G29G31G32R 7R 8R 9R16
                                E 7E19E21E27
  21856729.185   114857886.917    21856728.524    89499646.136    21856727.809  
  21856730.882    85770506.019  
  23172495.089   121772283.800    23172492.623    94887481.116    23172492.087  
  23172498.216    90933860.458  
  21171348.192   111256186.283                    86693114.763    21171343.939  
                                
  22333266.597   117362108.543                    91450969.288    22333260.700  
                                
  20037180.201   105296093.261    20037179.594    82048900.028    20037179.201  
  20037180.523    78630200.948  
  24191037.742   127124761.305    24191035.026    99058241.804    24191034.222  
                                
  21424222.189   112585049.000    21424218.222    87728589.098    21424217.311  
                                
  23381495.934   122870590.118    23381495.738    95743311.748    23381494.916  
  23381497.060    91754016.648  
  19236110.043   102972402.925    19236107.542    80089636.048    19236106.541  
                                
  21870531.647   117115705.558    21870529.699    91089984.183    21870529.092  
                                
  19609208.256   104712078.162    19609205.629    81442717.046    19609204.700  
                                
  22246743.680   118838110.599    22246741.482    92429632.248    22246741.732  
                                
  26937177.443   141555822.958                                                  
  26937184.483   105707297.583  
  23977248.999   126001294.731                                                  
  23977252.823    94091890.705  
  23842980.124   125295706.910                                                  
  23842985.288    93564995.872  
  24150882.152   126913743.511                                                  
  24150887.370    94773268.642  
 21  8 31  2 36 23.0000000  0 16G 3G 4G16G22G26G29G31G32R 7R 8R 9R16
                                E 7E19E21E27
  21856800.000   114858259.187    21856799.339    89499936.215    21856798.624  
  21856801.733    85770784.015  
  23171913.774   121769229.004    23171911.308    94885100.760    23171910.772  
  23171916.918    90931579.275  
  21170834.529   111253487.072                    86691011.482    21170830.294  
                                
  22333563.491   117363668.689                    91452184.984    22333557.594  
                                
  20037177.735   105296080.211    20037177.110    82048889.859    20037176.699  
  20037178.039    78630191.206  
  24191100.624   127125091.724    24191097.890    99058499.271    24191097.103  
                                
  21424559.109   112586819.462    21424555.124    87729968.673    21424554.195  
                                
  23382063.508   122873572.726    23382063.294    95745635.858    23382062.490  
  23382064.634    91756243.936  
  19236030.794   102971978.722    19236028.293    80089306.115    19236027.292  
                                
  21869851.624   117112064.086    21869849.676    91087151.930    21869849.068  
                                
  19609410.176   104713156.496    19609407.567    81443555.753    19609406.638  
                                
  22247374.474   118841480.228    22247372.276    92432253.069    22247372.545  
                                
  26937667.769   141558399.624                                                  
  26937674.791   105709221.714  
  23976959.217   125999771.843                                                  
  23976963.005    94090753.479  
  23842778.991   125294650.030                                                  
  23842784.173    93564206.645  
  24151181.101   126915314.624                                                  
  24151186.355    94774441.871  
 21  8 31  2 36 24.0000000  0 16G 3G 4G16G22G26G29G31G32R 7R 8R 9R16
                                E 7E19E21E27
  21856870.725   114858630.750    21856870.064    89500225.746    21856869.349  
  21856872.441    85771061.472  
  23171332.226   121766172.932    23171329.760    94882719.402    23171329.206  
  23171335.371    90929297.141  
  21170320.723   111250787.001                    86688907.535    21170316.506  
                                
  22333860.188   117365227.941                    91453399.976    22333854.291  
                                
  20037175.091   105296066.405    20037174.483    82048879.103    20037174.090  
  20037175.412    78630180.898  
  24191163.362   127125421.357    24191160.628    99058756.130    24191159.841  
                                
  21424895.780   112588588.708    21424891.795    87731347.309    21424890.901  
                                
  23382630.867   122876554.246    23382630.653    95747959.104    23382629.831  
  23382631.975    91758470.374  
  19235951.456   102971553.990    19235948.936    80088975.770    19235947.936  
                                
  21869171.403   117108421.548    21869169.456    91084318.863    21869168.848  
                                
  19609611.953   104714233.909    19609609.326    81444393.742    19609608.397  
                                
  22248005.036   118844848.477    22248002.821    92434872.817    22248003.089  
                                
  26938157.845   141560975.084                                                  
  26938164.885   105711144.951  
  23976669.203   125998247.858                                                  
  23976673.027    94089615.420  
  23842577.696   125293592.138                                                  
  23842582.860    93563416.663  
  24151479.871   126916884.618                                                  
  24151485.107    94775614.276  
 21  8 31  2 36 25.0000000  0 16G 3G 4G16G22G26G29G31G32R 7R 8R 9R16
                                E 7E19E21E27
  21856941.808   114859004.302    21856941.147    89500516.824    21856940.432  
  21856943.524    85771340.428  
  23170750.947   121763118.303    23170748.481    94880339.170    23170747.945  
  23170754.092    90927016.083  
  21169807.275   111248088.773                    86686805.022    21169803.040  
                                
  22334157.261   117366788.991                    91454616.377    22334151.364  
                                
  20037172.821   105296054.538    20037172.232    82048869.856    20037171.821  
  20037173.143    78630172.034  
  24191226.457   127125752.955    24191223.741    99059014.514    24191222.937  
                                
  21425232.736   112590359.436    21425228.769    87732727.097    21425227.857  
                                
  23383198.548   122879537.362    23383198.334    95750283.606    23383197.530  
  23383199.656    91760698.014  
  19235872.528   102971131.458    19235870.009    80088647.136    19235869.008  
                                
  21868491.505   117104780.740    21868489.539    91081487.124    21868488.950  
                                
  19609814.052   104715313.110    19609811.407    81445233.117    19609810.496  
                                
  22248635.849   118848218.121    22248633.615    92437493.647    22248633.901  
                                
  26938648.242   141563552.063                                                  
  26938655.282   105713069.315  
  23976379.493   125996725.442                                                  
  23976383.299    94088478.561  
  23842376.705   125292535.933                                                  
  23842381.869    93562627.937  
  24151778.945   126918456.209                                                  
  24151784.181    94776787.860  
 21  8 31  2 36 26.0000000  0 16G 3G 4G16G22G26G29G31G32R 7R 8R 9R16
                                E 7E19E21E27
  21857013.034   114859378.550    21857012.373    89500808.450    21857011.641  
  21857014.732    85771619.905  
  23170169.685   121760063.815    23170167.237    94877959.052    23170166.666  
  23170172.830    90924735.147  
  21169293.934   111245391.131                    86684702.964    21169289.699  
                                
  22334454.440   117368350.575                    91455833.193    22334448.526  
                                
  20037170.713   105296043.369    20037170.087    82048861.151    20037169.712  
  20037171.034    78630163.689  
  24191289.678   127126085.185    24191286.944    99059273.396    24191286.158  
                                
  21425569.728   112592130.388    21425565.761    87734107.060    21425564.849  
                                
  23383766.283   122882520.810    23383766.069    95752608.359    23383765.247  
  23383767.391    91762925.918  
  19235793.762   102970709.793    19235791.242    80088319.177    19235790.241  
                                
  21867811.678   117101140.327    21867809.730    91078655.692    21867809.123  
                                
  19610016.240   104716392.795    19610013.613    81446072.871    19610012.666  
                                
  22249266.661   118851587.884    22249264.463    92440114.576    22249264.731  
                                
  26939138.675   141566129.260                                                  
  26939145.716   105714993.852  
  23976089.854   125995203.362                                                  
  23976093.678    94087341.940  
  23842175.786   125291480.151                                                  
  23842180.968    93561839.532  
  24152078.055   126920028.096                                                  
  24152083.272    94777961.683  
 21  8 31  2 36 27.0000000  0 16G 3G 4G16G22G26G29G31G32R 7R 8R 9R16
                                E 7E19E21E27
  21857084.421   114859753.778    21857083.778    89501100.829    21857083.045  
  21857086.154    85771900.099  
  23169588.531   121757009.738    23169586.047    94875579.251    23169585.511  
  23169591.658    90922454.505  
  21168780.753   111242694.288                    86682601.523    21168776.500  
                                
  22334751.745   117369912.940                    91457050.620    22334745.848  
                                
  20037168.747   105296033.087    20037168.140    82048853.139    20037167.747  
  20037169.069    78630156.020  
  24191353.077   127126418.356    24191350.343    99059533.015    24191349.557  
                                
  21425906.809   112593901.797    21425902.842    87735487.378    21425901.913  
                                
  23384334.125   122885504.804    23384333.893    95754933.549    23384333.088  
  23384335.215    91765154.225  
  19235715.192   102970289.255    19235712.690    80087992.092    19235711.689  
                                
  21867131.976   117097500.585    21867130.028    91075824.778    21867129.421  
                                
  19610218.571   104717473.233    19610215.926    81446913.213    19610215.015  
                                
  22249897.563   118854957.996    22249895.347    92442735.775    22249895.597  
                                
  26939629.180   141568706.918                                                  
  26939636.202   105716918.728  
  23975800.322   125993681.827                                                  
  23975804.128    94086205.731  
  23841975.010   125290425.014                                                  
  23841980.174    93561051.610  
  24152377.271   126921600.550                                                  
  24152382.525    94779135.911  
 21  8 31  2 36 28.0000000  0 16G 3G 4G16G22G26G29G31G32R 7R 8R 9R16
                                E 7E19E21E27
  21857156.004   114860129.892    21857155.343    89501393.905    21857154.628  
  21857157.738    85772180.961  
  23169007.413   121753956.019    23169004.965    94873199.732    23169004.393  
  23169010.558    90920174.130  
  21168267.698   111239998.214                    86680500.686    21168263.463  
                                
  22335049.193   117371476.033                    91458268.617    22335043.278  
                                
  20037166.960   105296023.688    20037166.353    82048845.818    20037165.942  
  20037167.282    78630148.997  
  24191416.619   127126752.378    24191413.903    99059793.294    24191413.117  
                                
  21426243.979   112595673.608    21426240.013    87736868.015    21426239.083  
                                
  23384902.056   122888489.343    23384901.859    95757259.166    23384901.038  
  23384903.164    91767382.931  
  19235636.836   102969869.829    19235634.316    80087665.874    19235633.316  
                                
  21866452.399   117093861.464    21866450.434    91072994.353    21866449.844  
                                
  19610421.044   104718554.382    19610418.400    81447754.111    19610417.471  
                                
  22250528.500   118858328.386    22250526.284    92445357.187    22250526.570  
                                
  26940119.792   141571285.033                                                  
  26940126.814   105718843.944  
  23975510.879   125992160.811                                                  
  23975514.668    94085069.912  
  23841774.340   125289370.497                                                  
  23841779.505    93560264.139  
  24152676.613   126923173.505                                                  
  24152681.831    94780310.527  
 21  8 31  2 36 29.0000000  0 16G 3G 4G16G22G26G29G31G32R 7R 8R 9R16
                                E 7E19E21E27
  21857227.695   114860506.646    21857227.034    89501687.474    21857226.319  
  21857229.410    85772462.308  
  23168426.330   121750902.391    23168423.864    94870820.275    23168423.310  
  23168429.475    90917893.824  
  21167754.750   111237302.630                    86678400.233    21167750.497  
                                
  22335346.712   117373039.583                    91459486.968    22335340.815  
                                
  20037165.281   105296014.876    20037164.673    82048838.956    20037164.262  
  20037165.602    78630142.416  
  24191480.305   127127086.997    24191477.588    99060054.031    24191476.784  
                                
  21426581.168   112597445.563    21426577.201    87738248.750    21426576.290  
                                
  23385470.041   122891474.100    23385469.826    95759584.958    23385469.022  
  23385471.149    91769611.803  
  19235558.641   102969451.255    19235556.121    80087340.319    19235555.121  
                                
  21865772.876   117090222.675    21865770.928    91070164.184    21865770.339  
                                
  19610623.572   104719635.936    19610620.945    81448595.320    19610619.998  
                                
  22251159.437   118861698.770    22251157.221    92447978.601    22251157.507  
                                
  26940610.422   141573863.272                                                  
  26940617.444   105720769.248  
  23975221.491   125990640.057                                                  
  23975225.279    94083934.272  
  23841573.725   125288316.305                                                  
  23841578.907    93559476.918  
  24152975.973   126924746.707                                                  
  24152981.209    94781485.305  
 21  8 31  2 36 30.0000000  0 16G 3G 4G16G22G26G29G31G32R 7R 8R 9R16
                                E 7E19E21E27
  21857299.439   114860883.579    21857298.778    89501981.186    21857298.045  
  21857301.154    85772743.772  
  23167845.176   121747848.381    23167842.692    94868440.532    23167842.156  
  23167848.321    90915613.228  
  21167241.783   111234607.072                    86676299.800    21167237.549  
                                
  22335644.249   117374603.125                    91460705.312    22335638.335  
                                
  20037163.655   105296006.199    20037163.029    82048832.192    20037162.618  
  20037163.940    78630135.941  
  24191544.008   127127421.723    24191541.292    99060314.859    24191540.487  
                                
  21426918.303   112599217.192    21426914.336    87739629.240    21426913.407  
                                
  23386038.008   122894458.666    23386037.775    95761910.587    23386036.971  
  23386039.098    91771840.537  
  19235480.535   102969033.057    19235478.016    80087015.049    19235477.015  
                                
  21865093.335   117086583.742    21865091.369    91067333.903    21865090.780  
                                
  19610826.117   104720717.467    19610823.473    81449436.510    19610822.544  
                                
  22251790.303   118865068.694    22251788.087    92450599.651    22251788.373  
                                
  26941100.962   141576441.208                                                  
  26941108.002   105722694.330  
  23974932.066   125989119.059                                                  
  23974935.854    94082798.454  
  23841373.109   125287261.987                                                  
  23841378.274    93558689.604  
  24153275.297   126926319.680                                                  
  24153280.551    94782659.928  
 21  8 31  2 36 31.0000000  0 16G 3G 4G16G22G26G29G31G32R 7R 8R 9R16
                                E 7E19E21E27
  21857371.290   114861261.292    21857370.629    89502275.508    21857369.914  
  21857373.006    85773025.840  
  23167264.057   121744794.592    23167261.573    94866060.955    23167261.037  
  23167267.166    90913332.816  
  21166728.960   111231912.162                    86674199.873    21166724.725  
                                
  22335941.894   117376167.265                    91461924.125    22335935.997  
                                
  20037162.118   105295998.267    20037161.510    82048826.014    20037161.099  
  20037162.439    78630130.024  
  24191607.836   127127757.204    24191605.120    99060576.273    24191604.316  
                                
  21427255.473   112600989.103    21427251.506    87741009.950    21427250.595  
                                
  23386606.010   122897443.622    23386605.796    95764236.529    23386604.992  
  23386607.118    91774069.572  
  19235402.573   102968615.837    19235400.071    80086690.547    19235399.071  
                                
  21864413.865   117082945.309    21864411.936    91064504.015    21864411.328  
                                
  19611028.752   104721799.569    19611026.107    81450278.148    19611025.178  
                                
  22252421.187   118868438.756    22252418.989    92453220.805    22252419.239  
                                
  26941591.592   141579019.456                                                  
  26941598.632   105724619.649  
  23974642.695   125987598.466                                                  
  23974646.483    94081662.957  
  23841172.565   125286208.174                                                  
  23841177.730    93557902.668  
  24153574.693   126927893.034                                                  
  24153579.946    94783834.840  
 21  8 31  2 36 32.0000000  0 16G 3G 4G16G22G26G29G31G32R 7R 8R 9R16
                                E 7E19E21E27
  21857443.338   114861639.822    21857442.677    89502570.471    21857441.927  
  21857445.054    85773308.510  
  23166682.974   121741741.084    23166680.526    94863681.596    23166679.990  
  23166686.119    90911052.592  
  21166216.262   111229217.937                    86672100.483    21166212.027  
                                
  22336239.681   117377732.051                    91463143.436    22336233.748  
                                
  20037160.760   105295991.127    20037160.152    82048820.453    20037159.741  
  20037161.081    78630124.691  
  24191671.825   127128093.433    24191669.109    99060838.270    24191668.305  
                                
  21427592.733   112602761.331    21427588.749    87742390.909    21427587.819  
                                
  23387174.102   122900429.001    23387173.888    95766562.802    23387173.084  
  23387175.210    91776298.915  
  19235324.825   102968199.613    19235322.323    80086366.819    19235321.323  
                                
  21863734.539   117079307.441    21863732.573    91061674.565    21863731.966  
                                
  19611231.512   104722882.281    19611228.885    81451120.261    19611227.938  
                                
  22253052.106   118871809.041    22253049.908    92455842.141    22253050.194  
                                
  26942082.293   141581598.044                                                  
  26942089.315   105726545.214  
  23974353.413   125986078.298                                                  
  23974357.219    94080527.769  
  23840972.129   125285154.877                                                  
  23840977.311    93557116.115  
  24153874.177   126929466.814                                                  
  24153879.413    94785010.059  
 21  8 31  2 36 33.0000000  0 16G 3G 4G16G22G26G29G31G32R 7R 8R 9R16
                                E 7E19E21E27
  21857515.475   114862018.987    21857514.814    89502865.925    21857514.100  
  21857517.191    85773591.660  
  23166101.927   121738687.655    23166099.462    94861302.304    23166098.908  
  23166105.072    90908772.450  
  21165703.672   111226524.213                    86670001.478    21165699.419  
                                
  22336537.522   117379297.291                    91464363.102    22336531.607  
                                
  20037159.527   105295984.575    20037158.901    82048815.347    20037158.508  
  20037159.848    78630119.804  
  24191735.921   127128430.276    24191733.205    99061100.747    24191732.401  
                                
  21427929.993   112604533.703    21427926.026    87743771.978    21427925.097  
                                
  23387742.266   122903414.655    23387742.051    95768889.286    23387741.247  
  23387743.356    91778528.456  
  19235247.238   102967784.210    19235244.718    80086043.723    19235243.717  
                                
  21863055.248   117075669.902    21863053.282    91058845.370    21863052.693  
                                
  19611434.343   104723965.442    19611431.716    81451962.717    19611430.769  
                                
  22253683.044   118875179.318    22253680.846    92458463.462    22253681.114  
                                
  26942572.994   141584176.784                                                  
  26942580.017   105728470.899  
  23974064.185   125984558.374                                                  
  23974067.974    94079392.765  
  23840771.745   125284101.912                                                  
  23840776.927    93556329.817  
  24154173.716   126931040.838                                                  
  24154178.951    94786185.470  
 21  8 31  2 36 34.0000000  0 16G 3G 4G16G22G26G29G31G32R 7R 8R 9R16
                                E 7E19E21E27
  21857587.738   114862398.708    21857587.077    89503161.818    21857586.362  
  21857589.453    85773875.222  
  23165520.880   121735634.224    23165518.432    94858923.022    23165517.861  
  23165524.025    90906492.295  
  21165191.134   111223830.906                    86667902.799    21165186.899  
                                
  22336835.452   117380862.908                    91465583.070    22336829.537  
                                
  20037158.383   105295978.547    20037157.758    82048810.652    20037157.365  
  20037158.687    78630115.297  
  24191800.124   127128767.608    24191797.408    99061363.601    24191796.604  
                                
  21428267.271   112606306.153    21428263.322    87745153.111    21428262.375  
                                
  23388310.447   122906400.456    23388310.215    95771215.876    23388309.411  
  23388311.537    91780758.104  
  19235169.757   102967369.555    19235167.256    80085721.214    19235166.255  
                                
  21862376.011   117072032.662    21862374.063    91056016.391    21862373.473  
                                
  19611637.246   104725048.937    19611634.601    81452805.434    19611633.690  
                                
  22254313.945   118878549.487    22254311.747    92461084.702    22254312.033  
                                
  26943063.731   141586755.583                                                  
  26943070.754   105730396.636  
  23973774.975   125983038.609                                                  
  23973778.781    94078257.888  
  23840571.434   125283049.217                                                  
  23840576.598    93555543.711  
  24154473.272   126932614.999                                                  
  24154478.508    94787360.993  
 21  8 31  2 36 35.0000000  0 16G 3G 4G16G22G26G29G31G32R 7R 8R 9R16
                                E 7E19E21E27
  21857660.161   114862779.259    21857659.500    89503458.353    21857658.767  
  21857661.876    85774159.400  
  23164939.869   121732581.062    23164937.421    94856543.940    23164936.867  
  23164943.014    90904212.345  
  21164678.758   111221138.270                    86665804.642    21164674.505  
                                
  22337133.489   117382429.161                    91466803.529    22337127.575  
                                
  20037157.382   105295973.298    20037156.757    82048806.562    20037156.364  
  20037157.686    78630111.379  
  24191864.453   127129105.715    24191861.737    99061627.061    24191860.933  
                                
  21428604.620   112608078.906    21428600.653    87746534.477    21428599.724  
                                
  23388878.700   122909386.686    23388878.468    95773542.801    23388877.681  
  23388879.790    91782988.094  
  19235092.510   102966955.943    19235089.990    80085399.513    19235088.989  
                                
  21861696.880   117068395.936    21861694.915    91053187.829    21861694.325  
                                
  19611840.256   104726133.026    19611837.611    81453648.616    19611836.700  
                                
  22254944.883   118881919.871    22254942.685    92463706.112    22254942.971  
                                
  26943554.540   141589334.738                                                  
  26943561.562   105732322.619  
  23973485.854   125981519.286                                                  
  23973489.678    94077123.319  
  23840371.193   125281997.035                                                  
  23840376.375    93554758.000  
  24154772.900   126934189.589                                                  
  24154778.135    94788536.823  
 21  8 31  2 36 36.0000000  0 16G 3G 4G16G22G26G29G31G32R 7R 8R 9R16
                                E 7E19E21E27
  21857732.691   114863160.412    21857732.012    89503755.357    21857731.298  
  21857734.389    85774444.031  
  23164358.911   121729527.971    23164356.428    94854164.913    23164355.892  
  23164362.021    90901932.437  
  21164166.453   111218446.105                    86663706.848    21164162.218  
                                
  22337431.616   117383995.845                    91468024.320    22337425.719  
                                
  20037156.471   105295968.617    20037155.864    82048802.912    20037155.470  
  20037156.793    78630107.881  
  24191928.889   127129444.389    24191926.172    99061890.962    24191925.386  
                                
  21428941.987   112609851.780    21428938.021    87747915.934    21428937.074  
                                
  23389447.006   122912373.142    23389446.774    95775869.912    23389445.988  
  23389448.114    91785218.233  
  19235015.387   102966543.138    19235012.885    80085078.445    19235011.885  
                                
  21861017.804   117064759.491    21861015.838    91050359.488    21861015.249  
                                
  19612043.355   104727217.511    19612040.711    81454492.112    19612039.764  
                                
  22255575.820   118885290.257    22255573.640    92466327.526    22255573.908  
                                
  26944045.348   141591914.009                                                  
  26944052.371   105734248.712  
  23973196.787   125980000.169                                                  
  23973200.593    94075988.913  
  23840171.042   125280945.167                                                  
  23840176.224    93553972.508  
  24155072.581   126935764.399                                                  
  24155077.817    94789712.811  
 21  8 31  2 36 37.0000000  0 16G 3G 4G16G22G26G29G31G32R 7R 8R 9R16
                                E 7E19E21E27
  21857805.311   114863542.075    21857804.650    89504052.764    21857803.917  
  21857807.026    85774729.039  
  23163777.900   121726474.821    23163775.416    94851785.844    23163774.880  
  23163781.027    90899652.496  
  21163654.220   111215754.300                    86661609.335    21163649.985  
                                
  22337729.832   117385562.864                    91469245.373    22337723.918  
                                
  20037155.667   105295964.395    20037155.060    82048799.624    20037154.649  
  20037155.989    78630104.730  
  24191993.431   127129783.520    24191990.715    99062155.220    24191989.911  
                                
  21429279.355   112611624.645    21429275.370    87749297.387    21429274.459  
                                
  23390015.331   122915359.715    23390015.080    95778197.116    23390014.312  
  23390016.403    91787448.477  
  19234938.407   102966131.032    19234935.888    80084757.923    19234934.887  
                                
  21860338.763   117061123.259    21860336.798    91047531.307    21860336.190  
                                
  19612246.490   104728302.328    19612243.864    81455335.855    19612242.916  
                                
  22256206.757   118888660.555    22256204.559    92468948.869    22256204.827  
                                
  26944536.192   141594493.310                                                  
  26944543.179   105736174.816  
  23972907.720   125978481.167                                                  
  23972911.526    94074854.606  
  23839970.909   125279893.511                                                  
  23839976.073    93553187.188  
  24155372.263   126937339.305                                                  
  24155377.498    94790888.884  
 21  8 31  2 36 38.0000000  0 16G 3G 4G16G22G26G29G31G32R 7R 8R 9R16
                                E 7E19E21E27
  21857878.020   114863924.119    21857877.359    89504350.464    21857876.626  
  21857879.736    85775014.330  
  23163196.871   121723421.516    23163194.405    94849406.641    23163193.869  
  23163199.998    90897372.431  
  21163142.040   111213062.748                    86659512.022    21163137.787  
                                
  22338028.048   117387130.074                    91470466.571    22338022.134  
                                
  20037154.952   105295960.524    20037154.327    82048796.603    20037153.934  
  20037155.256    78630101.838  
  24192058.028   127130123.009    24192055.330    99062419.755    24192054.508  
                                
  21429616.686   112613397.409    21429612.737    87750678.767    21429611.790  
                                
  23390583.673   122918346.300    23390583.423    95780524.330    23390582.654  
  23390584.745    91789678.714  
  19234861.517   102965719.503    19234859.015    80084437.843    19234858.014  
                                
  21859659.722   117057487.102    21859657.775    91044703.187    21859657.185  
                                
  19612449.679   104729387.314    19612447.052    81456179.738    19612446.105  
                                
  22256837.623   118892030.572    22256835.425    92471569.991    22256835.711  
                                
  26945027.001   141597072.538                                                  
  26945034.023   105738100.849  
  23972618.653   125976962.167                                                  
  23972622.477    94073720.284  
  23839770.812   125278841.948                                                  
  23839775.976    93552401.924  
  24155671.962   126938914.206                                                  
  24155677.198    94792064.945  
 21  8 31  2 36 39.0000000  0 16G 3G 4G16G22G26G29G31G32R 7R 8R 9R16
                                E 7E19E21E27
  21857950.890   114864307.059    21857950.211    89504648.842    21857949.496  
  21857952.588    85775300.283  
  23162615.913   121720368.560    23162613.430    94847027.700    23162612.893  
  23162619.058    90895092.615  
  21162630.003   111210371.961                    86657415.303    21162625.750  
                                
  22338326.425   117388698.038                    91471688.359    22338320.511  
                                
  20037154.363   105295957.510    20037153.755    82048794.260    20037153.344  
  20037154.666    78630099.587  
  24192122.785   127130463.320    24192120.087    99062684.930    24192119.301  
                                
  21429954.125   112615170.559    21429950.140    87752060.437    21429949.229  
                                
  23391152.104   122921333.410    23391151.890    95782851.948    23391151.086  
  23391153.176    91791909.337  
  19234784.841   102965309.033    19234782.321    80084118.583    19234781.321  
                                
  21858980.807   117053851.527    21858978.859    91041875.520    21858978.252  
                                
  19612652.993   104730472.974    19612650.330    81457024.129    19612649.419  
                                
  22257468.542   118895400.860    22257466.362    92474191.312    22257466.631  
                                
  26945517.881   141599652.138                                                  
  26945524.885   105740027.176  
  23972329.711   125975443.655                                                  
  23972333.535    94072586.330  
  23839570.822   125277790.973                                                  
  23839576.004    93551617.102  
  24155971.750   126940489.600                                                  
  24155976.986    94793241.375  
 21  8 31  2 36 40.0000000  0 16G 3G 4G16G22G26G29G31G32R 7R 8R 9R16
                                E 7E19E21E27
  21858023.885   114864690.756    21858023.242    89504947.824    21858022.491  
  21858025.618    85775586.807  
  23162035.009   121717315.797    23162032.525    94844648.922    23162031.989  
  23162038.118    90892812.946  
  21162118.073   111207681.761                    86655319.043    21162113.803  
                                
  22338624.910   117390266.535                    91472910.565    22338618.995  
                                
  20037153.916   105295955.195    20037153.308    82048792.451    20037152.933  
  20037154.238    78630097.858  
  24192187.686   127130804.329    24192184.987    99062950.647    24192184.201  
                                
  21430291.581   112616943.966    21430287.614    87753442.318    21430286.685  
                                
  23391720.589   122924320.839    23391720.357    95785179.813    23391719.553  
  23391721.661    91794140.219  
  19234708.344   102964899.462    19234705.824    80083800.028    19234704.823  
                                
  21858301.963   117050216.407    21858300.033    91039048.205    21858299.407  
                                
  19612856.414   104731559.168    19612853.769    81457868.949    19612852.822  
                                
  22258099.498   118898771.259    22258097.300    92476812.738    22258097.568  
                                
  26946008.814   141602232.029                                                  
  26946015.837   105741953.713  
  23972040.804   125973925.500                                                  
  23972044.628    94071452.654  
  23839370.921   125276740.446                                                  
  23839376.085    93550832.620  
  24156271.611   126942065.337                                                  
  24156276.846    94794418.060  
 21  8 31  2 36 41.0000000  0 16G 3G 4G16G22G26G29G31G32R 7R 8R 9R16
                                E 7E19E21E27
  21858097.076   114865075.277    21858096.415    89505247.456    21858095.665  
  21858098.774    85775873.950  
  23161454.141   121714263.308    23161451.657    94842270.365    23161451.121  
  23161457.250    90890533.492  
  21161606.269   111204992.254                    86653223.326    21161602.016  
                                
  22338923.519   117391835.682                    91474133.274    22338917.586  
                                
  20037153.648   105295953.684    20037153.022    82048791.273    20037152.629  
  20037153.969    78630096.734  
  24192252.747   127131146.140    24192250.031    99063216.993    24192249.226  
                                
  21430629.109   112618717.705    21430625.124    87754824.452    21430624.213  
                                
  23392289.164   122927308.727    23392288.931    95787508.039    23392288.163  
  23392290.254    91796371.425  
  19234632.007   102964490.938    19234629.505    80083482.287    19234628.505  
                                
  21857623.226   117046581.831    21857621.296    91036221.315    21857620.688  
                                
  19613059.942   104732645.994    19613057.279    81458714.260    19613056.350  
                                
  22258730.489   118902141.839    22258728.273    92479434.298    22258728.559  
                                
  26946499.837   141604812.269                                                  
  26946506.824   105743880.514  
  23971752.023   125972407.803                                                  
  23971755.811    94070319.296  
  23839171.092   125275690.459                                                  
  23839176.274    93550048.533  
  24156571.542   126943641.506                                                  
  24156576.778    94795595.069  
 21  8 31  2 36 42.0000000  0 16G 3G 4G16G22G26G29G31G32R 7R 8R 9R16
                                E 7E19E21E27
  21858170.125   114865459.188    21858169.446    89505546.607    21858168.731  
  21858171.840    85776160.637  
  23160873.022   121711209.642    23160870.539    94839890.883    23160869.985  
  23160876.150    90888253.180  
  21161094.321   111202302.002                    86651127.025    21161090.086  
                                
  22339221.967   117393404.051                    91475355.380    22339216.035  
                                
  20037153.237   105295951.518    20037152.611    82048789.588    20037152.218  
  20037153.541    78630095.121  
  24192317.647   127131487.269    24192314.949    99063482.811    24192314.145  
                                
  21430966.423   112620490.344    21430962.456    87756205.727    21430961.527  
                                
  23392857.559   122930295.629    23392857.327    95789835.500    23392856.541  
  23392858.632    91798601.912  
  19234555.617   102964082.010    19234553.115    80083164.232    19234552.097  
                                
  21856944.328   117042946.382    21856942.380    91033393.741    21856941.790  
                                
  19613263.309   104733731.988    19613260.665    81459558.923    19613259.717  
                                
  22259361.247   118905511.194    22259359.032    92482054.903    22259359.300  
                                
  26946990.628   141607391.408                                                  
  26946997.614   105745806.508  
  23971463.010   125970889.097                                                  
  23971466.816    94069185.201  
  23838971.120   125274639.563                                                  
  23838976.302    93549263.781  
  24156871.277   126945216.668                                                  
  24156876.531    94796771.335  
 21  8 31  2 36 43.0000000  0 16G 3G 4G16G22G26G29G31G32R 7R 8R 9R16
                                E 7E19E21E27
  21858243.459   114865844.481    21858242.763    89505846.840    21858242.048  
  21858245.157    85776448.353  
  23160292.101   121708156.841    23160289.635    94837512.084    23160289.081  
  23160295.228    90885973.479  
  21160582.624   111199612.994                    86649031.699    21160578.371  
                                
  22339520.648   117394973.611                    91476578.418    22339514.698  
                                
  20037153.076   105295950.700    20037152.451    82048788.953    20037152.058  
  20037153.380    78630094.503  
  24192382.833   127131829.764    24192380.117    99063749.692    24192379.313  
                                
  21431303.915   112622263.854    21431299.966    87757587.687    21431299.019  
                                
  23393426.134   122933283.519    23393425.902    95792163.733    23393425.115  
  23393427.224    91800833.123  
  19234479.531   102963674.696    19234477.011    80082847.437    19234476.011  
                                
  21856265.645   117039312.031    21856263.697    91030567.028    21856263.089  
                                
  19613466.909   104734819.169    19613464.246    81460404.508    19613463.335  
                                
  22259992.131   118908881.318    22259989.933    92484676.113    22259990.219  
                                
  26947481.579   141609971.451                                                  
  26947488.602   105747733.163  
  23971174.175   125969371.377                                                  
  23971177.999    94068051.850  
  23838771.362   125273589.746                                                  
  23838776.508    93548479.832  
  24157171.209   126946792.816                                                  
  24157176.462    94797948.326  
 21  8 31  2 36 44.0000000  0 16G 3G 4G16G22G26G29G31G32R 7R 8R 9R16
                                E 7E19E21E27
  21858316.883   114866230.446    21858316.222    89506147.592    21858315.490  
  21858318.599    85776736.576  
  23159711.179   121705104.131    23159708.695    94835133.361    23159708.159  
  23159714.324    90883693.869  
  21160071.016   111196924.508                    86646936.768    21160066.781  
                                
  22339819.418   117396543.667                    91477801.834    22339813.468  
                                
  20037153.022   105295950.515    20037152.415    82048788.809    20037152.004  
  20037153.344    78630094.365  
  24192448.109   127132172.871    24192445.410    99064017.055    24192444.606  
                                
  21431641.461   112624037.552    21431637.476    87758969.790    21431636.547  
                                
  23393994.762   122936271.683    23393994.512    95794492.161    23393993.743  
  23393995.834    91803064.546  
  19234403.605   102963268.267    19234401.104    80082531.323    19234400.085  
                                
  21855587.015   117035678.065    21855585.085    91027740.634    21855584.460  
                                
  19613670.598   104735906.824    19613667.935    81461250.476    19613666.988  
                                
  22260623.033   118912251.461    22260620.835    92487297.337    22260621.121  
                                
  26947972.584   141612551.691                                                  
  26947979.607   105749659.962  
  23970885.429   125967853.944                                                  
  23970889.235    94066918.691  
  23838571.658   125272540.317                                                  
  23838576.822    93547696.161  
  24157471.194   126948369.234                                                  
  24157476.429    94799125.522  
 21  8 31  2 36 45.0000000  0 16G 3G 4G16G22G26G29G31G32R 7R 8R 9R16
                                E 7E19E21E27
  21858390.593   114866617.688    21858389.914    89506449.337    21858389.181  
  21858392.291    85777025.748  
  23159130.417   121702052.167    23159127.952    94832755.209    23159127.415  
  23159133.545    90881414.796  
  21159559.640   111194237.166                    86644842.740    21159555.387  
                                
  22340118.402   117398114.815                    91479026.107    22340112.452  
                                
  20037153.219   105295951.548    20037152.611    82048789.613    20037152.200  
  20037153.541    78630095.139  
  24192513.634   127132517.190    24192510.936    99064285.356    24192510.132  
                                
  21431979.114   112625812.019    21431975.147    87760352.491    21431974.200  
                                
  23394563.569   122939260.756    23394563.336    95796821.304    23394562.550  
  23394564.659    91805296.628  
  19234327.948   102962863.315    19234325.446    80082216.365    19234324.428  
                                
  21854908.582   117032045.074    21854906.634    91024914.979    21854906.026  
                                
  19613874.483   104736995.562    19613871.821    81462097.269    19613870.892  
                                
  22261254.059   118915622.283    22261251.879    92489919.090    22261252.129  
                                
  26948463.732   141615132.706                                                  
  26948470.737   105751587.345  
  23970596.844   125966337.386                                                  
  23970600.651    94065786.194  
  23838372.132   125271491.856                                                  
  23838377.314    93546913.221  
  24157771.340   126949946.523                                                  
  24157776.593    94800303.365  
 21  8 31  2 36 46.0000000  0 16G 3G 4G16G22G26G29G31G32R 7R 8R 9R16
                                E 7E19E21E27
  21858464.428   114867005.733    21858463.749    89506751.707    21858463.034  
  21858466.125    85777315.524  
  23158549.710   121699000.479    23158547.244    94830377.268    23158546.690  
  23158552.837    90879135.926  
  21159048.390   111191550.500                    86642749.234    21159044.137  
                                
  22340417.512   117399686.593                    91480250.865    22340411.562  
                                
  20037153.576   105295953.367    20037152.951    82048791.031    20037152.558  
  20037153.880    78630096.497  
  24192579.303   127132862.276    24192576.587    99064554.253    24192575.783  
                                
  21432316.838   112627586.797    21432312.871    87761735.439    21432311.942  
                                
  23395132.465   122942250.240    23395132.233    95799150.770    23395131.428  
  23395133.537    91807529.035  
  19234252.505   102962459.369    19234249.985    80081902.181    19234248.985  
                                
  21854230.238   117028412.580    21854228.290    91022089.705    21854227.682  
                                
  19614078.476   104738084.869    19614075.814    81462944.510    19614074.884  
                                
  22261885.104   118918993.293    22261882.924    92492540.987    22261883.210  
                                
  26948954.951   141617714.073                                                  
  26948961.974   105753514.989  
  23970308.331   125964821.259                                                  
  23970312.137    94064654.026  
  23838172.714   125270443.912                                                  
  23838177.896    93546130.668  
  24158071.575   126951524.235                                                  
  24158076.811    94801481.527  
 21  8 31  2 36 47.0000000  0 16G 3G 4G16G22G26G29G31G32R 7R 8R 9R16
                                E 7E19E21E27
  21858538.352   114867394.190    21858537.673    89507054.405    21858536.940  
  21858540.050    85777605.601  
  23157968.949   121695948.602    23157966.465    94827999.185    23157965.929  
  23157972.094    90876856.941  
  21158537.175   111188864.089                    86640655.931    21158532.922  
                                
  22340716.657   117401258.604                    91481475.806    22340710.707  
                                
  20037153.987   105295955.556    20037153.380    82048792.739    20037152.969  
  20037154.291    78630098.128  
  24192645.043   127133207.722    24192642.327    99064823.437    24192641.523  
                                
  21432654.545   112629361.478    21432650.596    87763118.303    21432649.649  
                                
  23395701.343   122945239.736    23395701.093    95801480.242    23395700.324  
  23395702.397    91809761.460  
  19234177.133   102962055.989    19234174.632    80081588.438    19234173.631  
                                
  21853551.912   117024780.187    21853549.982    91019264.508    21853549.356  
                                
  19614282.487   104739174.367    19614279.842    81463791.895    19614278.913  
                                
  22262516.148   118922364.124    22262513.950    92495162.745    22262514.236  
                                
  26949446.171   141620295.346                                                  
  26949453.176   105755442.563  
  23970019.818   125963305.130                                                  
  23970023.624    94063521.855  
  23837973.313   125269396.070                                                  
  23837978.495    93545348.188  
  24158371.793   126953101.945                                                  
  24158377.046    94802659.684  
 21  8 31  2 36 48.0000000  0 16G 3G 4G16G22G26G29G31G32R 7R 8R 9R16
                                E 7E19E21E27
  21858612.365   114867783.224    21858611.686    89507357.542    21858610.972  
  21858614.063    85777896.125  
  23157388.188   121692896.767    23157385.722    94825621.136    23157385.168  
  23157391.315    90874577.989  
  21158026.049   111186178.123                    86638562.969    21158021.814  
                                
  22341015.874   117402831.010                    91482701.056    22341009.942  
                                
  20037154.506   105295958.279    20037153.880    82048794.859    20037153.487  
  20037154.809    78630100.170  
  24192710.873   127133553.688    24192708.174    99065093.025    24192707.370  
                                
  21432992.287   112631136.247    21432988.303    87764501.238    21432987.391  
                                
  23396270.257   122948229.428    23396270.025    95803809.859    23396269.238  
  23396271.311    91811994.029  
  19234101.923   102961653.384    19234099.421    80081275.301    19234098.420  
                                
  21852873.639   117021148.090    21852871.710    91016439.542    21852871.084  
                                
  19614486.605   104740264.246    19614483.942    81464639.579    19614483.013  
                                
  22263147.175   118925734.902    22263144.959    92497784.460    22263145.245  
                                
  26949937.373   141622876.730                                                  
  26949944.395   105757370.222  
  23969731.340   125961789.217                                                  
  23969735.164    94062389.841  
  23837773.967   125268348.516                                                  
  23837779.149    93544565.928  
  24158672.064   126954679.830                                                  
  24158677.299    94803837.986  
 21  8 31  2 36 49.0000000  0 16G 3G 4G16G22G26G29G31G32R 7R 8R 9R16
                                E 7E19E21E27
  21858686.611   114868173.268    21858685.932    89507661.475    21858685.182  
  21858688.309    85778187.385  
  23156807.534   121689845.399    23156805.068    94823243.446    23156804.514  
  23156810.661    90872299.365  
  21157515.102   111183493.018                    86636470.683    21157510.832  
                                
  22341315.234   117404404.233                    91483926.948    22341309.301  
                                
  20037155.202   105295961.959    20037154.577    82048797.731    20037154.184  
  20037155.524    78630102.914  
  24192776.881   127133900.633    24192774.165    99065363.370    24192773.361  
                                
  21433330.101   112632911.518    21433326.134    87765884.573    21433325.205  
                                
  23396839.296   122951219.737    23396839.064    95806139.983    23396838.277  
  23396840.350    91814227.054  
  19234026.944   102961251.973    19234024.442    80080963.093    19234023.442  
                                
  21852195.510   117017516.735    21852193.562    91013615.164    21852192.955  
                                
  19614690.848   104741354.901    19614688.185    81465487.866    19614687.256  
                                
  22263778.237   118929106.046    22263776.057    92500406.462    22263776.343  
                                
  26950428.717   141625458.616                                                  
  26950435.722   105759298.250  
  23969443.006   125960273.885                                                  
  23969446.794    94061258.260  
  23837574.763   125267301.652                                                  
  23837579.927    93543784.181  
  24158972.424   126956258.319                                                  
  24158977.678    94805016.728  
 21  8 31  2 36 50.0000000  0 16G 3G 4G16G22G26G29G31G32R 7R 8R 9R16
                                E 7E19E21E27
  21858760.929   114868563.829    21858760.249    89507965.805    21858759.517  
  21858762.626    85778479.035  
  23156226.862   121686794.007    23156224.414    94820865.745    23156223.878  
  23156230.007    90870020.721  
  21157004.209   111180808.297                    86634378.698    21156999.939  
                                
  22341614.683   117405977.795                    91485153.100    22341608.750  
                                
  20037155.989   105295966.120    20037155.381    82048800.973    20037154.970  
  20037156.292    78630106.030  
  24192842.978   127134248.045    24192840.280    99065634.088    24192839.494  
                                
  21433667.933   112634686.797    21433663.948    87767267.910    21433663.019  
                                
  23397408.335   122954210.157    23397408.103    95808470.185    23397407.317  
  23397409.407    91816460.179  
  19233952.091   102960851.275    19233949.589    80080651.443    19233948.571  
                                
  21851517.434   117013885.643    21851515.486    91010790.983    21851514.861  
                                
  19614895.144   104742445.881    19614892.482    81466336.408    19614891.570  
                                
  22264409.300   118932477.039    22264407.120    92503028.342    22264407.406  
                                
  26950920.026   141628040.555                                                  
  26950927.030   105761226.310  
  23969154.653   125958758.683                                                  
  23969158.442    94060126.799  
  23837375.595   125266255.022                                                  
  23837380.759    93543002.607  
  24159272.820   126957836.935                                                  
  24159278.074    94806195.563  
 21  8 31  2 36 51.0000000  0 16G 3G 4G16G22G26G29G31G32R 7R 8R 9R16
                                E 7E19E21E27
  21858835.353   114868955.058    21858834.674    89508270.657    21858833.959  
  21858837.068    85778771.189  
  23155646.244   121683742.723    23155643.760    94818488.130    23155643.224  
  23155649.353    90867742.176  
  21156493.423   111178124.110                    86632287.123    21156489.170  
                                
  22341914.204   117407551.848                    91486379.640    22341908.271  
                                
  20037156.918   105295970.915    20037156.292    82048804.712    20037155.881  
  20037157.204    78630109.617  
  24192909.219   127134596.068    24192906.503    99065905.276    24192905.699  
                                
  21434005.783   112636462.274    21434001.816    87768651.398    21434000.887  
                                
  23397977.481   122957200.897    23397977.249    95810800.637    23397976.463  
  23397978.536    91818693.513  
  19233877.398   102960451.464    19233874.897    80080340.481    19233873.878  
                                
  21850839.412   117010254.951    21850837.482    91007967.115    21850836.857  
                                
  19615099.548   104743537.338    19615096.885    81467185.317    19615095.956  
                                
  22265040.362   118935848.094    22265038.182    92505650.274    22265038.450  
                                
  26951411.406   141630622.685                                                  
  26951418.411   105763154.541  
  23968866.390   125957243.789                                                  
  23968870.179    94058995.538  
  23837176.498   125265208.774                                                  
  23837181.662    93542221.322  
  24159573.270   126959415.824                                                  
  24159578.523    94807374.610  
 21  8 31  2 36 52.0000000  0 16G 3G 4G16G22G26G29G31G32R 7R 8R 9R16
                                E 7E19E21E27
  21858909.813   114869346.305    21858909.134    89508575.525    21858908.419  
  21858911.511    85779063.349  
  23155065.483   121680690.903    23155062.999    94816110.084    23155062.463  
  23155068.610    90865463.220  
  21155982.619   111175439.806                    86630195.455    21155978.349  
                                
  22342213.706   117409125.742                    91487606.053    22342207.774  
                                
  20037157.829   105295975.710    20037157.204    82048808.448    20037156.811  
  20037158.115    78630113.189  
  24192975.441   127134944.076    24192972.725    99066176.451    24192971.921  
                                
  21434343.543   112638237.254    21434339.576    87770034.504    21434338.647  
                                
  23398546.520   122960191.249    23398546.288    95813130.784    23398545.502  
  23398547.557    91820926.579  
  19233802.759   102960051.856    19233800.240    80080029.677    19233799.239  
                                
  21850161.354   117006623.967    21850159.424    91005143.020    21850158.799  
                                
  19615303.898   104744628.571    19615301.235    81468034.056    19615300.306  
                                
  22265671.317   118939218.525    22265669.137    92508271.716    22265669.423  
                                
  26951902.679   141633204.357                                                  
  26951909.684   105765082.398  
  23968578.038   125955728.507                                                  
  23968581.844    94057863.995  
  23836977.348   125264162.244                                                  
  23836982.530    93541439.823  
  24159873.666   126960994.337                                                  
  24159878.920    94808553.361  
 21  8 31  2 36 53.0000000  0 16G 3G 4G16G22G26G29G31G32R 7R 8R 9R16
                                E 7E19E21E27
  21858984.220   114869737.197    21858983.541    89508880.116    21858982.790  
  21858985.917    85779355.245  
  23154484.579   121677638.167    23154482.095    94813731.328    23154481.559  
  23154487.688    90863183.588  
  21155471.708   111172754.991                    86628103.394    21155467.438  
                                
  22342513.120   117410699.082                    91488832.032    22342507.151  
                                
  20037158.651   105295980.073    20037158.044    82048811.850    20037157.633  
  20037158.955    78630116.454  
  24193041.593   127135291.664    24193038.859    99066447.299    24193038.090  
                                
  21434681.160   112640011.375    21434677.176    87771416.940    21434676.228  
                                
  23399115.434   122963180.851    23399115.184    95815460.346    23399114.416  
  23399116.471    91823159.074  
  19233728.067   102959652.057    19233725.547    80079718.727    19233724.547  
                                
  21849483.153   117002992.295    21849481.223    91002318.389    21849480.598  
                                
  19615508.141   104745719.229    19615505.478    81468882.348    19615504.549  
                                
  22266302.076   118942587.960    22266299.896    92510892.393    22266300.164  
                                
  26952393.791   141635785.178                                                  
  26952400.796   105767009.626  
  23968289.543   125954212.462                                                  
  23968293.349    94056731.888  
  23836778.072   125263115.045                                                  
  23836783.236    93540657.823  
  24160173.884   126962572.073                                                  
  24160179.155    94809731.544  
 21  8 31  2 36 54.0000000  0 16G 3G 4G16G22G26G29G31G32R 7R 8R 9R16
                                E 7E19E21E27
  21859059.002   114870130.158    21859058.323    89509186.326    21859057.572  
  21859060.681    85779648.709  
  23153903.961   121674587.006    23153901.477    94811353.801    23153900.941  
  23153907.070    90860905.124  
  21154961.172   111170072.133                    86626012.863    21154956.920  
                                
  22342812.872   117412274.341                    91490059.507    22342806.922  
                                
  20037159.866   105295986.509    20037159.241    82048816.867    20037158.848  
  20037160.170    78630121.261  
  24193108.119   127135641.330    24193105.403    99066719.773    24193104.634  
                                
  21435019.046   112641787.077    21435015.097    87772800.607    21435014.150  
                                
  23399684.670   122966172.181    23399684.438    95817791.252    23399683.651  
  23399685.706    91825392.842  
  19233653.803   102959254.583    19233651.301    80079409.581    19233650.301  
                                
  21848805.310   116999362.449    21848803.380    90999495.162    21848802.736  
                                
  19615712.741   104746811.786    19615710.079    81469732.124    19615709.132  
                                
  22266933.121   118945958.890    22266930.941    92513514.224    22266931.209  
                                
  26952885.207   141638367.607                                                  
  26952892.212   105768938.080  
  23968001.387   125952698.155                                                  
  23968005.175    94055601.067  
  23836579.136   125262069.654                                                  
  23836584.318    93539877.176  
  24160474.458   126964151.522                                                  
  24160479.694    94810911.003  
 21  8 31  2 36 55.0000000  0 16G 3G 4G16G22G26G29G31G32R 7R 8R 9R16
                                E 7E19E21E27
  21859133.909   114870523.911    21859133.230    89509493.149    21859132.515  
  21859135.606    85779942.741  
  23153323.360   121671536.051    23153320.876    94808976.436    23153320.340  
  23153326.487    90858626.814  
  21154450.762   111167389.921                    86623922.829    21154446.491  
                                
  22343112.750   117413850.193                    91491287.447    22343106.782  
                                
  20037161.242   105295993.680    20037160.617    82048822.460    20037160.224  
  20037161.546    78630126.615  
  24193174.806   127135991.701    24193172.090    99066992.787    24193171.286  
                                
  21435357.020   112643563.078    21435353.036    87774184.506    21435352.106  
                                
  23400253.959   122969163.874    23400253.709    95820122.440    23400252.941  
  23400255.013    91827626.905  
  19233579.736   102958858.070    19233577.234    80079101.184    19233576.216  
                                
  21848127.538   116995733.074    21848125.608    90996672.316    21848124.964  
                                
  19615917.431   104747904.949    19615914.786    81470582.362    19615913.857  
                                
  22267564.201   118949329.966    22267562.003    92516136.175    22267562.289  
                                
  26953376.695   141640950.324                                                  
  26953383.682   105770866.730  
  23967713.302   125951184.217                                                  
  23967717.091    94054470.527  
  23836380.290   125261024.743                                                  
  23836385.472    93539096.884  
  24160775.087   126965731.329                                                  
  24160780.322    94812090.729  
 21  8 31  2 36 56.0000000  0 16G 3G 4G16G22G26G29G31G32R 7R 8R 9R16
                                E 7E19E21E27
  21859208.923   114870918.046    21859208.226    89509800.269    21859207.511  
  21859210.602    85780237.065  
  23152742.778   121668484.932    23152740.294    94806598.945    23152739.758  
  23152745.869    90856348.383  
  21153940.404   111164707.947                    86621832.982    21153936.152  
                                
  22343412.646   117415426.238                    91492515.530    22343406.714  
                                
  20037162.654   105296001.181    20037162.028    82048828.307    20037161.635  
  20037162.958    78630132.220  
  24193241.547   127136342.399    24193238.831    99067266.056    24193238.027  
                                
  21435694.959   112645338.954    21435690.975    87775568.310    21435690.045  
                                
  23400823.266   122972155.568    23400823.016    95822453.625    23400822.230  
  23400824.320    91829860.962  
  19233505.758   102958462.127    19233503.257    80078793.226    19233502.256  
                                
  21847449.783   116992103.806    21847447.854    90993849.557    21847447.228  
                                
  19616122.174   104748998.263    19616119.512    81471432.722    19616118.600  
                                
  22268195.228   118952700.803    22268193.048    92518757.937    22268193.316  
                                
  26953868.147   141643532.949                                                  
  26953875.133   105772795.306  
  23967425.182   125949670.262                                                  
  23967428.988    94053339.976  
  23836181.461   125259979.907                                                  
  23836186.643    93538316.653  
  24161075.715   126967311.122                                                  
  24161080.951    94813270.447  
 21  8 31  2 36 57.0000000  0 16G 3G 4G16G22G26G29G31G32R 7R 8R 9R16
                                E 7E19E21E27
  21859284.062   114871312.890    21859283.365    89510107.941    21859282.650  
  21859285.742    85780531.916  
  23152162.178   121665433.957    23152159.694    94804221.564    23152159.158  
  23152165.269    90854070.070  
  21153430.154   111162026.551                    86619743.584    21153425.884  
                                
  22343712.685   117417002.814                    91493744.036    22343706.717  
                                
  20037164.226   105296009.353    20037163.583    82048834.675    20037163.190  
  20037164.530    78630138.323  
  24193308.413   127136693.788    24193305.679    99067539.868    24193304.910  
                                
  21436032.934   112647115.043    21436028.949    87776952.269    21436028.038  
                                
  23401392.627   122975147.596    23401392.377    95824785.075    23401391.608  
  23401393.663    91832095.267  
  19233431.977   102958067.095    19233429.475    80078485.977    19233428.457  
                                
  21846772.119   116988474.968    21846770.189    90991027.130    21846769.563  
                                
  19616327.025   104750092.094    19616324.362    81472283.479    19616323.415  
                                
  22268826.272   118956071.754    22268824.092    92521379.790    22268824.378  
                                
  26954359.652   141646115.798                                                  
  26954366.621   105774724.063  
  23967137.151   125948156.627                                                  
  23967140.958    94052209.666  
  23835982.722   125258935.495                                                  
  23835987.904    93537536.735  
  24161376.379   126968891.234                                                  
  24161381.651    94814450.403  
 21  8 31  2 36 58.0000000  0 16G 3G 4G16G22G26G29G31G32R 7R 8R 9R16
                                E 7E19E21E27
  21859359.344   114871708.483    21859358.647    89510416.197    21859357.897  
  21859361.024    85780827.331  
  23151581.649   121662383.210    23151579.165    94801844.363    23151578.629  
  23151584.758    90851791.902  
  21152920.012   111159345.756                    86617654.653    21152915.741  
                                
  22344012.795   117418579.963                    91494972.985    22344006.845  
                                
  20037165.924   105296018.259    20037165.281    82048841.613    20037164.905  
  20037166.210    78630144.971  
  24193375.404   127137045.840    24193372.688    99067814.189    24193371.901  
                                
  21436370.962   112648891.388    21436366.978    87778336.436    21436366.048  
                                
  23401962.059   122978139.976    23401961.827    95827116.803    23401961.040  
  23401963.113    91834329.832  
  19233358.339   102957672.997    19233355.855    80078179.456    19233354.854  
                                
  21846094.561   116984846.576    21846092.631    90988205.047    21846091.988  
                                
  19616531.964   104751186.446    19616529.302    81473134.644    19616528.355  
                                
  22269457.352   118959442.832    22269455.172    92524001.735    22269455.458  
                                
  26954851.211   141648698.923                                                  
  26954858.198   105776653.019  
  23966849.192   125946643.358                                                  
  23966852.998    94051079.637  
  23835784.054   125257891.527                                                  
  23835789.236    93536757.153  
  24161677.133   126970471.687                                                  
  24161682.386    94815630.613  
 21  8 31  2 36 59.0000000  0 16G 3G 4G16G22G26G29G31G32R 7R 8R 9R16
                                E 7E19E21E27
  21859434.734   114872104.731    21859434.055    89510724.966    21859433.322  
  21859436.413    85781123.232  
  23151001.138   121659332.529    23150998.654    94799467.213    23150998.100  
  23151004.229    90849513.798  
  21152409.958   111156665.492                    86615566.138    21152405.706  
                                
  22344313.013   117420157.590                    91496202.298    22344307.044  
                                
  20037167.711   105296027.738    20037167.085    82048849.001    20037166.692  
  20037168.015    78630152.049  
  24193442.520   127137398.510    24193439.804    99068089.002    24193439.018  
                                
  21436709.026   112650667.871    21436705.042    87779720.708    21436704.095  
                                
  23402531.545   122981132.606    23402531.312    95829448.726    23402530.526  
  23402532.599    91836564.592  
  19233284.897   102957279.741    19233282.396    80077873.583    19233281.377  
                                
  21845417.039   116981218.504    21845415.109    90985383.202    21845414.466  
                                
  19616736.976   104752281.231    19616734.313    81473986.127    19616733.384  
                                
  22270088.433   118962813.926    22270086.253    92526623.681    22270086.539  
                                
  26955342.788   141651282.203                                                  
  26955349.774   105778582.103  
  23966561.269   125945130.333                                                  
  23966565.057    94049949.776  
  23835585.476   125256847.902                                                  
  23835590.658    93535977.816  
  24161977.940   126972052.392                                                  
  24161983.194    94816811.006  
 21  8 31  2 37  0.0000000  0 16G 3G 4G16G22G26G29G31G32R 7R 8R 9R16
                                E 7E19E21E27
  21859510.302   114872501.797    21859509.623    89511034.370    21859508.872  
  21859511.981    85781419.745  
  23150420.663   121656282.143    23150418.179    94797090.285    23150417.643  
  23150423.772    90847235.912  
  21151900.066   111153985.892                    86613478.138    21151895.795  
                                
  22344613.355   117421735.854                    91497432.114    22344607.369  
                                
  20037169.676   105296038.026    20037169.069    82048857.017    20037168.658  
  20037169.980    78630159.728  
  24193509.779   127137751.962    24193507.063    99068364.417    24193506.294  
                                
  21437047.126   112652444.691    21437043.159    87781105.241    21437042.212  
                                
  23403101.102   122984125.682    23403100.852    95831780.993    23403100.101  
  23403102.138    91838799.684  
  19233211.616   102956887.529    19233209.133    80077568.529    19233208.114  
                                
  21844739.624   116977590.965    21844737.677    90982561.782    21844737.051  
                                
  19616942.112   104753376.645    19616939.432    81474838.114    19616938.520  
                                
  22270719.531   118966185.193    22270717.369    92529245.775    22270717.655  
                                
  26955834.436   141653865.844                                                  
  26955841.441   105780511.435  
  23966273.434   125943617.748                                                  
  23966277.240    94048820.248  
  23835386.969   125255804.815                                                  
  23835392.151    93535198.889  
  24162278.819   126973633.526                                                  
  24162284.072    94817991.718  
 21  8 31  2 37  1.0000000  0 16G 3G 4G16G22G26G29G31G32R 7R 8R 9R16
                                E 7E19E21E27
  21859585.959   114872899.406    21859585.262    89511344.198    21859584.512  
  21859587.639    85781716.672  
  23149840.187   121653231.757    23149837.704    94794713.366    23149837.167  
  23149843.279    90844958.036  
  21151390.227   111151306.720                    86611390.476    21151385.956  
                                
  22344913.751   117423314.478                    91498662.211    22344907.765  
                                
  20037171.731   105296048.816    20037171.106    82048865.425    20037170.713  
  20037172.035    78630167.789  
  24193577.145   127138105.903    24193574.429    99068640.213    24193573.643  
                                
  21437385.262   112654221.570    21437381.295    87782489.820    21437380.348  
                                
  23403670.695   122987118.919    23403670.445    95834113.381    23403669.676  
  23403671.714    91841034.900  
  19233138.496   102956496.075    19233136.012    80077264.066    19233134.994  
                                
  21844062.228   116973963.661    21844060.298    90979740.549    21844059.672  
                                
  19617147.320   104754472.401    19617144.658    81475690.374    19617143.710  
                                
  22271350.629   118969556.364    22271348.467    92531867.795    22271348.735  
                                
  26956326.084   141656449.531                                                  
  26956333.071   105782440.825  
  23965985.636   125942105.321                                                  
  23965989.424    94047690.847  
  23835188.533   125254761.982                                                  
  23835193.715    93534420.157  
  24162579.733   126975214.812                                                  
  24162584.969    94819172.549  
 21  8 31  2 37  2.0000000  0 16G 3G 4G16G22G26G29G31G32R 7R 8R 9R16
                                E 7E19E21E27
  21859661.706   114873297.549    21859661.027    89511654.441    21859660.294  
  21859663.421    85782013.980  
  23149259.712   121650181.334    23149257.210    94792336.414    23149256.692  
  23149262.803    90842680.129  
  21150880.459   111148627.915                    86609303.100    21150876.206  
                                
  22345214.219   117424893.452                    91499892.578    22345208.251  
                                
  20037173.876   105296060.093    20037173.250    82048874.208    20037172.857  
  20037174.179    78630176.213  
  24193644.583   127138460.341    24193641.867    99068916.400    24193641.080  
                                
  21437723.397   112655998.458    21437719.412    87783874.410    21437718.483  
                                
  23404240.306   122990112.279    23404240.074    95836445.874    23404239.305  
  23404241.342    91843270.199  
  19233065.501   102956105.316    19233063.000    80076960.141    19233061.981  
                                
  21843384.920   116970336.612    21843382.972    90976919.510    21843382.347  
                                
  19617352.564   104755568.465    19617349.919    81476542.870    19617348.972  
                                
  22271981.691   118972927.392    22271979.511    92534489.705    22271979.797  
                                
  26956817.768   141659033.266                                                  
  26956824.773   105784370.231  
  23965697.837   125940593.039                                                  
  23965701.643    94046561.550  
  23834990.116   125253719.370                                                  
  23834995.298    93533641.581  
  24162880.665   126976796.210                                                  
  24162885.901    94820353.469  
 21  8 31  2 37  3.0000000  0 16G 3G 4G16G22G26G29G31G32R 7R 8R 9R16
                                E 7E19E21E27
  21859737.596   114873696.349    21859736.917    89511965.197    21859736.166  
  21859739.293    85782311.798  
  23148679.237   121647131.033    23148676.753    94789959.555    23148676.217  
  23148682.346    90840402.318  
  21150370.817   111145949.644                    86607216.134    21150366.528  
                                
  22345514.776   117426472.907                    91501123.325    22345508.808  
                                
  20037176.127   105296071.983    20037175.520    82048883.473    20037175.109  
  20037176.431    78630185.103  
  24193712.146   127138815.382    24193709.429    99069193.056    24193708.643  
                                
  21438061.551   112657775.522    21438057.584    87785259.137    21438056.637  
                                
  23404809.988   122993105.942    23404809.756    95838778.599    23404808.970  
  23404811.007    91845505.731  
  19232992.649   102955715.408    19232990.148    80076656.882    19232989.165  
                                
  21842707.666   116966709.960    21842705.736    90974098.786    21842705.093  
                                
  19617557.914   104756664.977    19617555.252    81477395.710    19617554.305  
                                
  22272612.772   118976298.501    22272610.592    92537111.686    22272610.878  
                                
  26957309.470   141661617.183                                                  
  26957316.439   105786299.790  
  23965410.110   125939081.026                                                  
  23965413.916    94045432.452  
  23834791.805   125252677.136                                                  
  23834796.952    93532863.294  
  24163181.633   126978377.878                                                  
  24163186.887    94821534.591  
 21  8 31  2 37  4.0000000  0 16G 3G 4G16G22G26G29G31G32R 7R 8R 9R16
                                E 7E19E21E27
  21859813.611   114874095.695    21859812.914    89512276.365    21859812.163  
  21859815.290    85782609.989  
  23148098.780   121644080.733    23148096.296    94787582.702    23148095.760  
  23148101.889    90838124.494  
  21149861.210   111143271.751                    86605129.457    21149856.957  
                                
  22345815.404   117428052.700                    91502354.329    22345809.436  
                                
  20037178.486   105296084.369    20037177.860    82048893.129    20037177.467  
  20037178.807    78630194.350  
  24193779.780   127139170.900    24193777.082    99069470.085    24193776.313  
                                
  21438399.722   112659552.615    21438395.755    87786643.885    21438394.808  
                                
  23405379.688   122996099.702    23405379.420    95841111.389    23405378.652  
  23405380.707    91847741.337  
  19232919.958   102955326.224    19232917.456    80076354.188    19232916.438  
                                
  21842030.448   116963083.563    21842028.500    90971278.268    21842027.893  
                                
  19617763.301   104757761.810    19617760.638    81478248.802    19617759.709  
                                
  22273243.816   118979669.490    22273241.636    92539733.573    22273241.922  
                                
  26957801.172   141664201.150                                                  
  26957808.159   105788229.360  
  23965122.437   125937569.154                                                  
  23965126.225    94044303.452  
  23834593.513   125251635.107                                                  
  23834598.677    93532085.160  
  24163482.637   126979959.672                                                  
  24163487.890    94822715.794  
 21  8 31  2 37  5.0000000  0 16G 3G 4G16G22G26G29G31G32R 7R 8R 9R16
                                E 7E19E21E27
  21859889.715   114874495.716    21859889.036    89512588.069    21859888.303  
  21859891.430    85782908.698  
  23147518.358   121641030.562    23147515.874    94785205.947    23147515.338  
  23147521.485    90835846.755  
  21149351.747   111140594.431                    86603043.234    21149347.458  
                                
  22346116.122   117429633.012                    91503585.739    22346110.172  
                                
  20037180.970   105296097.410    20037180.362    82048903.293    20037179.951  
  20037181.273    78630204.082  
  24193847.575   127139527.083    24193844.859    99069747.630    24193844.090  
                                
  21438737.947   112661329.905    21438733.944    87788028.789    21438733.015  
                                
  23405949.460   122999093.822    23405949.228    95843444.477    23405948.441  
  23405950.479    91849977.178  
  19232847.410   102954937.927    19232844.926    80076052.182    19232843.908  
                                
  21841353.319   116959457.581    21841351.390    90968458.063    21841350.746  
                                
  19617968.795   104758859.129    19617966.150    81479102.275    19617965.203  
                                
  22273874.879   118983040.536    22273872.699    92542355.498    22273872.985  
                                
  26958292.946   141666785.331                                                  
  26958299.914   105790159.099  
  23964834.781   125936057.585                                                  
  23964838.588    94043174.669  
  23834395.310   125250593.501                                                  
  23834400.474    93531307.324  
  24163783.694   126981541.762                                                  
  24163788.966    94823897.219  
 21  8 31  2 37  6.0000000  0 16G 3G 4G16G22G26G29G31G32R 7R 8R 9R16
                                E 7E19E21E27
  21859965.980   114874896.489    21859965.301    89512900.359    21859964.532  
  21859967.659    85783207.987  
  23146937.990   121637980.602    23146935.506    94782829.355    23146934.970  
  23146941.081    90833569.186  
  21148842.390   111137917.718                    86600957.483    21148838.119  
                                
  22346416.965   117431213.905                    91504817.602    22346410.997  
                                
  20037183.578   105296111.173    20037182.971    82048914.017    20037182.560  
  20037183.882    78630214.359  
  24193915.495   127139883.968    24193912.779    99070025.720    24193912.011  
                                
  21439076.189   112663107.444    21439072.205    87789413.884    21439071.275  
                                
  23406519.250   123002088.253    23406519.017    95845777.807    23406518.231  
  23406520.268    91852213.312  
  19232775.058   102954550.581    19232772.557    80075750.910    19232771.538  
                                
  21840676.280   116955832.051    21840674.332    90965638.206    21840673.707  
                                
  19618174.396   104759956.988    19618171.715    81479956.165    19618170.804  
                                
  22274505.977   118986411.752    22274503.797    92544977.550    22274504.083  
                                
  26958784.755   141669369.776                                                  
  26958791.741   105792089.046  
  23964547.215   125934546.373                                                  
  23964551.021    94042046.178  
  23834197.160   125249552.335                                                  
  23834202.342    93530529.841  
  24164084.823   126983124.198                                                  
  24164090.076    94825078.915  
 21  8 31  2 37  7.0000000  0 16G 3G 4G16G22G26G29G31G32R 7R 8R 9R16
                                E 7E19E21E27
  21860042.352   114875297.807    21860041.655    89513213.075    21860040.922  
  21860044.032    85783507.677  
  23146357.568   121634930.606    23146355.085    94780452.735    23146354.549  
  23146360.660    90831291.611  
  21148333.105   111135241.404                    86598872.046    21148328.816  
                                
  22346717.879   117432795.138                    91506049.731    22346711.893  
                                
  20037186.312   105296125.417    20037185.669    82048925.116    20037185.294  
  20037186.616    78630225.004  
  24193983.505   127140241.342    24193980.788    99070304.187    24193980.002  
                                
  21439414.450   112664885.039    21439410.465    87790799.025    21439409.536  
                                
  23407089.146   123005082.890    23407088.878    95848111.290    23407088.128  
  23407090.147    91854449.554  
  19232702.832   102954163.973    19232700.330    80075450.218    19232699.311  
                                
  21839999.276   116952206.757    21839997.329    90962818.533    21839996.703  
                                
  19618380.050   104761055.166    19618377.370    81480810.304    19618376.459  
                                
  22275137.057   118989782.867    22275134.877    92547599.533    22275135.145  
                                
  26959276.564   141671954.291                                                  
  26959283.551   105794019.031  
  23964259.667   125933035.314                                                  
  23964263.473    94040917.792  
  23833999.100   125248511.419                                                  
  23834004.264    93529752.536  
  24164385.987   126984706.779                                                  
  24164391.223    94826260.714  
 21  8 31  2 37  8.0000000  0 16G 3G 4G16G22G26G29G31G32R 7R 8R 9R16
                                E 7E19E21E27
  21860118.831   114875699.674    21860118.152    89513526.218    21860117.384  
  21860120.511    85783807.759  
  23145777.165   121631880.626    23145774.699    94778076.127    23145774.145  
  23145780.292    90829014.022  
  21147823.891   111132565.498                    86596786.922    21147819.621  
                                
  22347018.847   117434376.745                    91507282.154    22347012.861  
                                
  20037189.118   105296140.171    20037188.475    82048936.613    20037188.099  
  20037189.422    78630236.018  
  24194051.603   127140599.195    24194048.887    99070583.036    24194048.101  
                                
  21439752.729   112666662.651    21439748.744    87792184.176    21439747.797  
                                
  23407659.025   123008077.665    23407658.793    95850444.874    23407658.024  
  23407660.044    91856685.894  
  19232630.748   102953778.125    19232628.246    80075150.116    19232627.246  
                                
  21839322.308   116948581.699    21839320.379    90959999.043    21839319.735  
                                
  19618585.758   104762153.675    19618583.078    81481664.700    19618582.167  
                                
  22275768.120   118993153.889    22275765.940    92550221.444    22275766.225  
                                
  26959768.391   141674538.851                                                  
  26959775.378   105795949.059  
  23963972.154   125931524.414                                                  
  23963975.960    94039789.511  
  23833801.057   125247470.746                                                  
  23833806.221    93528975.410  
  24164687.170   126986289.500                                                  
  24164692.405    94827442.612  
 21  8 31  2 37  9.0000000  0 16G 3G 4G16G22G26G29G31G32R 7R 8R 9R16
                                E 7E19E21E27
  21860195.400   114876102.136    21860194.721    89513839.823    21860193.988  
  21860197.115    85784108.301  
  23145196.797   121628830.710    23145194.313    94775699.585    23145193.795  
  23145199.924    90826736.494  
  21147314.767   111129890.068                    86594702.178    21147310.497  
                                
  22347319.905   117435958.791                    91508514.924    22347313.918  
                                
  20037192.031   105296155.512    20037191.405    82048948.565    20037191.012  
  20037192.334    78630247.472  
  24194119.809   127140957.615    24194117.111    99070862.328    24194116.325  
                                
  21440091.025   112668440.405    21440087.040    87793569.440    21440086.093  
                                
  23408228.958   123011072.663    23408228.725    95852778.634    23408227.957  
  23408229.976    91858922.418  
  19232558.825   102953393.084    19232556.323    80074850.639    19232555.305  
                                
  21838645.430   116944956.994    21838643.482    90957179.828    21838642.857  
                                
  19618791.556   104763252.602    19618788.876    81482519.427    19618787.964  
                                
  22276399.182   118996524.879    22276397.002    92552843.315    22276397.288  
                                
  26960260.253   141677123.548                                                  
  26960267.222   105797879.197  
  23963684.677   125930013.730                                                  
  23963688.484    94038661.419  
  23833603.086   125246430.399                                                  
  23833608.268    93528198.523  
  24164988.406   126987872.435                                                  
  24164993.641    94828624.687  
 21  8 31  2 37 10.0000000  0 16G 3G 4G16G22G26G29G31G32R 7R 8R 9R16
                                E 7E19E21E27
  21860272.130   114876505.288    21860271.451    89514153.969    21860270.682  
  21860273.809    85784409.365  
  23144616.447   121625780.923    23144613.963    94773323.128    23144613.427  
  23144619.538    90824459.064  
  21146805.750   111127215.168                    86592617.843    21146801.480  
                                
  22347621.051   117437541.339                    91509748.076    22347615.065  
                                
  20037195.086   105296171.496    20037194.443    82048961.023    20037194.068  
  20037195.372    78630259.406  
  24194188.123   127141316.697    24194185.424    99071142.137    24194184.656  
                                
  21440429.357   112670218.340    21440425.354    87794954.845    21440424.425  
                                
  23408798.944   123014067.957    23408798.711    95855112.627    23408797.943  
  23408799.962    91861159.157  
  19232487.063   102953008.912    19232484.561    80074551.841    19232483.543  
                                
  21837968.605   116941332.690    21837966.675    90954360.925    21837966.032  
                                
  19618997.425   104764351.984    19618994.780    81483374.503    19618993.833  
                                
  22277030.244   118999895.933    22277028.082    92555465.249    22277028.350  
                                
  26960752.152   141679708.442                                                  
  26960759.103   105799809.485  
  23963397.272   125928503.343                                                  
  23963401.060    94037533.539  
  23833405.169   125245390.428                                                  
  23833410.351    93527421.923  
  24165289.678   126989455.661                                                  
  24165294.931    94829806.960  
 21  8 31  2 37 11.0000000  0 16G 3G 4G16G22G26G29G31G32R 7R 8R 9R16
                                E 7E19E21E27
  21860349.020   114876909.286    21860348.323    89514468.775    21860347.573  
  21860350.700    85784711.049  
  23144036.150   121622731.429    23144033.666    94770946.904    23144033.130  
  23144039.241    90822181.839  
  21146296.876   111124540.979                    86590534.055    21146292.606  
                                
  22347922.323   117439124.524                    91510981.727    22347916.319  
                                
  20037198.267   105296188.264    20037197.641    82048974.086    20037197.248  
  20037198.571    78630271.925  
  24194256.615   127141676.549    24194253.916    99071422.543    24194253.130  
                                
  21440767.743   112671996.604    21440763.740    87796340.503    21440762.811  
                                
  23409369.037   123017063.694    23409368.769    95857446.968    23409368.019  
  23409370.038    91863396.232  
  19232415.480   102952625.781    19232412.996    80074253.848    19232411.978  
                                
  21837291.905   116937708.939    21837289.957    90951542.452    21837289.332  
                                
  19619203.419   104765451.978    19619200.774    81484230.056    19619199.827  
                                
  22277661.343   119003267.206    22277659.163    92558087.352    22277659.466  
                                
  26961244.104   141682293.688                                                  
  26961251.055   105801740.022  
  23963109.920   125926993.393                                                  
  23963113.726    94036405.979  
  23833207.395   125244351.005                                                  
  23833212.541    93526645.733  
  24165591.021   126991039.312                                                  
  24165596.292    94830989.554  
 21  8 31  2 37 12.0000000  0 16G 3G 4G16G22G26G29G31G32R 7R 8R 9R16
                                E 7E19E21E27
  21860425.982   114877313.755    21860425.303    89514783.948    21860424.535  
  21860427.662    85785013.084  
  23143455.818   121619681.848    23143453.334    94768570.599    23143452.798  
  23143458.927    90819904.571  
  21145788.056   111121867.113                    86588450.520    21145783.785  
                                
  22348223.648   117440708.019                    91512215.620    22348217.662  
                                
  20037201.537   105296205.465    20037200.911    82048987.490    20037200.518  
  20037201.841    78630284.775  
  24194325.178   127142036.837    24194322.480    99071703.290    24194321.694  
                                
  21441106.128   112673774.845    21441102.144    87797726.144    21441101.196  
                                
  23409939.112   123020059.517    23409938.862    95859781.371    23409938.094  
  23409940.113    91865633.381  
  19232344.040   102952243.319    19232341.556    80073956.378    19232340.537  
                                
  21836615.223   116934085.373    21836613.275    90948724.123    21836612.632  
                                
  19619409.485   104766552.271    19619406.804    81485085.839    19619405.857  
                                
  22278292.441   119006638.342    22278290.261    92560709.349    22278290.564  
                                
  26961736.056   141684878.952                                                  
  26961743.043   105803670.570  
  23962822.622   125925483.546                                                  
  23962826.410    94035278.498  
  23833009.620   125243311.753                                                  
  23833014.802    93525869.666  
  24165892.418   126992623.040                                                  
  24165897.653    94832172.215  
 21  8 31  2 37 13.0000000  0 16G 3G 4G16G22G26G29G31G32R 7R 8R 9R16
                                E 7E19E21E27
  21860503.140   114877719.146    21860502.426    89515099.835    21860501.675  
  21860504.820    85785315.815  
  23142875.593   121616632.680    23142873.109    94766194.625    23142872.573  
  23142878.684    90817627.576  
  21145279.396   111119194.065                    86586367.628    21145275.108  
                                
  22348525.117   117442292.249                    91513450.082    22348519.130  
                                
  20037204.986   105296223.565    20037204.360    82049001.593    20037203.967  
  20037205.289    78630298.284  
  24194393.884   127142398.009    24194391.186    99071984.727    24194390.418  
                                
  21441444.585   112675553.517    21441440.601    87799112.123    21441439.672  
                                
  23410509.295   123023055.882    23410509.063    95862116.198    23410508.294  
  23410510.296    91867870.920  
  19232272.814   102951861.984    19232270.312    80073659.782    19232269.293  
                                
  21835938.684   116930462.429    21835936.718    90945906.280    21835936.075  
                                
  19619615.657   104767653.263    19619612.995    81485942.167    19619612.048  
                                
  22278923.575   119010009.755    22278921.395    92563331.564    22278921.698  
                                
  26962228.097   141687464.629                                                  
  26962235.084   105805601.433  
  23962535.413   125923974.227                                                  
  23962539.202    94034151.403  
  23832811.989   125242273.128                                                  
  23832817.153    93525094.065  
  24166193.868   126994207.293                                                  
  24166199.139    94833355.256  
 21  8 31  2 37 14.0000000  0 16G 3G 4G16G22G26G29G31G32R 7R 8R 9R16
                                E 7E19E21E27
  21860580.370   114878125.168    21860579.691    89515416.214    21860578.923  
  21860582.050    85785619.020  
  23142295.350   121613583.542    23142292.848    94763818.675    23142292.312  
  23142298.423    90815350.652  
  21144770.826   111116521.481                    86584285.100    21144766.537  
                                
  22348826.674   117443876.945                    91514684.908    22348820.688  
                                
  20037208.524   105296242.246    20037207.916    82049016.152    20037207.505  
  20037208.827    78630312.240  
  24194462.734   127142759.748    24194460.036    99072266.597    24194459.249  
                                
  21441783.078   112677332.318    21441779.094    87800498.201    21441778.147  
                                
  23411079.531   123026052.482    23411079.281    95864451.218    23411078.531  
  23411080.532    91870108.656  
  19232201.695   102951481.457    19232199.229    80073363.820    19232198.210  
                                
  21835262.181   116926839.845    21835260.233    90943088.721    21835259.590  
                                
  19619821.902   104768754.650    19619819.239    81486798.801    19619818.310  
                                
  22279554.708   119013381.203    22279552.528    92565953.804    22279552.814  
                                
  26962720.157   141690050.462                                                  
  26962727.108   105807532.421  
  23962248.222   125922465.158                                                  
  23962252.029    94033024.503  
  23832614.393   125241234.835                                                  
  23832619.575    93524318.732  
  24166495.390   126995791.787                                                  
  24166500.643    94834538.484  
 21  8 31  2 37 15.0000000  0 16G 3G 4G16G22G26G29G31G32R 7R 8R 9R16
                                E 7E19E21E27
  21860657.564   114878530.753    21860656.868    89515732.258    21860656.117  
  21860659.244    85785921.888  
  23141714.928   121610533.449    23141712.427    94761441.991    23141711.908  
  23141718.037    90813072.984  
  21144262.131   111113848.319                    86582202.116    21144257.842  
                                
  22349128.125   117445461.028                    91515919.260    22349122.121  
                                
  20037211.990   105296260.439    20037211.365    82049030.333    20037210.972  
  20037212.294    78630325.840  
  24194531.476   127143121.019    24194528.778    99072548.109    24194527.992  
                                
  21442121.393   112679110.177    21442117.408    87801883.548    21442116.461  
                                
  23411649.625   123029048.252    23411649.357    95866785.580    23411648.588  
  23411650.590    91872345.756  
  19232130.576   102951100.669    19232128.074    80073067.650    19232127.056  
                                
  21834585.534   116923216.491    21834583.586    90940270.560    21834582.943  
                                
  19620028.057   104769855.386    19620025.376    81487654.934    19620024.429  
                                
  22280185.646   119016751.542    22280183.466    92568575.186    22280183.752  
                                
  26963212.055   141692635.374                                                  
  26963219.006   105809462.714  
  23961960.889   125920955.246                                                  
  23961964.695    94031896.973  
  23832416.673   125240195.806                                                  
  23832421.837    93523542.833  
  24166796.733   126997375.426                                                  
  24166802.004    94835721.072  
 21  8 31  2 37 16.0000000  0 16G 3G 4G16G22G26G29G31G32R 7R 8R 9R16
                                E 7E19E21E27
  21860735.080   114878938.063    21860734.383    89516049.641    21860733.633  
  21860736.760    85786226.035  
  23141134.757   121607484.537    23141132.255    94759066.222    23141131.737  
  23141137.848    90810796.192  
  21143753.757   111111176.776                    86580120.395    21143749.468  
                                
  22349429.861   117447046.657                    91517154.815    22349423.857  
                                
  20037215.778   105296280.332    20037215.153    82049045.834    20037214.760  
  20037216.082    78630340.684  
  24194600.540   127143483.967    24194597.842    99072830.928    24194597.055  
                                
  21442459.939   112680889.271    21442455.954    87803269.860    21442455.007  
                                
  23412219.950   123032045.362    23412219.700    95869120.990    23412218.950  
  23412220.951    91874583.852  
  19232059.815   102950721.824    19232057.313    80072772.993    19232056.295  
                                
  21833909.174   116919594.594    21833907.226    90937453.529    21833906.583  
                                
  19620234.462   104770957.668    19620231.781    81488512.261    19620230.834  
                                
  22280816.780   119020123.012    22280814.600    92571197.442    22280814.903  
                                
  26963704.186   141695221.542                                                  
  26963711.155   105811393.932  
  23961673.841   125919446.687                                                  
  23961677.647    94030770.441  
  23832219.238   125239158.211                                                  
  23832224.384    93522768.002  
  24167098.362   126998960.395                                                  
  24167103.616    94836904.644  
 21  8 31  2 37 17.0000000  0 16G 3G 4G16G22G26G29G31G32R 7R 8R 9R16
                                E 7E19E21E27
  21860812.721   114879346.101    21860812.006    89516367.592    21860811.274  
  21860814.401    85786530.749  
  23140554.603   121604435.801    23140552.102    94756690.583    23140551.583  
  23140557.695    90808519.543  
  21143245.473   111108505.809                    86578039.126    21143241.202  
                                
  22349731.705   117448632.844                    91518390.807    22349725.701  
                                
  20037219.692   105296300.905    20037219.066    82049061.868    20037218.673  
  20037219.996    78630356.054  
  24194669.729   127143847.586    24194667.030    99073114.269    24194666.262  
                                
  21442798.557   112682668.592    21442794.554    87804656.344    21442793.607  
                                
  23412790.347   123035042.816    23412790.079    95871456.671    23412789.347  
  23412791.312    91876822.219  
  19231989.214   102950343.897    19231986.713    80072479.047    19231985.694  
                                
  21833232.885   116915973.169    21833230.937    90934636.865    21833230.312  
                                
  19620440.992   104772060.453    19620438.312    81489369.980    19620437.364  
                                
  22281447.931   119023494.529    22281445.751    92573819.736    22281446.055  
                                
  26964196.370   141697807.950                                                  
  26964203.339   105813325.347  
  23961386.828   125917938.457                                                  
  23961390.617    94029644.176  
  23832021.857   125238121.051                                                  
  23832027.021    93521993.503  
  24167400.045   127000545.696                                                  
  24167405.281    94838088.477  
 21  8 31  2 37 18.0000000  0 16G 3G 4G16G22G26G29G31G32R 7R 8R 9R16
                                E 7E19E21E27
  21860890.416   114879754.401    21860889.701    89516685.748    21860888.968  
  21860892.095    85786835.655  
  23139974.378   121601386.791    23139971.894    94754314.734    23139971.358  
  23139977.487    90806242.687  
  21142737.242   111105834.986                    86575957.963    21142732.971  
                                
  22350033.566   117450219.136                    91519626.879    22350027.562  
                                
  20037223.659   105296321.722    20037223.015    82049078.086    20037222.640  
  20037223.962    78630371.603  
  24194738.971   127144211.449    24194736.273    99073397.799    24194735.504  
                                
  21443137.104   112684447.689    21443133.101    87806042.651    21443132.154  
                                
  23413360.727   123038040.197    23413360.494    95873792.288    23413359.726  
  23413361.727    91879060.505  
  19231918.685   102949966.439    19231916.201    80072185.471    19231915.183  
                                
  21832556.596   116912351.706    21832554.666    90931820.174    21832554.023  
                                
  19620647.522   104773163.318    19620644.842    81490227.762    19620643.895  
                                
  22282079.030   119026865.689    22282076.850    92576441.741    22282077.135  
                                
  26964688.483   141700394.144                                                  
  26964695.452   105815256.594  
  23961099.816   125916430.121                                                  
  23961103.586    94028517.819  
  23831824.493   125237083.873                                                  
  23831829.657    93521218.985  
  24167701.692   127002130.876                                                  
  24167706.928    94839272.213  
 21  8 31  2 37 19.0000000  0 16G 3G 4G16G22G26G29G31G32R 7R 8R 9R16
                                E 7E19E21E27
  21860968.343   114880163.973    21860967.663    89517004.897    21860966.895  
  21860970.022    85787141.500  
  23139394.296   121598338.501    23139391.830    94751939.438    23139391.276  
  23139397.405    90803966.364  
  21142229.208   111103165.292                    86573877.691    21142224.937  
                                
  22350335.624   117451806.485                    91520863.774    22350329.620  
                                
  20037227.840   105296343.757    20037227.232    82049095.256    20037226.822  
  20037228.144    78630388.051  
  24194808.446   127144576.468    24194805.730    99073682.229    24194804.961  
                                
  21443475.793   112686227.543    21443471.790    87807429.551    21443470.861  
                                
  23413931.267   123041038.379    23413931.016    95876128.533    23413930.266  
  23413932.267    91881299.414  
  19231848.442   102949590.443    19231845.958    80071893.028    19231844.940  
                                
  21831880.522   116908731.289    21831878.574    90929004.285    21831877.931  
                                
  19620854.249   104774267.236    19620851.568    81491086.365    19620850.621  
                                
  22282710.235   119030237.465    22282708.055    92579064.225    22282708.359  
                                
  26965180.793   141702981.130                                                  
  26965187.744   105817188.430  
  23960812.947   125914922.654                                                  
  23960816.753    94027392.107  
  23831627.309   125236047.643                                                  
  23831632.473    93520445.177  
  24168003.500   127003716.898                                                  
  24168008.753    94840456.585  
