     2.11           OBSERVATION DATA    M (MIXED)           RINEX VERSION / TYPE
CONVBIN 2.4.3                           20210901 005209 UTC PGM / RUN BY / DATE 
log: logs/21_08_31_22_54_19_ingy_SW.rtcm                    COMMENT             
format: RTCM 3, station ID: 926                             COMMENT             
0926                                                        MARKER NAME         
                                                            MARKER NUMBER       
                                                            OBSERVER / AGENCY   
                    SWFT                                    REC # / TYPE / VERS 
                    NULL                                    ANT # / TYPE        
   232629.8915 -4837044.0313  4136981.0535                  APPROX POSITION XYZ 
        0.0000        0.0000        0.0000                  ANTENNA: DELTA H/E/N
     1     1                                                WAVELENGTH FACT L1/2
     5    C1    L1    P2    L2    C2                        # / TYPES OF OBSERV 
  2021     8    31    22    54   24.0000000     GPS         TIME OF FIRST OBS   
  2021     8    31    23    25   14.0000000     GPS         TIME OF LAST OBS    
                                                            END OF HEADER       
 21  8 31 22 54 24.0000000  0 19G 1G10G21G23G24G25G31G32C21C22C26C34
                                E 3E 5E 8E13E15E24E25
  23908000.906   125637325.568    23908005.481    97899197.055                  
  20535388.986   107914149.914    20535392.041    84088935.786                  
  23636185.120   124208973.324    23636185.424    96786209.172                  
  22563287.561   118570860.107    22563289.544    92392875.687                  
  24175902.215   127045162.473    24175906.379    98996215.055                  
  23130003.499   121548908.158    23130008.127    94713414.964                  
  22490131.816   118186430.731    22490132.889    92093319.472                  
  20573621.244   108115074.015    20573624.103    84245503.368                  
                 114870807.185                   114870807.185    22059729.291  
                 122744563.544                   122744563.544    23571800.064  
                 128328887.394                   128328887.394    24644219.877  
                 135173601.773                   135173601.773    25958677.232  
  23653688.614   124300948.498                                                  
  25279664.045   132845509.587                                                  
  24438096.855   128423038.445                                                  
  26195739.860   137659478.766                                                  
  24892678.402   130811856.850                                                  
  26464276.001   139070732.305                                                  
  25946680.417   136350684.563                                                  
 21  8 31 22 54 25.0000000  0 19G 1G10G21G23G24G25G31G32C21C22C26C34
                                E 3E 5E 8E13E15E24E25
  23907511.796   125634755.352    23907516.388    97897194.292                  
  20535584.008   107915174.708    20535587.046    84089734.327                  
  23635955.592   124207767.142    23635955.896    96785269.288                  
  22563835.282   118573738.434    22563837.283    92395118.539                  
  24176595.069   127048803.378    24176599.215    98999052.121                  
  23129528.808   121546413.577    23129533.419    94711471.142                  
  22489469.287   118182949.117    22489470.341    92090606.528                  
  20573562.723   108114766.500    20573565.582    84245263.746                  
                 114870197.669                   114870197.669    22059612.267  
                 122746392.413                   122746392.413    23572151.280  
                 128325528.805                   128325528.805    24643574.895  
                 135175985.668                   135175985.668    25959135.037  
  23653642.602   124300706.675                                                  
  25279976.717   132847152.711                                                  
  24437737.920   128421152.176                                                  
  26195565.941   137658564.797                                                  
  24893010.445   130813601.764                                                  
  26464294.871   139070831.472                                                  
  25946232.709   136348331.757                                                  
 21  8 31 22 54 26.0000000  0 19G 1G10G21G23G24G25G31G32C21C22C26C34
                                E 3E 5E 8E13E15E24E25
  23907022.792   125632185.629    23907027.384    97895191.915                  
  20535779.102   107916199.999    20535782.158    84090533.255                  
  23635726.154   124206561.453    23635726.458    96784329.793                  
  22564383.075   118576617.063    22564385.058    92397361.625                  
  24177287.922   127052444.418    24177292.104    99001889.293                  
  23129054.154   121543919.363    23129058.782    94709527.599                  
  22488806.828   118179467.825    22488807.883    92087893.833                  
  20573504.255   108114459.275    20573507.114    84245024.347                  
                 114869588.410                   114869588.410    22059495.260  
                 122748221.512                   122748221.512    23572502.549  
                 128322170.331                   128322170.331    24642929.948  
                 135178369.747                   135178369.747    25959592.877  
  23653596.607   124300465.009                                                  
  25280289.407   132848795.905                                                  
  24437378.985   128419265.968                                                  
  26195392.129   137657651.294                                                  
  24893342.576   130815347.086                                                  
  26464313.848   139070931.140                                                  
  25945785.018   136345979.207                                                  
 21  8 31 22 54 27.0000000  0 19G 1G10G21G23G24G25G31G32C21C22C26C34
                                E 3E 5E 8E13E15E24E25
  23906533.895   125629616.387    23906538.488    97893189.906                  
  20535974.304   107917225.806    20535977.359    84091332.582                  
  23635496.823   124205356.255    23635497.127    96783390.675                  
  22564930.921   118579496.015    22564932.905    92399604.962                  
  24177980.812   127056085.614    24177984.975    99004726.586                  
  23128579.606   121541425.528    23128584.216    94707584.350                  
  22488144.406   118175986.850    22488145.460    92085181.389                  
  20573445.841   108114152.340    20573448.718    84244785.180                  
                 114868979.406                   114868979.406    22059378.308  
                 122750050.829                   122750050.829    23572853.836  
                 128318811.983                   128318811.983    24642285.001  
                 135180754.004                   135180754.004    25960050.753  
  23653550.648   124300223.483                                                  
  25280602.097   132850439.185                                                  
  24437020.068   128417379.837                                                  
  26195218.352   137656738.273                                                  
  24893674.779   130817092.810                                                  
  26464332.896   139071031.272                                                  
  25945337.399   136343626.918                                                  
 21  8 31 22 54 28.0000000  0 19G 1G10G21G23G24G25G31G32C21C22C26C34
                                E 3E 5E 8E13E15E24E25
  23906045.088   125627047.630    23906049.663    97891188.277                  
  20536169.612   107918252.117    20536172.668    84092132.308                  
  23635267.581   124204151.538    23635267.867    96782451.936                  
  22565478.821   118582375.270    22565480.823    92401848.534                  
  24178673.737   127059726.953    24178677.918    99007563.991                  
  23128105.112   121538932.066    23128109.722    94705641.395                  
  22487482.055   118172506.207    22487483.127    92082469.200                  
  20573387.499   108113845.699    20573390.358    84244546.239                  
                 114868370.661                   114868370.661    22059261.409  
                 122751880.372                   122751880.372    23573205.177  
                 128315453.754                   128315453.754    24641640.108  
                 135183138.449                   135183138.449    25960508.664  
  23653504.724   124299982.113                                                  
  25280914.823   132852082.543                                                  
  24436661.169   128415493.770                                                  
  26195044.719   137655825.730                                                  
  24894007.036   130818838.930                                                  
  26464352.034   139071131.909                                                  
  25944889.816   136341274.902                                                  
 21  8 31 22 54 29.0000000  0 19G 1G10G21G23G24G25G31G32C21C22C26C34
                                E 3E 5E 8E13E15E24E25
  23905556.335   125624479.368    23905560.927    97889187.039                  
  20536364.992   107919278.922    20536368.065    84092932.413                  
  23635038.411   124202947.319    23635038.697    96781513.587                  
  22566026.775   118585254.821    22566028.776    92404092.344                  
  24179366.697   127063368.419    24179370.861    99010401.497                  
  23127630.707   121536438.985    23127635.300    94703698.734                  
  22486819.775   118169025.878    22486820.847    92079757.257                  
  20573329.192   108113539.340    20573332.051    84244307.520                  
                 114867762.172                   114867762.172    22059144.545  
                 122753710.137                   122753710.137    23573556.553  
                 128312095.647                   128312095.647    24640995.197  
                 135185523.075                   135185523.075    25960966.611  
  23653458.801   124299740.878                                                  
  25281227.566   132853725.975                                                  
  24436302.251   128413607.759                                                  
  26194871.157   137654913.665                                                  
  24894339.400   130820585.446                                                  
  26464371.279   139071233.027                                                  
  25944442.304   136338923.141                                                  
 21  8 31 22 54 30.0000000  0 19G 1G10G21G23G24G25G31G32C21C22C26C34
                                E 3E 5E 8E13E15E24E25
  23905067.724   125621911.585    23905072.299    97887186.169                  
  20536560.497   107920306.225    20536563.535    84093732.909                  
  23634809.366   124201743.582    23634809.634    96780575.610                  
  22566574.818   118588134.694    22566576.801    92406336.400                  
  24180059.676   127067010.031    24180063.839    99013239.117                  
  23127156.338   121533946.288    23127160.966    94701756.376                  
  22486157.567   118165545.874    22486158.604    92077045.566                  
  20573270.957   108113233.277    20573273.816    84244069.027                  
                 114867153.939                   114867153.939    22059027.735  
                 122755540.129                   122755540.129    23573908.001  
                 128308737.659                   128308737.659    24640350.340  
                 135187907.884                   135187907.884    25961424.595  
  23653412.949   124299499.801                                                  
  25281540.328   132855369.490                                                  
  24435943.388   128411721.815                                                  
  26194697.685   137654002.070                                                  
  24894671.817   130822332.367                                                  
  26464390.613   139071334.618                                                  
  25943994.828   136336571.656                                                  
 21  8 31 22 54 31.0000000  0 19G 1G10G21G23G24G25G31G32C21C22C26C34
                                E 3E 5E 8E13E15E24E25
  23904579.185   125619344.292    23904583.760    97885185.683                  
  20536756.073   107921334.019    20536759.129    84094533.790                  
  23634580.375   124200540.347    23634580.678    96779638.024                  
  22567122.896   118591014.870    22567124.880    92408580.688                  
  24180752.672   127070651.773    24180756.836    99016076.835                  
  23126682.059   121531453.953    23126686.687    94699814.296                  
  22485495.395   118162066.185    22485496.431    92074334.120                  
  20573212.776   108112927.513    20573215.635    84243830.769                  
                 114866545.962                   114866545.962    22058910.979  
                 122757370.341                   122757370.341    23574259.485  
                 128305379.794                   128305379.794    24639705.501  
                 135190292.870                   135190292.870    25961882.595  
  23653367.079   124299258.869                                                  
  25281853.071   132857013.083                                                  
  24435584.506   128409835.936                                                  
  26194524.302   137653090.956                                                  
  24895004.342   130824079.685                                                  
  26464410.037   139071436.716                                                  
  25943547.405   136334220.429                                                  
 21  8 31 22 54 32.0000000  0 19G 1G10G21G23G24G25G31G32C21C22C26C34
                                E 3E 5E 8E13E15E24E25
  23904090.718   125616777.483    23904095.292    97883185.574                  
  20536951.757   107922362.332    20536954.813    84095335.070                  
  23634351.526   124199337.613    23634351.794    96778700.829                  
  22567671.047   118593895.357    22567673.012    92410825.223                  
  24181445.705   127074293.675    24181449.886    99018914.684                  
  23126207.868   121528962.010    23126212.479    94697872.527                  
  22484833.276   118158586.824    22484834.348    92071622.930                  
  20573154.648   108112622.028    20573157.507    84243592.727                  
                 114865938.243                   114865938.243    22058794.277  
                 122759200.778                   122759200.778    23574610.986  
                 128302022.047                   128302022.047    24639060.679  
                 135192678.043                   135192678.043    25962340.668  
  23653321.263   124299018.085                                                  
  25282165.869   132858656.750                                                  
  24435225.643   128407950.125                                                  
  26194351.026   137652180.311                                                  
  24895336.920   130825827.401                                                  
  26464429.568   139071539.290                                                  
  25943100.019   136331869.461                                                  
 21  8 31 22 54 33.0000000  0 19G 1G10G21G23G24G25G31G32C21C22C26C34
                                E 3E 5E 8E13E15E24E25
  23903602.357   125614211.155    23903606.932    97881185.841                  
  20537147.548   107923391.140    20537150.586    84096136.739                  
  23634122.749   124198135.376    23634123.017    96777764.020                  
  22568219.232   118596776.161    22568221.216    92413070.003                  
  24182138.755   127077935.707    24182142.936    99021752.629                  
  23125733.732   121526470.429    23125738.342    94695931.035                  
  22484171.247   118155107.780    22484172.301    92068911.991                  
  20573096.555   108112316.840    20573099.414    84243354.918                  
                 114865330.781                   114865330.781    22058677.628  
                 122761031.438                   122761031.438    23574962.542  
                 128298664.423                   128298664.423    24638415.875  
                 135195063.398                   135195063.398    25962798.740  
  23653275.482   124298777.452                                                  
  25282478.666   132860300.501                                                  
  24434866.797   128406064.375                                                  
  26194177.821   137651270.160                                                  
  24895669.552   130827575.520                                                  
  26464449.188   139071642.345                                                  
  25942652.703   136329518.771                                                  
 21  8 31 22 54 34.0000000  0 19G 1G10G21G23G24G25G31G32C21C22C26C34
                                E 3E 5E 8E13E15E24E25
  23903114.104   125611645.321    23903118.678    97879186.489                  
  20537343.392   107924420.457    20537346.466    84096938.802                  
  23633894.043   124196933.622    23633894.347    96776827.587                  
  22568767.472   118599657.255    22568769.473    92415315.011                  
  24182831.840   127081577.880    24182836.022    99024590.679                  
  23125259.684   121523979.220    23125264.277    94693989.831                  
  22483509.253   118151629.059    22483510.325    92066201.302                  
  20573038.535   108112011.939    20573041.394    84243117.337                  
                 114864723.577                   114864723.577    22058561.014  
                 122762862.319                   122762862.319    23575314.132  
                 128295306.915                   128295306.915    24637771.107  
                 135197448.934                   135197448.934    25963256.866  
  23653229.720   124298536.965                                                  
  25282791.463   132861944.324                                                  
  24434507.951   128404178.686                                                  
  26194004.724   137650360.478                                                  
  24896002.309   130829324.031                                                  
  26464468.880   139071745.896                                                  
  25942205.424   136327168.336                                                  
 21  8 31 22 54 35.0000000  0 19G 1G10G21G23G24G25G31G32C21C22C26C34
                                E 3E 5E 8E13E15E24E25
  23902625.940   125609079.958    23902630.515    97877187.503                  
  20537539.380   107925450.266    20537542.417    84097741.251                  
  23633665.463   124195732.353    23633665.749    96775891.535                  
  22569315.801   118602538.669    22569317.784    92417560.265                  
  24183524.962   127085220.191    24183529.125    99027428.843                  
  23124785.673   121521488.399    23124790.301    94692048.934                  
  22482847.366   118148150.664    22482848.403    92063490.864                  
  20572980.585   108111707.331    20572983.445    84242879.981                  
                 114864116.629                   114864116.629    22058444.455  
                 122764693.430                   122764693.430    23575665.795  
                 128291949.532                   128291949.532    24637126.340  
                 135199834.653                   135199834.653    25963714.992  
  23653183.975   124298296.625                                                  
  25283104.296   132863588.231                                                  
  24434149.141   128402293.063                                                  
  26193831.698   137649451.274                                                  
  24896335.101   130831072.942                                                  
  26464488.679   139071849.925                                                  
  25941758.198   136324818.181                                                  
 21  8 31 22 54 36.0000000  0 19G 1G10G21G23G24G25G31G32C21C22C26C34
                                E 3E 5E 8E13E15E24E25
  23902137.866   125606515.074    23902142.422    97875188.899                  
  20537735.439   107926480.586    20537738.476    84098544.098                  
  23633436.954   124194531.574    23633437.240    96774955.863                  
  22569864.183   118605420.397    22569866.167    92419805.769                  
  24184218.101   127088862.651    24184222.265    99030267.126                  
  23124311.769   121518997.944    23124316.379    94690108.324                  
  22482185.498   118144672.591    22482186.534    92060780.680                  
  20572922.654   108111403.008    20572925.549    84242642.844                  
                 114863509.937                   114863509.937    22058327.949  
                 122766524.756                   122766524.756    23576017.475  
                 128288592.269                   128288592.269    24636481.625  
                 135202220.555                   135202220.555    25964173.208  
  23653138.266   124298056.434                                                  
  25283417.147   132865232.218                                                  
  24433790.331   128400407.504                                                  
  26193658.762   137648542.540                                                  
  24896668.001   130832822.261                                                  
  26464508.567   139071954.444                                                  
  25941311.044   136322468.286                                                  
 21  8 31 22 54 37.0000000  0 19G 1G10G21G23G24G25G31G32C21C22C26C34
                                E 3E 5E 8E13E15E24E25
  23901649.863   125603950.686    23901654.437    97873190.677                  
  20537931.605   107927511.394    20537934.643    84099347.329                  
  23633208.534   124193331.273    23633208.838    96774020.566                  
  22570412.601   118608302.425    22570414.603    92422051.505                  
  24184911.259   127092505.250    24184915.440    99033105.512                  
  23123837.918   121516507.871    23123842.546    94688168.012                  
  22481523.701   118141194.838    22481524.755    92058070.747                  
  20572864.812   108111098.979    20572867.671    84242405.942                  
                 114862903.504                   114862903.504    22058211.478  
                 122768356.312                   122768356.312    23576369.227  
                 128285235.130                   128285235.130    24635836.929  
                 135204606.638                   135204606.638    25964631.423  
  23653092.593   124297816.393                                                  
  25283729.980   132866876.286                                                  
  24433431.539   128398522.003                                                  
  26193485.933   137647634.281                                                  
  24897000.937   130834571.972                                                  
  26464528.544   139072059.453                                                  
  25940863.925   136320118.656                                                  
 21  8 31 22 54 38.0000000  0 19G 1G10G21G23G24G25G31G32C21C22C26C34
                                E 3E 5E 8E13E15E24E25
  23901161.967   125601386.776    23901166.541    97871192.825                  
  20538127.842   107928542.714    20538130.898    84100150.953                  
  23632980.221   124192131.468    23632980.525    96773085.653                  
  22570961.109   118611184.775    22570963.092    92424297.488                  
  24185604.452   127096148.001    24185608.615    99035944.015                  
  23123364.138   121514018.176    23123368.767    94686227.988                  
  22480861.957   118137717.414    22480863.011    92055361.064                  
  20572807.024   108110795.246    20572809.883    84242169.262                  
                 114862297.329                   114862297.329    22058095.080  
                 122770188.089                   122770188.089    23576720.979  
                 128281878.111                   128281878.111    24635192.232  
                 135206992.898                   135206992.898    25965089.674  
  23653046.938   124297576.493                                                  
  25284042.867   132868520.434                                                  
  24433072.747   128396636.573                                                  
  26193313.193   137646726.504                                                  
  24897333.980   130836322.083                                                  
  26464548.611   139072164.935                                                  
  25940416.842   136317769.292                                                  
 21  8 31 22 54 39.0000000  0 19G 1G10G21G23G24G25G31G32C21C22C26C34
                                E 3E 5E 8E13E15E24E25
  23900674.160   125598823.360    23900678.735    97869195.355                  
  20538324.205   107929574.534    20538327.243    84100954.968                  
  23632751.998   124190932.150    23632752.302    96772151.117                  
  22571509.652   118614067.418    22571511.636    92426543.703                  
  24186297.662   127099790.875    24186301.844    99038782.618                  
  23122890.449   121511528.863    23122895.059    94684288.266                  
  22480200.303   118134240.316    22480201.339    92052651.636                  
  20572749.289   108110491.801    20572752.148    84241932.811                  
                 114861691.411                   114861691.411    22057978.716  
                 122772020.090                   122772020.090    23577072.802  
                 128278521.210                   128278521.210    24634547.571  
                 135209379.344                   135209379.344    25965547.961  
  23653001.318   124297336.746                                                  
  25284355.735   132870164.656                                                  
  24432713.973   128394751.210                                                  
  26193140.542   137645819.208                                                  
  24897667.094   130838072.593                                                  
  26464568.785   139072270.904                                                  
  25939969.813   136315420.196                                                  
 21  8 31 22 54 40.0000000  0 19G 1G10G21G23G24G25G31G32C21C22C26C34
                                E 3E 5E 8E13E15E24E25
  23900186.461   125596260.427    23900191.018    97867198.265                  
  20538520.639   107930606.858    20538523.695    84101759.374                  
  23632523.882   124189733.319    23632524.168    96771216.965                  
  22572058.267   118616950.379    22572060.268    92428790.164                  
  24186990.927   127103433.899    24186995.073    99041621.335                  
  23122416.812   121509039.914    23122421.422    94682348.827                  
  22479538.684   118130763.535    22479539.739    92049942.458                  
  20572691.572   108110188.649    20572694.449    84241696.589                  
                 114861085.745                   114861085.745    22057862.407  
                 122773852.318                   122773852.318    23577424.661  
                 128275164.432                   128275164.432    24633902.946  
                 135211765.970                   135211765.970    25966006.301  
  23652955.716   124297097.148                                                  
  25284668.640   132871808.956                                                  
  24432355.217   128392865.918                                                  
  26192967.981   137644912.384                                                  
  24898000.280   130839823.508                                                  
  26464589.049   139072377.371                                                  
  25939522.855   136313071.366                                                  
 21  8 31 22 54 41.0000000  0 19G 1G10G21G23G24G25G31G32C21C22C26C34
                                E 3E 5E 8E13E15E24E25
  23899698.833   125593697.985    23899703.426    97865201.559                  
  20538717.181   107931639.678    20538720.236    84102564.172                  
  23632295.838   124188534.972    23632296.124    96770283.187                  
  22572606.935   118619833.642    22572608.919    92431036.862                  
  24187684.174   127107077.063    24187688.355    99044460.165                  
  23121943.265   121506551.343    23121947.858    94680409.679                  
  22478877.137   118127287.079    22478878.174    92047233.532                  
  20572633.944   108109885.781    20572636.821    84241460.591                  
                 114860480.338                   114860480.338    22057746.133  
                 122775684.760                   122775684.760    23577776.555  
                 128271807.776                   128271807.776    24633258.321  
                 135214152.776                   135214152.776    25966464.660  
  23652910.168   124296857.694                                                  
  25284981.562   132873453.333                                                  
  24431996.460   128390980.673                                                  
  26192795.491   137644006.033                                                  
  24898333.537   130841574.805                                                  
  26464609.402   139072484.311                                                  
  25939075.933   136310722.792                                                  
 21  8 31 22 54 42.0000000  0 19G 1G10G21G23G24G25G31G32C21C22C26C34
                                E 3E 5E 8E13E15E24E25
  23899211.295   125591136.020    23899215.887    97863205.227                  
  20538913.811   107932673.003    20538916.867    84103369.355                  
  23632067.901   124187337.110    23632068.186    96769349.790                  
  22573155.657   118622717.219    22573157.641    92433283.805                  
  24188377.474   127110720.372    24188381.655    99047299.107                  
  23121469.754   121504063.163    23121474.382    94678470.839                  
  22478215.644   118123810.946    22478216.698    92044524.854                  
  20572576.388   108109583.207    20572579.247    84241224.817                  
                 114859875.196                   114859875.196    22057629.949  
                 122777517.433                   122777517.433    23578128.521  
                 128268451.243                   128268451.243    24632613.732  
                 135216539.769                   135216539.769    25966923.054  
  23652864.620   124296618.393                                                  
  25285294.502   132875097.792                                                  
  24431637.722   128389095.501                                                  
  26192623.127   137643100.160                                                  
  24898666.884   130843326.512                                                  
  26464629.844   139072591.742                                                  
  25938629.082   136308374.500                                                  
 21  8 31 22 54 43.0000000  0 19G 1G10G21G23G24G25G31G32C21C22C26C34
                                E 3E 5E 8E13E15E24E25
  23898723.882   125588574.546    23898728.456    97861209.274                  
  20539110.531   107933706.833    20539113.605    84104174.937                  
  23631840.035   124186139.744    23631840.339    96768416.775                  
  22573704.433   118625601.109    22573706.434    92435530.988                  
  24189070.828   127114363.815    24189074.973    99050138.149                  
  23120996.332   121501575.352    23121000.960    94676532.290                  
  22477554.222   118120335.124    22477555.276    92041816.429                  
  20572518.832   108109280.918    20572521.727    84240989.269                  
                 114859270.304                   114859270.304    22057513.765  
                 122779350.329                   122779350.329    23578480.505  
                 128265094.831                   128265094.831    24631969.179  
                 135218926.939                   135218926.939    25967381.484  
  23652819.108   124296379.239                                                  
  25285607.442   132876742.339                                                  
  24431279.001   128387210.394                                                  
  26192450.816   137642194.762                                                  
  24899000.302   130845078.618                                                  
  26464650.375   139072699.653                                                  
  25938182.267   136306026.469                                                  
 21  8 31 22 54 44.0000000  0 20G 1G10G12G21G23G24G25G31G32C21C22C26
                                C34E 3E 5E 8E13E15E24E25
  23898236.540   125586013.559    23898241.096    97859213.699                  
  20539307.377   107934741.161    20539310.414    84104980.909                  
  23477006.756   123372490.376    23477007.846    96134404.950                  
  23631612.276   124184942.864    23631612.580    96767484.144                  
  22574253.280   118628485.297    22574255.281    92437778.407                  
  24189764.164   127118007.402    24189768.345    99052977.308                  
  23120523.000   121499087.917    23120527.628    94674594.027                  
  22476892.854   118116859.634    22476893.908    92039108.254                  
  20572461.383   108108978.913    20572464.242    84240753.941                  
                 114858665.668                   114858665.668    22057397.652  
                 122781183.450                   122781183.450    23578832.543  
                 128261738.538                   128261738.538    24631324.643  
                 135221314.289                   135221314.289    25967839.967  
  23652773.613   124296140.234                                                  
  25285920.400   132878386.954                                                  
  24430920.280   128385325.348                                                  
  26192278.612   137641289.837                                                  
  24899333.792   130846831.121                                                  
  26464670.996   139072808.057                                                  
  25937735.506   136303678.699                                                  
 21  8 31 22 54 45.0000000  0 20G 1G10G12G21G23G24G25G31G32C21C22C26
                                C34E 3E 5E 8E13E15E24E25
  23897749.287   125583453.050    23897753.862    97857218.500                  
  20539504.293   107935775.992    20539507.349    84105787.271                  
  23476782.053   123371309.598    23476783.143    96133484.863                  
  23631384.625   124183746.478    23631384.893    96766551.894                  
  22574802.198   118631369.798    22574804.182    92440026.066                  
  24190457.535   127121651.125    24190461.717    99055816.570                  
  23120049.738   121496600.863    23120054.349    94672656.063                  
  22476231.557   118113384.457    22476232.594    92036400.327                  
  20572403.952   108108677.211    20572406.847    84240518.848                  
                 114858061.293                   114858061.293    22057281.592  
                 122783016.788                   122783016.788    23579184.599  
                 128258382.371                   128258382.371    24630680.125  
                 135223701.820                   135223701.820    25968298.468  
  23652728.172   124295901.375                                                  
  25286233.376   132880031.653                                                  
  24430561.578   128383440.367                                                  
  26192106.516   137640385.396                                                  
  24899667.353   130848584.022                                                  
  26464691.724   139072916.946                                                  
  25937288.780   136301331.199                                                  
 21  8 31 22 54 46.0000000  0 20G 1G10G12G21G23G24G25G31G32C21C22C26
                                C34E 3E 5E 8E13E15E24E25
  23897262.142   125580893.044    23897266.698    97855223.692                  
  20539701.317   107936811.324    20539704.355    84106594.023                  
  23476557.475   123370129.404    23476558.565    96132565.232                  
  23631157.045   124182550.579    23631157.349    96765620.023                  
  22575351.153   118634254.604    22575353.136    92442273.973                  
  24191150.943   127125294.976    24191155.124    99058655.934                  
  23119576.549   121494114.188    23119581.141    94670718.399                  
  22475570.296   118109909.610    22475571.368    92033692.651                  
  20572346.593   108108375.805    20572349.487    84240283.984                  
                 114857457.175                   114857457.175    22057165.587  
                 122784850.356                   122784850.356    23579536.726  
                 128255026.326                   128255026.326    24630035.625  
                 135226089.536                   135226089.536    25968757.005  
  23652682.731   124295662.655                                                  
  25286546.352   132881676.429                                                  
  24430202.893   128381555.442                                                  
  26191934.508   137639481.433                                                  
  24900001.003   130850337.320                                                  
  26464712.542   139073026.316                                                  
  25936842.126   136298983.966                                                  
 21  8 31 22 54 47.0000000  0 20G 1G10G12G21G23G24G25G31G32C21C22C26
                                C34E 3E 5E 8E13E15E24E25
  23896775.068   125578333.509    23896779.643    97853229.247                  
  20539898.412   107937847.158    20539901.486    84107401.164                  
  23476333.004   123368949.794    23476334.094    96131646.059                  
  23630929.554   124181355.172    23630929.858    96764688.540                  
  22575900.178   118637139.727    22575902.162    92444522.112                  
  24191844.386   127128938.980    24191848.567    99061495.418                  
  23119103.395   121491627.895    23119108.023    94668781.027                  
  22474909.124   118106435.085    22474910.179    92030985.234                  
  20572289.304   108108074.681    20572292.181    84240049.339                  
                 114856853.312                   114856853.312    22057049.617  
                 122786684.145                   122786684.145    23579888.888  
                 128251670.399                   128251670.399    24629391.143  
                 135228477.430                   135228477.430    25969215.560  
  23652637.362   124295424.093                                                  
  25286859.382   132883321.285                                                  
  24429844.226   128379670.605                                                  
  26191762.573   137638577.949                                                  
  24900334.725   130852091.023                                                  
  26464733.448   139073136.173                                                  
  25936395.508   136296636.997                                                  
 21  8 31 22 54 48.0000000  0 20G 1G10G12G21G23G24G25G31G32C21C22C26
                                C34E 3E 5E 8E13E15E24E25
  23896288.101   125575774.465    23896292.658    97851235.189                  
  20540095.633   107938883.488    20540098.688    84108208.696                  
  23476108.641   123367770.759    23476109.713    96130727.329                  
  23630702.171   124180160.250    23630702.475    96763757.434                  
  22576449.258   118640025.147    22576451.241    92446770.491                  
  24192537.847   127132583.133    24192542.028    99064335.011                  
  23118630.366   121489141.985    23118634.959    94666843.957                  
  22474248.006   118102960.886    22474249.061    92028278.066                  
  20572232.052   108107773.847    20572234.911    84239814.930                  
                 114856249.711                   114856249.711    22056933.700  
                 122788518.155                   122788518.155    23580241.087  
                 128248314.593                   128248314.593    24628746.697  
                 135230865.505                   135230865.505    25969674.168  
  23652591.974   124295185.684                                                  
  25287172.394   132884966.222                                                  
  24429485.559   128377785.808                                                  
  26191590.744   137637674.937                                                  
  24900668.518   130853845.113                                                  
  26464754.445   139073246.517                                                  
  25935948.943   136294290.298                                                  
 21  8 31 22 54 49.0000000  0 20G 1G10G12G21G23G24G25G31G32C21C22C26
                                C34E 3E 5E 8E13E15E24E25
  23895801.224   125573215.901    23895805.799    97849241.503                  
  20540292.943   107939920.328    20540295.998    84109016.621                  
  23475884.384   123366592.302    23475885.474    96129809.051                  
  23630474.877   124178965.815    23630475.181    96762826.707                  
  22576998.408   118642910.878    22577000.374    92449019.117                  
  24193231.326   127136227.422    24193235.507    99067174.714                  
  23118157.355   121486656.449    23118161.983    94664907.175                  
  22473586.960   118099487.012    22473587.996    92025571.151                  
  20572174.853   108107473.301    20572177.748    84239580.734                  
                 114855646.363                   114855646.363    22056817.820  
                 122790352.392                   122790352.392    23580593.339  
                 128244958.914                   128244958.914    24628102.286  
                 135233253.762                   135233253.762    25970132.795  
  23652546.641   124294947.410                                                  
  25287485.423   132886611.227                                                  
  24429126.892   128375901.088                                                  
  26191418.987   137636772.409                                                  
  24901002.383   130855599.611                                                  
  26464775.512   139073357.348                                                  
  25935502.414   136291943.860                                                  
 21  8 31 22 54 50.0000000  0 20G 1G10G12G21G23G24G25G31G32C21C22C26
                                C34E 3E 5E 8E13E15E24E25
  23895314.418   125570657.825    23895318.993    97847248.199                  
  20540490.342   107940957.673    20540493.397    84109824.942                  
  23475660.235   123365414.423    23475661.325    96128891.223                  
  23630247.673   124177771.871    23630247.976    96761896.359                  
  22577547.577   118645796.925    22577549.579    92451267.985                  
  24193924.841   127139871.837    24193929.022    99070014.520                  
  23117684.452   121484171.282    23117689.062    94662970.684                  
  22472925.967   118096013.453    22472927.003    92022864.484                  
  20572117.744   108107173.054    20572120.603    84239346.777                  
                 114855043.274                   114855043.274    22056702.028  
                 122792186.853                   122792186.853    23580945.627  
                 128241603.351                   128241603.351    24627457.876  
                 135235642.194                   135235642.194    25970591.475  
  23652501.325   124294709.288                                                  
  25287798.488   132888256.308                                                  
  24428768.278   128374016.430                                                  
  26191247.337   137635870.351                                                  
  24901336.319   130857354.505                                                  
  26464796.723   139073468.660                                                  
  25935055.956   136289597.698                                                  
 21  8 31 22 54 51.0000000  0 20G 1G10G12G21G23G24G25G31G32C21C22C26
                                C34E 3E 5E 8E13E15E24E25
  23894827.738   125568100.233    23894832.294    97845255.273                  
  20540687.848   107941995.505    20540690.886    84110633.640                  
  23475436.194   123364237.113    23475437.301    96127973.843                  
  23630020.575   124176578.424    23630020.879    96760966.398                  
  22578096.835   118648683.272    22578098.837    92453517.082                  
  24194618.373   127143516.401    24194622.554    99072854.438                  
  23117211.619   121481686.488    23117216.212    94661034.483                  
  22472265.027   118092540.222    22472266.064    92020158.075                  
  20572060.652   108106873.095    20572063.511    84239113.038                  
                 114854440.446                   114854440.446    22056586.237  
                 122794021.552                   122794021.552    23581297.968  
                 128238247.908                   128238247.908    24626813.501  
                 135238030.789                   135238030.789    25971050.173  
  23652456.045   124294471.313                                                  
  25288111.536   132889901.477                                                  
  24428409.647   128372131.825                                                  
  26191075.759   137634968.762                                                  
  24901670.345   130859109.786                                                  
  26464817.987   139073580.457                                                  
  25934609.535   136287251.794                                                  
 21  8 31 22 54 52.0000000  0 20G 1G10G12G21G23G24G25G31G32C21C22C26
                                C34E 3E 5E 8E13E15E24E25
  23894341.146   125565543.129    23894345.703    97843262.726                  
  20540885.426   107943033.839    20540888.481    84111442.734                  
  23475212.277   123363060.400    23475213.385    96127056.921                  
  23629793.567   124175385.457    23629793.853    96760036.815                  
  22578646.165   118651569.933    22578648.148    92455766.426                  
  24195311.941   127147161.109    24195316.123    99075694.468                  
  23116738.841   121479202.078    23116743.469    94659098.577                  
  22471604.141   118089067.317    22471605.196    92017451.915                  
  20572003.615   108106573.423    20572006.491    84238879.532                  
                 114853837.871                   114853837.871    22056470.517  
                 122795856.458                   122795856.458    23581650.345  
                 128234892.589                   128234892.589    24626169.144  
                 135240419.585                   135240419.585    25971508.942  
  23652410.783   124294233.494                                                  
  25288424.619   132891546.722                                                  
  24428051.016   128370247.301                                                  
  26190904.288   137634067.651                                                  
  24902004.442   130860865.469                                                  
  26464839.358   139073692.744                                                  
  25934163.184   136284906.155                                                  
 21  8 31 22 54 53.0000000  0 20G 1G10G12G21G23G24G25G31G32C21C22C26
                                C34E 3E 5E 8E13E15E24E25
  23893854.626   125562986.517    23893859.201    97841270.563                  
  20541083.093   107944072.684    20541086.166    84112252.223                  
  23474988.485   123361884.258    23474989.557    96126140.450                  
  23629566.648   124174192.979    23629566.934    96759107.614                  
  22579195.512   118654456.894    22579197.513    92458016.003                  
  24196005.527   127150805.938    24196009.709    99078534.594                  
  23116266.152   121476718.050    23116270.762    94657162.973                  
  22470943.345   118085594.735    22470944.381    92014746.007                  
  20571946.666   108106274.036    20571949.525    84238646.241                  
                 114853235.556                   114853235.556    22056354.851  
                 122797691.587                   122797691.587    23582002.758  
                 128231537.399                   128231537.399    24625524.805  
                 135242808.563                   135242808.563    25971967.711  
  23652365.556   124293995.812                                                  
  25288737.720   132893192.047                                                  
  24427692.420   128368362.828                                                  
  26190732.906   137633167.016                                                  
  24902338.629   130862621.558                                                  
  26464860.819   139073805.512                                                  
  25933716.888   136282560.794                                                  
 21  8 31 22 54 54.0000000  0 20G 1G10G12G21G23G24G25G31G32C21C22C26
                                C34E 3E 5E 8E13E15E24E25
  23893368.214   125560430.395    23893372.788    97839278.778                  
  20541280.885   107945112.030    20541283.941    84113062.101                  
  23474764.765   123360708.692    23474765.855    96125224.426                  
  23629339.819   124173001.000    23629340.105    96758178.797                  
  22579744.967   118657344.177    22579746.968    92460265.832                  
  24196699.131   127154450.919    24196703.313    99081374.839                  
  23115793.516   121474234.395    23115798.144    94655227.660                  
  22470282.584   118082122.470    22470283.638    92012040.348                  
  20571889.735   108105974.942    20571892.594    84238413.184                  
                 114852633.496                   114852633.496    22056239.239  
                 122799526.938                   122799526.938    23582355.224  
                 128228182.328                   128228182.328    24624880.502  
                 135245197.719                   135245197.719    25972426.516  
  23652320.365   124293758.286                                                  
  25289050.821   132894837.457                                                  
  24427333.842   128366478.431                                                  
  26190561.613   137632266.880                                                  
  24902672.869   130864378.039                                                  
  26464882.369   139073918.772                                                  
  25933270.627   136280215.691                                                  
 21  8 31 22 54 55.0000000  0 20G 1G10G12G21G23G24G25G31G32C21C22C26
                                C34E 3E 5E 8E13E15E24E25
  23892881.873   125557874.755    23892886.465    97837287.372                  
  20541478.767   107946151.881    20541481.822    84113872.379                  
  23474541.188   123359533.718    23474542.260    96124308.860                  
  23629113.079   124171809.500    23629113.383    96757250.355                  
  22580294.439   118660231.750    22580296.440    92462515.892                  
  24197392.807   127158096.038    24197396.952    99084215.187                  
  23115320.987   121471751.124    23115325.580    94653292.645                  
  22469621.895   118078650.539    22469622.931    92009334.945                  
  20571832.876   108105676.145    20571835.735    84238180.355                  
                 114852031.695                   114852031.695    22056123.662  
                 122801362.515                   122801362.515    23582707.727  
                 128224827.381                   128224827.381    24624236.216  
                 135247587.058                   135247587.058    25972885.375  
  23652275.175   124293520.910                                                  
  25289363.958   132896482.937                                                  
  24426975.265   128364594.081                                                  
  26190390.392   137631367.202                                                  
  24903007.180   130866134.917                                                  
  26464904.008   139074032.515                                                  
  25932824.419   136277870.868                                                  
 21  8 31 22 54 56.0000000  0 20G 1G10G12G21G23G24G25G31G32C21C22C26
                                C34E 3E 5E 8E13E15E24E25
  23892395.656   125555319.610    23892400.249    97835296.352                  
  20541676.738   107947192.231    20541679.775    84114683.040                  
  23474317.700   123358359.313    23474318.772    96123393.737                  
  23628886.446   124170618.501    23628886.732    96756322.304                  
  22580844.001   118663119.632    22580845.984    92464766.187                  
  24198086.464   127161741.292    24198090.646    99087055.645                  
  23114848.495   121469268.243    23114853.105    94651357.933                  
  22468961.259   118075178.925    22468962.314    92006629.796                  
  20571776.088   108105377.629    20571778.947    84237947.743                  
                 114851430.149                   114851430.149    22056008.139  
                 122803198.316                   122803198.316    23583060.265  
                 128221472.557                   128221472.557    24623591.966  
                 135249976.575                   135249976.575    25973344.251  
  23652230.037   124293283.671                                                  
  25289677.095   132898128.497                                                  
  24426616.687   128362709.813                                                  
  26190219.297   137630468.008                                                  
  24903341.581   130867892.212                                                  
  26464925.737   139074146.741                                                  
  25932378.265   136275526.296                                                  
 21  8 31 22 54 57.0000000  0 20G 1G10G12G21G23G24G25G31G32C21C22C26
                                C34E 3E 5E 8E13E15E24E25
  23891909.512   125552764.941    23891914.104    97833305.703                  
  20541874.798   107948233.083    20541877.853    84115494.091                  
  23474094.319   123357185.496    23474095.427    96122479.079                  
  23628659.903   124169427.981    23628660.189    96755394.624                  
  22581393.598   118666007.836    22581395.600    92467016.733                  
  24198780.158   127165386.695    24198784.339    99089896.219                  
  23114376.074   121466785.732    23114380.702    94649423.511                  
  22468300.695   118071707.640    22468301.731    92003924.898                  
  20571719.318   108105079.419    20571722.195    84237715.371                  
                 114850828.863                   114850828.863    22055892.687  
                 122805034.339                   122805034.339    23583412.856  
                 128218117.855                   128218117.855    24622947.717  
                 135252366.269                   135252366.269    25973803.181  
  23652184.918   124293046.588                                                  
  25289990.231   132899774.141                                                  
  24426258.145   128360825.606                                                  
  26190048.272   137629569.286                                                  
  24903676.053   130869649.879                                                  
  26464947.573   139074261.457                                                  
  25931932.165   136273182.000                                                  
 21  8 31 22 54 58.0000000  0 20G 1G10G12G21G23G24G25G31G32C21C22C26
                                C34E 3E 5E 8E13E15E24E25
  23891423.474   125550210.765    23891428.049    97831315.439                  
  20542072.965   107949274.437    20542076.021    84116305.535                  
  23473871.064   123356012.256    23473872.154    96121564.866                  
  23628433.449   124168237.950    23628433.717    96754467.328                  
  22581943.267   118668896.340    22581945.269    92469267.516                  
  24199473.887   127169032.231    24199478.068    99092736.892                  
  23113903.760   121464303.593    23113908.352    94647489.380                  
  22467640.202   118068236.674    22467641.239    92001220.255                  
  20571662.638   108104781.484    20571665.497    84237483.219                  
                 114850227.835                   114850227.835    22055777.253  
                 122806870.585                   122806870.585    23583765.483  
                 128214763.279                   128214763.279    24622303.503  
                 135254756.149                   135254756.149    25974262.112  
  23652139.835   124292809.655                                                  
  25290303.422   132901419.856                                                  
  24425899.603   128358941.450                                                  
  26189877.337   137628671.051                                                  
  24904010.615   130871407.960                                                  
  26464969.498   139074376.661                                                  
  25931486.101   136270837.969                                                  
 21  8 31 22 54 59.0000000  0 20G 1G10G12G21G23G24G25G31G32C21C22C26
                                C34E 3E 5E 8E13E15E24E25
  23890937.526   125547657.073    23890942.101    97829325.551                  
  20542271.222   107950316.292    20542274.278    84117117.370                  
  23473647.915   123354839.598    23473649.005    96120651.107                  
  23628207.084   124167048.410    23628207.352    96753540.418                  
  22582492.972   118671785.140    22582494.974    92471518.526                  
  24200167.634   127172677.905    24200171.815    99095577.676                  
  23113431.481   121461821.827    23113436.091    94645555.538                  
  22466979.763   118064766.035    22466980.800    91998515.860                  
  20571605.993   108104483.831    20571608.852    84237251.282                  
                 114849627.066                   114849627.066    22055661.873  
                 122808707.055                   122808707.055    23584118.164  
                 128211408.821                   128211408.821    24621659.324  
                 135257146.203                   135257146.203    25974721.113  
  23652094.787   124292572.869                                                  
  25290616.594   132903065.653                                                  
  24425541.061   128357057.367                                                  
  26189706.491   137627773.289                                                  
  24904345.248   130873166.434                                                  
  26464991.513   139074492.337                                                  
  25931040.108   136268494.207                                                  
 21  8 31 22 55  0.0000000  0 20G 1G10G12G21G23G24G25G31G32C21C22C26
                                C34E 3E 5E 8E13E15E24E25
  23890451.668   125545103.871    23890456.242    97827336.038                  
  20542469.586   107951358.649    20542472.642    84117929.597                  
  23473424.874   123353667.521    23473425.964    96119737.802                  
  23627980.808   124165859.351    23627981.094    96752613.878                  
  22583042.784   118674674.257    22583044.768    92473769.784                  
  24200861.399   127176323.722    24200865.580    99098418.571                  
  23112959.292   121459340.461    23112963.903    94643622.004                  
  22466319.378   118061295.715    22466320.414    91995811.719                  
  20571549.402   108104186.493    20571552.279    84237019.587                  
                 114849026.553                   114849026.553    22055546.564  
                 122810543.749                   122810543.749    23584470.881  
                 128208054.488                   128208054.488    24621015.164  
                 135259536.441                   135259536.441    25975180.133  
  23652049.739   124292336.235                                                  
  25290929.802   132904711.538                                                  
  24425182.537   128355173.357                                                  
  26189535.753   137626876.005                                                  
  24904679.935   130874925.310                                                  
  26465013.617   139074608.515                                                  
  25930594.133   136266150.716                                                  
 21  8 31 22 55  1.0000000  0 20G 1G10G12G21G23G24G25G31G32C21C22C26
                                C34E 3E 5E 8E13E15E24E25
  23889965.898   125542551.156    23889970.455    97825346.914                  
  20542668.022   107952401.500    20542671.077    84118742.207                  
  23473201.940   123352496.016    23473203.012    96118824.941                  
  23627754.640   124164670.794    23627754.926    96751687.727                  
  22583592.614   118677563.688    22583594.597    92476021.289                  
  24201555.217   127179969.675    24201559.398    99101259.575                  
  23112487.175   121456859.458    23112491.785    94641688.757                  
  22465659.064   118057825.718    22465660.100    91993107.823                  
  20571492.882   108103889.430    20571495.741    84236788.109                  
                 114848426.302                   114848426.302    22055431.309  
                 122812380.667                   122812380.667    23584823.633  
                 128204700.278                   128204700.278    24620371.021  
                 135261926.856                   135261926.856    25975639.188  
  23652004.745   124292099.730                                                  
  25291243.029   132906357.488                                                  
  24424824.049   128353289.394                                                  
  26189365.104   137625979.188                                                  
  24905014.711   130876684.567                                                  
  26465035.828   139074725.171                                                  
  25930148.247   136263807.479                                                  
 21  8 31 22 55  2.0000000  0 20G 1G10G12G21G23G24G25G31G32C21C22C26
                                C34E 3E 5E 8E13E15E24E25
  23889480.218   125539998.928    23889484.793    97823358.168                  
  20542866.582   107953444.872    20542869.620    84119555.222                  
  23472979.114   123351325.088    23472980.204    96117912.534                  
  23627528.561   124163482.727    23627528.847    96750761.965                  
  22584142.515   118680453.413    22584144.499    92478273.025                  
  24202249.036   127183615.762    24202253.217    99104100.675                  
  23112015.147   121454378.840    23112019.739    94639755.812                  
  22464998.803   118054356.050    22464999.840    91990404.188                  
  20571436.398   108103592.669    20571439.275    84236556.867                  
                 114847826.301                   114847826.301    22055316.053  
                 122814217.808                   122814217.808    23585176.439  
                 128201346.192                   128201346.192    24619726.897  
                 135264317.449                   135264317.449    25976098.279  
  23651959.768   124291863.387                                                  
  25291556.237   132908003.523                                                  
  24424465.543   128351405.504                                                  
  26189194.544   137625082.863                                                  
  24905349.577   130878444.236                                                  
  26465058.093   139074842.314                                                  
  25929702.379   136261464.531                                                  
 21  8 31 22 55  3.0000000  0 20G 1G10G12G21G23G24G25G31G32C21C22C26
                                C34E 3E 5E 8E13E15E24E25
  23888994.645   125537447.188    23888999.220    97821369.796                  
  20543065.214   107954488.732    20543068.252    84120368.622                  
  23472756.412   123350154.754    23472757.502    96117000.581                  
  23627302.554   124162295.143    23627302.858    96749836.574                  
  22584692.452   118683343.457    22584694.454    92480525.005                  
  24202942.908   127187261.987    24202947.089    99106941.890                  
  23111543.154   121451898.603    23111547.765    94637823.156                  
  22464338.597   118050886.707    22464339.669    91987700.804                  
  20571379.986   108103296.187    20571382.863    84236325.844                  
                 114847226.561                   114847226.561    22055200.905  
                 122816055.171                   122816055.171    23585529.299  
                 128197992.226                   128197992.226    24619082.808  
                 135266708.221                   135266708.221    25976557.405  
  23651914.828   124291627.184                                                  
  25291869.499   132909649.637                                                  
  24424107.054   128349521.680                                                  
  26189024.055   137624187.011                                                  
  24905684.496   130880204.300                                                  
  26465080.501   139074959.932                                                  
  25929256.583   136259121.829                                                  
 21  8 31 22 55  4.0000000  0 20G 1G10G12G21G23G24G25G31G32C21C22C26
                                C34E 3E 5E 8E13E15E24E25
  23888509.162   125534895.928    23888513.718    97819381.809                  
  20543263.954   107955533.093    20543266.991    84121182.410                  
  23472533.817   123348984.995    23472534.907    96116089.085                  
  23627076.654   124161108.053    23627076.957    96748911.571                  
  22585242.479   118686233.804    22585244.480    92482777.218                  
  24203636.780   127190908.356    24203640.961    99109783.214                  
  23111071.251   121449418.750    23111075.862    94635890.808                  
  22463678.479   118047417.696    22463679.516    91984997.679                  
  20571323.627   108103000.004    20571326.504    84236095.050                  
                 114846627.083                   114846627.083    22055085.775  
                 122817892.761                   122817892.761    23585882.176  
                 128194638.388                   128194638.388    24618438.719  
                 135269099.174                   135269099.174    25977016.568  
  23651869.905   124291391.137                                                  
  25292182.760   132911295.833                                                  
  24423748.602   128347637.919                                                  
  26188853.674   137623291.644                                                  
  24906019.504   130881964.758                                                  
  26465102.962   139075078.050                                                  
  25928810.840   136256779.414                                                  
 21  8 31 22 55  5.0000000  0 20G 1G10G12G21G23G24G25G31G32C21C22C26
                                C34E 3E 5E 8E13E15E24E25
  23888023.768   125532345.165    23888028.324    97817394.196                  
  20543462.782   107956577.962    20543465.838    84121996.589                  
  23472311.312   123347815.817    23472312.420    96115178.035                  
  23626850.861   124159921.462    23626851.164    96747986.950                  
  22585792.559   118689124.461    22585794.560    92485029.679                  
  24204330.687   127194554.860    24204334.869    99112624.646                  
  23110599.420   121446939.282    23110604.048    94633958.755                  
  22463018.397   118043949.005    22463019.434    91982294.805                  
  20571267.321   108102704.100    20571270.180    84235864.476                  
                 114846027.859                   114846027.859    22054970.699  
                 122819730.574                   122819730.574    23586235.125  
                 128191284.669                   128191284.669    24617794.683  
                 135271490.308                   135271490.308    25977475.766  
  23651825.018   124291155.240                                                  
  25292496.040   132912942.103                                                  
  24423390.131   128345754.215                                                  
  26188683.383   137622396.740                                                  
  24906354.584   130883725.618                                                  
  26465125.548   139075196.657                                                  
  25928365.133   136254437.260                                                  
 21  8 31 22 55  6.0000000  0 20G 1G10G12G21G23G24G25G31G32C21C22C26
                                C34E 3E 5E 8E13E15E24E25
  23887538.463   125529794.892    23887543.019    97815406.973                  
  20543661.718   107957623.333    20543664.756    84122811.168                  
  23472088.932   123346647.211    23472090.040    96114267.437                  
  23626625.157   124158735.355    23626625.443    96747062.715                  
  22586342.692   118692015.427    22586344.676    92487282.375                  
  24205024.613   127198201.499    24205028.794    99115466.180                  
  23110127.660   121444460.175    23110132.288    94632026.987                  
  22462358.405   118040480.639    22462359.441    91979592.185                  
  20571211.052   108102408.481    20571213.929    84235634.121                  
                 114845428.895                   114845428.895    22054855.676  
                 122821568.609                   122821568.609    23586588.074  
                 128187931.074                   128187931.074    24617150.666  
                 135273881.621                   135273881.621    25977934.982  
  23651780.167   124290919.492                                                  
  25292809.320   132914588.460                                                  
  24423031.696   128343870.598                                                  
  26188513.180   137621502.320                                                  
  24906689.736   130885486.874                                                  
  26465148.206   139075315.720                                                  
  25927919.497   136252095.386                                                  
 21  8 31 22 55  7.0000000  0 20G 1G10G12G21G23G24G25G31G32C21C22C26
                                C34E 3E 5E 8E13E15E24E25
  23887053.247   125527245.105    23887057.822    97813420.124                  
  20543860.743   107958669.208    20543863.781    84123626.134                  
  23471866.678   123345479.177    23471867.768    96113357.277                  
  23626399.543   124157549.738    23626399.829    96746138.855                  
  22586892.880   118694906.686    22586894.881    92489535.304                  
  24205718.574   127201848.285    24205722.756    99118307.827                  
  23109655.971   121441981.461    23109660.581    94630095.520                  
  22461698.448   118037012.597    22461699.485    91976889.811                  
  20571154.854   108102113.152    20571157.713    84235403.997                  
                 114844830.188                   114844830.188    22054740.707  
                 122823406.867                   122823406.867    23586941.095  
                 128184577.605                   128184577.605    24616506.666  
                 135276273.112                   135276273.112    25978394.234  
  23651735.316   124290683.914                                                  
  25293122.617   132916234.897                                                  
  24422673.280   128341987.064                                                  
  26188343.067   137620608.367                                                  
  24907024.976   130887248.544                                                  
  26465170.936   139075435.263                                                  
  25927473.898   136249753.766                                                  
 21  8 31 22 55  8.0000000  0 20G 1G10G12G21G23G24G25G31G32C21C22C26
                                C34E 3E 5E 8E13E15E24E25
  23886568.121   125524695.792    23886572.696    97811433.653                  
  20544059.858   107959715.571    20544062.895    84124441.481                  
  23471644.512   123344311.754    23471645.620    96112447.601                  
  23626174.018   124156364.579    23626174.304    96745215.355                  
  22587443.138   118697798.268    22587445.140    92491788.487                  
  24206412.554   127205495.218    24206416.753    99121149.597                  
  23109184.372   121439503.143    23109188.982    94628164.368                  
  22461038.563   118033544.883    22461039.600    91974187.699                  
  20571098.727   108101818.152    20571101.604    84235174.129                  
                 114844231.740                   114844231.740    22054625.755  
                 122825245.349                   122825245.349    23587294.169  
                 128181224.258                   128181224.258    24615862.685  
                 135278664.781                   135278664.781    25978853.539  
  23651690.500   124290448.410                                                  
  25293435.933   132917881.384                                                  
  24422314.845   128340103.485                                                  
  26188173.043   137619714.897                                                  
  24907360.289   130889010.562                                                  
  26465193.808   139075555.379                                                  
  25927028.351   136247412.399                                                  
 21  8 31 22 55  9.0000000  0 20G 1G10G12G21G23G24G25G31G32C21C22C26
                                C34E 3E 5E 8E13E15E24E25
  23886083.102   125522146.977    23886087.677    97809447.563                  
  20544259.062   107960762.441    20544262.117    84125257.227                  
  23471422.471   123343144.882    23471423.561    96111538.352                  
  23625948.582   124155179.937    23625948.868    96744292.259                  
  22587993.433   118700690.153    22587995.434    92494041.899                  
  24207106.586   127209142.265    24207110.768    99123991.450                  
  23108712.844   121437025.195    23108717.436    94626233.497                  
  22460378.732   118030077.489    22460379.786    91971485.836                  
  20571042.636   108101523.407    20571045.495    84234944.458                  
                 114843633.547                   114843633.547    22054510.893  
                 122827084.055                   122827084.055    23587647.279  
                 128177871.034                   128177871.034    24615218.721  
                 135281056.629                   135281056.629    25979312.862  
  23651645.738   124290213.108                                                  
  25293749.284   132919527.965                                                  
  24421956.446   128338220.053                                                  
  26188003.127   137618821.910                                                  
  24907695.654   130890773.007                                                  
  26465216.734   139075675.900                                                  
  25926582.859   136245071.308                                                  
 21  8 31 22 55 10.0000000  0 20G 1G10G12G21G23G24G25G31G32C21C22C26
                                C34E 3E 5E 8E13E15E24E25
  23885598.173   125519598.649    23885602.747    97807461.851                  
  20544458.373   107961809.817    20544461.428    84126073.359                  
  23471200.538   123341978.600    23471201.628    96110629.563                  
  23625723.236   124153995.793    23625723.540    96743369.547                  
  22588543.799   118703582.345    22588545.800    92496295.555                  
  24207800.619   127212789.461    24207804.801    99126833.419                  
  23108241.352   121434547.626    23108245.962    94624302.925                  
  22459718.972   118026610.417    22459720.026    91968784.226                  
  20570986.599   108101228.956    20570989.476    84234715.013                  
                 114843035.613                   114843035.613    22054396.067  
                 122828922.985                   122828922.985    23588000.424  
                 128174517.937                   128174517.937    24614574.793  
                 135283448.655                   135283448.655    25979772.239  
  23651600.976   124289977.951                                                  
  25294062.635   132921174.633                                                  
  24421598.047   128336336.675                                                  
  26187833.282   137617929.406                                                  
  24908031.127   130892535.847                                                  
  26465239.767   139075796.922                                                  
  25926137.420   136242730.496                                                  
 21  8 31 22 55 11.0000000  0 20G 1G10G12G21G23G24G25G31G32C21C22C26
                                C34E 3E 5E 8E13E15E24E25
  23885113.333   125517050.817    23885117.907    97805476.532                  
  20544657.773   107962857.690    20544660.847    84126889.886                  
  23470978.712   123340812.905    23470979.802    96109721.227                  
  23625497.997   124152812.124    23625498.301    96742447.210                  
  22589094.236   118706474.848    22589096.237    92498549.454                  
  24208494.688   127216436.793    24208498.851    99129675.495                  
  23107769.985   121432070.423    23107774.577    94622372.640                  
  22459059.283   118023143.672    22459060.320    91966082.868                  
  20570930.633   108100934.792    20570933.492    84234485.792                  
                 114842437.941                   114842437.941    22054281.276  
                 122830762.136                   122830762.136    23588353.623  
                 128171164.962                   128171164.962    24613930.900  
                 135285840.859                   135285840.859    25980231.634  
  23651556.268   124289742.925                                                  
  25294376.004   132922821.372                                                  
  24421239.666   128334453.360                                                  
  26187663.526   137617037.360                                                  
  24908366.654   130894299.090                                                  
  26465262.872   139075918.435                                                  
  25925692.017   136240389.950                                                  
 21  8 31 22 55 12.0000000  0 20G 1G10G12G21G23G24G25G31G32C21C22C26
                                C34E 3E 5E 8E13E15E24E25
  23884628.582   125514503.469    23884633.156    97803491.585                  
  20544857.281   107963906.075    20544860.336    84127706.809                  
  23470756.993   123339647.788    23470758.083    96108813.349                  
  23625272.847   124151628.946    23625273.133    96741525.253                  
  22589644.727   118709367.660    22589646.728    92500803.591                  
  24209188.774   127220084.274    24209192.956    99132517.684                  
  23107298.636   121429593.614    23107303.246    94620442.661                  
  22458399.648   118019677.249    22458400.685    91963381.757                  
  20570874.721   108100640.942    20570877.580    84234256.820                  
                 114841840.522                   114841840.522    22054166.557  
                 122832601.511                   122832601.511    23588706.840  
                 128167812.110                   128167812.110    24613287.026  
                 135288233.242                   135288233.242    25980691.064  
  23651511.560   124289508.057                                                  
  25294689.373   132924468.191                                                  
  24420881.285   128332570.105                                                  
  26187493.860   137616145.798                                                  
  24908702.252   130896062.720                                                  
  26465286.102   139076040.426                                                  
  25925246.685   136238049.675                                                  
 21  8 31 22 55 13.0000000  0 20G 1G10G12G21G23G24G25G31G32C21C22C26
                                C34E 3E 5E 8E13E15E24E25
  23884143.938   125511956.614    23884148.495    97801507.023                  
  20545056.878   107964954.958    20545059.915    84128524.121                  
  23470535.400   123338483.258    23470536.472    96107905.918                  
  23625047.805   124150446.269    23625048.073    96740603.687                  
  22590195.254   118712260.774    22590197.255    92503057.960                  
  24209882.897   127223731.890    24209887.078    99135359.985                  
  23106827.394   121427117.183    23106832.004    94618512.972                  
  22457740.067   118016211.152    22457741.103    91960680.907                  
  20570818.845   108100347.360    20570821.722    84234028.055                  
                 114841243.368                   114841243.368    22054051.874  
                 122834441.110                   122834441.110    23589060.129  
                 128164459.382                   128164459.382    24612643.151  
                 135290625.806                   135290625.806    25981150.548  
  23651466.905   124289273.348                                                  
  25295002.778   132926115.097                                                  
  24420522.921   128330686.922                                                  
  26187324.300   137615254.724                                                  
  24909037.958   130897826.758                                                  
  26465309.421   139076162.915                                                  
  25924801.407   136235709.669                                                  
 21  8 31 22 55 14.0000000  0 20G 1G10G12G21G23G24G25G31G32C21C22C26
                                C34E 3E 5E 8E13E15E24E25
  23883659.384   125509410.238    23883663.940    97799522.836                  
  20545256.564   107966004.305    20545259.620    84129341.769                  
  23470313.895   123337319.351    23470314.985    96106999.004                  
  23624822.816   124149264.109    23624823.120    96739682.539                  
  22590745.852   118715154.231    22590747.853    92505312.616                  
  24210577.037   127227379.589    24210581.218    99138202.324                  
  23106356.224   121424641.163    23106360.816    94616583.624                  
  22457080.539   118012745.372    22457081.575    91957980.290                  
  20570763.040   108100054.047    20570765.899    84233799.488                  
                 114840646.466                   114840646.466    22053937.262  
                 122836280.933                   122836280.933    23589413.435  
                 128161106.777                   128161106.777    24611999.313  
                 135293018.542                   135293018.542    25981610.033  
  23651422.268   124289038.892                                                  
  25295316.183   132927762.071                                                  
  24420164.576   128328803.899                                                  
  26187154.813   137614364.083                                                  
  24909373.717   130899590.989                                                  
  26465332.793   139076285.866                                                  
  25924356.164   136233369.766                                                  
 21  8 31 22 55 15.0000000  0 20G 1G10G12G21G23G24G25G31G32C21C22C26
                                C34E 3E 5E 8E13E15E24E25
  23883174.919   125506864.355    23883179.476    97797539.040                  
  20545456.358   107967054.184    20545459.395    84130159.856                  
  23470092.516   123336155.980    23470093.606    96106092.479                  
  23624597.952   124148082.410    23624598.238    96738761.739                  
  22591296.522   118718047.958    22591298.523    92507567.473                  
  24211271.212   127231027.490    24211275.394    99141044.844                  
  23105885.125   121422165.489    23105889.717    94614654.532                  
  22456421.083   118009279.917    22456422.119    91955279.938                  
  20570707.288   108099761.042    20570710.147    84233571.177                  
                 114840049.823                   114840049.823    22053822.686  
                 122838120.979                   122838120.979    23589766.795  
                 128157754.296                   128157754.296    24611355.527  
                 135295411.466                   135295411.466    25982069.552  
  23651377.667   124288804.456                                                  
  25295629.606   132929409.136                                                  
  24419806.248   128326920.828                                                  
  26186985.432   137613473.945                                                  
  24909709.547   130901355.819                                                  
  26465356.291   139076409.327                                                  
  25923910.957   136231030.301                                                  
 21  8 31 22 55 16.0000000  0 20G 1G10G12G21G23G24G25G31G32C21C22C26
                                C34E 3E 5E 8E13E15E24E25
  23882690.543   125504318.961    23882695.100    97795555.614                  
  20545656.240   107968104.563    20545659.278    84130978.336                  
  23469871.244   123334993.184    23469872.316    96105186.409                  
  23624373.178   124146901.194    23624373.464    96737841.314                  
  22591847.245   118720941.999    22591849.246    92509822.565                  
  24211965.406   127234675.508    24211969.605    99143887.458                  
  23105414.079   121419690.203    23105418.672    94612725.742                  
  22455761.698   118005814.797    22455762.734    91952579.847                  
  20570651.573   108099468.349    20570654.432    84233343.102                  
                 114839453.442                   114839453.442    22053708.145  
                 122839961.250                   122839961.250    23590120.208  
                 128154401.941                   128154401.941    24610711.724  
                 135297804.559                   135297804.559    25982529.144  
  23651333.084   124288570.178                                                  
  25295943.046   132931056.274                                                  
  24419447.921   128325037.827                                                  
  26186816.141   137612584.296                                                  
  24910045.467   130903121.040                                                  
  26465379.878   139076533.272                                                  
  25923465.822   136228691.097                                                  
 21  8 31 22 55 17.0000000  0 20G 1G10G12G21G23G24G25G31G32C21C22C26
                                C34E 3E 5E 8E13E15E24E25
  23882206.257   125501774.058    23882210.814    97793572.575                  
  20545856.213   107969155.457    20545859.268    84131797.211                  
  23469650.079   123333830.972    23469651.169    96104280.790                  
  23624148.493   124145720.472    23624148.778    96736921.270                  
  22592398.022   118723836.345    22592400.023    92512077.898                  
  24212659.635   127238323.667    24212663.817    99146730.179                  
  23104943.124   121417215.298    23104947.716    94610797.242                  
  22455102.367   118002350.009    22455103.403    91949880.012                  
  20570595.946   108099175.931    20570598.806    84233115.241                  
                 114838857.317                   114838857.317    22053593.658  
                 122841801.741                   122841801.741    23590473.658  
                 128151049.711                   128151049.711    24610067.957  
                 135300197.833                   135300197.833    25982988.735  
  23651288.519   124288336.050                                                  
  25296256.505   132932703.488                                                  
  24419089.593   128323154.909                                                  
  26186646.939   137611695.132                                                  
  24910381.440   130904886.659                                                  
  26465403.555   139076657.704                                                  
  25923020.741   136226352.168                                                  
 21  8 31 22 55 18.0000000  0 20G 1G10G12G21G23G24G25G31G32C21C22C26
                                C34E 3E 5E 8E13E15E24E25
  23881722.078   125499229.642    23881726.635    97791589.913                  
  20546056.274   107970206.852    20546059.348    84132616.481                  
  23469429.039   123332669.338    23469430.111    96103375.621                  
  23623923.897   124144540.249    23623924.201    96736001.613                  
  22592948.852   118726731.000    22592950.854    92514333.473                  
  24213353.883   127241971.970    24213358.064    99149573.008                  
  23104472.239   121414740.777    23104476.831    94608869.047                  
  22454443.107   117998885.546    22454444.143    91947180.433                  
  20570540.338   108098883.798    20570543.197    84232887.605                  
                 114838261.448                   114838261.448    22053479.243  
                 122843642.460                   122843642.460    23590827.143  
                 128147697.605                   128147697.605    24609424.226  
                 135302591.286                   135302591.286    25983448.380  
  23651244.007   124288102.081                                                  
  25296569.981   132934350.788                                                  
  24418731.320   128321272.047                                                  
  26186477.845   137610806.446                                                  
  24910717.503   130906652.681                                                  
  26465427.338   139076782.612                                                  
  25922575.695   136224013.495                                                  
 21  8 31 22 55 19.0000000  0 20G 1G10G12G21G23G24G25G31G32C21C22C26
                                C34E 3E 5E 8E13E15E24E25
  23881237.988   125496685.721    23881242.545    97789607.638                  
  20546256.461   107971258.746    20546259.499    84133436.136                  
  23469208.089   123331508.280    23469209.179    96102470.902                  
  23623699.408   124143360.512    23623699.694    96735082.336                  
  22593499.736   118729625.953    22593501.738    92516589.281                  
  24214048.166   127245620.396    24214052.347    99152415.933                  
  23104001.426   121412266.632    23104006.018    94606941.144                  
  22453783.901   117995421.397    22453784.937    91944481.098                  
  20570484.801   108098591.964    20570487.678    84232660.202                  
                 114837665.840                   114837665.840    22053364.863  
                 122845483.402                   122845483.402    23591180.681  
                 128144345.622                   128144345.622    24608780.512  
                 135304984.914                   135304984.914    25983908.060  
  23651199.495   124287868.238                                                  
  25296883.457   132935998.155                                                  
  24418373.028   128319389.234                                                  
  26186308.822   137609918.227                                                  
  24911053.637   130908419.086                                                  
  26465451.193   139076908.007                                                  
  25922130.720   136221675.089                                                  
 21  8 31 22 55 20.0000000  0 20G 1G10G12G21G23G24G25G31G32C21C22C26
                                C34E 3E 5E 8E13E15E24E25
  23880753.988   125494142.247    23880758.562    97787625.691                  
  20546456.719   107972311.128    20546459.775    84134256.176                  
  23468987.263   123330347.797    23468988.335    96101566.625                  
  23623474.991   124142181.272    23623475.295    96734163.452                  
  22594050.692   118732521.189    22594052.693    92518845.290                  
  24214742.449   127249269.019    24214746.612    99155259.050                  
  23103530.684   121409792.921    23103535.259    94605013.598                  
  22453124.748   117991957.610    22453125.785    91941782.059                  
  20570429.336   108098300.415    20570432.195    84232433.023                  
                 114837070.489                   114837070.489    22053250.519  
                 122847324.559                   122847324.559    23591534.256  
                 128140993.851                   128140993.851    24608136.798  
                 135307378.572                   135307378.572    25984367.795  
  23651155.037   124287634.559                                                  
  25297196.951   132937645.601                                                  
  24418014.754   128317506.483                                                  
  26186139.888   137609030.497                                                  
  24911389.860   130910185.894                                                  
  26465475.156   139077033.895                                                  
  25921685.782   136219336.988                                                  
 21  8 31 22 55 21.0000000  0 20G 1G10G12G21G23G24G25G31G32C21C22C26
                                C34E 3E 5E 8E13E15E24E25
  23880270.077   125491599.301    23880274.634    97785644.179                  
  20546657.084   107973364.028    20546660.140    84135076.613                  
  23468766.545   123329187.909    23468767.617    96100662.816                  
  23623250.699   124141002.507    23623250.985    96733244.938                  
  22594601.719   118735416.758    22594603.720    92521101.578                  
  24215436.768   127252917.729    24215440.967    99158102.199                  
  23103059.997   121407319.542    23103064.607    94603086.294                  
  22452465.667   117988494.118    22452466.704    91939083.235                  
  20570373.906   108098009.153    20570376.765    84232206.062                  
                 114836475.396                   114836475.396    22053136.247  
                 122849165.946                   122849165.946    23591887.884  
                 128137642.118                   128137642.118    24607493.138  
                 135309772.555                   135309772.555    25984827.547  
  23651110.579   124287401.015                                                  
  25297510.481   132939293.133                                                  
  24417656.480   128315623.806                                                  
  26185971.044   137608143.235                                                  
  24911726.138   130911953.098                                                  
  26465499.208   139077160.261                                                  
  25921240.897   136216999.130                                                  
 21  8 31 22 55 22.0000000  0 20G 1G10G12G21G23G24G25G31G32C21C22C26
                                C34E 3E 5E 8E13E15E24E25
  23879786.255   125489056.836    23879790.812    97783663.038                  
  20546857.539   107974417.425    20546860.595    84135897.442                  
  23468545.916   123328028.596    23468547.024    96099759.458                  
  23623026.479   124139824.235    23623026.765    96732326.804                  
  22595152.782   118738312.637    22595154.783    92523358.107                  
  24216131.122   127256566.569    24216135.303    99160945.449                  
  23102589.398   121404846.548    23102594.008    94601159.285                  
  22451806.640   117985030.956    22451807.676    91936384.669                  
  20570318.548   108097718.185    20570321.407    84231979.335                  
                 114835880.561                   114835880.561    22053022.028  
                 122851007.557                   122851007.557    23592241.547  
                 128134290.507                   128134290.507    24606849.496  
                 135312166.718                   135312166.718    25985287.299  
  23651066.174   124287167.632                                                  
  25297823.993   132940940.732                                                  
  24417298.242   128313741.199                                                  
  26185802.288   137607256.456                                                  
  24912062.504   130913720.696                                                  
  26465523.349   139077287.108                                                  
  25920796.083   136214661.531                                                  
 21  8 31 22 55 23.0000000  0 20G 1G10G12G21G23G24G25G31G32C21C22C26
                                C34E 3E 5E 8E13E15E24E25
  23879302.541   125486514.870    23879307.097    97781682.290                  
  20547058.083   107975471.329    20547061.139    84136718.663                  
  23468325.412   123326869.862    23468326.520    96098856.550                  
  23622802.365   124138646.462    23622802.633    96731409.055                  
  22595703.898   118741208.820    22595705.917    92525614.870                  
  24216825.494   127260215.556    24216829.676    99163788.813                  
  23102118.889   121402373.934    23102123.481    94599232.573                  
  22451147.702   117981568.122    22451148.720    91933686.359                  
  20570263.225   108097427.504    20570266.084    84231752.831                  
                 114835285.989                   114835285.989    22052907.845  
                 122852849.392                   122852849.392    23592595.247  
                 128130939.024                   128130939.024    24606205.872  
                 135314561.058                   135314561.058    25985747.122  
  23651021.806   124286934.388                                                  
  25298137.541   132942588.421                                                  
  24416940.004   128311858.644                                                  
  26185633.641   137606370.153                                                  
  24912398.942   130915488.686                                                  
  26465547.561   139077414.458                                                  
  25920351.305   136212324.208                                                  
 21  8 31 22 55 24.0000000  0 20G 1G10G12G21G23G24G25G31G32C21C22C26
                                C34E 3E 5E 8E13E15E24E25
  23878818.916   125483973.394    23878823.472    97779701.917                  
  20547258.734   107976525.729    20547261.772    84137540.278                  
  23468105.034   123325711.714    23468106.124    96097954.098                  
  23622578.324   124137469.173    23622578.592    96730491.687                  
  22596255.104   118744105.320    22596257.105    92527871.883                  
  24217519.903   127263864.672    24217524.084    99166632.282                  
  23101648.433   121399901.706    23101653.025    94597306.164                  
  22450488.799   117978105.613    22450489.818    91930988.300                  
  20570207.956   108097137.117    20570210.815    84231526.555                  
                 114834691.673                   114834691.673    22052793.698  
                 122854691.448                   122854691.448    23592949.000  
                 128127587.663                   128127587.663    24605562.283  
                 135316955.573                   135316955.573    25986206.964  
  23650977.437   124286701.301                                                  
  25298451.106   132944236.196                                                  
  24416581.783   128309976.152                                                  
  26185465.064   137605484.319                                                  
  24912735.452   130917257.079                                                  
  26465571.899   139077542.285                                                  
  25919906.581   136209987.163                                                  
 21  8 31 22 55 25.0000000  0 20G 1G10G12G21G23G24G25G31G32C21C22C26
                                C34E 3E 5E 8E13E15E24E25
  23878335.380   125481432.406    23878339.937    97777721.930                  
  20547459.475   107977580.637    20547462.549    84138362.282                  
  23467884.762   123324554.145    23467885.834    96097052.093                  
  23622354.371   124136292.383    23622354.675    96729574.712                  
  22596806.346   118747002.122    22596808.347    92530129.130                  
  24218214.346   127267513.925    24218218.528    99169475.851                  
  23101178.067   121397429.847    23101182.641    94595380.042                  
  22449829.968   117974643.431    22449831.005    91928290.491                  
  20570152.759   108096847.023    20570155.618    84231300.508                  
                 114834097.612                   114834097.612    22052679.622  
                 122856533.731                   122856533.731    23593302.789  
                 128124236.430                   128124236.430    24604918.712  
                 135319350.269                   135319350.269    25986666.841  
  23650933.104   124286468.350                                                  
  25298764.672   132945884.030                                                  
  24416223.563   128308093.738                                                  
  26185296.577   137604598.981                                                  
  24913072.068   130919025.870                                                  
  26465596.326   139077670.597                                                  
  25919461.892   136207650.385                                                  
 21  8 31 22 55 26.0000000  0 20G 1G10G12G21G23G24G25G31G32C21C22C26
                                C34E 3E 5E 8E13E15E24E25
  23877851.934   125478891.901    23877856.508    97775742.316                  
  20547660.323   107978636.044    20547663.361    84139184.675                  
  23467664.598   123323397.159    23467665.688    96096150.551                  
  23622130.544   124135116.077    23622130.812    96728658.110                  
  22597357.641   118749899.230    22597359.642    92532386.614                  
  24218908.808   127271163.323    24218912.972    99172319.535                  
  23100707.736   121394958.384    23100712.346    94593454.231                  
  22449171.191   117971181.565    22449172.228    91925592.940                  
  20570097.597   108096557.214    20570100.474    84231074.683                  
                 114833503.816                   114833503.816    22052565.582  
                 122858376.234                   122858376.234    23593656.613  
                 128120885.319                   128120885.319    24604275.159  
                 135321745.141                   135321745.141    25987126.736  
  23650888.806   124286235.552                                                  
  25299078.273   132947531.961                                                  
  24415865.361   128306211.386                                                  
  26185128.197   137603714.113                                                  
  24913408.721   130920795.055                                                  
  26465620.824   139077799.390                                                  
  25919017.257   136205313.860                                                  
 21  8 31 22 55 27.0000000  0 20G 1G10G12G21G23G24G25G31G32C21C22C26
                                C34E 3E 5E 8E13E15E24E25
  23877368.576   125476351.889    23877373.169    97773763.091                  
  20547861.242   107979691.949    20547864.298    84140007.461                  
  23467444.541   123322240.758    23467445.613    96095249.456                  
  23621906.806   124133940.267    23621907.074    96727741.890                  
  22597909.007   118752796.640    22597911.009    92534644.336                  
  24219603.288   127274812.852    24219607.451    99175163.325                  
  23100237.513   121392487.299    23100242.105    94591528.711                  
  22448512.485   117967720.034    22448513.522    91922895.646                  
  20570042.525   108096267.705    20570045.384    84230849.089                  
                 114832910.273                   114832910.273    22052451.595  
                 122860218.965                   122860218.965    23594010.491  
                 128117534.336                   128117534.336    24603631.642  
                 135324140.191                   135324140.191    25987586.703  
  23650844.545   124286002.906                                                  
  25299391.875   132949179.964                                                  
  24415507.176   128304329.090                                                  
  26184959.907   137602829.714                                                  
  24913745.462   130922564.642                                                  
  26465645.412   139077928.676                                                  
  25918572.694   136202977.617                                                  
 21  8 31 22 55 28.0000000  0 20G 1G10G12G21G23G24G25G31G32C21C22C26
                                C34E 3E 5E 8E13E15E24E25
  23876885.344   125473812.380    23876889.901    97771784.245                  
  20548062.287   107980748.371    20548065.342    84140830.649                  
  23467224.573   123321084.928    23467225.681    96094348.817                  
  23621683.139   124132764.941    23621683.425    96726826.058                  
  22598460.427   118755694.355    22598462.429    92536902.293                  
  24220297.785   127278462.505    24220301.966    99178007.208                  
  23099767.361   121390016.602    23099771.935    94589603.493                  
  22447853.833   117964258.829    22447854.852    91920198.602                  
  20569987.488   108095978.474    20569990.347    84230623.714                  
                 114832316.991                   114832316.991    22052337.663  
                 122862061.919                   122862061.919    23594364.423  
                 128114183.482                   128114183.482    24602988.143  
                 135326535.413                   135326535.413    25988046.651  
  23650800.301   124285770.395                                                  
  25299705.494   132950828.047                                                  
  24415148.991   128302446.856                                                  
  26184791.706   137601945.800                                                  
  24914082.276   130924334.616                                                  
  26465670.125   139078058.443                                                  
  25918128.184   136200641.640                                                  
 21  8 31 22 55 29.0000000  0 20G 1G10G12G21G23G24G25G31G32C21C22C26
                                C34E 3E 5E 8E13E15E24E25
  23876402.166   125471273.336    23876406.741    97769805.772                  
  20548263.402   107981805.289    20548266.458    84141654.219                  
  23467004.767   123319929.695    23467005.839    96093448.632                  
  23621459.580   124131590.105    23621459.866    96725910.597                  
  22599011.901   118758592.387    22599013.902    92539160.500                  
  24220992.318   127282112.304    24220996.500    99180851.207                  
  23099297.263   121387546.278    23099301.855    94587678.567                  
  22447195.253   117960797.946    22447196.271    91917501.813                  
  20569932.505   108095689.536    20569935.364    84230398.570                  
                 114831723.972                   114831723.972    22052223.783  
                 122863905.094                   122863905.094    23594718.373  
                 128110832.746                   128110832.746    24602344.662  
                 135328930.815                   135328930.815    25988506.671  
  23650756.075   124285538.048                                                  
  25300019.131   132952476.207                                                  
  24414790.843   128300564.698                                                  
  26184623.594   137601062.378                                                  
  24914419.160   130926104.984                                                  
  26465694.891   139078188.700                                                  
  25917683.692   136198305.945                                                  
 21  8 31 22 55 30.0000000  0 20G 1G10G12G21G23G24G25G31G32C21C22C26
                                C34E 3E 5E 8E13E15E24E25
  23875919.095   125468734.798    23875923.652    97767827.690                  
  20548464.625   107982862.703    20548467.681    84142478.175                  
  23466785.031   123318775.048    23466786.121    96092548.905                  
  23621236.092   124130415.768    23621236.378    96724995.532                  
  22599563.446   118761490.724    22599565.448    92541418.942                  
  24221686.887   127285762.245    24221691.069    99183695.316                  
  23098827.254   121385076.353    23098831.846    94585753.950                  
  22446536.743   117957337.395    22446537.762    91914805.282                  
  20569877.558   108095400.895    20569880.435    84230173.657                  
                 114831131.208                   114831131.208    22052109.940  
                 122865748.491                   122865748.491    23595072.376  
                 128107482.138                   128107482.138    24601701.216  
                 135331326.397                   135331326.397    25988966.727  
  23650711.903   124285305.839                                                  
  25300332.786   132954124.448                                                  
  24414432.676   128298682.601                                                  
  26184455.572   137600179.414                                                  
  24914756.134   130927875.759                                                  
  26465719.783   139078319.444                                                  
  25917239.272   136195970.515                                                  
 21  8 31 22 55 31.0000000  0 20G 1G10G12G21G23G24G25G31G32C21C22C26
                                C34E 3E 5E 8E13E15E24E25
  23875436.113   125466196.746    23875440.688    97765849.993                  
  20548665.938   107983920.630    20548668.993    84143302.534                  
  23466565.421   123317620.976    23466566.493    96091649.629                  
  23621012.711   124129241.930    23621013.015    96724080.853                  
  22600115.027   118764389.360    22600117.047    92543677.622                  
  24222381.456   127289412.311    24222385.655    99186539.524                  
  23098357.316   121382606.789    23098361.909    94583829.614                  
  22445878.252   117953877.164    22445879.306    91912109.000                  
  20569822.700   108095112.547    20569825.559    84229948.968                  
                 114830538.703                   114830538.703    22051996.168  
                 122867592.114                   122867592.114    23595426.433  
                 128104131.652                   128104131.652    24601057.806  
                 135333722.151                   135333722.151    25989426.801  
  23650667.749   124285073.786                                                  
  25300646.441   132955772.772                                                  
  24414074.545   128296800.569                                                  
  26184287.639   137599296.941                                                  
  24915093.180   130929646.922                                                  
  26465744.764   139078450.667                                                  
  25916794.923   136193635.351                                                  
 21  8 31 22 55 32.0000000  0 20G 1G10G12G21G23G24G25G31G32C21C22C26
                                C34E 3E 5E 8E13E15E24E25
  23874953.239   125463659.182    23874957.795    97763872.672                  
  20548867.340   107984979.050    20548870.395    84144127.277                  
  23466345.918   123316467.486    23466347.008    96090750.810                  
  23620789.438   124128068.579    23620789.742    96723166.551                  
  22600666.680   118767288.305    22600668.681    92545936.535                  
  24223076.079   127293062.527    24223080.260    99189383.844                  
  23097887.433   121380137.632    23097892.043    94581905.598                  
  22445219.886   117950417.262    22445220.904    91909412.973                  
  20569767.878   108094824.475    20569770.737    84229724.499                  
                 114829946.457                   114829946.457    22051882.431  
                 122869435.961                   122869435.961    23595780.525  
                 128100781.298                   128100781.298    24600414.396  
                 135336118.085                   135336118.085    25989886.928  
  23650623.594   124284841.871                                                  
  25300960.114   132957421.169                                                  
  24413716.396   128294918.587                                                  
  26184119.795   137598414.937                                                  
  24915430.279   130931418.477                                                  
  26465769.816   139078582.380                                                  
  25916350.592   136191300.455                                                  
 21  8 31 22 55 33.0000000  0 20G 1G10G12G21G23G24G25G31G32C21C22C26
                                C34E 3E 5E 8E13E15E24E25
  23874470.435   125461122.117    23874475.028    97761895.738                  
  20549068.866   107986037.975    20549071.922    84144952.414                  
  23466126.522   123315314.579    23466127.594    96089852.438                  
  23620566.254   124126895.710    23620566.540    96722252.633                  
  22601218.386   118770187.557    22601220.405    92548195.691                  
  24223770.719   127296712.855    24223774.900    99192228.255                  
  23097417.656   121377668.840    23097422.248    94579981.866                  
  22444561.537   117946957.688    22444562.556    91906717.203                  
  20569713.127   108094536.700    20569715.986    84229500.259                  
                 114829354.469                   114829354.469    22051768.749  
                 122871280.032                   122871280.032    23596134.653  
                 128097431.062                   128097431.062    24599771.022  
                 135338514.196                   135338514.196    25990347.073  
  23650579.494   124284610.111                                                  
  25301273.822   132959069.645                                                  
  24413358.301   128293036.684                                                  
  26183952.058   137597533.414                                                  
  24915767.485   130933190.441                                                  
  26465794.976   139078714.583                                                  
  25915906.332   136188965.828                                                  
 21  8 31 22 55 34.0000000  0 20G 1G10G12G21G23G24G25G31G32C21C22C26
                                C34E 3E 5E 8E13E15E24E25
  23873987.757   125458585.550    23873992.314    97759919.195                  
  20549270.465   107987097.394    20549273.520    84145777.937                  
  23465907.233   123314162.242    23465908.323    96088954.516                  
  23620343.159   124125723.345    23620343.445    96721339.098                  
  22601770.164   118773087.112    22601772.165    92550455.087                  
  24224465.377   127300363.335    24224469.559    99195072.780                  
  23096947.915   121375200.426    23096952.525    94578058.429                  
  22443903.260   117943498.443    22443904.297    91904021.687                  
  20569658.412   108094249.218    20569661.272    84229276.247                  
                 114828762.738                   114828762.738    22051655.119  
                 122873124.324                   122873124.324    23596488.835  
                 128094080.957                   128094080.957    24599127.666  
                 135340910.479                   135340910.479    25990807.254  
  23650535.429   124284378.495                                                  
  25301587.549   132960718.195                                                  
  24413000.206   128291154.849                                                  
  26183784.393   137596652.366                                                  
  24916104.763   130934962.789                                                  
  26465820.225   139078847.249                                                  
  25915462.126   136186631.468                                                  
 21  8 31 22 55 35.0000000  0 20G 1G10G12G21G23G24G25G31G32C21C22C26
                                C34E 3E 5E 8E13E15E24E25
  23873505.169   125456049.468    23873509.725    97757943.027                  
  20549472.152   107988157.328    20549475.226    84146603.855                  
  23465688.088   123313010.491    23465689.160    96088057.048                  
  23620120.154   124124551.461    23620120.440    96720425.946                  
  22602321.977   118775986.972    22602323.978    92552714.716                  
  24225160.071   127304013.953    24225164.253    99197917.418                  
  23096478.281   121372732.417    23096482.856    94576135.305                  
  22443245.037   117940039.514    22443246.073    91901326.418                  
  20569603.751   108093962.020    20569606.628    84229052.456                  
                 114828171.271                   114828171.271    22051541.526  
                 122874968.840                   122874968.840    23596843.053  
                 128090730.978                   128090730.978    24598484.327  
                 135343306.943                   135343306.943    25991267.471  
  23650491.381   124284147.023                                                  
  25301901.257   132962366.824                                                  
  24412642.093   128289273.064                                                  
  26183616.836   137595771.805                                                  
  24916442.094   130936735.537                                                  
  26465845.563   139078980.414                                                  
  25915017.956   136184297.376                                                  
 21  8 31 22 55 36.0000000  0 20G 1G10G12G21G23G24G25G31G32C21C22C26
                                C34E 3E 5E 8E13E15E24E25
  23873022.634   125453513.858    23873027.208    97755967.231                  
  20549673.947   107989217.753    20549677.003    84147430.165                  
  23465469.013   123311859.331    23465470.103    96087160.044                  
  23619897.255   124123380.067    23619897.541    96719513.167                  
  22602873.862   118778887.143    22602875.881    92554974.587                  
  24225854.783   127307664.707    24225858.982    99200762.161                  
  23096008.701   121370264.786    23096013.276    94574212.476                  
  22442586.903   117936580.921    22442587.922    91898631.415                  
  20569549.161   108093675.114    20569552.020    84228828.890                  
                 114827580.060                   114827580.060    22051427.986  
                 122876813.580                   122876813.580    23597197.324  
                 128087381.120                   128087381.120    24597841.025  
                 135345703.577                   135345703.577    25991727.724  
  23650447.352   124283915.706                                                  
  25302215.002   132964015.535                                                  
  24412284.015   128287391.351                                                  
  26183449.367   137594891.717                                                  
  24916779.515   130938508.680                                                  
  26465871.008   139079114.064                                                  
  25914573.839   136181963.562                                                  
 21  8 31 22 55 37.0000000  0 20G 1G10G12G21G23G24G25G31G32C21C22C26
                                C34E 3E 5E 8E13E15E24E25
  23872540.224   125450978.747    23872544.798    97753991.820                  
  20549875.832   107990278.685    20549878.905    84148256.863                  
  23465250.064   123310708.745    23465251.136    96086263.484                  
  23619674.447   124122209.164    23619674.715    96718600.777                  
  22603425.800   118781787.620    22603427.819    92557234.698                  
  24226549.513   127311315.577    24226553.712    99203606.993                  
  23095539.193   121367797.534    23095543.785    94572289.944                  
  22441928.823   117933122.653    22441929.841    91895936.656                  
  20569494.625   108093388.500    20569497.484    84228605.555                  
                 114826989.111                   114826989.111    22051314.500  
                 122878658.543                   122878658.543    23597551.613  
                 128084031.390                   128084031.390    24597197.740  
                 135348100.390                   135348100.390    25992187.994  
  23650403.359   124283684.527                                                  
  25302528.746   132965664.316                                                  
  24411925.956   128285509.686                                                  
  26183281.988   137594012.105                                                  
  24917117.007   130940282.211                                                  
  26465896.525   139079248.212                                                  
  25914129.776   136179630.012                                                  
 21  8 31 22 55 38.0000000  0 20G 1G10G12G21G23G24G25G31G32C21C22C26
                                C34E 3E 5E 8E13E15E24E25
  23872057.903   125448444.141    23872062.459    97752016.805                  
  20550077.823   107991340.113    20550080.879    84149083.950                  
  23465031.222   123309558.758    23465032.294    96085367.386                  
  23619451.727   124121038.762    23619451.995    96717688.778                  
  22603977.792   118784688.407    22603979.811    92559495.048                  
  24227244.296   127314966.597    24227248.478    99206451.941                  
  23095069.756   121365330.661    23095074.366    94570367.708                  
  22441270.778   117929664.710    22441271.814    91893242.160                  
  20569440.142   108093102.171    20569443.001    84228382.446                  
                 114826398.414                   114826398.414    22051201.068  
                 122880503.731                   122880503.731    23597905.974  
                 128080681.789                   128080681.789    24596554.473  
                 135350497.382                   135350497.382    25992648.318  
  23650359.401   124283453.507                                                  
  25302842.526   132967313.192                                                  
  24411567.896   128283628.100                                                  
  26183114.680   137593132.967                                                  
  24917454.571   130942056.143                                                  
  26465922.132   139079382.827                                                  
  25913685.784   136177296.741                                                  
 21  8 31 22 55 39.0000000  0 20G 1G10G12G21G23G24G25G31G32C21C22C26
                                C34E 3E 5E 8E13E15E24E25
  23871575.672   125445910.007    23871580.246    97750042.157                  
  20550279.904   107992402.063    20550282.959    84149911.441                  
  23464812.505   123308409.347    23464813.578    96084471.747                  
  23619229.079   124119868.847    23619229.383    96716777.152                  
  22604529.873   118787589.502    22604531.875    92561755.644                  
  24227939.080   127318617.750    24227943.279    99209296.992                  
  23094600.426   121362864.186    23094605.000    94568445.782                  
  22440612.823   117926207.097    22440613.859    91890547.918                  
  20569385.695   108092816.130    20569388.554    84228159.555                  
                 114825807.980                   114825807.980    22051087.689  
                 122882349.139                   122882349.139    23598260.352  
                 128077332.312                   128077332.312    24595911.259  
                 135352894.546                   135352894.546    25993108.677  
  23650315.461   124283222.630                                                  
  25303156.306   132968962.140                                                  
  24411209.855   128281746.582                                                  
  26182947.480   137592254.320                                                  
  24917792.224   130943830.472                                                  
  26465947.845   139079517.929                                                  
  25913241.828   136174963.735                                                  
 21  8 31 22 55 40.0000000  0 20G 1G10G12G21G23G24G25G31G32C21C22C26
                                C34E 3E 5E 8E13E15E24E25
  23871093.547   125443376.369    23871098.104    97748067.891                  
  20550482.074   107993464.492    20550485.147    84150739.308                  
  23464593.878   123307260.516    23464594.968    96083576.554                  
  23619006.556   124118699.425    23619006.842    96715865.918                  
  22605081.973   118790490.894    22605083.992    92564016.464                  
  24228633.899   127322269.034    24228638.098    99212142.149                  
  23094131.132   121360398.096    23094135.724    94566524.153                  
  22439954.921   117922749.809    22439955.940    91887853.925                  
  20569331.320   108092530.382    20569334.197    84227936.894                  
                 114825217.804                   114825217.804    22050974.345  
                 122884194.778                   122884194.778    23598614.802  
                 128073982.960                   128073982.960    24595268.046  
                 135355291.887                   135355291.887    25993569.055  
  23650271.557   124282991.897                                                  
  25303470.104   132970611.160                                                  
  24410851.813   128279865.113                                                  
  26182780.369   137591376.146                                                  
  24918129.949   130945605.192                                                  
  26465973.666   139079653.536                                                  
  25912797.926   136172631.004                                                  
 21  8 31 22 55 41.0000000  0 20G 1G10G12G21G23G24G25G31G32C21C22C26
                                C34E 3E 5E 8E13E15E24E25
  23870611.495   125440843.230    23870616.051    97746094.019                  
  20550684.333   107994527.429    20550687.407    84151567.574                  
  23464375.376   123306112.278    23464376.466    96082681.821                  
  23618784.123   124117530.500    23618784.408    96714955.067                  
  22605634.161   118793392.597    22605636.180    92566277.531                  
  24229328.736   127325920.462    24229332.935    99214987.413                  
  23093661.927   121357932.379    23093666.501    94564602.815                  
  22439297.073   117919292.855    22439298.127    91885160.200                  
  20569276.998   108092244.931    20569279.875    84227714.460                  
                 114824627.890                   114824627.890    22050861.056  
                 122886040.634                   122886040.634    23598969.288  
                 128070633.734                   128070633.734    24594624.868  
                 135357689.406                   135357689.406    25994029.486  
  23650227.688   124282761.317                                                  
  25303783.920   132972260.261                                                  
  24410493.807   128277983.715                                                  
  26182613.347   137590498.452                                                  
  24918467.727   130947380.313                                                  
  26465999.540   139079789.618                                                  
  25912354.060   136170298.543                                                  
 21  8 31 22 55 42.0000000  0 20G 1G10G12G21G23G24G25G31G32C21C22C26
                                C34E 3E 5E 8E13E15E24E25
  23870129.567   125438310.583    23870134.124    97744120.526                  
  20550886.718   107995590.879    20550889.756    84152396.230                  
  23464156.980   123304964.606    23464158.052    96081787.536                  
  23618561.760   124116362.064    23618562.064    96714044.593                  
  22606186.403   118796294.614    22606188.422    92568538.843                  
  24230023.626   127329572.019    24230027.808    99217832.785                  
  23093192.776   121355467.055    23093197.368    94562681.786                  
  22438639.296   117915836.210    22438640.333    91882466.710                  
  20569222.748   108091959.761    20569225.607    84227492.254                  
                 114824038.234                   114824038.234    22050747.820  
                 122887886.714                   122887886.714    23599323.792  
                 128067284.638                   128067284.638    24593981.709  
                 135360087.096                   135360087.096    25994489.935  
  23650183.838   124282530.878                                                  
  25304097.736   132973909.450                                                  
  24410135.801   128276102.376                                                  
  26182446.415   137589621.231                                                  
  24918805.594   130949155.824                                                  
  26466025.540   139079926.181                                                  
  25911910.265   136167966.352                                                  
 21  8 31 22 55 43.0000000  0 20G 1G10G12G21G23G24G25G31G32C21C22C26
                                C34E 3E 5E 8E13E15E24E25
  23869647.693   125435778.421    23869652.268    97742147.418                  
  20551089.174   107996654.827    20551092.247    84153225.286                  
  23463938.692   123303817.531    23463939.782    96080893.711                  
  23618339.523   124115194.130    23618339.791    96713134.519                  
  22606738.699   118799196.930    22606740.700    92570800.384                  
  24230718.517   127333223.702    24230722.698    99220678.250                  
  23092723.714   121353002.118    23092728.306    94560761.054                  
  22437981.591   117912379.911    22437982.628    91879773.492                  
  20569168.533   108091674.888    20569171.392    84227270.273                  
                 114823448.835                   114823448.835    22050634.637  
                 122889733.018                   122889733.018    23599678.367  
                 128063935.664                   128063935.664    24593338.567  
                 135362484.964                   135362484.964    25994950.420  
  23650140.023   124282300.606                                                  
  25304411.605   132975558.710                                                  
  24409777.795   128274221.118                                                  
  26182279.571   137588744.500                                                  
  24919143.533   130950931.747                                                  
  26466051.628   139080063.235                                                  
  25911466.523   136165634.431                                                  
 21  8 31 22 55 44.0000000  0 20G 1G10G12G21G23G24G25G31G32C21C22C26
                                C34E 3E 5E 8E13E15E24E25
  23869165.944   125433246.761    23869170.501    97740174.695                  
  20551291.737   107997719.272    20551294.793    84154054.723                  
  23463720.547   123302671.042    23463721.619    96080000.343                  
  23618117.358   124114026.674    23618117.644    96712224.811                  
  22607291.048   118802099.546    22607293.068    92573062.164                  
  24231413.443   127336875.547    24231417.624    99223523.841                  
  23092254.723   121350537.552    23092259.316    94558840.617                  
  22437323.940   117908923.926    22437324.958    91877080.515                  
  20569114.372   108091390.293    20569117.231    84227048.515                  
                 114822859.700                   114822859.700    22050521.509  
                 122891579.546                   122891579.546    23600032.977  
                 128060586.816                   128060586.816    24592695.443  
                 135364883.009                   135364883.009    25995410.940  
  23650096.226   124282070.460                                                  
  25304725.439   132977208.052                                                  
  24409419.825   128272339.902                                                  
  26182112.836   137587868.235                                                  
  24919481.562   130952708.042                                                  
  26466077.789   139080200.778                                                  
  25911022.817   136163302.777                                                  
 21  8 31 22 55 45.0000000  0 20G 1G10G12G21G23G24G25G31G32C21C22C26
                                C34E 3E 5E 8E13E15E24E25
  23868684.267   125430715.591    23868688.842    97738202.355                  
  20551494.372   107998784.222    20551497.445    84154884.551                  
  23463502.474   123301525.128    23463503.564    96079107.425                  
  23617895.299   124112859.718    23617895.585    96711315.497                  
  22607843.451   118805002.464    22607845.453    92575324.176                  
  24232108.387   127340527.512    24232112.587    99226369.523                  
  23091785.805   121348073.372    23091790.397    94556920.477                  
  22436666.360   117905468.284    22436667.378    91874387.812                  
  20569060.283   108091106.001    20569063.142    84226826.989                  
                 114822270.821                   114822270.821    22050408.398  
                 122893426.301                   122893426.301    23600387.624  
                 128057238.098                   128057238.098    24592052.355  
                 135367281.226                   135367281.226    25995871.496  
  23650052.465   124281840.482                                                  
  25305039.326   132978857.473                                                  
  24409061.855   128270458.765                                                  
  26181946.171   137586992.458                                                  
  24919819.661   130954484.747                                                  
  26466104.038   139080338.788                                                  
  25910579.165   136160971.398                                                  
 21  8 31 22 55 46.0000000  0 20G 1G10G12G21G23G24G25G31G32C21C22C26
                                C34E 3E 5E 8E13E15E24E25
  23868202.697   125428184.905    23868207.253    97736230.394                  
  20551697.132   107999849.676    20551700.205    84155714.773                  
  23463284.525   123300379.798    23463285.597    96078214.958                  
  23617673.313   124111693.251    23617673.598    96710406.559                  
  22608395.926   118807905.695    22608397.945    92577586.434                  
  24232803.367   127344179.609    24232807.549    99229215.313                  
  23091316.957   121345609.583    23091321.532    94555000.641                  
  22436008.815   117902012.971    22436009.852    91871695.364                  
  20569006.247   108090821.993    20569009.106    84226605.684                  
                 114821682.201                   114821682.201    22050295.358  
                 122895273.274                   122895273.274    23600742.324  
                 128053889.505                   128053889.505    24591409.302  
                 135369679.620                   135369679.620    25996332.088  
  23650008.721   124281610.638                                                  
  25305353.213   132980506.974                                                  
  24408703.903   128268577.687                                                  
  26181779.614   137586117.153                                                  
  24920157.815   130956261.835                                                  
  26466130.395   139080477.297                                                  
  25910135.567   136158640.284                                                  
 21  8 31 22 55 47.0000000  0 20G 1G10G12G21G23G24G25G31G32C21C22C26
                                C34E 3E 5E 8E13E15E24E25
  23867721.216   125425654.715    23867725.773    97734258.820                  
  20551899.981   108000915.632    20551903.036    84156545.391                  
  23463066.684   123299235.020    23463067.756    96077322.923                  
  23617451.433   124110527.274    23617451.719    96709498.008                  
  22608948.436   118810809.241    22608950.455    92579848.938                  
  24233498.365   127347831.839    24233502.546    99232061.206                  
  23090848.199   121343146.175    23090852.774    94553081.105                  
  22435351.360   117898557.972    22435352.379    91869003.157                  
  20568952.247   108090538.276    20568955.106    84226384.606                  
                 114821093.839                   114821093.839    22050182.372  
                 122897120.474                   122897120.474    23601097.060  
                 128050541.038                   128050541.038    24590766.267  
                 135372078.191                   135372078.191    25996792.698  
  23649964.996   124281380.941                                                  
  25305667.118   132982156.550                                                  
  24408345.933   128266696.676                                                  
  26181613.146   137585242.324                                                  
  24920496.075   130958039.324                                                  
  26466156.859   139080616.305                                                  
  25909692.022   136156309.449                                                  
 21  8 31 22 55 48.0000000  0 20G 1G10G12G21G23G24G25G31G32C21C22C26
                                C34E 3E 5E 8E13E15E24E25
  23867239.825   125423125.018    23867244.381    97732287.630                  
  20552102.919   108001982.087    20552105.975    84157376.394                  
  23462848.932   123298090.825    23462850.022    96076431.343                  
  23617229.660   124109361.790    23617229.946    96708589.839                  
  22609501.036   118813713.083    22609503.037    92582111.667                  
  24234193.381   127351484.206    24234197.562    99234907.207                  
  23090379.495   121340683.157    23090384.087    94551161.870                  
  22434693.959   117895103.314    22434694.978    91866311.216                  
  20568898.300   108090254.852    20568901.177    84226163.754                  
                 114820505.739                   114820505.739    22050069.440  
                 122898967.897                   122898967.897    23601451.831  
                 128047192.695                   128047192.695    24590123.233  
                 135374476.934                   135374476.934    25997253.361  
  23649921.324   124281151.391                                                  
  25305981.041   132983806.200                                                  
  24407988.016   128264815.721                                                  
  26181446.768   137584367.981                                                  
  24920834.408   130959817.212                                                  
  26466183.395   139080755.788                                                  
  25909248.548   136153978.887                                                  
 21  8 31 22 55 49.0000000  0 20G 1G10G12G21G23G24G25G31G32C21C22C26
                                C34E 3E 5E 8E13E15E24E25
  23866758.540   125420595.805    23866763.097    97730316.817                  
  20552305.965   108003049.052    20552309.021    84158207.794                  
  23462631.323   123296947.230    23462632.395    96075540.234                  
  23617007.959   124108196.797    23617008.263    96707682.050                  
  22610053.689   118816617.239    22610055.672    92584374.644                  
  24234888.414   127355136.711    24234892.613    99237753.312                  
  23089910.879   121338220.536    23089915.454    94549242.949                  
  22434036.611   117891648.981    22434037.648    91863619.528                  
  20568844.425   108089971.713    20568847.302    84225943.124                  
                 114819917.896                   114819917.896    22049956.562  
                 122900815.542                   122900815.542    23601806.657  
                 128043844.483                   128043844.483    24589480.252  
                 135376875.854                   135376875.854    25997714.043  
  23649877.688   124280922.008                                                  
  25306294.982   132985455.939                                                  
  24407630.100   128262934.840                                                  
  26181280.461   137583494.114                                                  
  24921172.793   130961595.485                                                  
  26466210.037   139080895.758                                                  
  25908805.075   136151648.591                                                  
 21  8 31 22 55 50.0000000  0 20G 1G10G12G21G23G24G25G31G32C21C22C26
                                C34E 3E 5E 8E13E15E24E25
  23866277.345   125418067.086    23866281.902    97728346.386                  
  20552509.082   108004116.511    20552512.138    84159039.582                  
  23462413.821   123295804.206    23462414.894    96074649.567                  
  23616786.384   124107032.302    23616786.652    96706774.653                  
  22610606.378   118819521.695    22610608.397    92586637.856                  
  24235583.501   127358789.345    24235587.701    99240599.521                  
  23089442.318   121335758.284    23089446.892    94547324.314                  
  22433379.335   117888194.977    22433380.371    91860928.098                  
  20568790.603   108089688.868    20568793.462    84225722.727                  
                 114819330.313                   114819330.313    22049843.719  
                 122902663.413                   122902663.413    23602161.517  
                 128040496.399                   128040496.399    24588837.288  
                 135379274.949                   135379274.949    25998174.760  
  23649834.034   124280692.742                                                  
  25306608.923   132987105.750                                                  
  24407272.183   128261054.011                                                  
  26181114.261   137582620.720                                                  
  24921511.268   130963374.157                                                  
  26466236.751   139081036.210                                                  
  25908361.709   136149318.566                                                  
 21  8 31 22 55 51.0000000  0 20G 1G10G12G21G23G24G25G31G32C21C22C26
                                C34E 3E 5E 8E13E15E24E25
  23865796.222   125415538.859    23865800.779    97726376.339                  
  20552712.325   108005184.468    20552715.380    84159871.759                  
  23462196.427   123294661.779    23462197.499    96073759.363                  
  23616564.861   124105868.294    23616565.165    96705867.632                  
  22611159.138   118822426.458    22611161.139    92588901.305                  
  24236278.606   127362442.096    24236282.788    99243445.816                  
  23088973.846   121333296.429    23088978.420    94545405.985                  
  22432722.148   117884741.301    22432723.167    91858236.922                  
  20568736.835   108089406.313    20568739.695    84225502.554                  
                 114818742.993                   114818742.993    22049730.912  
                 122904511.514                   122904511.514    23602516.414  
                 128037148.458                   128037148.458    24588194.343  
                 135381674.230                   135381674.230    25998635.513  
  23649790.433   124280463.644                                                  
  25306922.882   132988755.638                                                  
  24406914.284   128259173.258                                                  
  26180948.168   137581747.812                                                  
  24921849.797   130965153.219                                                  
  26466263.573   139081177.151                                                  
  25907918.361   136146988.807                                                  
 21  8 31 22 55 52.0000000  0 20G 1G10G12G21G23G24G25G31G32C21C22C26
                                C34E 3E 5E 8E13E15E24E25
  23865315.224   125413011.128    23865319.780    97724406.681                  
  20552915.638   108006252.933    20552918.694    84160704.324                  
  23461979.122   123293519.929    23461980.194    96072869.610                  
  23616343.464   124104704.777    23616343.732    96704960.995                  
  22611711.952   118825331.524    22611713.953    92591164.993                  
  24236973.711   127366095.003    24236977.928    99246292.239                  
  23088505.445   121330834.940    23088510.020    94543487.946                  
  22432064.979   117881287.954    22432065.998    91855546.005                  
  20568683.121   108089124.039    20568685.980    84225282.601                  
                 114818155.928                   114818155.928    22049618.176  
                 122906359.831                   122906359.831    23602871.382  
                 128033800.621                   128033800.621    24587551.434  
                 135384073.677                   135384073.677    25999096.319  
  23649746.886   124280234.687                                                  
  25307236.858   132990405.616                                                  
  24406556.404   128257292.558                                                  
  26180782.147   137580875.380                                                  
  24922188.415   130966932.680                                                  
  26466290.501   139081318.565                                                  
  25907475.084   136144659.331                                                  
 21  8 31 22 55 53.0000000  0 20G 1G10G12G21G23G24G25G31G32C21C22C26
                                C34E 3E 5E 8E13E15E24E25
  23864834.297   125410483.899    23864838.853    97722437.411                  
  20553119.059   108007321.906    20553122.115    84161537.290                  
  23461761.959   123292378.663    23461763.032    96071980.317                  
  23616122.138   124103541.749    23616122.424    96704054.742                  
  22612264.819   118828236.895    22612266.839    92593428.919                  
  24237668.888   127369748.040    24237673.051    99249138.759                  
  23088037.098   121328373.856    23088041.672    94541570.214                  
  22431407.899   117877834.945    22431408.918    91852855.348                  
  20568629.461   108088842.059    20568632.320    84225062.879                  
                 114817569.126                   114817569.126    22049505.494  
                 122908208.374                   122908208.374    23603226.368  
                 128030452.918                   128030452.918    24586908.542  
                 135386473.292                   135386473.292    25999557.143  
  23649703.340   124280005.879                                                  
  25307550.853   132992055.663                                                  
  24406198.523   128255411.929                                                  
  26180616.198   137580003.427                                                  
  24922527.122   130968712.532                                                  
  26466317.502   139081460.484                                                  
  25907031.843   136142330.118                                                  
 21  8 31 22 55 54.0000000  0 20G 1G10G12G21G23G24G25G31G32C21C22C26
                                C34E 3E 5E 8E13E15E24E25
  23864353.477   125407957.148    23864358.034    97720468.519                  
  20553322.552   108008391.380    20553325.625    84162370.644                  
  23461544.887   123291237.984    23461545.959    96071091.476                  
  23615900.920   124102379.215    23615901.206    96703148.871                  
  22612817.758   118831142.571    22612819.778    92595693.077                  
  24238364.046   127373401.202    24238368.246    99251985.374                  
  23087568.858   121325913.157    23087573.433    94539652.788                  
  22430750.855   117874382.249    22430751.892    91850164.938                  
  20568575.853   108088560.376    20568578.712    84224843.383                  
                 114816982.579                   114816982.579    22049392.865  
                 122910057.138                   122910057.138    23603581.408  
                 128027105.341                   128027105.341    24586265.668  
                 135388873.085                   135388873.085    26000018.003  
  23649659.829   124279777.224                                                  
  25307864.865   132993705.794                                                  
  24405840.660   128253531.364                                                  
  26180450.355   137579131.945                                                  
  24922865.901   130970492.794                                                  
  26466344.609   139081602.878                                                  
  25906588.655   136140001.184                                                  
 21  8 31 22 55 55.0000000  0 20G 1G10G12G21G23G24G25G31G32C21C22C26
                                C34E 3E 5E 8E13E15E24E25
  23863872.747   125405430.887    23863877.303    97718500.004                  
  20553526.187   108009461.356    20553529.243    84163204.394                  
  23461327.939   123290097.895    23461329.029    96070203.093                  
  23615679.773   124101217.167    23615680.077    96702243.380                  
  22613370.751   118834048.558    22613372.752    92597957.485                  
  24239059.259   127377054.511    24239063.440    99254832.108                  
  23087100.654   121323452.839    23087105.246    94537735.660                  
  22430093.901   117870929.891    22430094.919    91847474.789                  
  20568522.318   108088278.977    20568525.177    84224624.113                  
                 114816396.293                   114816396.293    22049280.255  
                 122911906.126                   122911906.126    23603936.483  
                 128023757.888                   128023757.888    24585622.812  
                 135391273.052                   135391273.052    26000478.881  
  23649616.335   124279548.715                                                  
  25308178.895   132995356.005                                                  
  24405482.815   128251650.867                                                  
  26180284.620   137578260.954                                                  
  24923204.733   130972273.432                                                  
  26466371.788   139081745.759                                                  
  25906145.521   136137672.515                                                  
 21  8 31 22 55 56.0000000  0 20G 1G10G12G21G23G24G25G31G32C21C22C26
                                C34E 3E 5E 8E13E15E24E25
  23863392.106   125402905.128    23863396.662    97716531.878                  
  20553729.876   108010531.819    20553732.932    84164038.524                  
  23461111.098   123288958.388    23461112.188    96069315.165                  
  23615458.769   124100055.625    23615459.037    96701338.281                  
  22613923.797   118836954.848    22613925.817    92600222.122                  
  24239754.489   127380707.940    24239758.652    99257678.934                  
  23086632.557   121320992.912    23086637.131    94535818.835                  
  22429437.000   117867477.853    22429438.018    91844784.892                  
  20568468.818   108087997.868    20568471.677    84224405.068                  
                 114815810.270                   114815810.270    22049167.716  
                 122913755.335                   122913755.335    23604291.594  
                 128020410.563                   128020410.563    24584979.992  
                 135393673.190                   135393673.190    26000939.795  
  23649572.878   124279320.348                                                  
  25308492.943   132997006.288                                                  
  24405124.988   128249770.426                                                  
  26180118.956   137577390.432                                                  
  24923543.655   130974054.472                                                  
  26466399.056   139081889.133                                                  
  25905702.441   136135344.112                                                  
 21  8 31 22 55 57.0000000  0 20G 1G10G12G21G23G24G25G31G32C21C22C26
                                C34E 3E 5E 8E13E15E24E25
  23862911.554   125400379.847    23862916.129    97714564.129                  
  20553933.672   108011602.802    20553936.746    84164873.051                  
  23460894.365   123287819.461    23460895.437    96068427.691                  
  23615237.800   124098894.557    23615238.104    96700433.554                  
  22614476.897   118839861.437    22614478.916    92602486.996                  
  24240449.737   127384361.522    24240453.918    99260525.879                  
  23086164.514   121318533.368    23086169.106    94533902.308                  
  22428780.152   117864026.152    22428781.189    91842095.257                  
  20568415.372   108087717.042    20568418.249    84224186.242                  
                 114815224.505                   114815224.505    22049055.248  
                 122915604.771                   122915604.771    23604646.777  
                 128017063.366                   128017063.366    24584337.225  
                 135396073.506                   135396073.506    26001400.762  
  23649529.456   124279092.133                                                  
  25308806.974   132998656.652                                                  
  24404767.161   128247890.055                                                  
  26179953.400   137576520.395                                                  
  24923882.666   130975835.906                                                  
  26466426.431   139082032.968                                                  
  25905259.414   136133015.991                                                  
 21  8 31 22 55 58.0000000  0 20G 1G10G12G21G23G24G25G31G32C21C22C26
                                C34E 3E 5E 8E13E15E24E25
  23862431.128   125397855.086    23862435.666    97712596.785                  
  20554137.576   108012674.278    20554140.631    84165707.970                  
  23460677.739   123286681.118    23460678.829    96067540.671                  
  23615016.957   124097733.989    23615017.243    96699529.215                  
  22615030.086   118842768.331    22615032.088    92604752.110                  
  24241145.020   127388015.227    24241149.202    99263372.922                  
  23085696.560   121316074.210    23085701.134    94531986.085                  
  22428123.376   117860574.777    22428124.413    91839405.874                  
  20568361.997   108087436.520    20568364.856    84223967.653                  
                 114814638.996                   114814638.996    22048942.798  
                 122917454.430                   122917454.430    23605001.977  
                 128013716.300                   128013716.300    24583694.441  
                 135398473.997                   135398473.997    26001861.747  
  23649486.052   124278864.062                                                  
  25309121.057   133000307.091                                                  
  24404409.333   128246009.742                                                  
  26179787.933   137575650.833                                                  
  24924221.713   130977617.726                                                  
  26466453.896   139082177.317                                                  
  25904816.441   136130688.137                                                  
 21  8 31 22 55 59.0000000  0 20G 1G10G12G21G23G24G25G31G32C21C22C26
                                C34E 3E 5E 8E13E15E24E25
  23861950.755   125395330.794    23861955.293    97710629.804                  
  20554341.568   108013746.258    20554344.624    84166543.277                  
  23460461.238   123285543.367    23460462.328    96066654.112                  
  23614796.203   124096573.913    23614796.507    96698625.262                  
  22615583.294   118845675.530    22615585.313    92607017.458                  
  24241840.322   127391669.062    24241844.503    99266220.065                  
  23085228.659   121313615.438    23085233.234    94530070.157                  
  22427466.672   117857123.734    22427467.708    91836716.749                  
  20568308.658   108087156.274    20568311.535    84223749.278                  
                 114814053.749                   114814053.749    22048830.402  
                 122919304.308                   122919304.308    23605357.231  
                 128010369.359                   128010369.359    24583051.692  
                 135400874.659                   135400874.659    26002322.785  
  23649442.684   124278636.143                                                  
  25309435.141   133001957.618                                                  
  24404051.542   128244129.491                                                  
  26179622.555   137574781.749                                                  
  24924560.885   130979399.949                                                  
  26466481.468   139082322.138                                                  
  25904373.522   136128360.550                                                  
 21  8 31 22 56  0.0000000  0 20G 1G10G12G21G23G24G25G31G32C21C22C26
                                C34E 3E 5E 8E13E15E24E25
  23861470.489   125392806.996    23861475.045    97708663.210                  
  20554545.668   108014818.743    20554548.724    84167378.977                  
  23460244.844   123284406.195    23460245.916    96065768.004                  
  23614575.539   124095414.328    23614575.825    96697721.687                  
  22616136.572   118848583.043    22616138.591    92609283.050                  
  24242535.641   127395323.034    24242539.840    99269067.317                  
  23084760.848   121311157.048    23084765.423    94528154.528                  
  22426810.021   117853673.016    22426811.040    91834027.878                  
  20568255.408   108086876.325    20568258.267    84223531.138                  
                 114813468.761                   114813468.761    22048718.060  
                 122921154.413                   122921154.413    23605712.521  
                 128007022.543                   128007022.543    24582408.979  
                 135403275.501                   135403275.501    26002783.824  
  23649399.334   124278408.371                                                  
  25309749.243   133003608.213                                                  
  24403693.768   128242249.317                                                  
  26179457.266   137573913.152                                                  
  24924900.093   130981182.562                                                  
  26466509.111   139082467.431                                                  
  25903930.638   136126033.245                                                  
 21  8 31 22 56  1.0000000  0 20G 1G10G12G21G23G24G25G31G32C21C22C26
                                C34E 3E 5E 8E13E15E24E25
  23860990.312   125390283.699    23860994.887    97706697.007                  
  20554749.840   108015891.730    20554752.895    84168215.073                  
  23460028.557   123283269.601    23460029.611    96064882.351                  
  23614354.981   124094255.235    23614355.267    96696818.500                  
  22616689.922   118851490.858    22616691.941    92611548.878                  
  24243230.996   127398977.135    24243235.178    99271914.668                  
  23084293.109   121308699.052    23084297.683    94526239.206                  
  22426153.442   117850222.624    22426154.460    91831339.270                  
  20568202.176   108086596.661    20568205.035    84223313.215                  
                 114812884.034                   114812884.034    22048605.789  
                 122923004.741                   122923004.741    23606067.865  
                 128003675.860                   128003675.860    24581766.284  
                 135405676.507                   135405676.507    26003244.916  
  23649356.019   124278180.746                                                  
  25310063.363   133005258.893                                                  
  24403335.977   128240369.198                                                  
  26179292.067   137573045.028                                                  
  24925239.372   130982965.579                                                  
  26466536.862   139082613.247                                                  
  25903487.826   136123706.207                                                  
 21  8 31 22 56  2.0000000  0 20G 1G10G12G21G23G24G25G31G32C21C22C26
                                C34E 3E 5E 8E13E15E24E25
  23860510.243   125387760.903    23860514.800    97704731.190                  
  20554954.119   108016965.216    20554957.174    84169051.556                  
  23459812.378   123282133.609    23459813.468    96063997.160                  
  23614134.496   124093096.633    23614134.781    96695915.691                  
  22617243.326   118854398.976    22617245.345    92613814.942                  
  24243926.387   127402631.386    24243930.587    99274762.130                  
  23083825.441   121306241.442    23083830.015    94524324.188                  
  22425496.916   117846772.576    22425497.934    91828650.918                  
  20568149.016   108086317.292    20568151.875    84223095.528                  
                 114812299.572                   114812299.572    22048493.517  
                 122924855.294                   122924855.294    23606423.244  
                 128000329.300                   128000329.300    24581123.606  
                 135408077.695                   135408077.695    26003706.044  
  23649312.741   124277953.271                                                  
  25310377.482   133006909.653                                                  
  24402978.221   128238489.144                                                  
  26179126.958   137572177.379                                                  
  24925578.758   130984748.976                                                  
  26466564.702   139082759.526                                                  
  25903045.067   136121379.442                                                  
 21  8 31 22 56  3.0000000  0 20G 1G10G12G21G23G24G25G31G32C21C22C26
                                C34E 3E 5E 8E13E15E24E25
  23860030.263   125385238.586    23860034.820    97702765.751                  
  20555158.504   108018039.215    20555161.560    84169888.438                  
  23459596.323   123280998.200    23459597.395    96063112.426                  
  23613914.117   124091938.526    23613914.403    96695013.274                  
  22617796.783   118857307.407    22617798.784    92616081.254                  
  24244621.778   127406285.749    24244625.977    99277609.683                  
  23083357.844   121303784.214    23083362.419    94522409.470                  
  22424840.462   117843322.856    22424841.480    91825962.825                  
  20568095.891   108086038.206    20568098.786    84222878.058                  
                 114811715.360                   114811715.360    22048381.336  
                 122926706.070                   122926706.070    23606778.659  
                 127996982.868                   127996982.868    24580480.965  
                 135410479.052                   135410479.052    26004167.208  
  23649269.480   124277725.939                                                  
  25310691.619   133008560.488                                                  
  24402620.483   128236609.160                                                  
  26178961.937   137571310.220                                                  
  24925918.198   130986532.774                                                  
  26466592.613   139082906.295                                                  
  25902602.344   136119052.949                                                  
 21  8 31 22 56  4.0000000  0 20G 1G10G12G21G23G24G25G31G32C21C22C26
                                C34E 3E 5E 8E13E15E24E25
  23859550.373   125382716.777    23859554.947    97700800.707                  
  20555362.962   108019113.702    20555366.017    84170725.700                  
  23459380.358   123279863.370    23459381.448    96062228.145                  
  23613693.845   124090780.907    23613694.113    96694111.231                  
  22618350.276   118860216.141    22618352.295    92618347.798                  
  24245317.223   127409940.258    24245321.404    99280457.355                  
  23082890.319   121301327.368    23082894.893    94520495.046                  
  22424184.061   117839873.461    22424185.079    91823274.988                  
  20568042.856   108085759.418    20568045.715    84222660.821                  
                 114811131.415                   114811131.415    22048269.208  
                 122928557.070                   122928557.070    23607134.127  
                 127993636.566                   127993636.566    24579838.341  
                 135412880.586                   135412880.586    26004628.372  
  23649226.255   124277498.763                                                  
  25311005.775   133010211.403                                                  
  24402262.746   128234729.235                                                  
  26178797.024   137570443.536                                                  
  24926257.727   130988316.960                                                  
  26466620.667   139083053.546                                                  
  25902159.657   136116726.727                                                  
 21  8 31 22 56  5.0000000  0 20G 1G10G12G21G23G24G25G31G32C21C22C26
                                C34E 3E 5E 8E13E15E24E25
  23859070.572   125380195.449    23859075.146    97698836.036                  
  20555567.526   108020188.708    20555570.582    84171563.363                  
  23459164.518   123278729.126    23459165.608    96061344.321                  
  23613473.645   124089623.787    23613473.913    96693209.579                  
  22618903.858   118863125.175    22618905.878    92620614.575                  
  24246012.667   127413594.899    24246016.866    99283305.120                  
  23082422.883   121298870.921    23082427.458    94518580.934                  
  22423527.714   117836424.402    22423528.732    91820587.411                  
  20567989.857   108085480.919    20567992.716    84222443.808                  
                 114810547.727                   114810547.727    22048157.097  
                 122930408.294                   122930408.294    23607489.631  
                 127990290.390                   127990290.390    24579195.735  
                 135415282.289                   135415282.289    26005089.625  
  23649183.047   124277271.730                                                  
  25311319.966   133011862.397                                                  
  24401905.026   128232849.378                                                  
  26178632.182   137569577.317                                                  
  24926597.328   130990101.559                                                  
  26466648.758   139083201.284                                                  
  25901717.059   136114400.778                                                  
 21  8 31 22 56  6.0000000  0 20G 1G10G12G21G23G24G25G31G32C21C22C26
                                C34E 3E 5E 8E13E15E24E25
  23858590.878   125377674.626    23858595.435    97696871.763                  
  20555772.180   108021264.201    20555775.236    84172401.409                  
  23458948.803   123277595.470    23458949.876    96060460.952                  
  23613253.535   124088467.147    23613253.821    96692308.304                  
  22619457.476   118866034.528    22619459.496    92622881.598                  
  24246708.147   127417249.661    24246712.347    99286152.989                  
  23081955.501   121296414.852    23081960.076    94516667.114                  
  22422871.438   117832975.659    22422872.457    91817900.081                  
  20567936.929   108085202.709    20567939.788    84222227.024                  
                 114809964.297                   114809964.297    22048045.059  
                 122932259.739                   122932259.739    23607845.171  
                 127986944.345                   127986944.345    24578553.165  
                 135417684.167                   135417684.167    26005550.860  
  23649139.876   124277044.850                                                  
  25311634.139   133013513.473                                                  
  24401547.306   128230969.582                                                  
  26178467.448   137568711.602                                                  
  24926937.000   130991886.531                                                  
  26466676.955   139083349.503                                                  
  25901274.497   136112075.095                                                  
 21  8 31 22 56  7.0000000  0 20G 1G10G12G21G23G24G25G31G32C21C22C26
                                C34E 3E 5E 8E13E15E24E25
  23858111.273   125375154.308    23858115.848    97694907.878                  
  20555976.941   108022340.204    20555979.997    84173239.856                  
  23458733.178   123276462.391    23458734.268    96059578.031                  
  23613033.531   124087311.007    23613033.817    96691407.415                  
  22620011.184   118868944.171    22620013.203    92625148.855                  
  24247403.663   127420904.564    24247407.845    99289000.965                  
  23081488.208   121293959.165    23081492.783    94514753.589                  
  22422215.216   117829527.230    22422216.235    91815212.991                  
  20567884.018   108084924.782    20567886.895    84222010.452                  
                 114809381.129                   114809381.129    22047933.073  
                 122934111.405                   122934111.405    23608200.783  
                 127983598.427                   127983598.427    24577910.595  
                 135420086.222                   135420086.222    26006012.167  
  23649096.722   124276818.126                                                  
  25311948.366   133015164.641                                                  
  24401189.603   128229089.839                                                  
  26178302.803   137567846.371                                                  
  24927276.744   130993671.914                                                  
  26466705.259   139083498.203                                                  
  25900831.988   136109749.692                                                  
 21  8 31 22 56  8.0000000  0 20G 1G10G12G21G23G24G25G31G32C21C22C26
                                C34E 3E 5E 8E13E15E24E25
  23857631.776   125372634.447    23857636.315    97692944.348                  
  20556181.792   108023416.710    20556184.865    84174078.691                  
  23458517.678   123275329.911    23458518.768    96058695.582                  
  23612813.617   124086155.360    23612813.903    96690506.911                  
  22620564.927   118871854.117    22620566.946    92627416.343                  
  24248099.179   127424559.601    24248103.379    99291849.043                  
  23081020.987   121291503.888    23081025.543    94512840.391                  
  22421559.083   117826079.195    22421560.102    91812526.215                  
  20567831.198   108084647.145    20567834.057    84221794.114                  
                 114808798.222                   114808798.222    22047821.142  
                 122935963.301                   122935963.301    23608556.412  
                 127980252.637                   127980252.637    24577268.079  
                 135422488.445                   135422488.445    26006473.474  
  23649053.604   124276591.510                                                  
  25312262.557   133016815.840                                                  
  24400831.901   128227210.163                                                  
  26178138.229   137566981.574                                                  
  24927616.559   130995457.664                                                  
  26466733.653   139083647.423                                                  
  25900389.516   136107424.555                                                  
 21  8 31 22 56  9.0000000  0 20G 1G10G12G21G23G24G25G31G32C21C22C26
                                C34E 3E 5E 8E13E15E24E25
  23857152.368   125370115.094    23857156.907    97690981.218                  
  20556386.732   108024493.711    20556389.805    84174917.910                  
  23458302.284   123274198.012    23458303.356    96057813.585                  
  23612593.793   124085000.196    23612594.079    96689606.781                  
  22621118.724   118874764.368    22621120.743    92629684.071                  
  24248794.731   127428214.773    24248798.948    99294697.230                  
  23080553.819   121289048.984    23080558.394    94510927.482                  
  22420903.004   117822631.447    22420904.023    91809839.656                  
  20567778.413   108084369.802    20567781.272    84221578.005                  
                 114808215.575                   114808215.575    22047709.246  
                 122937815.418                   122937815.418    23608912.095  
                 127976906.976                   127976906.976    24576625.580  
                 135424890.843                   135424890.843    26006934.834  
  23649010.522   124276365.062                                                  
  25312576.801   133018467.148                                                  
  24400474.217   128225330.555                                                  
  26177973.762   137566117.282                                                  
  24927956.464   130997243.825                                                  
  26466762.136   139083797.094                                                  
  25899947.114   136105099.694                                                  
 21  8 31 22 56 10.0000000  0 20G 1G10G12G21G23G24G25G31G32C21C22C26
                                C34E 3E 5E 8E13E15E24E25
  23856673.031   125367596.234    23856677.588    97689018.472                  
  20556591.779   108025571.223    20556594.834    84175757.532                  
  23458086.998   123273066.700    23458088.088    96056932.043                  
  23612374.075   124083845.523    23612374.361    96688707.038                  
  22621672.574   118877674.930    22621674.593    92631952.040                  
  24249490.319   127431870.066    24249494.518    99297545.507                  
  23080086.741   121286594.468    23080091.315    94509014.871                  
  22420246.979   117819184.039    22420247.998    91807153.367                  
  20567725.699   108084092.751    20567728.558    84221362.117                  
                 114807633.183                   114807633.183    22047597.404  
                 122939667.759                   122939667.759    23609267.814  
                 127973561.442                   127973561.442    24575983.100  
                 135427293.413                   135427293.413    26007396.212  
  23648967.458   124276138.775                                                  
  25312891.064   133020118.535                                                  
  24400116.569   128223451.014                                                  
  26177809.385   137565253.477                                                  
  24928296.422   130999030.379                                                  
  26466790.727   139083947.262                                                  
  25899504.767   136102775.112                                                  
 21  8 31 22 56 11.0000000  0 20G 1G10G12G21G23G24G25G31G32C21C22C26
                                C34E 3E 5E 8E13E15E24E25
  23856193.802   125365077.866    23856198.359    97687056.113                  
  20556796.915   108026649.227    20556799.989    84176597.536                  
  23457871.820   123271935.978    23457872.892    96056050.961                  
  23612154.447   124082691.352    23612154.715    96687807.684                  
  22622226.496   118880585.797    22622228.515    92634220.245                  
  24250185.924   127435525.497    24250190.123    99300393.890                  
  23079619.734   121284140.348    23079624.308    94507102.570                  
  22419591.025   117815736.957    22419592.044    91804467.331                  
  20567673.039   108083815.989    20567675.898    84221146.458                  
                 114807051.059                   114807051.059    22047485.597  
                 122941520.323                   122941520.323    23609623.586  
                 127970216.039                   127970216.039    24575340.655  
                 135429696.160                   135429696.160    26007857.662  
  23648924.411   124275912.626                                                  
  25313205.326   133021769.999                                                  
  24399758.902   128221571.527                                                  
  26177645.097   137564390.145                                                  
  24928636.452   131000817.320                                                  
  26466819.389   139084097.913                                                  
  25899062.455   136100450.797                                                  
 21  8 31 22 56 12.0000000  0 20G 1G10G12G21G23G24G25G31G32C21C22C26
                                C34E 3E 5E 8E13E15E24E25
  23855714.662   125362559.995    23855719.219    97685094.133                  
  20557002.159   108027727.737    20557005.214    84177437.933                  
  23457656.766   123270805.831    23457657.838    96055170.329                  
  23611934.908   124081537.662    23611935.176    96686908.702                  
  22622780.471   118883496.969    22622782.508    92636488.691                  
  24250881.565   127439181.065    24250885.764    99303242.388                  
  23079152.798   121281686.606    23079157.373    94505190.566                  
  22418935.125   117812290.216    22418936.143    91801781.558                  
  20567620.415   108083539.511    20567623.274    84220931.023                  
                 114806469.187                   114806469.187    22047373.862  
                 122943373.109                   122943373.109    23609979.394  
                 127966870.761                   127966870.761    24574698.227  
                 135432099.078                   135432099.078    26008319.093  
  23648881.418   124275686.626                                                  
  25313519.607   133023421.548                                                  
  24399401.254   128219692.121                                                  
  26177480.899   137563527.297                                                  
  24928976.589   131002604.663                                                  
  26466848.140   139084249.055                                                  
  25898620.197   136098126.755                                                  
 21  8 31 22 56 13.0000000  0 20G 1G10G12G21G23G24G25G31G32C21C22C26
                                C34E 3E 5E 8E13E15E24E25
  23855235.612   125360042.626    23855240.186    97683132.546                  
  20557207.492   108028806.757    20557210.547    84178278.726                  
  23457441.819   123269676.262    23457442.892    96054290.148                  
  23611715.459   124080384.476    23611715.745    96686010.121                  
  22623334.518   118886408.441    22623336.538    92638757.366                  
  24251577.224   127442836.763    24251581.423    99306090.976                  
  23078685.934   121279233.260    23078690.527    94503278.870                  
  22418279.296   117808843.785    22418280.314    91799096.030                  
  20567567.862   108083263.330    20567570.721    84220715.816                  
                 114805887.581                   114805887.581    22047262.181  
                 122945226.121                   122945226.121    23610335.237  
                 127963525.614                   127963525.614    24574055.818  
                 135434502.168                   135434502.168    26008780.597  
  23648838.443   124275460.771                                                  
  25313833.887   133025073.164                                                  
  24399043.641   128217812.768                                                  
  26177316.808   137562664.915                                                  
  24929316.779   131004392.394                                                  
  26466876.999   139084400.675                                                  
  25898177.992   136095802.989                                                  
 21  8 31 22 56 14.0000000  0 20G 1G10G12G21G23G24G25G31G32C21C22C26
                                C34E 3E 5E 8E13E15E24E25
  23854756.686   125357525.744    23854761.243    97681171.339                  
  20557412.914   108029886.285    20557415.987    84179119.919                  
  23457226.980   123268547.286    23457228.052    96053410.426                  
  23611496.099   124079231.778    23611496.384    96685111.910                  
  22623888.619   118889320.224    22623890.638    92641026.290                  
  24252272.901   127446492.581    24252277.100    99308939.668                  
  23078219.160   121276780.305    23078223.734    94501367.476                  
  22417623.521   117805397.698    22417624.539    91796410.770                  
  20567515.363   108082987.430    20567518.222    84220500.827                  
                 114805306.236                   114805306.236    22047150.535  
                 122947079.354                   122947079.354    23610691.135  
                 127960180.592                   127960180.592    24573413.445  
                 135436905.430                   135436905.430    26009242.118  
  23648795.486   124275235.062                                                  
  25314148.203   133026724.868                                                  
  24398686.028   128215933.477                                                  
  26177152.788   137561803.021                                                  
  24929657.059   131006180.520                                                  
  26466905.946   139084552.788                                                  
  25897735.859   136093479.501                                                  
 21  8 31 22 56 15.0000000  0 20G 1G10G12G21G23G24G25G31G32C21C22C26
                                C34E 3E 5E 8E13E15E24E25
  23854277.814   125355009.363    23854282.388    97679210.528                  
  20557618.443   108030966.300    20557621.499    84179961.489                  
  23457012.266   123267418.891    23457013.320    96052531.159                  
  23611276.846   124078079.578    23611277.132    96684214.099                  
  22624442.755   118892232.309    22624444.792    92643295.445                  
  24252968.595   127450148.546    24252972.795    99311788.469                  
  23077752.457   121274327.734    23077757.013    94499456.382                  
  22416967.817   117801951.948    22416968.835    91793725.770                  
  20567462.917   108082711.829    20567465.776    84220286.074                  
                 114804725.144                   114804725.144    22047038.943  
                 122948932.812                   122948932.812    23611047.086  
                 127956835.704                   127956835.704    24572771.107  
                 135439308.863                   135439308.863    26009703.675  
  23648752.565   124275009.517                                                  
  25314462.519   133028376.651                                                  
  24398328.416   128214054.259                                                  
  26176988.858   137560941.605                                                  
  24929997.392   131007969.040                                                  
  26466934.984   139084705.382                                                  
  25897293.761   136091156.269                                                  
 21  8 31 22 56 16.0000000  0 20G 1G10G12G21G23G24G25G31G32C21C22C26
                                C34E 3E 5E 8E13E15E24E25
  23853799.085   125352493.540    23853803.642    97677250.149                  
  20557824.062   108032046.931    20557827.118    84180803.578                  
  23456797.641   123266291.185    23456798.695    96051652.446                  
  23611057.700   124076927.895    23611057.986    96683316.667                  
  22624996.981   118895144.731    22624999.000    92645564.856                  
  24253664.344   127453804.780    24253668.543    99314637.511                  
  23077285.807   121271875.703    23077290.364    94497545.759                  
  22416312.202   117798506.524    22416313.239    91791040.999                  
  20567410.543   108082436.358    20567413.420    84220071.332                  
                 114804144.331                   114804144.331    22046927.405  
                 122950786.513                   122950786.513    23611403.055  
                 127953490.950                   127953490.950    24572128.787  
                 135441712.442                   135441712.442    26010165.303  
  23648709.661   124274784.151                                                  
  25314776.853   133030028.570                                                  
  24397970.838   128212175.024                                                  
  26176825.034   137560080.878                                                  
  24930337.833   131009758.047                                                  
  26466964.146   139084858.428                                                  
  25896851.717   136088833.328                                                  
 21  8 31 22 56 17.0000000  0 20G 1G10G12G21G23G24G25G31G32C21C22C26
                                C34E 3E 5E 8E13E15E24E25
  23853320.427   125349978.160    23853324.966    97675290.112                  
  20558029.753   108033127.964    20558032.826    84181645.941                  
  23456583.123   123265163.969    23456584.196    96050774.098                  
  23610838.626   124075776.676    23610838.894    96682419.618                  
  22625551.242   118898057.430    22625553.261    92647834.493                  
  24254360.092   127457461.015    24254364.291    99317486.523                  
  23076819.247   121269423.913    23076823.804    94495635.273                  
  22415656.624   117795061.438    22415657.642    91788356.519                  
  20567358.205   108082161.327    20567361.082    84219857.024                  
                 114803563.762                   114803563.762    22046815.920  
                 122952640.415                   122952640.415    23611759.095  
                 127950146.309                   127950146.309    24571486.485  
                 135444116.215                   135444116.215    26010626.914  
  23648666.793   124274558.897                                                  
  25315091.205   133031680.509                                                  
  24397613.261   128210295.926                                                  
  26176661.283   137559220.419                                                  
  24930678.327   131011547.351                                                  
  26466993.362   139085012.000                                                  
  25896409.745   136086510.647                                                  
 21  8 31 22 56 18.0000000  0 20G 1G10G12G21G23G24G25G31G32C21C22C26
                                C34E 3E 5E 8E13E15E24E25
  23852841.841   125347463.265    23852846.398    97673330.458                  
  20558235.586   108034209.517    20558238.642    84182488.707                  
  23456368.749   123264037.341    23456369.803    96049896.206                  
  23610619.641   124074625.956    23610619.945    96681522.953                  
  22626105.575   118900970.445    22626107.594    92650104.371                  
  24255055.876   127461117.379    24255060.075    99320335.637                  
  23076352.758   121266972.530    23076357.315    94493725.105                  
  22415001.098   117791616.701    22415002.135    91785672.312                  
  20567305.920   108081886.601    20567308.797    84219642.949                  
                 114802983.449                   114802983.449    22046704.489  
                 122954494.535                   122954494.535    23612115.153  
                 127946801.801                   127946801.801    24570844.201  
                 135446520.160                   135446520.160    26011088.578  
  23648623.961   124274333.781                                                  
  25315405.575   133033332.536                                                  
  24397255.684   128208416.881                                                  
  26176497.638   137558360.449                                                  
  24931018.893   131013337.062                                                  
  26467022.667   139085166.044                                                  
  25895967.808   136084188.245                                                  
 21  8 31 22 56 19.0000000  0 20G 1G10G12G21G23G24G25G31G32C21C22C26
                                C34E 3E 5E 8E13E15E24E25
  23852363.363   125344948.883    23852367.919    97671371.199                  
  20558441.473   108035291.548    20558444.546    84183331.848                  
  23456154.463   123262911.302    23456155.518    96049018.773                  
  23610400.763   124073475.722    23610401.031    96680626.667                  
  22626659.961   118903883.759    22626661.981    92652374.483                  
  24255751.678   127464773.878    24255755.877    99323184.855                  
  23075886.341   121264521.515    23075890.898    94491815.222                  
  22414345.645   117788172.280    22414346.681    91782988.348                  
  20567253.707   108081612.168    20567256.566    84219429.106                  
                 114802403.396                   114802403.396    22046593.075  
                 122956348.882                   122956348.882    23612471.283  
                 127943457.422                   127943457.422    24570201.952  
                 135448924.282                   135448924.282    26011550.260  
  23648581.147   124274108.812                                                  
  25315719.963   133034984.624                                                  
  24396898.143   128206537.913                                                  
  26176334.083   137557500.952                                                  
  24931359.548   131015127.149                                                  
  26467052.079   139085320.578                                                  
  25895525.907   136081866.114                                                  
 21  8 31 22 56 20.0000000  0 20G 1G10G12G21G23G24G25G31G32C21C22C26
                                C34E 3E 5E 8E13E15E24E25
  23851884.973   125342434.976    23851889.548    97669412.313                  
  20558647.485   108036374.095    20558650.540    84184175.392                  
  23455940.285   123261785.847    23455941.340    96048141.798                  
  23610181.975   124072326.000    23610182.261    96679730.781                  
  22627214.401   118906797.370    22627216.421    92654644.832                  
  24256447.515   127468430.503    24256451.715    99326034.171                  
  23075419.995   121262070.901    23075424.552    94489905.656                  
  22413690.263   117784728.200    22413691.281    91780304.647                  
  20567201.511   108081338.020    20567204.406    84219215.479                  
                 114801823.606                   114801823.606    22046481.734  
                 122958203.453                   122958203.453    23612827.412  
                 127940113.171                   127940113.171    24569559.740  
                 135451328.570                   135451328.570    26012011.995  
  23648538.369   124273883.998                                                  
  25316034.368   133036636.798                                                  
  24396540.584   128204659.009                                                  
  26176170.617   137556641.936                                                  
  24931700.257   131016917.641                                                  
  26467081.563   139085475.590                                                  
  25895084.060   136079544.249                                                  
 21  8 31 22 56 21.0000000  0 20G 1G10G12G21G23G24G25G31G32C21C22C26
                                C34E 3E 5E 8E13E15E24E25
  23851406.709   125339921.565    23851411.247    97667453.816                  
  20558853.586   108037457.133    20558856.642    84185019.319                  
  23455726.214   123260660.985    23455727.304    96047265.286                  
  23609963.276   124071176.758    23609963.562    96678835.266                  
  22627768.895   118909711.286    22627770.914    92656915.414                  
  24257143.389   127472087.263    24257147.552    99328883.594                  
  23074953.721   121259620.660    23074958.278    94487996.379                  
  22413034.916   117781284.440    22413035.953    91777621.207                  
  20567149.405   108081064.145    20567152.282    84219002.077                  
                 114801244.073                   114801244.073    22046370.445  
                 122960058.251                   122960058.251    23613183.613  
                 127936769.050                   127936769.050    24568917.527  
                 135453733.030                   135453733.030    26012473.749  
  23648495.608   124273659.324                                                  
  25316348.756   133038289.042                                                  
  24396183.061   128202780.161                                                  
  26176007.241   137555783.390                                                  
  24932041.037   131018708.508                                                  
  26467111.154   139085631.098                                                  
  25894642.284   136077222.663                                                  
 21  8 31 22 56 22.0000000  0 20G 1G10G12G21G23G24G25G31G32C21C22C26
                                C34E 3E 5E 8E13E15E24E25
  23850928.498   125337408.647    23850933.037    97665495.703                  
  20559059.759   108038540.675    20559062.814    84185863.640                  
  23455512.287   123259536.698    23455513.341    96046389.223                  
  23609744.684   124070028.004    23609744.952    96677940.140                  
  22628323.460   118912625.505    22628325.479    92659186.238                  
  24257839.262   127475744.152    24257843.461    99331733.125                  
  23074487.536   121257170.824    23074492.093    94486087.423                  
  22412379.659   117777841.015    22412380.696    91774938.023                  
  20567097.335   108080790.567    20567100.212    84218788.901                  
                 114800664.801                   114800664.801    22046259.193  
                 122961913.267                   122961913.267    23613539.868  
                 127933425.058                   127933425.058    24568275.332  
                 135456137.667                   135456137.667    26012935.538  
  23648452.883   124273434.798                                                  
  25316663.197   133039941.380                                                  
  24395825.537   128200901.378                                                  
  26175843.953   137554925.328                                                  
  24932381.906   131020499.775                                                  
  26467140.835   139085787.096                                                  
  25894200.562   136074901.359                                                  
 21  8 31 22 56 23.0000000  0 20G 1G10G12G21G23G24G25G31G32C21C22C26
                                C34E 3E 5E 8E13E15E24E25
  23850450.394   125334896.222    23850454.933    97663537.974                  
  20559266.039   108039624.719    20559269.094    84186708.357                  
  23455298.448   123258413.004    23455299.502    96045513.624                  
  23609526.164   124068879.763    23609526.468    96677045.411                  
  22628878.061   118915540.031    22628880.080    92661457.302                  
  24258535.153   127479401.164    24258539.353    99334582.745                  
  23074021.423   121254721.361    23074025.979    94484178.755                  
  22411724.456   117774397.930    22411725.492    91772255.102                  
  20567045.336   108080517.290    20567048.213    84218575.966                  
                 114800085.794                   114800085.794    22046148.012  
                 122963768.507                   122963768.507    23613896.141  
                 127930081.199                   127930081.199    24567633.209  
                 135458542.473                   135458542.473    26013397.363  
  23648410.176   124273210.427                                                  
  25316977.638   133041593.794                                                  
  24395468.014   128199022.664                                                  
  26175680.756   137554067.750                                                  
  24932722.847   131022291.428                                                  
  26467170.622   139085943.582                                                  
  25893758.875   136072580.322                                                  
 21  8 31 22 56 24.0000000  0 20G 1G10G12G21G23G24G25G31G32C21C22C26
                                C34E 3E 5E 8E13E15E24E25
  23849972.380   125332384.285    23849976.937    97661580.624                  
  20559472.426   108040709.270    20559475.482    84187553.464                  
  23455084.717   123257289.894    23455085.789    96044638.475                  
  23609307.769   124067732.003    23609308.037    96676151.058                  
  22629432.733   118918454.860    22629434.753    92663728.597                  
  24259231.098   127483058.317    24259235.280    99337432.477                  
  23073555.381   121252272.299    23073559.937    94482270.402                  
  22411069.324   117770955.155    22411070.342    91769572.425                  
  20566993.373   108080244.290    20566996.268    84218363.238                  
                 114799507.043                   114799507.043    22046036.884  
                 122965623.973                   122965623.973    23614252.467  
                 127926737.465                   127926737.465    24566991.068  
                 135460947.450                   135460947.450    26013859.205  
  23648367.523   124272986.203                                                  
  25317292.097   133043246.276                                                  
  24395110.526   128197144.016                                                  
  26175517.665   137553210.654                                                  
  24933063.860   131024083.499                                                  
  26467200.499   139086100.551                                                  
  25893317.242   136070259.563                                                  
 21  8 31 22 56 25.0000000  0 20G 1G10G12G21G23G24G25G31G32C21C22C26
                                C34E 3E 5E 8E13E15E24E25
  23849494.473   125329872.854    23849499.012    97659623.663                  
  20559678.903   108041794.330    20559681.958    84188398.965                  
  23454871.092   123256167.370    23454872.182    96043763.782                  
  23609089.445   124066584.739    23609089.713    96675257.081                  
  22629987.459   118921369.985    22629989.496    92666000.125                  
  24259927.043   127486715.597    24259931.242    99340282.305                  
  23073089.392   121249823.625    23073093.967    94480362.345                  
  22410414.245   117767512.722    22410415.282    91766890.012                  
  20566941.481   108079971.577    20566944.358    84218150.739                  
                 114798928.553                   114798928.553    22045925.775  
                 122967479.661                   122967479.661    23614608.847  
                 127923393.862                   127923393.862    24566348.962  
                 135463352.599                   135463352.599    26014321.102  
  23648324.887   124272762.120                                                  
  25317606.556   133044898.843                                                  
  24394753.038   128195265.426                                                  
  26175354.646   137552354.032                                                  
  24933404.961   131025875.948                                                  
  26467230.466   139086258.005                                                  
  25892875.663   136067939.072                                                  
 21  8 31 22 56 26.0000000  0 20G 1G10G12G21G23G24G25G31G32C21C22C26
                                C34E 3E 5E 8E13E15E24E25
  23849016.655   125327361.914    23849021.194    97657667.089                  
  20559885.486   108042879.870    20559888.542    84189244.840                  
  23454657.593   123255045.425    23454658.683    96042889.539                  
  23608871.193   124065437.969    23608871.496    96674363.496                  
  22630542.257   118924285.421    22630544.276    92668271.891                  
  24260623.024   127490372.996    24260627.223    99343132.222                  
  23072623.493   121247375.339    23072628.068    94478454.589                  
  22409759.238   117764070.623    22409760.257    91764207.856                  
  20566889.643   108079699.160    20566892.520    84217938.464                  
                 114798350.325                   114798350.325    22045814.736  
                 122969335.575                   122969335.575    23614965.244  
                 127920050.387                   127920050.387    24565706.875  
                 135465757.919                   135465757.919    26014783.016  
  23648282.252   124272538.198                                                  
  25317921.069   133046551.492                                                  
  24394395.569   128193386.907                                                  
  26175191.716   137551497.889                                                  
  24933746.117   131027668.793                                                  
  26467260.504   139086415.943                                                  
  25892434.137   136065618.859                                                  
 21  8 31 22 56 27.0000000  0 20G 1G10G12G21G23G24G25G31G32C21C22C26
                                C34E 3E 5E 8E13E15E24E25
  23848538.945   125324851.467    23848543.484    97655710.899                  
  20560092.142   108043965.921    20560095.197    84190091.114                  
  23454444.219   123253924.055    23454445.274    96042015.746                  
  23608653.083   124064291.688    23608653.351    96673470.288                  
  22631097.108   118927201.159    22631099.127    92670543.895                  
  24261319.040   127494030.543    24261323.239    99345982.258                  
  23072157.683   121244927.431    23072162.240    94476547.128                  
  22409104.285   117760628.852    22409105.304    91761525.962                  
  20566837.859   108079427.031    20566840.736    84217726.418                  
                 114797772.356                   114797772.356    22045703.752  
                 122971191.707                   122971191.707    23615321.696  
                 127916707.043                   127916707.043    24565064.841  
                 135468163.411                   135468163.411    26015244.966  
  23648239.688   124272314.411                                                  
  25318235.564   133048204.217                                                  
  24394038.099   128191508.452                                                  
  26175028.894   137550642.239                                                  
  24934087.362   131029462.026                                                  
  26467290.649   139086574.359                                                  
  25891992.665   136063298.922                                                  
 21  8 31 22 56 28.0000000  0 20G 1G10G12G21G23G24G25G31G32C21C22C26
                                C34E 3E 5E 8E13E15E24E25
  23848061.306   125322341.519    23848065.863    97653755.097                  
  20560298.904   108045052.486    20560301.960    84190937.785                  
  23454230.935   123252803.277    23454232.007    96041142.411                  
  23608435.046   124063145.906    23608435.314    96672577.473                  
  22631651.995   118930117.212    22631654.032    92672816.142                  
  24262015.056   127497688.218    24262019.256    99348832.395                  
  23071691.945   121242479.931    23071696.502    94474639.987                  
  22408449.403   117757187.413    22408450.422    91758844.321                  
  20566786.128   108079155.187    20566789.005    84217514.591                  
                 114797194.649                   114797194.649    22045592.821  
                 122973048.067                   122973048.067    23615678.200  
                 127913363.832                   127913363.832    24564422.807  
                 135470569.074                   135470569.074    26015706.952  
  23648197.124   124272090.783                                                  
  25318550.076   133049857.028                                                  
  24393680.665   128189630.061                                                  
  26174866.161   137549787.059                                                  
  24934428.678   131031255.655                                                  
  26467320.883   139086733.286                                                  
  25891551.265   136060979.261                                                  
 21  8 31 22 56 29.0000000  0 20G 1G10G12G21G23G24G25G31G32C21C22C26
                                C34E 3E 5E 8E13E15E24E25
  23847583.756   125319832.067    23847588.313    97651799.680                  
  20560505.756   108046139.552    20560508.812    84191784.848                  
  23454017.757   123251683.078    23454018.847    96040269.531                  
  23608217.097   124062000.618    23608217.383    96671685.038                  
  22632206.953   118933033.563    22632209.008    92675088.621                  
  24262711.126   127501346.011    24262715.325    99351682.621                  
  23071226.261   121240032.818    23071230.817    94472733.148                  
  22407794.575   117753746.312    22407795.594    91756162.946                  
  20566734.468   108078883.642    20566737.328    84217302.995                  
                 114796617.203                   114796617.203    22045481.926  
                 122974904.653                   122974904.653    23616034.741  
                 127910020.747                   127910020.747    24563780.808  
                 135472974.909                   135472974.909    26016168.955  
  23648154.578   124271867.298                                                  
  25318864.607   133051509.909                                                  
  24393323.213   128187751.739                                                  
  26174703.517   137548932.360                                                  
  24934770.065   131033049.671                                                  
  26467351.225   139086892.685                                                  
  25891109.882   136058659.879                                                  
 21  8 31 22 56 30.0000000  0 20G 1G10G12G21G23G24G25G31G32C21C22C26
                                C34E 3E 5E 8E13E15E24E25
  23847106.314   125317323.117    23847110.888    97649844.656                  
  20560712.715   108047227.115    20560715.788    84192632.297                  
  23453804.705   123250563.460    23453805.777    96039397.101                  
  23607999.238   124060855.810    23607999.542    96670792.985                  
  22632761.983   118935950.223    22632764.020    92677361.343                  
  24263407.196   127505003.948    24263411.395    99354532.961                  
  23070760.665   121237586.089    23070765.222    94470826.604                  
  22407139.818   117750305.530    22407140.837    91753481.819                  
  20566682.845   108078612.390    20566685.704    84217091.628                  
                 114796040.017                   114796040.017    22045371.084  
                 122976761.457                   122976761.457    23616391.317  
                 127906677.792                   127906677.792    24563138.828  
                 135475380.913                   135475380.913    26016631.012  
  23648112.085   124271643.960                                                  
  25319179.155   133053162.884                                                  
  24392965.797   128185873.472                                                  
  26174540.962   137548078.136                                                  
  24935111.525   131034844.083                                                  
  26467381.638   139087052.562                                                  
  25890668.553   136056340.758                                                  
 21  8 31 22 56 31.0000000  0 20G 1G10G12G21G23G24G25G31G32C21C22C26
                                C34E 3E 5E 8E13E15E24E25
  23846628.979   125314814.653    23846633.517    97647890.007                  
  20560919.781   108048315.179    20560922.837    84193480.141                  
  23453591.760   123249444.446    23453592.814    96038525.144                  
  23607781.486   124059711.507    23607781.772    96669901.321                  
  22633317.066   118938867.171    22633319.103    92679634.289                  
  24264103.302   127508662.020    24264107.501    99357383.407                  
  23070295.142   121235139.754    23070299.698    94468920.372                  
  22406485.115   117746865.086    22406486.134    91750800.954                  
  20566631.257   108078341.417    20566634.134    84216880.485                  
                 114795463.088                   114795463.088    22045260.296  
                 122978618.488                   122978618.488    23616747.947  
                 127903334.969                   127903334.969    24562496.883  
                 135477787.091                   135477787.091    26017093.105  
  23648069.593   124271420.766                                                  
  25319493.722   133054815.917                                                  
  24392608.380   128183995.269                                                  
  26174378.497   137547224.402                                                  
  24935453.055   131036638.892                                                  
  26467412.158   139087212.930                                                  
  25890227.295   136054021.919                                                  
 21  8 31 22 56 32.0000000  0 20G 1G10G12G21G23G24G25G31G32C21C22C26
                                C34E 3E 5E 8E13E15E24E25
  23846151.715   125312306.689    23846156.272    97645935.751                  
  20561126.919   108049403.739    20561129.975    84194328.372                  
  23453378.940   123248326.010    23453379.994    96037653.636                  
  23607563.823   124058567.691    23607564.127    96669010.036                  
  22633872.203   118941784.438    22633874.222    92681907.480                  
  24264799.443   127512320.203    24264803.642    99360233.937                  
  23069829.671   121232693.803    23069834.246    94467014.440                  
  22405830.484   117743424.976    22405831.502    91748120.351                  
  20566579.758   108078070.729    20566582.618    84216669.559                  
                 114794886.425                   114794886.425    22045149.562  
                 122980475.742                   122980475.742    23617104.613  
                 127899992.273                   127899992.273    24561854.939  
                 135480193.438                   135480193.438    26017555.216  
  23648027.154   124271197.710                                                  
  25319808.288   133056469.027                                                  
  24392250.982   128182117.128                                                  
  26174216.121   137546371.138                                                  
  24935794.675   131038434.082                                                  
  26467442.768   139087373.785                                                  
  25889786.091   136051703.344                                                  
 21  8 31 22 56 33.0000000  0 20G 1G10G12G21G23G24G25G31G32C21C22C26
                                C34E 3E 5E 8E13E15E24E25
  23845674.558   125309799.220    23845679.115    97643981.879                  
  20561334.164   108050492.815    20561337.219    84195177.001                  
  23453166.227   123247208.170    23453167.281    96036782.594                  
  23607346.268   124057424.363    23607346.536    96668119.132                  
  22634427.393   118944702.007    22634429.413    92684180.910                  
  24265495.602   127515978.527    24265499.802    99363084.579                  
  23069364.326   121230248.257    23069368.865    94465108.820                  
  22405175.906   117739985.198    22405176.942    91745440.005                  
  20566528.296   108077800.337    20566531.173    84216458.864                  
                 114794310.020                   114794310.020    22045038.864  
                 122982333.218                   122982333.218    23617461.314  
                 127896649.711                   127896649.711    24561213.048  
                 135482599.956                   135482599.956    26018017.381  
  23647984.733   124270974.818                                                  
  25320122.872   133058122.228                                                  
  24391893.602   128180239.052                                                  
  26174053.835   137545518.340                                                  
  24936136.384   131040229.665                                                  
  26467473.467   139087535.118                                                  
  25889344.941   136049385.042                                                  
 21  8 31 22 56 34.0000000  0 20G 1G10G12G21G23G24G25G31G32C21C22C26
                                C34E 3E 5E 8E13E15E24E25
  23845197.491   125307292.259    23845202.066    97642028.406                  
  20561541.498   108051582.388    20561544.554    84196026.021                  
  23452953.603   123246090.914    23452954.658    96035912.003                  
  23607128.784   124056281.539    23607129.052    96667228.618                  
  22634982.638   118947619.867    22634984.675    92686454.565                  
  24266191.780   127519636.980    24266195.979    99365935.317                  
  23068898.999   121227803.093    23068903.556    94463203.500                  
  22404521.399   117736545.758    22404522.417    91742759.926                  
  20566476.904   108077530.233    20566479.781    84216248.395                  
                 114793733.875                   114793733.875    22044928.219  
                 122984190.918                   122984190.918    23617818.087  
                 127893307.277                   127893307.277    24560571.157  
                 135485006.646                   135485006.646    26018479.563  
  23647942.365   124270752.067                                                  
  25320437.492   133059775.499                                                  
  24391536.221   128178361.040                                                  
  26173891.655   137544666.030                                                  
  24936478.147   131042025.644                                                  
  26467504.255   139087696.938                                                  
  25888903.844   136047067.027                                                  
 21  8 31 22 56 35.0000000  0 20G 1G10G12G21G23G24G25G31G32C21C22C26
                                C34E 3E 5E 8E13E15E24E25
  23844720.531   125304785.777    23844725.088    97640075.309                  
  20561748.922   108052672.465    20561751.977    84196875.429                  
  23452741.105   123244974.245    23452742.159    96035041.871                  
  23606911.408   124055139.208    23606911.676    96666338.488                  
  22635537.953   118950538.044    22635539.972    92688728.469                  
  24266887.975   127523295.550    24266892.174    99368786.151                  
  23068433.779   121225358.316    23068438.336    94461298.481                  
  22403866.964   117733106.646    22403867.982    91740080.098                  
  20566425.567   108077260.419    20566428.426    84216038.144                  
                 114793157.993                   114793157.993    22044817.627  
                 122986048.844                   122986048.844    23618174.878  
                 127889964.974                   127889964.974    24559929.301  
                 135487413.504                   135487413.504    26018941.763  
  23647899.998   124270529.462                                                  
  25320752.112   133061428.852                                                  
  24391178.859   128176483.090                                                  
  26173729.566   137543814.203                                                  
  24936819.982   131043822.017                                                  
  26467535.133   139087859.242                                                  
  25888462.783   136044749.273                                                  
 21  8 31 22 56 36.0000000  0 20G 1G10G12G21G23G24G25G31G32C21C22C26
                                C34E 3E 5E 8E13E15E24E25
  23844243.661   125302279.802    23844248.199    97638122.597                  
  20561956.453   108053763.050    20561959.526    84197725.235                  
  23452528.714   123243858.172    23452529.786    96034172.208                  
  23606694.120   124053997.358    23606694.406    96665448.739                  
  22636093.322   118953456.514    22636095.342    92691002.602                  
  24267584.205   127526954.259    24267588.405    99371637.091                  
  23067968.613   121222913.926    23067973.187    94459393.762                  
  22403212.582   117729667.871    22403213.601    91737400.536                  
  20566374.265   108076990.899    20566377.142    84215828.128                  
                 114792582.371                   114792582.371    22044707.071  
                 122987906.989                   122987906.989    23618531.723  
                 127886622.801                   127886622.801    24559287.482  
                 135489820.534                   135489820.534    26019404.017  
  23647857.666   124270307.008                                                  
  25321066.767   133063082.276                                                  
  24390821.496   128174605.204                                                  
  26173567.565   137542962.858                                                  
  24937161.888   131045618.776                                                  
  26467566.117   139088022.034                                                  
  25888021.775   136042431.796                                                  
 21  8 31 22 56 37.0000000  0 20G 1G10G12G21G23G24G25G31G32C21C22C26
                                C34E 3E 5E 8E13E15E24E25
  23843766.879   125299774.317    23843771.418    97636170.273                  
  20562164.073   108054854.127    20562167.146    84198575.426                  
  23452316.448   123242742.671    23452317.502    96033302.984                  
  23606476.922   124052856.005    23606477.208    96664559.371                  
  22636648.745   118956375.290    22636650.764    92693276.968                  
  24268280.454   127530613.117    24268284.653    99374488.149                  
  23067503.536   121220469.942    23067508.092    94457489.356                  
  22402558.254   117726229.417    22402559.273    91734721.223                  
  20566323.016   108076721.661    20566325.893    84215618.337                  
                 114792007.013                   114792007.013    22044596.605  
                 122989765.360                   122989765.360    23618888.603  
                 127883280.757                   127883280.757    24558645.680  
                 135492227.733                   135492227.733    26019866.306  
  23647815.352   124270084.697                                                  
  25321381.405   133064735.794                                                  
  24390464.187   128172727.383                                                  
  26173405.636   137542112.000                                                  
  24937503.883   131047415.929                                                  
  26467597.192   139088185.315                                                  
  25887580.821   136040114.597                                                  
 21  8 31 22 56 38.0000000  0 20G 1G10G12G21G23G24G25G31G32C21C22C26
                                C34E 3E 5E 8E13E15E24E25
  23843290.205   125297269.340    23843294.744    97634218.343                  
  20562371.800   108055945.707    20562374.856    84199426.007                  
  23452104.289   123241627.765    23452105.343    96032434.231                  
  23606259.814   124051715.156    23606260.100    96663670.397                  
  22637204.222   118959294.374    22637206.259    92695551.579                  
  24268976.738   127534272.078    24268980.938    99377339.285                  
  23067038.548   121218026.333    23067043.105    94455585.247                  
  22401903.998   117722791.311    22401905.017    91732042.175                  
  20566271.839   108076452.715    20566274.716    84215408.769                  
                 114791431.911                   114791431.911    22044486.157  
                 122991623.958                   122991623.958    23619245.519  
                 127879938.846                   127879938.846    24558003.896  
                 135494635.106                   135494635.106    26020328.614  
  23647773.074   124269862.536                                                  
  25321696.079   133066389.379                                                  
  24390106.842   128170849.624                                                  
  26173243.814   137541261.600                                                  
  24937845.932   131049213.473                                                  
  26467628.355   139088349.075                                                  
  25887139.921   136037797.671                                                  
 21  8 31 22 56 39.0000000  0 20G 1G10G12G21G23G24G25G31G32C21C22C26
                                C34E 3E 5E 8E13E15E24E25
  23842813.603   125294764.841    23842818.142    97632266.790                  
  20562579.617   108057037.800    20562582.672    84200276.989                  
  23451892.237   123240513.458    23451893.291    96031565.938                  
  23606042.812   124050574.794    23606043.098    96662781.801                  
  22637759.752   118962213.765    22637761.807    92697826.429                  
  24269673.041   127537931.179    24269677.240    99380190.531                  
  23066573.614   121215583.120    23066578.153    94453681.449                  
  22401249.813   117719353.528    22401250.832    91729363.386                  
  20566220.716   108076184.058    20566223.593    84215199.421                  
                 114790857.071                   114790857.071    22044375.762  
                 122993482.775                   122993482.775    23619602.506  
                 127876597.067                   127876597.067    24557362.148  
                 135497042.645                   135497042.645    26020790.957  
  23647730.832   124269640.512                                                  
  25322010.752   133068043.052                                                  
  24389749.533   128168971.929                                                  
  26173082.082   137540411.699                                                  
  24938188.088   131051011.406                                                  
  26467659.626   139088513.325                                                  
  25886699.074   136035481.020                                                  
 21  8 31 22 56 40.0000000  0 20G 1G10G12G21G23G24G25G31G32C21C22C26
                                C34E 3E 5E 8E13E15E24E25
  23842337.107   125292260.844    23842341.664    97630315.626                  
  20562787.523   108058130.386    20562790.579    84201128.355                  
  23451680.292   123239399.738    23451681.365    96030698.106                  
  23605825.900   124049434.925    23605826.186    96661893.594                  
  22638315.353   118965133.454    22638317.408    92700101.511                  
  24270369.361   127541590.410    24270373.560    99383041.879                  
  23066108.751   121213140.306    23066113.308    94451777.953                  
  22400595.682   117715916.072    22400596.700    91726684.853                  
  20566169.647   108075915.691    20566172.523    84214990.304                  
                 114790282.492                   114790282.492    22044265.421  
                 122995341.818                   122995341.818    23619959.493  
                 127873255.415                   127873255.415    24556720.418  
                 135499450.356                   135499450.356    26021253.336  
  23647688.625   124269418.653                                                  
  25322325.461   133069696.793                                                  
  24389392.224   128167094.302                                                  
  26172920.438   137539562.273                                                  
  24938530.280   131052809.739                                                  
  26467690.968   139088678.062                                                  
  25886258.299   136033164.649                                                  
 21  8 31 22 56 41.0000000  0 20G 1G10G12G21G23G24G25G31G32C21C22C26
                                C34E 3E 5E 8E13E15E24E25
  23841860.701   125289757.360    23841865.258    97628364.855                  
  20562995.536   108059223.468    20562998.592    84201980.105                  
  23451468.473   123238286.596    23451469.545    96029830.723                  
  23605609.077   124048295.555    23605609.363    96661005.773                  
  22638871.026   118968053.441    22638873.045    92702376.824                  
  24271065.716   127545249.773    24271069.916    99385893.329                  
  23065643.978   121210697.870    23065648.517    94449874.766                  
  22399941.622   117712478.949    22399942.641    91724006.573                  
  20566118.648   108075647.608    20566121.507    84214781.411                  
                 114789708.175                   114789708.175    22044155.133  
                 122997201.082                   122997201.082    23620316.552  
                 127869913.894                   127869913.894    24556078.723  
                 135501858.238                   135501858.238    26021715.732  
  23647646.419   124269196.929                                                  
  25322640.153   133071350.613                                                  
  24389034.933   128165216.736                                                  
  26172758.902   137538713.319                                                  
  24938872.561   131054608.456                                                  
  26467722.400   139088843.280                                                  
  25885817.560   136030848.550                                                  
 21  8 31 22 56 42.0000000  0 20G 1G10G12G21G23G24G25G31G32C21C22C26
                                C34E 3E 5E 8E13E15E24E25
  23841384.403   125287254.343    23841388.941    97626414.456                  
  20563203.639   108060317.070    20563206.695    84202832.262                  
  23451256.761   123237174.044    23451257.815    96028963.801                  
  23605392.362   124047156.675    23605392.648    96660118.337                  
  22639426.735   118970973.745    22639428.754    92704652.383                  
  24271762.108   127548909.262    24271766.307    99388744.874                  
  23065179.258   121208255.843    23065183.815    94447971.888                  
  22399287.616   117709042.161    22399288.634    91721328.559                  
  20566067.686   108075379.817    20566070.545    84214572.742                  
                 114789134.120                   114789134.120    22044044.899  
                 122999060.570                   122999060.570    23620673.664  
                 127866572.506                   127866572.506    24555437.047  
                 135504266.289                   135504266.289    26022178.200  
  23647604.266   124268975.364                                                  
  25322954.898   133073004.520                                                  
  24388677.660   128163339.232                                                  
  26172597.438   137537864.853                                                  
  24939214.913   131056407.564                                                  
  26467753.939   139089008.997                                                  
  25885376.856   136028532.722                                                  
 21  8 31 22 56 43.0000000  0 20G 1G10G12G21G23G24G25G31G32C21C22C26
                                C34E 3E 5E 8E13E15E24E25
  23840908.175   125284751.837    23840912.714    97624464.449                  
  20563411.849   108061411.161    20563414.904    84203684.801                  
  23451045.156   123236062.082    23451046.228    96028097.335                  
  23605175.736   124046018.294    23605176.022    96659231.284                  
  22639982.497   118973894.343    22639984.517    92706928.172                  
  24272458.500   127552568.895    24272462.699    99391596.536                  
  23064714.646   121205814.203    23064719.184    94446069.309                  
  22398633.681   117705605.702    22398634.699    91718650.801                  
  20566016.759   108075112.312    20566019.636    84214364.297                  
                 114788560.324                   114788560.324    22043934.719  
                 123000920.285                   123000920.285    23621030.795  
                 127863231.250                   127863231.250    24554795.388  
                 135506674.508                   135506674.508    26022640.669  
  23647562.113   124268753.930                                                  
  25323269.643   133074658.493                                                  
  24388320.405   128161461.792                                                  
  26172436.063   137537016.868                                                  
  24939557.355   131058207.070                                                  
  26467785.567   139089175.175                                                  
  25884936.224   136026217.172                                                  
 21  8 31 22 56 44.0000000  0 20G 1G10G12G21G23G24G25G31G32C21C22C26
                                C34E 3E 5E 8E13E15E24E25
  23840432.055   125282249.829    23840436.594    97622514.835                  
  20563620.112   108062505.760    20563623.186    84204537.737                  
  23450833.658   123234950.715    23450834.712    96027231.335                  
  23604959.199   124044880.406    23604959.485    96658344.620                  
  22640538.331   118976815.255    22640540.368    92709204.207                  
  24273154.927   127556228.642    24273159.126    99394448.285                  
  23064250.087   121203372.950    23064254.643    94444167.036                  
  22397979.800   117702169.586    22397980.818    91715973.308                  
  20565965.922   108074845.104    20565968.781    84214156.085                  
                 114787986.792                   114787986.792    22043824.574  
                 123002780.217                   123002780.217    23621387.979  
                 127859890.122                   127859890.122    24554153.765  
                 135509082.899                   135509082.899    26023103.173  
  23647520.013   124268532.652                                                  
  25323584.405   133076312.562                                                  
  24387963.131   128159584.414                                                  
  26172274.795   137536169.358                                                  
  24939899.887   131060006.961                                                  
  26467817.284   139089341.864                                                  
  25884495.645   136023901.895                                                  
 21  8 31 22 56 45.0000000  0 20G 1G10G12G21G23G24G25G31G32C21C22C26
                                C34E 3E 5E 8E13E15E24E25
  23839956.042   125279748.317    23839960.581    97620565.605                  
  20563828.519   108063600.867    20563831.574    84205391.063                  
  23450622.285   123233839.915    23450623.340    96026365.776                  
  23604742.751   124043743.011    23604743.037    96657458.341                  
  22641094.219   118979736.466    22641096.238    92711480.477                  
  24273851.372   127559888.527    24273855.571    99397300.146                  
  23063785.599   121200932.097    23063790.138    94442265.075                  
  22397326.008   117698733.802    22397327.027    91713296.073                  
  20565915.120   108074578.184    20565917.997    84213948.093                  
                 114787413.519                   114787413.519    22043714.483  
                 123004640.380                   123004640.380    23621745.198  
                 127856549.124                   127856549.124    24553512.160  
                 135511491.461                   135511491.461    26023565.712  
  23647477.932   124268311.527                                                  
  25323899.168   133077966.690                                                  
  24387605.894   128157707.098                                                  
  26172113.598   137535322.329                                                  
  24940242.454   131061807.242                                                  
  26467849.073   139089509.024                                                  
  25884055.120   136021586.894                                                  
 21  8 31 22 56 46.0000000  0 20G 1G10G12G21G23G24G25G31G32C21C22C26
                                C34E 3E 5E 8E13E15E24E25
  23839480.101   125277247.302    23839484.657    97618616.766                  
  20564036.997   108064696.473    20564040.052    84206244.781                  
  23450411.020   123232729.719    23450412.074    96025500.691                  
  23604526.393   124042606.106    23604526.697    96656572.438                  
  22641650.160   118982657.974    22641652.197    92713756.972                  
  24274547.853   127563548.536    24274552.052    99400152.098                  
  23063321.184   121198491.630    23063325.740    94440363.410                  
  22396672.234   117695298.352    22396673.253    91710619.102                  
  20565864.372   108074311.551    20565867.267    84213740.329                  
                 114786840.508                   114786840.508    22043604.446  
                 123006500.761                   123006500.761    23622102.472  
                 127853208.263                   127853208.263    24552870.573  
                 135513900.187                   135513900.187    26024028.306  
  23647435.886   124268090.542                                                  
  25324213.967   133079620.906                                                  
  24387248.674   128155829.849                                                  
  26171952.527   137534475.782                                                  
  24940585.128   131063607.919                                                  
  26467881.005   139089676.672                                                  
  25883614.649   136019272.169                                                  
 21  8 31 22 56 47.0000000  0 20G 1G10G12G21G23G24G25G31G32C21C22C26
                                C34E 3E 5E 8E13E15E24E25
  23839004.285   125274746.788    23839008.823    97616668.316                  
  20564245.582   108065792.583    20564248.637    84207098.891                  
  23450199.862   123231620.125    23450200.916    96024636.075                  
  23604310.160   124041469.714    23604310.446    96655686.938                  
  22642206.154   118985579.792    22642208.191    92716033.714                  
  24275244.334   127567208.661    24275248.569    99403004.142                  
  23062856.857   121196051.557    23062861.396    94438462.059                  
  22396018.567   117691863.231    22396019.586    91707942.386                  
  20565813.696   108074045.206    20565816.555    84213532.790                  
                 114786267.758                   114786267.758    22043494.462  
                 123008361.371                   123008361.371    23622459.798  
                 127849867.527                   127849867.527    24552229.021  
                 135516309.089                   135516309.089    26024490.899  
  23647393.858   124267869.711                                                  
  25324528.765   133081275.208                                                  
  24386891.455   128153952.671                                                  
  26171791.527   137533629.710                                                  
  24940927.838   131065408.984                                                  
  26467912.973   139089844.805                                                  
  25883174.195   136016957.711                                                  
 21  8 31 22 56 48.0000000  0 20G 1G10G12G21G23G24G25G31G32C21C22C26
                                C34E 3E 5E 8E13E15E24E25
  23838528.540   125272246.773    23838533.078    97614720.255                  
  20564454.256   108066889.187    20564457.312    84207953.390                  
  23449988.829   123230511.109    23449989.883    96023771.906                  
  23604093.999   124040333.804    23604094.285    96654801.816                  
  22642762.220   118988501.910    22642764.258    92718310.687                  
  24275940.886   127570868.931    24275945.085    99405856.297                  
  23062392.602   121193611.874    23062397.141    94436561.008                  
  22395364.936   117688428.451    22395365.955    91705265.934                  
  20565763.055   108073779.163    20565765.932    84213325.481                  
                 114785695.264                   114785695.264    22043384.514  
                 123010222.199                   123010222.199    23622817.143  
                 127846526.925                   127846526.925    24551587.505  
                 135518718.155                   135518718.155    26024953.546  
  23647351.866   124267649.028                                                  
  25324843.582   133082929.585                                                  
  24386534.253   128152075.551                                                  
  26171630.599   137532784.128                                                  
  24941270.655   131067210.448                                                  
  26467945.084   139090013.433                                                  
  25882733.849   136014643.534                                                  
 21  8 31 22 56 49.0000000  0 20G 1G10G12G21G23G24G25G31G32C21C22C26
                                C34E 3E 5E 8E13E15E24E25
  23838052.884   125269747.253    23838057.423    97612772.578                  
  20564663.020   108067986.301    20564666.093    84208808.286                  
  23449777.903   123229402.680    23449778.957    96022908.195                  
  23603877.944   124039198.389    23603878.212    96653917.075                  
  22643318.340   118991424.324    22643320.359    92720587.890                  
  24276637.421   127574529.330    24276641.620    99408708.554                  
  23061928.418   121191172.591    23061932.957    94434660.265                  
  22394711.377   117684993.993    22394712.395    91702589.738                  
  20565712.485   108073513.399    20565715.362    84213118.390                  
                 114785123.038                   114785123.038    22043274.619  
                 123012083.255                   123012083.255    23623174.541  
                 127843186.457                   127843186.457    24550946.007  
                 135521127.395                   135521127.395    26025416.193  
  23647309.891   124267428.493                                                  
  25325158.398   133084584.039                                                  
  24386177.069   128150198.487                                                  
  26171469.777   137531939.025                                                  
  24941613.544   131069012.302                                                  
  26467977.266   139090182.539                                                  
  25882293.520   136012329.637                                                  
 21  8 31 22 56 50.0000000  0 20G 1G10G12G21G23G24G25G31G32C21C22C26
                                C34E 3E 5E 8E13E15E24E25
  23837577.336   125267248.239    23837581.875    97610825.294                  
  20564871.909   108069083.922    20564874.964    84209663.571                  
  23449567.084   123228294.835    23449568.138    96022044.941                  
  23603661.961   124038063.462    23603662.247    96653032.718                  
  22643874.514   118994347.050    22643876.533    92722865.341                  
  24277334.009   127578189.849    24277338.208    99411560.906                  
  23061464.306   121188733.694    23061468.863    94432759.833                  
  22394057.889   117681559.884    22394058.907    91699913.809                  
  20565661.952   108073247.925    20565664.847    84212911.532                  
                 114784551.074                   114784551.074    22043164.778  
                 123013944.531                   123013944.531    23623531.976  
                 127839846.116                   127839846.116    24550304.527  
                 135523536.801                   135523536.801    26025878.929  
  23647267.953   124267208.101                                                  
  25325473.268   133086238.566                                                  
  24385819.885   128148321.499                                                  
  26171309.063   137531094.400                                                  
  24941956.486   131070814.534                                                  
  26468009.519   139090352.124                                                  
  25881853.246   136010016.015                                                  
 21  8 31 22 56 51.0000000  0 20G 1G10G12G21G23G24G25G31G32C21C22C26
                                C34E 3E 5E 8E13E15E24E25
  23837101.877   125264749.703    23837106.416    97608878.382                  
  20565080.851   108070182.034    20565083.925    84210519.247                  
  23449356.372   123227187.585    23449357.445    96021182.150                  
  23603446.086   124036929.031    23603446.354    96652148.746                  
  22644430.740   118997270.063    22644432.778    92725143.011                  
  24278030.597   127581850.508    24278034.796    99414413.366                  
  23061000.266   121186295.188    23061004.822    94430859.696                  
  22393404.454   117678126.107    22393405.473    91697238.141                  
  20565611.508   108072982.727    20565614.385    84212704.882                  
                 114783979.359                   114783979.359    22043055.009  
                 123015806.054                   123015806.054    23623889.481  
                 127836505.921                   127836505.921    24549663.065  
                 135525946.387                   135525946.387    26026341.665  
  23647226.068   124266987.856                                                  
  25325788.121   133087893.175                                                  
  24385462.719   128146444.573                                                  
  26171148.421   137530250.247                                                  
  24942299.518   131072617.172                                                  
  26468041.880   139090522.193                                                  
  25881413.024   136007702.657                                                  
 21  8 31 22 56 52.0000000  0 20G 1G10G12G21G23G24G25G31G32C21C22C26
                                C34E 3E 5E 8E13E15E24E25
  23836626.525   125262251.674    23836631.064    97606931.867                  
  20565289.919   108071280.653    20565292.974    84211375.309                  
  23449145.786   123226080.922    23449146.840    96020319.817                  
  23603230.299   124035795.095    23603230.585    96651265.155                  
  22644987.039   119000193.395    22644989.058    92727420.930                  
  24278727.221   127585511.286    24278731.420    99417265.918                  
  23060536.296   121183857.069    23060540.853    94428959.868                  
  22392751.091   117674692.656    22392752.128    91694562.722                  
  20565561.099   108072717.829    20565563.958    84212498.465                  
                 114783407.915                   114783407.915    22042945.257  
                 123017667.778                   123017667.778    23624247.004  
                 127833165.848                   127833165.848    24549021.639  
                 135528356.130                   135528356.130    26026804.419  
  23647184.165   124266767.758                                                  
  25326102.973   133089547.864                                                  
  24385105.553   128144567.694                                                  
  26170987.886   137529406.587                                                  
  24942642.621   131074420.188                                                  
  26468074.348   139090692.769                                                  
  25880972.857   136005389.581                                                  
 21  8 31 22 56 53.0000000  0 20G 1G10G12G21G23G24G25G31G32C21C22C26
                                C34E 3E 5E 8E13E15E24E25
  23836151.245   125259754.145    23836155.801    97604985.742                  
  20565499.076   108072379.774    20565502.131    84212231.765                  
  23448935.307   123224974.844    23448936.361    96019457.938                  
  23603014.620   124034661.653    23603014.906    96650381.958                  
  22645543.373   119003117.027    22645545.428    92729699.085                  
  24279423.863   127589172.192    24279428.062    99420118.574                  
  23060072.417   121181419.364    23060076.973    94427060.355                  
  22392097.800   117671259.542    22392098.801    91691887.575                  
  20565510.744   108072453.224    20565513.603    84212292.282                  
                 114782836.730                   114782836.730    22042835.577  
                 123019529.726                   123019529.726    23624604.581  
                 127829825.903                   127829825.903    24548380.248  
                 135530766.044                   135530766.044    26027267.227  
  23647142.316   124266547.809                                                  
  25326417.879   133091202.626                                                  
  24384748.405   128142690.903                                                  
  26170827.422   137528563.406                                                  
  24942985.795   131076223.600                                                  
  26468106.906   139090863.804                                                  
  25880532.761   136003076.781                                                  
 21  8 31 22 56 54.0000000  0 20G 1G10G12G21G23G24G25G31G32C21C22C26
                                C34E 3E 5E 8E13E15E24E25
  23835676.072   125257257.120    23835680.628    97603040.008                  
  20565708.322   108073479.406    20565711.378    84213088.626                  
  23448724.917   123223869.364    23448725.971    96018596.522                  
  23602799.013   124033528.694    23602799.299    96649499.133                  
  22646099.779   119006040.962    22646101.816    92731977.473                  
  24280120.540   127592833.230    24280124.739    99422971.329                  
  23059608.626   121178982.026    23059613.165    94425161.137                  
  22391444.562   117667826.762    22391445.563    91689212.679                  
  20565460.443   108072188.897    20565463.302    84212086.313                  
                 114782265.809                   114782265.809    22042725.933  
                 123021391.898                   123021391.898    23624962.176  
                 127826486.095                   127826486.095    24547738.857  
                 135533176.130                   135533176.130    26027730.052  
  23647100.484   124266328.007                                                  
  25326732.784   133092857.473                                                  
  24384391.274   128140814.165                                                  
  26170667.065   137527720.691                                                  
  24943329.059   131078027.403                                                  
  26468139.534   139091035.348                                                  
  25880092.700   136000764.262                                                  
 21  8 31 22 56 55.0000000  0 20G 1G10G12G21G23G24G25G31G32C21C22C26
                                C34E 3E 5E 8E13E15E24E25
  23835201.006   125254760.585    23835205.545    97601094.661                  
  20565917.658   108074579.534    20565920.749    84213945.868                  
  23448514.688   123222764.462    23448515.724    96017735.562                  
  23602583.512   124032396.247    23602583.798    96648616.702                  
  22646656.238   119008965.195    22646658.275    92734256.097                  
  24280817.235   127596494.398    24280821.435    99425824.185                  
  23059144.871   121176545.093    23059149.428    94423262.224                  
  22390791.378   117664394.317    22390792.396    91686538.047                  
  20565410.177   108071924.870    20565413.054    84211880.578                  
                 114781695.148                   114781695.148    22042616.342  
                 123023254.294                   123023254.294    23625319.843  
                 127823146.412                   127823146.412    24547097.520  
                 135535586.379                   135535586.379    26028192.914  
  23647058.689   124266108.352                                                  
  25327047.726   133094512.399                                                  
  24384034.162   128138937.485                                                  
  26170506.798   137526878.466                                                  
  24943672.377   131079831.599                                                  
  26468172.288   139091207.375                                                  
  25879652.675   135998452.017                                                  
 21  8 31 22 56 56.0000000  0 20G 1G10G12G21G23G24G25G31G32C21C22C26
                                C34E 3E 5E 8E13E15E24E25
  23834726.012   125252264.540    23834730.568    97599149.691                  
  20566127.100   108075680.157    20566130.174    84214803.497                  
  23448304.512   123221660.152    23448305.584    96016875.061                  
  23602368.101   124031264.286    23602368.405    96647734.657                  
  22647212.787   119011889.743    22647214.806    92736534.960                  
  24281513.949   127600155.683    24281518.166    99428677.134                  
  23058681.224   121174108.544    23058685.762    94421363.617                  
  22390138.265   117660962.207    22390139.284    91683863.680                  
  20565360.001   108071661.128    20565362.878    84211675.067                  
                 114781124.750                   114781124.750    22042506.823  
                 123025116.914                   123025116.914    23625677.545  
                 127819806.862                   127819806.862    24546456.201  
                 135537996.800                   135537996.800    26028655.829  
  23647016.929   124265888.846                                                  
  25327362.632   133096167.398                                                  
  24383677.032   128137060.871                                                  
  26170346.620   137526036.713                                                  
  24944015.784   131081636.185                                                  
  26468205.096   139091379.870                                                  
  25879212.740   135996140.044                                                  
 21  8 31 22 56 57.0000000  0 20G 1G10G12G21G23G24G25G31G32C21C22C26
                                C34E 3E 5E 8E13E15E24E25
  23834251.124   125249769.009    23834255.681    97597205.121                  
  20566336.633   108076781.300    20566339.724    84215661.530                  
  23448094.498   123220556.430    23448095.534    96016015.020                  
  23602152.797   124030132.810    23602153.083    96646852.987                  
  22647769.335   119014814.578    22647771.372    92738814.055                  
  24282210.698   127603817.106    24282214.897    99431530.188                  
  23058217.612   121171672.406    23058222.186    94419465.327                  
  22389485.224   117657530.425    22389486.242    91681189.567                  
  20565309.861   108071397.688    20565312.738    84211469.784                  
                 114780554.612                   114780554.612    22042397.322  
                 123026979.754                   123026979.754    23626035.283  
                 127816467.449                   127816467.449    24545814.900  
                 135540407.386                   135540407.386    26029118.761  
  23646975.187   124265669.488                                                  
  25327677.591   133097822.480                                                  
  24383319.955   128135184.329                                                  
  26170186.514   137525195.466                                                  
  24944359.262   131083441.167                                                  
  26468238.028   139091552.871                                                  
  25878772.840   135993828.356                                                  
 21  8 31 22 56 58.0000000  0 20G 1G10G12G21G23G24G25G31G32C21C22C26
                                C34E 3E 5E 8E13E15E24E25
  23833776.344   125247273.974    23833780.883    97595260.938                  
  20566546.272   108077882.924    20566549.345    84216519.939                  
  23447884.555   123219453.292    23447885.627    96015155.434                  
  23601937.583   124029001.841    23601937.869    96645971.715                  
  22648325.973   119017739.730    22648328.028    92741093.394                  
  24282907.464   127607478.640    24282911.664    99434383.332                  
  23057754.125   121169236.653    23057758.664    94417567.340                  
  22388832.218   117654098.984    22388833.237    91678515.714                  
  20565259.774   108071134.515    20565262.669    84211264.719                  
                 114779984.738                   114779984.738    22042287.874  
                 123028842.822                   123028842.822    23626393.056  
                 127813128.164                   127813128.164    24545173.616  
                 135542818.144                   135542818.144    26029581.712  
  23646933.462   124265450.284                                                  
  25327992.568   133099477.632                                                  
  24382962.861   128133307.849                                                  
  26170026.514   137524354.667                                                  
  24944702.794   131085246.527                                                  
  26468271.033   139091726.352                                                  
  25878332.977   135991516.941                                                  
 21  8 31 22 56 59.0000000  0 20G 1G10G12G21G23G24G25G31G32C21C22C26
                                C34E 3E 5E 8E13E15E24E25
  23833301.636   125244779.429    23833306.175    97593317.141                  
  20566756.001   108078985.071    20566759.074    84217378.754                  
  23447674.754   123218350.746    23447675.827    96014296.308                  
  23601722.440   124027871.360    23601722.744    96645090.821                  
  22648882.682   119020665.176    22648884.720    92743372.960                  
  24283604.267   127611140.315    24283608.466    99437236.583                  
  23057290.674   121166801.289    23057295.213    94415669.656                  
  22388179.302   117650667.880    22388180.320    91675842.129                  
  20565209.758   108070871.641    20565212.635    84211059.880                  
                 114779415.126                   114779415.126    22042178.498  
                 123030706.113                   123030706.113    23626750.901  
                 127809789.013                   127809789.013    24544532.386  
                 135545229.071                   135545229.071    26030044.716  
  23646891.774   124265231.219                                                  
  25328307.546   133101132.872                                                  
  24382605.802   128131431.422                                                  
  26169866.622   137523514.364                                                  
  24945046.433   131087052.281                                                  
  26468304.144   139091900.312                                                  
  25877893.184   135989205.784                                                  
 21  8 31 22 57  0.0000000  0 20G 1G10G12G21G23G24G25G31G32C21C22C26
                                C34E 3E 5E 8E13E15E24E25
  23832827.035   125242285.388    23832831.573    97591373.731                  
  20566965.837   108080087.708    20566968.892    84218237.949                  
  23447465.061   123217248.793    23447466.116    96013437.641                  
  23601507.422   124026741.359    23601507.708    96644210.301                  
  22649439.428   119023590.932    22649441.465    92745652.770                  
  24284301.087   127614802.128    24284305.287    99440089.946                  
  23056827.313   121164366.337    23056831.851    94413772.288                  
  22387526.457   117647237.102    22387527.458    91673168.798                  
  20565159.779   108070609.058    20565162.656    84210855.269                  
                 114778845.773                   114778845.773    22042069.157  
                 123032569.625                   123032569.625    23627108.764  
                 127806449.993                   127806449.993    24543891.138  
                 135547640.163                   135547640.163    26030507.738  
  23646850.121   124265012.306                                                  
  25328622.541   133102788.180                                                  
  24382248.743   128129555.053                                                  
  26169706.820   137522674.540                                                  
  24945390.126   131088858.425                                                  
  26468337.327   139092074.754                                                  
  25877453.445   135986894.929                                                  
 21  8 31 22 57  1.0000000  0 20G 1G10G12G21G23G24G25G31G32C21C22C26
                                C34E 3E 5E 8E13E15E24E25
  23832352.523   125239791.844    23832357.062    97589430.711                  
  20567175.762   108081190.852    20567178.817    84219097.542                  
  23447255.476   123216147.418    23447256.548    96012579.429                  
  23601292.475   124025611.867    23601292.761    96643330.177                  
  22649996.244   119026516.988    22649998.281    92747932.812                  
  24284997.926   127618464.059    24285002.125    99442943.394                  
  23056364.040   121161931.766    23056368.579    94411875.222                  
  22386873.666   117643806.667    22386874.684    91670495.734                  
  20565109.888   108070346.771    20565112.747    84210650.890                  
                 114778276.684                   114778276.684    22041959.888  
                 123034433.364                   123034433.364    23627466.681  
                 127803111.106                   127803111.106    24543249.962  
                 135550051.427                   135550051.427    26030970.796  
  23646808.486   124264793.540                                                  
  25328937.554   133104443.579                                                  
  24381891.684   128127678.767                                                  
  26169547.106   137521835.199                                                  
  24945733.908   131090664.966                                                  
  26468370.617   139092249.688                                                  
  25877013.742   135984584.336                                                  
 21  8 31 22 57  2.0000000  0 20G 1G10G12G21G23G24G25G31G32C21C22C26
                                C34E 3E 5E 8E13E15E24E25
  23831878.118   125237298.798    23831882.657    97587488.078                  
  20567385.759   108082294.495    20567388.814    84219957.524                  
  23447045.997   123215046.648    23447047.051    96011721.688                  
  23601077.636   124024482.864    23601077.922    96642450.434                  
  22650553.097   119029443.340    22650555.134    92750213.086                  
  24285694.782   127622126.124    24285698.981    99445796.949                  
  23055900.822   121159497.591    23055905.360    94409978.465                  
  22386220.928   117640376.561    22386221.947    91667822.926                  
  20565060.016   108070084.763    20565062.875    84210446.726                  
                 114777707.854                   114777707.854    22041850.637  
                 123036297.325                   123036297.325    23627824.633  
                 127799772.350                   127799772.350    24542608.786  
                 135552462.856                   135552462.856    26031433.908  
  23646766.887   124264574.915                                                  
  25329252.585   133106099.042                                                  
  24381534.661   128125802.536                                                  
  26169387.464   137520996.332                                                  
  24946077.762   131092471.894                                                  
  26468403.996   139092425.109                                                  
  25876574.093   135982274.015                                                  
 21  8 31 22 57  3.0000000  0 20G 1G10G12G21G23G24G25G31G32C21C22C26
                                C34E 3E 5E 8E13E15E24E25
  23831403.803   125234806.251    23831408.342    97585545.836                  
  20567595.880   108083398.658    20567598.936    84220817.906                  
  23446836.644   123213946.465    23446837.698    96010864.403                  
  23600862.886   124023354.354    23600863.154    96641571.078                  
  22651110.020   119032370.007    22651112.057    92752493.601                  
  24286391.674   127625788.313    24286395.873    99448650.603                  
  23055437.674   121157063.809    23055442.249    94408082.012                  
  22385568.262   117636946.801    22385569.281    91665150.386                  
  20565010.197   108069823.048    20565013.074    84210242.792                  
                 114777139.289                   114777139.289    22041741.457  
                 123038161.509                   123038161.509    23628182.639  
                 127796433.726                   127796433.726    24541967.645  
                 135554874.454                   135554874.454    26031897.019  
  23646725.324   124264356.445                                                  
  25329567.616   133107754.599                                                  
  24381177.638   128123926.370                                                  
  26169227.912   137520157.954                                                  
  24946421.687   131094279.217                                                  
  26468437.482   139092601.015                                                  
  25876134.515   135979963.985                                                  
 21  8 31 22 57  4.0000000  0 20G 1G10G12G21G23G24G25G31G32C21C22C26
                                C34E 3E 5E 8E13E15E24E25
  23830929.559   125232314.203    23830934.098    97583603.985                  
  20567806.074   108084503.301    20567809.147    84221678.671                  
  23446627.397   123212846.868    23446628.434    96010007.574                  
  23600648.226   124022226.344    23600648.512    96640692.104                  
  22651666.998   119035296.966    22651669.035    92754774.348                  
  24287088.583   127629450.633    24287092.800    99451504.354                  
  23054974.617   121154630.409    23054979.155    94406185.860                  
  22384915.668   117633517.364    22384916.686    91662478.097                  
  20564960.468   108069561.618    20564963.345    84210039.083                  
                 114776570.979                   114776570.979    22041632.313  
                 123040025.914                   123040025.914    23628540.681  
                 127793095.237                   127793095.237    24541326.523  
                 135557286.218                   135557286.218    26032360.184  
  23646683.761   124264138.116                                                  
  25329882.682   133109410.227                                                  
  24380820.615   128122050.266                                                  
  26169068.485   137519320.046                                                  
  24946765.666   131096086.926                                                  
  26468471.040   139092777.401                                                  
  25875695.008   135977654.219                                                  
 21  8 31 22 57  5.0000000  0 20G 1G10G12G21G23G24G25G31G32C21C22C26
                                C34E 3E 5E 8E13E15E24E25
  23830455.440   125229822.657    23830459.979    97581662.520                  
  20568016.374   108085608.456    20568019.448    84222539.828                  
  23446418.258   123211747.870    23446419.313    96009151.214                  
  23600433.654   124021098.840    23600433.958    96639813.535                  
  22652224.047   119038224.234    22652226.084    92757055.336                  
  24287785.529   127633113.075    24287789.746    99454358.202                  
  23054511.648   121152197.417    23054516.187    94404290.022                  
  22384263.127   117630088.265    22384264.145    91659806.074                  
  20564910.756   108069300.476    20564913.633    84209835.593                  
                 114776002.937                   114776002.937    22041523.240  
                 123041890.548                   123041890.548    23628898.758  
                 127789756.883                   127789756.883    24540685.418  
                 135559698.154                   135559698.154    26032823.367  
  23646642.233   124263919.946                                                  
  25330197.749   133111065.930                                                  
  24380463.628   128120174.229                                                  
  26168909.129   137518482.622                                                  
  24947109.734   131097895.024                                                  
  26468504.706   139092954.281                                                  
  25875255.502   135975344.735                                                  
 21  8 31 22 57  6.0000000  0 20G 1G10G12G21G23G24G25G31G32C21C22C26
                                C34E 3E 5E 8E13E15E24E25
  23829981.393   125227331.583    23829985.932    97579721.426                  
  20568226.782   108086714.115    20568229.838    84223401.383                  
  23446209.244   123210649.462    23446210.299    96008295.312                  
  23600219.208   124019971.816    23600219.476    96638935.336                  
  22652781.131   119041151.790    22652783.186    92759336.546                  
  24288482.474   127636775.630    24288486.692    99457212.144                  
  23054048.715   121149764.809    23054053.272    94402394.488                  
  22383610.639   117626659.491    22383611.658    91657134.309                  
  20564861.116   108069039.612    20564863.993    84209632.327                  
                 114775435.157                   114775435.157    22041414.204  
                 123043755.401                   123043755.401    23629256.889  
                 127786418.656                   127786418.656    24540044.349  
                 135562110.255                   135562110.255    26033286.586  
  23646600.759   124263701.908                                                  
  25330512.833   133112721.711                                                  
  24380106.640   128118298.251                                                  
  26168749.844   137517645.667                                                  
  24947453.873   131099703.519                                                  
  26468538.442   139093131.636                                                  
  25874816.085   135973035.491                                                  
 21  8 31 22 57  7.0000000  0 20G 1G10G12G21G23G24G25G31G32C21C22C26
                                C34E 3E 5E 8E13E15E24E25
  23829507.453   125224841.031    23829511.991    97577780.741                  
  20568437.279   108087820.267    20568440.335    84224263.325                  
  23446000.320   123209551.629    23446001.374    96007439.862                  
  23600004.834   124018845.304    23600005.120    96638057.540                  
  22653338.305   119044079.656    22653340.343    92761618.007                  
  24289179.474   127640438.312    24289183.673    99460066.189                  
  23053585.872   121147332.574    23053590.428    94400499.242                  
  22382958.241   117623231.052    22382959.242    91654462.798                  
  20564811.547   108068779.036    20564814.406    84209429.285                  
                 114774867.636                   114774867.636    22041305.221  
                 123045620.481                   123045620.481    23629615.056  
                 127783080.567                   127783080.567    24539403.298  
                 135564522.525                   135564522.525    26033749.840  
  23646559.303   124263484.025                                                  
  25330827.936   133114377.590                                                  
  24379749.653   128116422.352                                                  
  26168590.685   137516809.199                                                  
  24947798.102   131101512.421                                                  
  26468572.286   139093309.470                                                  
  25874376.703   135970726.547                                                  
 21  8 31 22 57  8.0000000  0 20G 1G10G12G21G23G24G25G31G32C21C22C26
                                C34E 3E 5E 8E13E15E24E25
  23829033.620   125222350.970    23829038.159    97575840.438                  
  20568647.866   108088926.927    20568650.921    84225125.659                  
  23445791.538   123208454.410    23445792.574    96006584.891                  
  23599790.566   124017719.254    23599790.834    96637180.102                  
  22653895.515   119047007.828    22653897.534    92763899.700                  
  24289876.473   127644101.140    24289880.708    99462920.341                  
  23053123.118   121144900.782    23053127.674    94398604.349                  
  22382305.897   117619802.979    22382306.898    91651791.582                  
  20564761.996   108068518.765    20564764.873    84209226.481                  
                 114774300.379                   114774300.379    22041196.273  
                 123047485.781                   123047485.781    23629973.276  
                 127779742.611                   127779742.611    24538762.282  
                 135566934.960                   135566934.960    26034213.113  
  23646517.865   124263266.292                                                  
  25331143.038   133116033.511                                                  
  24379392.701   128114546.485                                                  
  26168431.597   137515973.234                                                  
  24948142.402   131103321.650                                                  
  26468606.220   139093487.820                                                  
  25873937.376   135968417.926                                                  
 21  8 31 22 57  9.0000000  0 20G 1G10G12G21G23G24G25G31G32C21C22C26
                                C34E 3E 5E 8E13E15E24E25
  23828559.876   125219861.419    23828564.415    97573900.535                  
  20568858.559   108090034.082    20568861.615    84225988.382                  
  23445582.846   123207357.762    23445583.900    96005730.367                  
  23599576.388   124016593.726    23599576.656    96636303.070                  
  22654452.779   119049936.293    22654454.816    92766181.625                  
  24290573.525   127647764.077    24290577.725    99465774.577                  
  23052660.435   121142469.357    23052664.974    94396709.734                  
  22381653.606   117616375.215    22381654.625    91649120.601                  
  20564712.535   108068258.773    20564715.394    84209023.895                  
                 114773733.384                   114773733.384    22041087.397  
                 123049351.309                   123049351.309    23630331.532  
                 127776404.782                   127776404.782    24538121.285  
                 135569347.562                   135569347.562    26034676.438  
  23646476.462   124263048.702                                                  
  25331458.176   133117689.535                                                  
  24379035.732   128112670.704                                                  
  26168272.598   137515137.738                                                  
  24948486.756   131105131.321                                                  
  26468640.260   139093666.630                                                  
  25873498.101   135966109.539                                                  
 21  8 31 22 57 10.0000000  0 20G 1G10G12G21G23G24G25G31G32C21C22C26
                                C34E 3E 5E 8E13E15E24E25
  23828086.222   125217372.358    23828090.761    97571961.012                  
  20569069.342   108091141.754    20569072.398    84226851.508                  
  23445374.278   123206261.711    23445375.315    96004876.308                  
  23599362.281   124015468.679    23599362.567    96635426.414                  
  22655010.096   119052865.063    22655012.133    92768463.786                  
  24291270.578   127651427.149    24291274.777    99468628.926                  
  23052197.842   121140038.336    23052202.381    94394815.437                  
  22381001.405   117612947.797    22381002.405    91646449.890                  
  20564663.127   108067999.077    20564665.986    84208821.539                  
                 114773166.648                   114773166.648    22040978.557  
                 123051217.054                   123051217.054    23630689.842  
                 127773067.091                   127773067.091    24537480.323  
                 135571760.335                   135571760.335    26035139.800  
  23646435.077   124262831.263                                                  
  25331773.314   133119345.626                                                  
  24378678.798   128110794.978                                                  
  26168113.707   137514302.714                                                  
  24948831.200   131106941.368                                                  
  26468674.372   139093845.934                                                  
  25873058.881   135963801.437                                                  
 21  8 31 22 57 11.0000000  0 20G 1G10G12G21G23G24G25G31G32C21C22C26
                                C34E 3E 5E 8E13E15E24E25
  23827612.657   125214883.802    23827617.196    97570021.882                  
  20569280.215   108092249.922    20569283.288    84227715.020                  
  23445165.818   123205166.246    23445166.855    96004022.703                  
  23599148.282   124014344.125    23599148.568    96634550.145                  
  22655567.502   119055794.133    22655569.521    92770746.180                  
  24291967.667   127655090.347    24291971.884    99471483.368                  
  23051735.302   121137607.694    23051739.841    94392921.437                  
  22380349.239   117609520.707    22380350.240    91643779.438                  
  20564613.737   108067739.663    20564616.614    84208619.398                  
                 114772600.176                   114772600.176    22040869.788  
                 123053083.032                   123053083.032    23631048.187  
                 127769729.530                   127769729.530    24536839.379  
                 135574173.273                   135574173.273    26035603.180  
  23646393.729   124262613.970                                                  
  25332088.488   133121001.808                                                  
  24378321.882   128108919.325                                                  
  26167954.905   137513468.174                                                  
  24949175.714   131108751.800                                                  
  26468708.573   139094025.727                                                  
  25872619.714   135961493.616                                                  
 21  8 31 22 57 12.0000000  0 20G 1G10G12G21G23G24G25G31G32C21C22C26
                                C34E 3E 5E 8E13E15E24E25
  23827139.200   125212395.707    23827143.738    97568083.097                  
  20569491.176   108093358.577    20569494.232    84228578.910                  
  23444957.466   123204071.368    23444958.520    96003169.554                  
  23598934.372   124013220.078    23598934.658    96633674.274                  
  22656124.944   119058723.457    22656126.981    92773028.750                  
  24292664.755   127658753.733    24292668.954    99474337.989                  
  23051272.816   121135177.505    23051277.355    94391027.812                  
  22379697.145   117606093.970    22379698.145    91641109.262                  
  20564564.436   108067480.540    20564567.296    84208417.493                  
                 114772033.960                   114772033.960    22040761.055  
                 123054949.214                   123054949.214    23631406.568  
                 127766392.173                   127766392.173    24536198.435  
                 135576586.215                   135576586.215    26036066.613  
  23646352.398   124262396.823                                                  
  25332403.662   133122658.058                                                  
  24377964.966   128107043.720                                                  
  26167796.174   137512634.134                                                  
  24949520.301   131110562.636                                                  
  26468742.900   139094206.017                                                  
  25872180.601   135959186.101                                                  
 21  8 31 22 57 13.0000000  0 20G 1G10G12G21G23G24G25G31G32C21C22C26
                                C34E 3E 5E 8E13E15E24E25
  23826665.831   125209908.157    23826670.388    97566144.749                  
  20569702.263   108094467.749    20569705.319    84229443.204                  
  23444749.220   123202977.077    23444750.274    96002316.864                  
  23598720.587   124012096.516    23598720.855    96632798.774                  
  22656682.439   119061653.137    22656684.477    92775311.620                  
  24293361.897   127662417.184    24293366.096    99477192.626                  
  23050810.437   121132747.667    23050814.976    94389134.437                  
  22379045.122   117602667.540    22379046.123    91638439.324                  
  20564515.172   108067221.707    20564518.066    84208215.809                  
                 114771468.015                   114771468.015    22040652.376  
                 123056815.637                   123056815.637    23631765.003  
                 127763054.883                   127763054.883    24535557.562  
                 135578999.488                   135578999.488    26036530.082  
  23646311.120   124262179.827                                                  
  25332718.836   133124314.390                                                  
  24377608.068   128105168.185                                                  
  26167637.551   137511800.551                                                  
  24949864.976   131112373.848                                                  
  26468777.280   139094386.770                                                  
  25871741.541   135956878.820                                                  
 21  8 31 22 57 14.0000000  0 20G 1G10G12G21G23G24G25G31G32C21C22C26
                                C34E 3E 5E 8E13E15E24E25
  23826192.552   125207421.086    23826197.091    97564206.776                  
  20569913.421   108095577.425    20569916.477    84230307.887                  
  23444541.100   123201883.390    23444542.154    96001464.645                  
  23598506.856   124010973.450    23598507.141    96631923.659                  
  22657240.007   119064583.117    22657242.044    92777594.728                  
  24294059.039   127666080.757    24294063.238    99480047.363                  
  23050348.148   121130318.222    23050352.669    94387241.370                  
  22378393.153   117599241.457    22378394.153    91635769.653                  
  20564465.978   108066963.161    20564468.855    84208014.343                  
                 114770902.328                   114770902.328    22040543.732  
                 123058682.281                   123058682.281    23632123.455  
                 127759717.724                   127759717.724    24534916.708  
                 135581412.927                   135581412.927    26036993.568  
  23646269.861   124261962.980                                                  
  25333034.063   133125970.810                                                  
  24377251.188   128103292.723                                                  
  26167479.017   137510967.458                                                  
  24950209.723   131114185.456                                                  
  26468811.785   139094568.022                                                  
  25871302.535   135954571.839                                                  
 21  8 31 22 57 15.0000000  0 20G 1G10G12G21G23G24G25G31G32C21C22C26
                                C34E 3E 5E 8E13E15E24E25
  23825719.399   125204934.534    23825723.919    97562269.210                  
  20570124.687   108096687.607    20570127.742    84231172.970                  
  23444333.104   123200790.276    23444334.141    96000612.870                  
  23598293.231   124009850.874    23598293.517    96631048.934                  
  22657797.627   119067513.401    22657799.664    92779878.066                  
  24294756.217   127669744.457    24294760.416    99482902.194                  
  23049885.894   121127889.171    23049890.433    94385348.610                  
  22377741.255   117595815.706    22377742.256    91633100.246                  
  20564416.838   108066704.903    20564419.697    84207813.110                  
                 114770336.903                   114770336.903    22040435.160  
                 123060549.149                   123060549.149    23632481.979  
                 127756380.695                   127756380.695    24534275.853  
                 135583826.534                   135583826.534    26037457.055  
  23646228.619   124261746.274                                                  
  25333349.273   133127627.294                                                  
  24376894.308   128101417.317                                                  
  26167320.572   137510134.835                                                  
  24950554.524   131115997.458                                                  
  26468846.361   139094749.747                                                  
  25870863.582   135952265.125                                                  
