     2.11           OBSERVATION DATA    M (MIXED)           RINEX VERSION / TYPE
CONVBIN 2.4.3                           20210901 005048 UTC PGM / RUN BY / DATE 
log: logs/21_08_31_20_49_04_mada_SW.rtcm                    COMMENT             
format: RTCM 3, station ID: 2025                            COMMENT             
2025                                                        MARKER NAME         
                                                            MARKER NUMBER       
                                                            OBSERVER / AGENCY   
                    SWFT                                    REC # / TYPE / VERS 
                    NULL                                    ANT # / TYPE        
  1573307.6515 -4576524.1628  4140723.8171                  APPROX POSITION XYZ 
        0.0000        0.0000        0.0000                  ANTENNA: DELTA H/E/N
     1     1                                                WAVELENGTH FACT L1/2
     5    C1    L1    P2    L2    C2                        # / TYPES OF OBSERV 
  2021     8    31    20    49    9.0000000     GPS         TIME OF FIRST OBS   
  2021     8    31    21    19   41.0000000     GPS         TIME OF LAST OBS    
                                                            END OF HEADER       
 21  8 31 20 49  9.0000000  0 12G10G15G18G23G24G32E 3E 5E 9E15E31E36
  22041727.787   115830012.284    22041730.914    90257139.828                  
  22125699.580   116271332.774    22125700.580    90601037.437                  
  21128209.672   111029485.864    21128211.013    86516483.118                  
  20299889.094   106676639.212    20299889.987    83124656.222                  
  20300364.517   106679090.685    20300367.716    83126552.950                  
  23811342.662   125129391.825    23811346.915    97503407.474                  
  25970697.206   136476901.378                                                  
  23499761.044   123492065.880                                                  
  23709129.134   124592293.536                                                  
  25767099.274   135406974.628                                                  
  27003007.495   141901711.831                                                  
  26376884.829   138611385.293                                                  
 21  8 31 20 49 10.0000000  0 12G10G15G18G23G24G32E 3E 5E 9E15E31E36
  22041256.277   115827534.501    22041259.422    90255209.085                  
  22126226.072   116274099.539    22126227.073    90603193.355                  
  21128656.202   111031832.255    21128657.524    86518311.472                  
  20299755.076   106675934.944    20299755.952    83124107.445                  
  20300337.964   106678951.114    20300341.162    83126444.195                  
  23810825.925   125126676.363    23810830.178    97501291.531                  
  25970349.028   136475071.747                                                  
  23499766.637   123492095.345                                                  
  23709482.584   124594150.854                                                  
  25766794.035   135405370.488                                                  
  27002858.914   141900931.106                                                  
  26377476.525   138614494.614                                                  
 21  8 31 20 49 11.0000000  0 16G10G15G18G23G24G32C19C21C22C34E 3E 5
                                E 9E15E31E36
  22040784.803   115825056.902    22040787.948    90253278.493                  
  22126752.619   116276866.457    22126753.602    90605349.395                  
  21129102.802   111034179.165    21129104.142    86520140.233                  
  20299621.148   106675231.075    20299622.023    83123558.973                  
  20300311.535   106678812.262    20300314.734    83126335.997                  
  23810309.207   125123961.062    23810313.477    97499175.710                  
                 119482829.484                   119482829.484    22945422.246  
                 130981401.589                   130981401.589    25153601.822  
                 115505155.789                   115505155.789    22181545.780  
                 133339185.226                   133339185.226    25606392.697  
  25970000.886   136473242.227                                                  
  23499772.284   123492124.977                                                  
  23709836.015   124596008.214                                                  
  25766488.868   135403766.759                                                  
  27002710.440   141900150.813                                                  
  26378068.222   138617604.061                                                  
 21  8 31 20 49 12.0000000  0 16G10G15G18G23G24G32C19C21C22C34E 3E 5
                                E 9E15E31E36
  22040313.365   115822579.461    22040316.492    90251348.020                  
  22127279.183   116279633.542    22127280.166    90607505.565                  
  21129549.492   111036526.598    21129550.832    86521969.406                  
  20299487.273   106674527.594    20299488.149    83123010.808                  
  20300285.232   106678674.117    20300288.449    83126228.356                  
  23809792.542   125121245.940    23809796.795    97497060.035                  
                 119484529.792                   119484529.792    22945748.766  
                 130979054.380                   130979054.380    25153151.058  
                 115504542.964                   115504542.964    22181428.077  
                 133338621.319                   133338621.319    25606284.392  
  25969652.761   136471412.847                                                  
  23499777.966   123492154.794                                                  
  23710189.482   124597865.649                                                  
  25766183.736   135402163.438                                                  
  27002562.038   141899370.966                                                  
  26378659.955   138620713.641                                                  
 21  8 31 20 49 13.0000000  0 16G10G15G18G23G24G32C19C21C22C34E 3E 5
                                E 9E15E31E36
  22039841.962   115820102.180    22039845.107    90249417.673                  
  22127805.766   116282400.783    22127806.748    90609661.855                  
  21129996.307   111038874.561    21129997.647    86523798.984                  
  20299353.488   106673824.512    20299354.363    83122462.952                  
  20300259.108   106678536.696    20300262.306    83126121.273                  
  23809275.895   125118530.992    23809280.165    97494944.493                  
                 119486230.262                   119486230.262    22946075.323  
                 130976707.218                   130976707.218    25152700.312  
                 115503930.346                   115503930.346    22181310.445  
                 133338057.950                   133338057.950    25606176.196  
  25969304.655   136469583.583                                                  
  23499783.667   123492184.781                                                  
  23710542.931   124599723.111                                                  
  25765878.712   135400560.531                                                  
  27002413.725   141898591.544                                                  
  26379251.724   138623823.355                                                  
 21  8 31 20 49 14.0000000  0 16G10G15G18G23G24G32C19C21C22C34E 3E 5
                                E 9E15E31E36
  22039370.577   115817625.080    22039373.722    90247487.461                  
  22128332.384   116285168.199    22128333.384    90611818.285                  
  21130443.193   111041223.047    21130444.533    86525628.973                  
  20299219.756   106673121.820    20299220.631    83121915.398                  
  20300233.072   106678399.977    20300236.289    83126014.738                  
  23808759.283   125115816.204    23808763.554    97492829.070                  
                 119487930.899                   119487930.899    22946401.915  
                 130974360.097                   130974360.097    25152249.584  
                 115503317.946                   115503317.946    22181192.849  
                 133337495.110                   133337495.110    25606068.124  
  25968956.584   136467754.453                                                  
  23499789.420   123492214.956                                                  
  23710896.416   124601580.646                                                  
  25765573.777   135398958.035                                                  
  27002265.502   141897812.577                                                  
  26379843.492   138626933.195                                                  
 21  8 31 20 49 15.0000000  0 16G10G15G18G23G24G32C19C21C22C34E 3E 5
                                E 9E15E31E36
  22038899.228   115815148.132    22038902.355    90245557.372                  
  22128859.037   116287935.763    22128860.020    90613974.824                  
  21130890.205   111043572.070    21130891.545    86527459.378                  
  20299086.113   106672419.528    20299087.007    83121368.159                  
  20300207.198   106678263.980    20300210.397    83125908.765                  
  23808242.726   125113101.587    23808246.979    97490713.788                  
                 119489631.704                   119489631.704    22946728.543  
                 130972013.022                   130972013.022    25151798.838  
                 115502705.753                   115502705.753    22181075.253  
                 133336932.808                   133336932.808    25605960.141  
  25968608.531   136465925.438                                                  
  23499795.174   123492245.313                                                  
  23711249.919   124603438.234                                                  
  25765268.914   135397355.952                                                  
  27002117.332   141897034.038                                                  
  26380435.296   138630043.156                                                  
 21  8 31 20 49 16.0000000  0 16G10G15G18G23G24G32C19C21C22C34E 3E 5
                                E 9E15E31E36
  22038427.915   115812671.355    22038431.060    90243627.418                  
  22129385.727   116290703.493    22129386.692    90616131.497                  
  21131337.305   111045921.610    21131338.646    86529290.188                  
  20298952.560   106671717.628    20298953.418    83120821.222                  
  20300181.467   106678128.688    20300184.665    83125803.344                  
  23807726.168   125110387.137    23807730.439    97488598.637                  
                 119491332.672                   119491332.672    22947055.188  
                 130969665.991                   130969665.991    25151348.127  
                 115502093.769                   115502093.769    22180957.746  
                 133336371.039                   133336371.039    25605852.266  
  25968260.514   136464096.554                                                  
  23499800.999   123492275.849                                                  
  23711603.404   124605295.872                                                  
  25764964.122   135395754.268                                                  
  27001969.287   141896255.940                                                  
  26381027.136   138633153.249                                                  
 21  8 31 20 49 17.0000000  0 16G10G15G18G23G24G32C19C21C22C34E 3E 5
                                E 9E15E31E36
  22037956.619   115810194.751    22037959.764    90241697.594                  
  22129912.434   116293471.391    22129913.417    90618288.301                  
  21131784.513   111048271.675    21131785.854    86531121.410                  
  20298819.061   106671016.125    20298819.936    83120274.598                  
  20300155.843   106677994.114    20300159.041    83125698.481                  
  23807209.664   125107672.855    23807213.917    97486483.614                  
                 119493033.805                   119493033.805    22947381.888  
                 130967319.003                   130967319.003    25150897.399  
                 115501481.997                   115501481.997    22180840.257  
                 133335809.804                   133335809.804    25605744.480  
  25967912.515   136462267.809                                                  
  23499806.843   123492306.563                                                  
  23711956.925   124607153.574                                                  
  25764659.419   135394153.013                                                  
  27001821.278   141895478.282                                                  
  26381618.994   138636263.468                                                  
 21  8 31 20 49 18.0000000  0 16G10G15G18G23G24G32C19C21C22C34E 3E 5
                                E 9E15E31E36
  22037485.377   115807718.305    22037488.522    90239767.899                  
  22130439.177   116296239.448    22130440.160    90620445.230                  
  21132231.829   111050622.273    21132233.169    86532953.043                  
  20298685.669   106670315.020    20298686.526    83119728.286                  
  20300130.379   106677860.277    20300133.578    83125594.192                  
  23806693.178   125104958.754    23806697.448    97484368.726                  
                 119494735.110                   119494735.110    22947708.587  
                 130964972.062                   130964972.062    25150446.707  
                 115500870.434                   115500870.434    22180722.822  
                 133335249.107                   133335249.107    25605636.801  
  25967564.534   136460439.178                                                  
  23499812.722   123492337.460                                                  
  23712310.446   124609011.327                                                  
  25764354.788   135392552.163                                                  
  27001673.394   141894701.079                                                  
  26382210.887   138639373.827                                                  
 21  8 31 20 49 19.0000000  0 16G10G15G18G23G24G32C19C21C22C34E 3E 5
                                E 9E15E31E36
  22037014.153   115805242.024    22037017.298    90237838.324                  
  22130965.956   116299007.610    22130966.939    90622602.203                  
  21132679.215   111052973.359    21132680.556    86534785.039                  
  20298552.294   106669614.345    20298553.188    83119182.325                  
  20300105.041   106677727.126    20300108.239    83125490.436                  
  23806176.745   125102244.818    23806180.998    97482253.979                  
                 119496436.575                   119496436.575    22948035.340  
                 130962625.165                   130962625.165    25149995.996  
                 115500259.081                   115500259.081    22180605.423  
                 133334688.942                   133334688.942    25605529.212  
  25967216.588   136458610.612                                                  
  23499818.636   123492368.542                                                  
  23712663.967   124610869.155                                                  
  25764050.229   135390951.735                                                  
  27001525.581   141893924.207                                                  
  26382802.781   138642484.261                                                  
 21  8 31 20 49 20.0000000  0 16G10G15G18G23G24G32C19C21C22C34E 3E 5
                                E 9E15E31E36
  22036542.965   115802765.898    22036546.092    90235908.878                  
  22131492.753   116301775.989    22131493.735    90624759.384                  
  21133126.727   111055324.997    21133128.067    86536617.484                  
  20298419.045   106668914.021    20298419.903    83118636.618                  
  20300079.846   106677594.683    20300083.044    83125387.238                  
  23805660.312   125099531.040    23805664.583    97480139.347                  
                 119498138.206                   119498138.206    22948362.129  
                 130960278.311                   130960278.311    25149545.322  
                 115499647.940                   115499647.940    22180488.041  
                 133334129.309                   133334129.309    25605421.765  
  25966868.660   136456782.239                                                  
  23499824.587   123492399.805                                                  
  23713017.505   124612727.019                                                  
  25763745.758   135389351.716                                                  
  27001377.840   141893147.878                                                  
  26383394.728   138645594.867                                                  
 21  8 31 20 49 21.0000000  0 16G10G15G18G23G24G32C19C21C22C34E 3E 5
                                E 9E15E31E36
  22036071.795   115800289.958    22036074.940    90233979.573                  
  22132019.603   116304544.535    22132020.586    90626916.693                  
  21133574.328   111057677.163    21133575.669    86538450.341                  
  20298285.867   106668214.102    20298286.725    83118091.227                  
  20300054.775   106677462.976    20300057.974    83125284.610                  
  23805143.933   125096817.441    23805148.204    97478024.859                  
                 119499840.009                   119499840.009    22948688.935  
                 130957931.504                   130957931.504    25149094.647  
                 115499037.009                   115499037.009    22180370.713  
                 133333570.215                   133333570.215    25605314.373  
  25966520.733   136454953.981                                                  
  23499830.555   123492431.239                                                  
  23713371.062   124614584.962                                                  
  25763441.359   135387752.101                                                  
  27001230.206   141892371.992                                                  
  26383986.657   138648705.608                                                  
 21  8 31 20 49 22.0000000  0 16G10G15G18G23G24G32C19C21C22C34E 3E 5
                                E 9E15E31E36
  22035600.678   115797814.175    22035603.823    90232050.395                  
  22132546.453   116307313.243    22132547.454    90629074.125                  
  21134022.037   111060029.868    21134023.377    86540283.613                  
  20298152.743   106667514.574    20298153.601    83117546.140                  
  20300029.848   106677331.967    20300033.047    83125182.523                  
  23804627.572   125094104.012    23804631.843    97475910.497                  
                 119501541.974                   119501541.974    22949015.778  
                 130955584.738                   130955584.738    25148643.955  
                 115498426.289                   115498426.289    22180253.439  
                 133333011.652                   133333011.652    25605207.123  
  25966172.859   136453125.864                                                  
  23499836.577   123492462.858                                                  
  23713724.618   124616442.946                                                  
  25763137.032   135386152.912                                                  
  27001082.644   141891596.538                                                  
  26384578.658   138651816.487                                                  
 21  8 31 20 49 23.0000000  0 16G10G15G18G23G24G32C19C21C22C34E 3E 5
                                E 9E15E31E36
  22035129.597   115795338.566    22035132.724    90230121.348                  
  22133073.357   116310082.110    22133074.358    90631231.683                  
  21134469.835   111062383.085    21134471.175    86542117.289                  
  20298019.708   106666815.432    20298020.566    83117001.355                  
  20300005.046   106677201.684    20300008.244    83125081.003                  
  23804111.265   125091390.739    23804115.517    97473796.263                  
                 119503244.102                   119503244.102    22949342.656  
                 130953238.015                   130953238.015    25148193.298  
                 115497815.777                   115497815.777    22180136.200  
                 133332453.625                   133332453.625    25605099.962  
  25965825.002   136451297.861                                                  
  23499842.616   123492494.650                                                  
  23714078.192   124618300.980                                                  
  25762832.794   135384554.130                                                  
  27000935.153   141890821.535                                                  
  26385170.659   138654927.487                                                  
 21  8 31 20 49 24.0000000  0 16G10G15G18G23G24G32C19C21C22C34E 3E 5
                                E 9E15E31E36
  22034658.516   115792863.118    22034661.661    90228192.426                  
  22133600.297   116312851.140    22133601.279    90633389.372                  
  21134917.739   111064736.835    21134919.080    86543951.380                  
  20297886.727   106666116.699    20297887.602    83116456.887                  
  20299980.404   106677072.113    20299983.603    83124980.039                  
  23803594.975   125088677.648    23803599.246    97471682.163                  
                 119504946.399                   119504946.399    22949669.552  
                 130950891.341                   130950891.341    25147742.641  
                 115497205.476                   115497205.476    22180018.997  
                 133331896.132                   133331896.132    25604992.909  
  25965477.182   136449469.999                                                  
  23499848.728   123492526.621                                                  
  23714431.785   124620159.073                                                  
  25762528.646   135382955.754                                                  
  27000787.751   141890046.973                                                  
  26385762.677   138658038.607                                                  
 21  8 31 20 49 25.0000000  0 16G10G15G18G23G24G32C19C21C22C34E 3E 5
                                E 9E15E31E36
  22034187.506   115790387.843    22034190.633    90226263.640                  
  22134127.254   116315620.329    22134128.237    90635547.177                  
  21135365.734   111067091.114    21135367.074    86545785.878                  
  20297753.835   106665418.362    20297754.693    83115912.726                  
  20299955.852   106676943.247    20299959.069    83124879.626                  
  23803078.721   125085964.730    23803082.974    97469568.208                  
                 119506648.864                   119506648.864    22949996.501  
                 130948544.708                   130948544.708    25147292.002  
                 115496595.391                   115496595.391    22179901.848  
                 133331339.172                   133331339.172    25604885.945  
  25965129.361   136447642.257                                                  
  23499854.821   123492558.785                                                  
  23714785.359   124622017.210                                                  
  25762224.568   135381357.794                                                  
  27000640.439   141889272.845                                                  
  26386354.732   138661149.870                                                  
 21  8 31 20 49 26.0000000  0 16G10G15G18G23G24G32C19C21C22C34E 3E 5
                                E 9E15E31E36
  22033716.497   115787912.730    22033719.642    90224334.985                  
  22134654.247   116318389.680    22134655.248    90637705.114                  
  21135813.835   111069445.915    21135815.175    86547620.790                  
  20297621.014   106664720.418    20297621.908    83115368.876                  
  20299931.479   106676815.091    20299934.678    83124779.762                  
  23802562.503   125083251.973    23802566.756    97467454.372                  
                 119508351.492                   119508351.492    22950323.486  
                 130946198.122                   130946198.122    25146841.363  
                 115495985.512                   115495985.512    22179784.716  
                 133330782.749                   133330782.749    25604779.088  
  25964781.576   136445814.647                                                  
  23499860.986   123492591.114                                                  
  23715138.951   124623875.414                                                  
  25761920.563   135379760.242                                                  
  27000493.216   141888499.157                                                  
  26386946.822   138664261.245                                                  
 21  8 31 20 49 27.0000000  0 16G10G15G18G23G24G32C19C21C22C34E 3E 5
                                E 9E15E31E36
  22033245.541   115785437.784    22033248.686    90222406.458                  
  22135181.258   116321159.189    22135182.259    90639863.169                  
  21136262.062   111071801.241    21136263.402    86549456.109                  
  20297488.283   106664022.868    20297489.159    83114825.328                  
  20299907.213   106676687.645    20299910.411    83124680.453                  
  23802046.320   125080539.395    23802050.573    97465340.675                  
                 119510054.286                   119510054.286    22950650.472  
                 130943851.577                   130943851.577    25146390.724  
                 115495375.845                   115495375.845    22179667.638  
                 133330226.859                   133330226.859    25604672.321  
  25964433.827   136443987.164                                                  
  23499867.168   123492623.636                                                  
  23715492.579   124625733.677                                                  
  25761616.628   135378163.124                                                  
  27000346.065   141887725.906                                                  
  26387538.912   138667372.764                                                  
 21  8 31 20 49 28.0000000  0 16G10G15G18G23G24G32C19C21C22C34E 3E 5
                                E 9E15E31E36
  22032774.603   115782962.996    22032777.748    90220478.047                  
  22135708.323   116323928.868    22135709.306    90642021.360                  
  21136710.360   111074157.090    21136711.700    86551291.835                  
  20297355.624   106663325.719    20297356.499    83114282.097                  
  20299883.125   106676560.926    20299886.324    83124581.714                  
  23801530.156   125077826.964    23801534.426    97463227.097                  
                 119511757.246                   119511757.246    22950977.528  
                 130941505.078                   130941505.078    25145940.103  
                 115494766.382                   115494766.382    22179550.596  
                 133329671.504                   133329671.504    25604565.678  
  25964086.078   136442159.804                                                  
  23499873.387   123492656.329                                                  
  23715846.207   124627591.993                                                  
  25761312.784   135376566.394                                                  
  27000199.003   141886953.114                                                  
  26388131.038   138670484.404                                                  
 21  8 31 20 49 29.0000000  0 16G10G15G18G23G24G32C19C21C22C34E 3E 5
                                E 9E15E31E36
  22032303.700   115780488.388    22032306.845    90218549.781                  
  22136235.406   116326698.708    22136236.388    90644179.671                  
  21137158.765   111076513.463    21137160.105    86553127.973                  
  20297223.036   106662628.961    20297223.893    83113739.171                  
  20299859.145   106676434.918    20299862.344    83124483.523                  
  23801014.045   125075114.730    23801018.298    97461113.667                  
                 119513460.372                   119513460.372    22951304.585  
                 130939158.622                   130939158.622    25145489.500  
                 115494157.137                   115494157.137    22179433.608  
                 133329116.683                   133329116.683    25604459.143  
  25963738.383   136440332.575                                                  
  23499879.641   123492689.215                                                  
  23716199.835   124629450.364                                                  
  25761009.028   135374970.101                                                  
  27000052.048   141886180.755                                                  
  26388723.181   138673596.175                                                  
 21  8 31 20 49 30.0000000  0 16G10G15G18G23G24G32C19C21C22C34E 3E 5
                                E 9E15E31E36
  22031832.816   115778013.949    22031835.961    90216621.649                  
  22136762.524   116329468.699    22136763.507    90646338.109                  
  21137607.260   111078870.380    21137608.600    86554964.523                  
  20297090.519   106661932.604    20297091.394    83113196.556                  
  20299835.308   106676309.632    20299838.507    83124385.898                  
  23800497.934   125072402.657    23800502.204    97459000.364                  
                 119515163.663                   119515163.663    22951631.678  
                 130936812.211                   130936812.211    25145038.879  
                 115493548.101                   115493548.101    22179316.637  
                 133328562.398                   133328562.398    25604352.680  
  25963390.687   136438505.467                                                  
  23499885.949   123492722.269                                                  
  23716553.481   124631308.786                                                  
  25760705.326   135373374.199                                                  
  26999905.147   141885408.828                                                  
  26389315.361   138676708.078                                                  
 21  8 31 20 49 31.0000000  0 16G10G15G18G23G24G32C19C21C22C34E 3E 5
                                E 9E15E31E36
  22031361.985   115775539.681    22031365.112    90214693.648                  
  22137289.660   116332238.856    22137290.643    90648496.671                  
  21138055.862   111081227.796    21138057.220    86556801.477                  
  20296958.074   106661236.644    20296958.967    83112654.247                  
  20299811.578   106676185.050    20299814.776    83124288.821                  
  23799981.876   125069690.751    23799986.147    97456887.190                  
                 119516867.125                   119516867.125    22951958.824  
                 130934465.848                   130934465.848    25144588.294  
                 115492939.272                   115492939.272    22179199.720  
                 133328008.648                   133328008.648    25604246.341  
  25963043.028   136436678.486                                                  
  23499892.257   123492755.493                                                  
  23716907.145   124633167.263                                                  
  25760401.714   135371778.721                                                  
  26999758.335   141884637.347                                                  
  26389907.558   138679820.090                                                  
 21  8 31 20 49 32.0000000  0 16G10G15G18G23G24G32C19C21C22C34E 3E 5
                                E 9E15E31E36
  22030891.172   115773065.571    22030894.317    90212765.770                  
  22137816.814   116335009.163    22137817.815    90650655.354                  
  21138504.588   111083585.754    21138505.929    86558638.844                  
  20296825.718   106660541.077    20296826.593    83112112.246                  
  20299788.027   106676061.184    20299791.225    83124192.304                  
  23799465.855   125066979.007    23799470.125    97454774.147                  
                 119518570.751                   119518570.751    22952285.988  
                 130932119.524                   130932119.524    25144137.709  
                 115492330.661                   115492330.661    22179082.839  
                 133327455.433                   133327455.433    25604140.092  
  25962695.386   136434851.624                                                  
  23499898.618   123492788.899                                                  
  23717260.826   124635025.793                                                  
  25760098.172   135370183.640                                                  
  26999611.595   141883866.300                                                  
  26390499.773   138682932.237                                                  
 21  8 31 20 49 33.0000000  0 16G10G15G18G23G24G32C19C21C22C34E 3E 5
                                E 9E15E31E36
  22030420.395   115770591.626    22030423.539    90210838.023                  
  22138344.040   116337779.640    22138345.023    90652814.163                  
  21138953.387   111085944.235    21138954.727    86560476.617                  
  20296693.433   106659845.903    20296694.291    83111570.550                  
  20299764.582   106675938.040    20299767.781    83124096.343                  
  23798949.869   125064267.439    23798954.122    97452661.239                  
                 119520274.540                   119520274.540    22952613.187  
                 130929773.246                   130929773.246    25143687.123  
                 115491722.253                   115491722.253    22178965.993  
                 133326902.750                   133326902.750    25604033.968  
  25962347.762   136433024.895                                                  
  23499904.997   123492822.504                                                  
  23717614.472   124636884.367                                                  
  25759794.721   135368588.988                                                  
  26999464.961   141883095.699                                                  
  26391092.042   138686044.504                                                  
 21  8 31 20 49 34.0000000  0 16G10G15G18G23G24G32C19C21C22C34E 3E 5
                                E 9E15E31E36
  22029949.653   115768117.851    22029952.798    90208910.406                  
  22138871.265   116340550.276    22138872.266    90654973.103                  
  21139402.275   111088303.229    21139403.615    86562314.797                  
  20296561.221   106659151.129    20296562.096    83111029.172                  
  20299741.281   106675815.597    20299744.480    83124000.938                  
  23798433.901   125061556.052    23798438.154    97450548.469                  
                 119521978.497                   119521978.497    22952940.405  
                 130927427.014                   130927427.014    25143236.556  
                 115491114.058                   115491114.058    22178849.201  
                 133326350.605                   133326350.605    25603927.933  
  25962000.174   136431198.286                                                  
  23499911.448   123492856.271                                                  
  23717968.172   124638743.011                                                  
  25759491.358   135366994.743                                                  
  26999318.400   141882325.532                                                  
  26391684.293   138689156.915                                                  
 21  8 31 20 49 35.0000000  0 16G10G15G18G23G24G32C19C21C22C34E 3E 5
                                E 9E15E31E36
  22029478.947   115765644.240    22029482.074    90206982.915                  
  22139398.544   116343321.070    22139399.527    90657132.161                  
  21139851.287   111090662.757    21139852.628    86564153.390                  
  20296429.097   106658456.750    20296429.955    83110488.098                  
  20299718.123   106675693.864    20299721.321    83123906.079                  
  23797917.969   125058844.821    23797922.221    97448435.823                  
                 119523682.616                   119523682.616    22953267.658  
                 130925080.823                   130925080.823    25142786.006  
                 115490506.075                   115490506.075    22178732.445  
                 133325798.992                   133325798.992    25603822.005  
  25961652.603   136429371.809                                                  
  23499917.899   123492890.219                                                  
  23718321.889   124640601.703                                                  
  25759188.067   135365400.909                                                  
  26999171.945   141881555.809                                                  
  26392276.597   138692269.452                                                  
 21  8 31 20 49 36.0000000  0 16G10G15G18G23G24G32C19C21C22C34E 3E 5
                                E 9E15E31E36
  22029008.259   115763170.802    22029011.404    90205055.558                  
  22139925.824   116346092.032    22139926.824    90659291.351                  
  21140300.372   111093022.805    21140301.712    86565992.386                  
  20296297.027   106657762.771    20296297.903    83109947.332                  
  20299695.072   106675572.839    20299698.288    83123811.778                  
  23797402.054   125056133.761    23797406.325    97446323.313                  
                 119525386.905                   119525386.905    22953594.965  
                 130922734.685                   130922734.685    25142335.439  
                 115489898.304                   115489898.304    22178615.743  
                 133325247.914                   133325247.914    25603716.185  
  25961305.069   136427545.446                                                  
  23499924.385   123492924.335                                                  
  23718675.588   124642460.453                                                  
  25758884.848   135363807.489                                                  
  26999025.544   141880786.532                                                  
  26392868.920   138695382.110                                                  
 21  8 31 20 49 37.0000000  0 16G10G15G18G23G24G32C19C21C22C34E 3E 5
                                E 9E15E31E36
  22028537.625   115760697.531    22028540.752    90203128.339                  
  22140453.156   116348863.149    22140454.139    90661450.661                  
  21140749.599   111095383.387    21140750.939    86567831.801                  
  20296165.046   106657069.184    20296165.922    83109406.876                  
  20299672.200   106675452.562    20299675.398    83123718.055                  
  23796886.193   125053422.879    23796890.464    97444210.940                  
                 119527091.359                   119527091.359    22953922.272  
                 130920388.581                   130920388.581    25141884.907  
                 115489290.743                   115489290.743    22178499.058  
                 133324697.371                   133324697.371    25603610.436  
  25960957.534   136425719.228                                                  
  23499930.925   123492958.654                                                  
  23719029.306   124644319.264                                                  
  25758581.700   135362214.479                                                  
  26998879.233   141880017.700                                                  
  26393461.260   138698494.890                                                  
 21  8 31 20 49 38.0000000  0 16G10G15G18G23G24G32C19C21C22C34E 3E 5
                                E 9E15E31E36
  22028067.008   115758224.422    22028070.136    90201201.241                  
  22140980.525   116351634.422    22140981.508    90663610.094                  
  21141198.898   111097744.488    21141200.238    86569671.617                  
  20296033.137   106656375.997    20296033.995    83108866.730                  
  20299649.434   106675332.965    20299652.633    83123624.859                  
  23796370.386   125050712.156    23796374.621    97442098.689                  
                 119528795.979                   119528795.979    22954249.632  
                 130918042.527                   130918042.527    25141434.358  
                 115488683.391                   115488683.391    22178382.427  
                 133324147.363                   133324147.363    25603504.812  
  25960610.035   136423893.126                                                  
  23499937.483   123492993.136                                                  
  23719383.041   124646178.126                                                  
  25758278.641   135360621.902                                                  
  26998733.028   141879249.289                                                  
  26394053.636   138701607.800                                                  
 21  8 31 20 49 39.0000000  0 16G10G15G18G23G24G32C19C21C22C34E 3E 5
                                E 9E15E31E36
  22027596.428   115755751.483    22027599.555    90199274.278                  
  22141507.893   116354405.856    22141508.894    90665769.653                  
  21141648.304   111100106.112    21141649.644    86571511.844                  
  20295901.300   106655683.200    20295902.157    83108326.886                  
  20299626.812   106675214.094    20299630.029    83123532.234                  
  23795854.561   125048001.612    23795858.814    97439986.578                  
                 119530500.768                   119530500.768    22954577.029  
                 130915696.517                   130915696.517    25140983.844  
                 115488076.251                   115488076.251    22178265.814  
                 133323597.887                   133323597.887    25603399.296  
  25960262.572   136422067.145                                                  
  23499944.077   123493027.810                                                  
  23719736.776   124648037.035                                                  
  25757975.654   135359029.723                                                  
  26998586.878   141878481.329                                                  
  26394646.012   138704720.848                                                  
 21  8 31 20 49 40.0000000  0 16G10G15G18G23G24G32C19C21C22C34E 3E 5
                                E 9E15E31E36
  22027125.865   115753278.703    22027128.992    90197347.434                  
  22142035.315   116357177.445    22142036.298    90667929.331                  
  21142097.799   111102468.258    21142099.139    86573352.477                  
  20295769.533   106654990.800    20295770.391    83107787.355                  
  20299604.333   106675095.941    20299607.532    83123440.165                  
  23795338.807   125045291.238    23795343.060    97437874.601                  
                 119532205.720                   119532205.720    22954904.443  
                 130913350.550                   130913350.550    25140533.312  
                 115487469.317                   115487469.317    22178149.254  
                 133323048.949                   133323048.949    25603293.886  
  25959915.127   136420241.293                                                  
  23499950.706   123493062.653                                                  
  23720090.511   124649896.011                                                  
  25757672.756   135357437.943                                                  
  26998440.816   141877713.809                                                  
  26395238.442   138707834.013                                                  
 21  8 31 20 49 41.0000000  0 16G10G15G18G23G24G32C19C21C22C34E 3E 5
                                E 9E15E31E36
  22026655.338   115750806.099    22026658.483    90195420.731                  
  22142562.755   116359949.190    22142563.756    90670089.132                  
  21142547.401   111104830.929    21142548.741    86575193.519                  
  20295637.857   106654298.798    20295638.714    83107248.133                  
  20299581.979   106674978.493    20299585.177    83123348.649                  
  23794823.054   125042581.031    23794827.324    97435762.754                  
                 119533910.840                   119533910.840    22955231.875  
                 130911004.630                   130911004.630    25140082.798  
                 115486862.596                   115486862.596    22178032.766  
                 133322500.543                   133322500.543    25603188.566  
  25959567.699   136418415.570                                                  
  23499957.371   123493097.676                                                  
  23720444.282   124651755.028                                                  
  25757369.912   135355846.583                                                  
  26998294.862   141876946.727                                                  
  26395830.871   138710947.296                                                  
 21  8 31 20 49 42.0000000  0 16G10G15G18G23G24G32C19C21C22C34E 3E 5
                                E 9E15E31E36
  22026184.846   115748333.667    22026187.973    90193494.164                  
  22143090.249   116362721.108    22143091.232    90672249.071                  
  21142997.093   111107194.125    21142998.433    86577034.969                  
  20295506.233   106653607.193    20295507.127    83106709.220                  
  20299559.786   106674861.766    20299562.984    83123257.691                  
  23794307.354   125039871.001    23794311.624    97433651.042                  
                 119535616.120                   119535616.120    22955559.360  
                 130908658.753                   130908658.753    25139632.302  
                 115486256.090                   115486256.090    22177916.278  
                 133321952.676                   133321952.676    25603083.354  
  25959220.308   136416589.977                                                  
  23499964.072   123493132.886                                                  
  23720798.053   124653614.112                                                  
  25757067.175   135354255.663                                                  
  26998148.961   141876180.093                                                  
  26396423.354   138714060.728                                                  
 21  8 31 20 49 43.0000000  0 16G10G15G18G23G24G32C19C21C22C34E 3E 5
                                E 9E15E31E36
  22025714.409   115745861.397    22025717.518    90191567.720                  
  22143617.742   116365493.176    22143618.743    90674409.121                  
  21143446.892   111109557.844    21143448.232    86578876.827                  
  20295374.717   106652915.980    20295375.575    83106170.613                  
  20299537.699   106674745.753    20299540.898    83123167.293                  
  23793791.672   125037161.126    23793795.942    97431539.453                  
                 119537321.575                   119537321.575    22955886.882  
                 130906312.917                   130906312.917    25139181.807  
                 115485649.794                   115485649.794    22177799.843  
                 133321405.340                   133321405.340    25602978.248  
  25958872.916   136414764.500                                                  
  23499970.809   123493168.261                                                  
  23721151.842   124655473.250                                                  
  25756764.492   135352665.106                                                  
  26998003.168   141875413.894                                                  
  26397015.838   138717174.266                                                  
 21  8 31 20 49 44.0000000  0 16G10G15G18G23G24G32C19C21C22C34E 3E 5
                                E 9E15E31E36
  22025243.953   115743389.298    22025247.098    90189641.406                  
  22144145.272   116368265.417    22144146.272    90676569.304                  
  21143896.798   111111922.091    21143898.139    86580719.098                  
  20295243.255   106652225.176    20295244.113    83105632.323                  
  20299515.756   106674630.450    20299518.955    83123077.446                  
  23793276.043   125034451.427    23793280.296    97429427.999                  
                 119539027.192                   119539027.192    22956214.421  
                 130903967.133                   130903967.133    25138731.328  
                 115485043.704                   115485043.704    22177683.462  
                 133320858.539                   133320858.539    25602873.232  
  25958525.560   136412939.159                                                  
  23499977.581   123493203.836                                                  
  23721505.648   124657332.437                                                  
  25756461.916   135351074.993                                                  
  26997857.446   141874648.144                                                  
  26397608.356   138720287.938                                                  
 21  8 31 20 49 45.0000000  0 16G10G15G18G23G24G32C19C21C22C34E 3E 5
                                E 9E15E31E36
  22024773.587   115740917.368    22024776.696    90187715.227                  
  22144672.855   116371037.813    22144673.855    90678729.613                  
  21144346.794   111114286.860    21144348.152    86582561.773                  
  20295111.882   106651534.753    20295112.740    83105094.336                  
  20299493.938   106674515.848    20299497.137    83122988.144                  
  23792760.432   125031741.904    23792764.703    97427316.687                  
                 119540732.972                   119540732.972    22956541.996  
                 130901621.387                   130901621.387    25138280.833  
                 115484437.829                   115484437.829    22177567.099  
                 133320312.274                   133320312.274    25602768.341  
  25958178.240   136411113.941                                                  
  23499984.371   123493239.583                                                  
  23721859.437   124659191.689                                                  
  25756159.429   135349485.294                                                  
  26997711.814   141873882.831                                                  
  26398200.893   138723401.737                                                  
 21  8 31 20 49 46.0000000  0 16G10G15G18G23G24G32C19C21C22C34E 3E 5
                                E 9E15E31E36
  22024303.220   115738445.600    22024306.347    90185789.179                  
  22145200.455   116373810.374    22145201.456    90680890.050                  
  21144796.897   111116652.152    21144798.255    86584404.860                  
  20294980.580   106650844.735    20294981.438    83104556.655                  
  20299472.281   106674401.968    20299475.479    83122899.411                  
  23792244.858   125029032.542    23792249.128    97425205.501                  
                 119542438.921                   119542438.921    22956869.624  
                 130899275.688                   130899275.688    25137830.372  
                 115483832.163                   115483832.163    22177450.807  
                 133319766.543                   133319766.543    25602663.539  
  25957830.937   136409288.849                                                  
  23499991.215   123493275.495                                                  
  23722213.262   124661050.993                                                  
  25755856.978   135347896.020                                                  
  26997566.253   141873117.964                                                  
  26398793.466   138726515.671                                                  
 21  8 31 20 49 47.0000000  0 16G10G15G18G23G24G32C19C21C22C34E 3E 5
                                E 9E15E31E36
  22023832.872   115735974.008    22023836.017    90183863.258                  
  22145728.092   116376583.087    22145729.075    90683050.602                  
  21145247.107   111119017.978    21145248.465    86586248.355                  
  20294849.332   106650155.110    20294850.208    83104019.285                  
  20299450.749   106674288.801    20299453.947    83122811.226                  
  23791729.318   125026323.357    23791733.571    97423094.445                  
                 119544145.036                   119544145.036    22957197.253  
                 130896930.035                   130896930.035    25137379.912  
                 115483226.707                   115483226.707    22177334.516  
                 133319221.348                   133319221.348    25602558.844  
  25957483.653   136407463.883                                                  
  23499998.077   123493311.597                                                  
  23722567.086   124662910.351                                                  
  25755554.616   135346307.149                                                  
  26997420.799   141872353.534                                                  
  26399386.038   138729629.726                                                  
 21  8 31 20 49 48.0000000  0 16G10G15G18G23G24G32C19C21C22C34E 3E 5
                                E 9E15E31E36
  22023362.577   115733502.575    22023365.722    90181937.468                  
  22146255.764   116379355.965    22146256.747    90685211.290                  
  21145697.406   111121384.317    21145698.764    86588092.258                  
  20294718.174   106649465.891    20294719.067    83103482.231                  
  20299429.342   106674176.355    20299432.540    83122723.609                  
  23791213.815   125023614.333    23791218.068    97420983.520                  
                 119545851.316                   119545851.316    22957524.935  
                 130894584.426                   130894584.426    25136929.488  
                 115482621.466                   115482621.466    22177218.278  
                 133318676.684                   133318676.684    25602454.239  
  25957136.404   136405639.044                                                  
  23500004.974   123493347.879                                                  
  23722920.929   124664769.770                                                  
  25755252.361   135344718.685                                                  
  26997275.416   141871589.554                                                  
  26399978.664   138732743.897                                                  
 21  8 31 20 49 49.0000000  0 16G10G15G18G23G24G32C19C21C22C34E 3E 5
                                E 9E15E31E36
  22022892.318   115731031.317    22022895.463    90180011.813                  
  22146783.436   116382129.004    22146784.437    90687372.098                  
  21146147.795   111123751.175    21146149.153    86589936.562                  
  20294587.104   106648777.055    20294587.980    83102945.476                  
  20299408.078   106674064.620    20299411.276    83122636.538                  
  23790698.347   125020905.482    23790702.582    97418872.727                  
                 119547557.762                   119547557.762    22957852.635  
                 130892238.860                   130892238.860    25136479.027  
                 115482016.429                   115482016.429    22177102.093  
                 133318132.559                   133318132.559    25602349.741  
  25956789.173   136403814.336                                                  
  23500011.925   123493384.345                                                  
  23723274.753   124666629.233                                                  
  25754950.161   135343130.643                                                  
  26997130.123   141870826.001                                                  
  26400571.273   138735858.207                                                  
 21  8 31 20 49 50.0000000  0 16G10G15G18G23G24G32C19C21C22C34E 3E 5
                                E 9E15E31E36
  22022422.077   115728560.227    22022425.222    90178086.288                  
  22147311.162   116384902.196    22147312.163    90689533.024                  
  21146598.309   111126118.562    21146599.667    86591781.276                  
  20294456.107   106648088.625    20294456.964    83102409.035                  
  20299386.956   106673953.590    20299390.155    83122550.023                  
  23790182.879   125018196.798    23790187.132    97416762.066                  
                 119549264.374                   119549264.374    22958180.389  
                 130889893.341                   130889893.341    25136028.603  
                 115481411.609                   115481411.609    22176985.945  
                 133317588.965                   133317588.965    25602245.332  
  25956441.960   136401989.743                                                  
  23500018.894   123493420.973                                                  
  23723628.613   124668488.755                                                  
  25754648.031   135341543.004                                                  
  26996984.902   141870062.892                                                  
  26401163.935   138738972.640                                                  
 21  8 31 20 49 51.0000000  0 16G10G15G18G23G24G32C19C21C22C34E 3E 5
                                E 9E15E31E36
  22021951.871   115726089.301    22021955.016    90176160.894                  
  22147838.924   116387675.564    22147839.924    90691694.090                  
  21147048.894   111128486.471    21147050.252    86593626.403                  
  20294325.180   106647400.582    20294326.038    83101872.902                  
  20299365.960   106673843.269    20299369.159    83122464.059                  
  23789667.483   125015488.284    23789671.718    97414651.539                  
                 119550971.152                   119550971.152    22958508.142  
                 130887547.880                   130887547.880    25135578.179  
                 115480806.996                   115480806.996    22176869.832  
                 133317045.919                   133317045.919    25602141.066  
  25956094.783   136400165.288                                                  
  23500025.899   123493457.809                                                  
  23723982.474   124670348.336                                                  
  25754346.009   135339955.779                                                  
  26996839.752   141869300.226                                                  
  26401756.614   138742087.193                                                  
 21  8 31 20 49 52.0000000  0 16G10G15G18G23G24G32C19C21C22C34E 3E 5
                                E 9E15E31E36
  22021481.720   115723618.554    22021484.864    90174235.636                  
  22148366.703   116390449.087    22148367.704    90693855.274                  
  21147499.604   111130854.912    21147500.962    86595471.938                  
  20294194.325   106646712.947    20294195.183    83101337.082                  
  20299345.107   106673733.676    20299348.306    83122378.660                  
  23789152.105   125012779.953    23789156.340    97412541.153                  
                 119552678.098                   119552678.098    22958835.931  
                 130885202.448                   130885202.448    25135127.754  
                 115480202.593                   115480202.593    22176753.773  
                 133316503.398                   133316503.398    25602036.872  
  25955747.624   136398340.956                                                  
  23500032.939   123493494.798                                                  
  23724336.352   124672207.972                                                  
  25754044.040   135338368.984                                                  
  26996694.727   141868538.003                                                  
  26402349.348   138745201.872                                                  
 21  8 31 20 49 53.0000000  0 16G10G15G18G23G24G32C19C21C22C34E 3E 5
                                E 9E15E31E36
  22021011.586   115721147.969    22021014.713    90172310.505                  
  22148894.518   116393222.763    22148895.519    90696016.578                  
  21147950.404   111133223.871    21147951.744    86597317.878                  
  20294063.542   106646025.702    20294064.400    83100801.567                  
  20299324.379   106673624.794    20299327.578    83122293.821                  
  23788636.744   125010071.786    23788640.997    97410430.890                  
                 119554385.207                   119554385.207    22959163.774  
                 130882857.057                   130882857.057    25134677.365  
                 115479598.407                   115479598.407    22176637.731  
                 133315961.410                   133315961.410    25601932.803  
  25955400.482   136396516.753                                                  
  23500040.016   123493531.971                                                  
  23724690.248   124674067.661                                                  
  25753742.161   135336782.595                                                  
  26996549.755   141867776.223                                                  
  26402942.063   138748316.692                                                  
 21  8 31 20 49 54.0000000  0 16G10G15G18G23G24G32C19C21C22C34E 3E 5
                                E 9E15E31E36
  22020541.487   115718677.542    22020544.597    90170385.499                  
  22149422.352   116395996.609    22149423.352    90698178.019                  
  21148401.293   111135593.347    21148402.633    86599164.226                  
  20293932.848   106645338.859    20293933.706    83100266.362                  
  20299303.794   106673516.624    20299306.992    83122209.530                  
  23788121.420   125007363.786    23788125.672    97408320.763                  
                 119556092.485                   119556092.485    22959491.635  
                 130880511.718                   130880511.718    25134226.959  
                 115478994.425                   115478994.425    22176521.761  
                 133315419.957                   133315419.957    25601828.823  
  25955053.377   136394692.677                                                  
  23500047.127   123493569.333                                                  
  23725044.144   124675927.412                                                  
  25753440.353   135335196.614                                                  
  26996404.873   141867014.883                                                  
  26403534.814   138751431.636                                                  
 21  8 31 20 49 55.0000000  0 16G10G15G18G23G24G32C19C21C22C34E 3E 5
                                E 9E15E31E36
  22020071.407   115716207.297    22020074.534    90168460.633                  
  22149950.238   116398770.610    22149951.239    90700339.574                  
  21148852.307   111137963.360    21148853.648    86601010.985                  
  20293802.225   106644652.409    20293803.083    83099731.469                  
  20299283.352   106673409.156    20299286.568    83122125.789                  
  23787606.148   125004655.956    23787610.401    97406210.770                  
                 119557799.925                   119557799.925    22959819.532  
                 130878166.423                   130878166.423    25133776.552  
                 115478390.661                   115478390.661    22176405.791  
                 133314879.038                   133314879.038    25601724.933  
  25954706.289   136392868.711                                                  
  23500054.257   123493606.864                                                  
  23725398.040   124677787.206                                                  
  25753138.635   135333611.046                                                  
  26996260.081   141866253.984                                                  
  26404127.601   138754546.696                                                  
 21  8 31 20 49 56.0000000  0 16G10G15G18G23G24G32C19C21C22C34E 3E 5
                                E 9E15E31E36
  22019601.362   115713737.204    22019604.507    90166535.888                  
  22150478.143   116401544.753    22150479.143    90702501.250                  
  21149303.393   111140333.872    21149304.733    86602858.137                  
  20293671.657   106643966.356    20293672.514    83099196.884                  
  20299263.035   106673302.409    20299266.233    83122042.610                  
  23787090.895   125001948.293    23787095.148    97404100.903                  
                 119559507.535                   119559507.535    22960147.464  
                 130875821.169                   130875821.169    25133326.181  
                 115477787.101                   115477787.101    22176289.893  
                 133314338.655                   133314338.655    25601621.167  
  25954359.219   136391044.878                                                  
  23500061.440   123493644.569                                                  
  23725751.954   124679647.048                                                  
  25752837.006   135332025.895                                                  
  26996115.377   141865493.525                                                  
  26404720.406   138757661.886                                                  
 21  8 31 20 49 57.0000000  0 16G10G15G18G23G24G32C19C21C22C34E 3E 5
                                E 9E15E31E36
  22019131.335   115711267.297    22019134.480    90164611.282                  
  22151006.083   116404319.071    22151007.084    90704663.054                  
  21149754.604   111142704.924    21149755.944    86604705.714                  
  20293541.177   106643280.704    20293542.035    83098662.605                  
  20299242.861   106673196.367    20299246.059    83121959.979                  
  23786575.678   124999240.798    23786579.913    97401991.169                  
                 119561215.310                   119561215.310    22960475.432  
                 130873475.958                   130873475.958    25132875.793  
                 115477183.753                   115477183.753    22176174.048  
                 133313798.804                   133313798.804    25601517.473  
  25954012.184   136389221.180                                                  
  23500068.660   123493682.479                                                  
  23726105.903   124681506.966                                                  
  25752535.412   135330441.161                                                  
  26995970.763   141864733.511                                                  
  26405313.211   138760777.199                                                  
 21  8 31 20 49 58.0000000  0 16G10G15G18G23G24G32C19C21C22C34E 3E 5
                                E 9E15E31E36
  22018661.380   115708797.556    22018664.507    90162686.809                  
  22151534.041   116407093.551    22151535.042    90706824.984                  
  21150205.886   111145076.496    21150207.244    86606553.687                  
  20293410.787   106642595.449    20293411.662    83098128.640                  
  20299222.811   106673091.058    20299226.028    83121877.921                  
  23786060.478   124996533.482    23786064.749    97399881.569                  
                 119562923.250                   119562923.250    22960803.418  
                 130871130.794                   130871130.794    25132425.440  
                 115476580.620                   115476580.620    22176058.203  
                 133313259.491                   133313259.491    25601413.922  
  25953665.168   136387397.608                                                  
  23500075.897   123493720.542                                                  
  23726459.835   124683366.931                                                  
  25752233.944   135328856.835                                                  
  26995826.203   141863973.938                                                  
  26405906.087   138763892.636                                                  
 21  8 31 20 49 59.0000000  0 16G10G15G18G23G24G32C19C21C22C34E 3E 5
                                E 9E15E31E36
  22018191.425   115706327.971    22018194.552    90160762.462                  
  22152062.035   116409868.184    22152063.036    90708987.036                  
  21150657.275   111147448.592    21150658.615    86608402.079                  
  20293280.468   106641910.590    20293281.326    83097594.984                  
  20299202.923   106672986.454    20299206.122    83121796.411                  
  23785545.314   124993826.321    23785549.585    97397772.100                  
                 119564631.357                   119564631.357    22961131.440  
                 130868785.676                   130868785.676    25131975.087  
                 115475977.696                   115475977.696    22175942.412  
                 133312720.716                   133312720.716    25601310.461  
  25953318.187   136385574.157                                                  
  23500083.187   123493758.801                                                  
  23726813.785   124685226.946                                                  
  25751932.547   135327272.943                                                  
  26995681.768   141863214.808                                                  
  26406498.946   138767008.210                                                  
 21  8 31 20 50  0.0000000  0 16G10G15G18G23G24G32C19C21C22C34E 3E 5
                                E 9E15E31E36
  22017721.523   115703858.574    22017724.632    90158838.254                  
  22152590.083   116412642.989    22152591.065    90711149.220                  
  21151108.772   111149821.214    21151110.112    86610250.871                  
  20293150.221   106641226.133    20293151.078    83097061.640                  
  20299183.142   106672882.566    20299186.341    83121715.461                  
  23785030.204   124991119.342    23785034.457    97395662.769                  
                 119566339.629                   119566339.629    22961459.497  
                 130866440.602                   130866440.602    25131524.734  
                 115475374.985                   115475374.985    22175826.674  
                 133312182.470                   133312182.470    25601207.088  
  25952971.206   136383750.840                                                  
  23500090.496   123493797.243                                                  
  23727167.734   124687087.022                                                  
  25751631.222   135325689.462                                                  
  26995537.386   141862456.121                                                  
  26407091.840   138770123.905                                                  
 21  8 31 20 50  1.0000000  0 16G10G15G18G23G24G32C19C21C22C34E 3E 5
                                E 9E15E31E36
  22017251.639   115701389.327    22017254.766    90156914.165                  
  22153118.112   116415417.930    22153119.113    90713311.509                  
  21151560.376   111152194.353    21151561.716    86612100.067                  
  20293020.045   106640542.072    20293020.902    83096528.606                  
  20299163.522   106672779.391    20299166.721    83121635.063                  
  23784515.111   124988412.531    23784519.364    97393553.567                  
                 119568048.067                   119568048.067    22961787.608  
                 130864095.571                   130864095.571    25131074.399  
                 115474772.480                   115474772.480    22175710.972  
                 133311644.762                   133311644.762    25601103.823  
  25952624.262   136381927.638                                                  
  23500097.840   123493835.848                                                  
  23727521.720   124688947.148                                                  
  25751329.968   135324106.371                                                  
  26995393.076   141861697.880                                                  
  26407684.752   138773239.720                                                  
 21  8 31 20 50  2.0000000  0 16G10G15G18G23G24G32C19C21C22C34E 3E 5
                                E 9E15E31E36
  22016781.773   115698920.253    22016784.918    90154990.216                  
  22153646.213   116418193.047    22153647.214    90715473.937                  
  21152012.069   111154568.013    21152013.427    86613949.673                  
  20292889.940   106639858.392    20292890.798    83095995.866                  
  20299144.027   106672676.937    20299147.226    83121555.231                  
  23784000.055   124985705.887    23784004.307    97391444.491                  
                 119569756.671                   119569756.671    22962115.719  
                 130861750.587                   130861750.587    25130624.063  
                 115474170.191                   115474170.191    22175595.324  
                 133311107.586                   133311107.586    25601000.665  
  25952277.334   136380104.571                                                  
  23500105.220   123493874.642                                                  
  23727875.705   124690807.333                                                  
  25751028.786   135322523.699                                                  
  26995248.873   141860940.068                                                  
  26408277.718   138776355.652                                                  
 21  8 31 20 50  3.0000000  0 16G10G15G18G23G24G32C19C21C22C34E 3E 5
                                E 9E15E31E36
  22016311.961   115696451.354    22016315.106    90153066.399                  
  22154174.332   116420968.336    22154175.333    90717636.501                  
  21152463.851   111156942.202    21152465.191    86615799.692                  
  20292759.925   106639175.126    20292760.783    83095463.454                  
  20299124.657   106672575.191    20299127.855    83121475.949                  
  23783485.034   124982999.418    23783489.286    97389335.560                  
                 119571465.440                   119571465.440    22962443.866  
                 130859405.644                   130859405.644    25130173.746  
                 115473568.113                   115473568.113    22175479.676  
                 133310570.945                   133310570.945    25600897.597  
  25951930.443   136378281.630                                                  
  23500112.635   123493913.614                                                  
  23728229.708   124692667.565                                                  
  25750727.693   135320941.477                                                  
  26995104.759   141860182.710                                                  
  26408870.683   138779471.743                                                  
 21  8 31 20 50  4.0000000  0 16G10G15G18G23G24G32C19C21C22C34E 3E 5
                                E 9E15E31E36
  22015842.184   115693982.621    22015845.312    90151142.708                  
  22154702.487   116423743.785    22154703.488    90719799.188                  
  21152915.759   111159316.910    21152917.099    86617650.110                  
  20292629.982   106638492.254    20292630.840    83094931.347                  
  20299105.412   106672474.155    20299108.628    83121397.219                  
  23782970.048   124980293.132    23782974.283    97387226.765                  
                 119573174.378                   119573174.378    22962772.048  
                 130857060.750                   130857060.750    25129723.447  
                 115472966.242                   115472966.242    22175364.099  
                 133310034.839                   133310034.839    25600794.653  
  25951583.588   136376458.809                                                  
  23500120.087   123493952.754                                                  
  23728583.693   124694527.856                                                  
  25750426.689   135319359.636                                                  
  26994960.717   141859425.781                                                  
  26409463.685   138782587.922                                                  
 21  8 31 20 50  5.0000000  0 16G10G15G18G23G24G32C19C21C22C34E 3E 5
                                E 9E15E31E36
  22015372.444   115691514.063    22015375.553    90149219.156                  
  22155230.660   116426519.418    22155231.660    90721962.023                  
  21153367.738   111161692.141    21153369.078    86619500.941                  
  20292500.092   106637809.786    20292500.967    83094399.554                  
  20299086.346   106672373.832    20299089.544    83121319.043                  
  23782455.081   124977586.990    23782459.316    97385118.083                  
                 119574883.488                   119574883.488    22963100.267  
                 130854715.888                   130854715.888    25129273.112  
                 115472364.587                   115472364.587    22175248.558  
                 133309499.268                   133309499.268    25600691.799  
  25951236.732   136374636.097                                                  
  23500127.574   123493992.093                                                  
  23728937.697   124696388.214                                                  
  25750125.739   135317778.227                                                  
  26994816.764   141858669.356                                                  
  26410056.704   138785704.265                                                  
 21  8 31 20 50  6.0000000  0 16G10G15G18G23G24G32C19C21C22C34E 3E 5
                                E 9E15E31E36
  22014902.721   115689045.672    22014905.848    90147295.735                  
  22155758.886   116429295.201    22155759.886    90724124.969                  
  21153819.842   111164067.882    21153821.182    86621352.168                  
  20292370.291   106637127.715    20292371.185    83093868.070                  
  20299067.387   106672274.214    20299070.585    83121241.418                  
  23781940.167   124974881.038    23781944.402    97383009.551                  
                 119576592.757                   119576592.757    22963428.503  
                 130852371.081                   130852371.081    25128822.848  
                 115471763.140                   115471763.140    22175133.052  
                 133308964.238                   133308964.238    25600589.052  
  25950889.894   136372813.538                                                  
  23500135.097   123494031.617                                                  
  23729291.736   124698248.625                                                  
  25749824.896   135316197.266                                                  
  26994672.900   141857913.301                                                  
  26410649.741   138788820.734                                                  
 21  8 31 20 50  7.0000000  0 16G10G15G18G23G24G32C19C21C22C34E 3E 5
                                E 9E15E31E36
  22014433.015   115686577.437    22014436.160    90145372.433                  
  22156287.112   116432071.136    22156288.113    90726288.035                  
  21154272.018   111166444.148    21154273.358    86623203.800                  
  20292240.598   106636446.048    20292241.456    83093336.899                  
  20299048.553   106672175.305    20299051.751    83121164.347                  
  23781425.253   124972175.262    23781429.506    97380901.157                  
                 119578302.193                   119578302.193    22963756.775  
                 130850026.321                   130850026.321    25128372.549  
                 115471161.903                   115471161.903    22175017.600  
                 133308429.738                   133308429.738    25600486.413  
  25950543.128   136370991.125                                                  
  23500142.655   123494071.352                                                  
  23729645.757   124700109.083                                                  
  25749524.142   135314616.723                                                  
  26994529.108   141857157.704                                                  
  26411242.796   138791937.344                                                  
 21  8 31 20 50  8.0000000  0 16G10G15G18G23G24G32C19C21C22C34E 3E 5
                                E 9E15E31E36
  22013963.364   115684109.390    22013966.509    90143449.282                  
  22156815.392   116434847.206    22156816.392    90728451.207                  
  21154724.318   111168820.970    21154725.659    86625055.870                  
  20292110.940   106635764.745    20292111.798    83092806.016                  
  20299029.880   106672077.130    20299033.078    83121087.847                  
  23780910.393   124969469.619    23780914.646    97378792.863                  
                 119580011.794                   119580011.794    22964085.100  
                 130847681.604                   130847681.604    25127922.267  
                 115470560.878                   115470560.878    22174902.184  
                 133307895.775                   133307895.775    25600383.862  
  25950196.344   136369168.771                                                  
  23500150.214   123494111.129                                                  
  23729999.796   124701969.579                                                  
  25749223.407   135313036.402                                                  
  26994385.406   141856402.553                                                  
  26411835.887   138795053.972                                                  
 21  8 31 20 50  9.0000000  0 16G10G15G18G23G24G32C19C21C22C34E 3E 5
                                E 9E15E31E36
  22013493.748   115681641.501    22013496.875    90141526.249                  
  22157343.707   116437623.456    22157344.708    90730614.520                  
  21155176.709   111171198.278    21155178.049    86626908.316                  
  20291981.372   106635083.862    20291982.248    83092275.456                  
  20299011.314   106671979.657    20299014.512    83121011.893                  
  23780395.569   124966764.163    23780399.804    97376684.718                  
                 119581721.558                   119581721.558    22964413.443  
                 130845336.929                   130845336.929    25127472.004  
                 115469960.066                   115469960.066    22174786.804  
                 133307362.341                   133307362.341    25600281.437  
  25949849.578   136367346.590                                                  
  23500157.844   123494151.187                                                  
  23730353.853   124703830.151                                                  
  25748922.796   135311456.671                                                  
  26994241.774   141855647.849                                                  
  26412428.996   138798170.805                                                  
 21  8 31 20 50 10.0000000  0 16G10G15G18G23G24G32C19C21C22C34E 3E 5
                                E 9E15E31E36
  22013024.168   115679173.786    22013027.277    90139603.356                  
  22157872.041   116440399.866    22157873.023    90732777.953                  
  21155629.206   111173576.120    21155630.546    86628761.185                  
  20291851.875   106634403.381    20291852.769    83091745.216                  
  20298992.926   106671882.905    20298996.125    83120936.505                  
  23779880.762   124964058.892    23779884.997    97374576.715                  
                 119583431.493                   119583431.493    22964741.822  
                 130842992.305                   130842992.305    25127021.740  
                 115469359.466                   115469359.466    22174671.460  
                 133306829.446                   133306829.446    25600179.101  
  25949502.865   136365524.532                                                  
  23500165.492   123494191.421                                                  
  23730707.927   124705690.774                                                  
  25748622.257   135309877.321                                                  
  26994098.268   141854893.575                                                  
  26413022.140   138801287.759                                                  
 21  8 31 20 50 11.0000000  0 16G10G15G18G23G24G32C19C21C22C34E 3E 5
                                E 9E15E31E36
  22012554.606   115676706.243    22012557.715    90137680.598                  
  22158400.392   116443176.427    22158401.393    90734941.504                  
  21156081.775   111175954.482    21156083.115    86630614.449                  
  20291722.468   106633723.294    20291723.343    83091215.272                  
  20298974.646   106671786.852    20298977.845    83120861.660                  
  23779365.991   124961353.776    23779370.244    97372468.835                  
                 119585141.589                   119585141.589    22965070.219  
                 130840647.722                   130840647.722    25126571.476  
                 115468759.075                   115468759.075    22174556.169  
                 133306297.085                   133306297.085    25600076.855  
  25949156.152   136363702.595                                                  
  23500173.193   123494231.808                                                  
  23731062.002   124707551.446                                                  
  25748321.807   135308298.391                                                  
  26993954.798   141854139.753                                                  
  26413615.302   138804404.821                                                  
 21  8 31 20 50 12.0000000  0 16G10G15G18G23G24G32C19C21C22C34E 3E 5
                                E 9E15E31E36
  22012085.062   115674238.862    22012088.206    90135757.966                  
  22158928.779   116445953.149    22158929.780    90737105.183                  
  21156534.468   111178333.363    21156535.826    86632468.120                  
  20291593.114   106633043.608    20291594.007    83090685.652                  
  20298956.492   106671691.514    20298959.708    83120787.372                  
  23778851.256   124958648.840    23778855.491    97370361.095                  
                 119586851.855                   119586851.855    22965398.652  
                 130838303.183                   130838303.183    25126121.248  
                 115468158.893                   115468158.893    22174440.896  
                 133305765.262                   133305765.262    25599974.715  
  25948809.475   136361880.786                                                  
  23500180.913   123494272.386                                                  
  23731416.077   124709412.177                                                  
  25748021.411   135306719.875                                                  
  26993811.435   141853386.363                                                  
  26414208.482   138807522.021                                                  
 21  8 31 20 50 13.0000000  0 16G10G15G18G23G24G32C19C21C22C34E 3E 5
                                E 9E15E31E36
  22011615.589   115671771.657    22011618.698    90133835.464                  
  22159457.202   116448730.014    22159458.202    90739268.973                  
  21156987.252   111180712.769    21156988.592    86634322.203                  
  20291463.867   106632364.313    20291464.725    83090156.328                  
  20298938.480   106671596.899    20298941.678    83120713.641                  
  23778336.557   124955944.077    23778340.792    97368253.489                  
                 119588562.285                   119588562.285    22965727.138  
                 130835958.690                   130835958.690    25125671.003  
                 115467558.927                   115467558.927    22174325.676  
                 133305233.969                   133305233.969    25599872.701  
  25948462.816   136360059.101                                                  
  23500188.686   123494313.160                                                  
  23731770.187   124711272.969                                                  
  25747721.122   135305141.776                                                  
  26993668.161   141852633.410                                                  
  26414801.680   138810639.341                                                  
 21  8 31 20 50 14.0000000  0 16G10G15G18G23G24G32C19C21C22C34E 3E 5
                                E 9E15E31E36
  22011146.098   115669304.614    22011149.243    90131913.094                  
  22159985.660   116451507.050    22159986.661    90741432.899                  
  21157440.142   111183092.692    21157441.482    86636176.690                  
  20291334.674   106631685.425    20291335.532    83089627.325                  
  20298920.628   106671503.002    20298923.827    83120640.477                  
  23777821.893   124953239.478    23777826.146    97366146.012                  
                 119590272.884                   119590272.884    22966055.642  
                 130833614.241                   130833614.241    25125220.775  
                 115466959.167                   115466959.167    22174210.492  
                 133304703.216                   133304703.216    25599770.776  
  25948116.175   136358237.545                                                  
  23500196.459   123494354.089                                                  
  23732124.280   124713133.805                                                  
  25747420.887   135303564.102                                                  
  26993524.959   141851880.918                                                  
  26415394.914   138813756.796                                                  
 21  8 31 20 50 15.0000000  0 16G10G15G18G23G24G32C19C21C22C34E 3E 5
                                E 9E15E31E36
  22010676.679   115666837.746    22010679.824    90129990.860                  
  22160514.137   116454284.236    22160515.137    90743596.937                  
  21157893.122   111185473.146    21157894.462    86638031.585                  
  20291205.553   106631006.925    20291206.428    83089098.626                  
  20298902.884   106671409.816    20298906.083    83120567.864                  
  23777307.266   124950535.052    23777311.501    97364038.665                  
                 119591983.645                   119591983.645    22966384.182  
                 130831269.839                   130831269.839    25124770.565  
                 115466359.622                   115466359.622    22174095.380  
                 133304172.996                   133304172.996    25599668.941  
  25947769.588   136356416.107                                                  
  23500204.285   123494395.207                                                  
  23732478.408   124714994.695                                                  
  25747120.741   135301986.810                                                  
  26993381.863   141851128.863                                                  
  26415988.183   138816874.366                                                  
 21  8 31 20 50 16.0000000  0 16G10G15G18G23G24G32C19C21C22C34E 3E 5
                                E 9E15E31E36
  22010207.277   115664371.046    22010210.422    90128068.758                  
  22161042.666   116457061.574    22161043.667    90745761.097                  
  21158346.209   111187854.110    21158347.567    86639886.882                  
  20291076.520   106630328.829    20291077.378    83088570.238                  
  20298885.301   106671317.340    20298888.500    83120495.805                  
  23776792.656   124947830.794    23776796.908    97361931.452                  
                 119593694.575                   119593694.575    22966712.740  
                 130828925.480                   130828925.480    25124320.337  
                 115465760.290                   115465760.290    22173980.286  
                 133303643.310                   133303643.310    25599567.212  
  25947423.000   136354594.762                                                  
  23500212.148   123494436.501                                                  
  23732832.536   124716855.593                                                  
  25746820.684   135300409.875                                                  
  26993238.822   141850377.309                                                  
  26416581.453   138819992.133                                                  
 21  8 31 20 50 17.0000000  0 16G10G15G18G23G24G32C19C21C22C34E 3E 5
                                E 9E15E31E36
  22009737.912   115661904.516    22009741.039    90126146.782                  
  22161571.196   116459839.073    22161572.197    90747925.375                  
  21158799.385   111190235.609    21158800.743    86641742.598                  
  20290947.560   106629651.136    20290948.417    83088042.165                  
  20298867.825   106671225.501    20298871.024    83120424.198                  
  23776278.081   124945126.732    23776282.316    97359824.403                  
                 119595405.668                   119595405.668    22967041.333  
                 130826581.168                   130826581.168    25123870.145  
                 115465161.164                   115465161.164    22173865.227  
                 133303114.160                   133303114.160    25599465.591  
  25947076.448   136352773.594                                                  
  23500220.046   123494477.988                                                  
  23733186.682   124718716.608                                                  
  25746520.681   135298833.448                                                  
  26993095.888   141849626.129                                                  
  26417174.758   138823109.969                                                  
 21  8 31 20 50 18.0000000  0 16G10G15G18G23G24G32C19C21C22C34E 3E 5
                                E 9E15E31E36
  22009268.582   115659438.159    22009271.727    90124224.946                  
  22162099.762   116462616.754    22162100.763    90750089.800                  
  21159252.668   111192617.630    21159254.026    86643598.715                  
  20290818.688   106628973.851    20290819.546    83087514.410                  
  20298850.493   106671134.468    20298853.691    83120353.266                  
  23775763.543   124942422.816    23775767.778    97357717.458                  
                 119597116.929                   119597116.929    22967369.962  
                 130824236.899                   130824236.899    25123419.952  
                 115464562.250                   115464562.250    22173750.204  
                 133302585.544                   133302585.544    25599364.095  
  25946729.896   136350952.545                                                  
  23500227.962   123494519.660                                                  
  23733540.828   124720577.676                                                  
  25746220.785   135297257.429                                                  
  26992953.025   141848875.414                                                  
  26417768.081   138826227.915                                                  
 21  8 31 20 50 19.0000000  0 16G10G15G18G23G24G32C19C21C22C34E 3E 5
                                E 9E15E31E36
  22008799.288   115656971.978    22008802.415    90122303.246                  
  22162628.381   116465394.577    22162629.382    90752254.339                  
  21159706.059   111195000.164    21159707.399    86645455.233                  
  20290689.853   106628296.944    20290690.746    83086986.953                  
  20298833.303   106671044.102    20298836.501    83120282.851                  
  23775249.040   124939719.074    23775253.275    97355610.644                  
                 119598828.356                   119598828.356    22967698.627  
                 130821892.677                   130821892.677    25122969.760  
                 115463963.552                   115463963.552    22173635.235  
                 133302057.461                   133302057.461    25599262.688  
  25946383.380   136349131.620                                                  
  23500235.914   123494561.487                                                  
  23733894.975   124722438.792                                                  
  25745920.943   135295681.801                                                  
  26992810.233   141848125.132                                                  
  26418361.440   138829345.983                                                  
 21  8 31 20 50 20.0000000  0 16G10G15G18G23G24G32C19C21C22C34E 3E 5
                                E 9E15E31E36
  22008330.011   115654505.961    22008333.139    90120381.675                  
  22163157.001   116468172.566    22163158.001    90754419.004                  
  21160159.539   111197383.230    21160160.879    86647312.168                  
  20290561.142   106627620.454    20290562.000    83086459.817                  
  20298816.255   106670954.504    20298819.454    83120213.032                  
  23774734.555   124937015.508    23774738.808    97353503.973                  
                 119600539.949                   119600539.949    22968027.328  
                 130819548.495                   130819548.495    25122519.586  
                 115463365.063                   115463365.063    22173520.301  
                 133301529.918                   133301529.918    25599161.371  
  25946036.900   136347310.833                                                  
  23500243.919   123494603.512                                                  
  23734249.139   124724299.969                                                  
  25745621.208   135294106.621                                                  
  26992667.567   141847375.280                                                  
  26418954.816   138832464.204                                                  
 21  8 31 20 50 21.0000000  0 16G10G15G18G23G24G32C19C21C22C34E 3E 5
                                E 9E15E31E36
  22007860.789   115652040.121    22007863.916    90118460.243                  
  22163685.656   116470950.708    22163686.656    90756583.790                  
  21160613.126   111199766.809    21160614.467    86649169.504                  
  20290432.485   106626944.351    20290433.343    83085932.984                  
  20298799.333   106670865.596    20298802.532    83120143.753                  
  23774220.124   124934312.112    23774224.359    97351397.434                  
                 119602251.708                   119602251.708    22968356.047  
                 130817204.363                   130817204.363    25122069.412  
                 115462766.786                   115462766.786    22173405.404  
                 133301002.905                   133301002.905    25599060.161  
  25945690.437   136345490.161                                                  
  23500251.942   123494645.703                                                  
  23734603.321   124726161.195                                                  
  25745321.545   135292531.844                                                  
  26992524.937   141846625.890                                                  
  26419548.193   138835582.511                                                  
 21  8 31 20 50 22.0000000  0 16G10G15G18G23G24G32C19C21C22C34E 3E 5
                                E 9E15E31E36
  22007391.584   115649574.445    22007394.693    90116538.937                  
  22164214.364   116473729.012    22164215.365    90758748.699                  
  21161066.803   111202150.910    21161068.143    86651027.241                  
  20290303.882   106626268.644    20290304.757    83085406.457                  
  20298782.554   106670777.407    20298785.753    83120075.035                  
  23773705.693   124931608.884    23773709.945    97349291.019                  
                 119603963.632                   119603963.632    22968684.801  
                 130814860.275                   130814860.275    25121619.255  
                 115462168.715                   115462168.715    22173290.559  
                 133300476.430                   133300476.430    25598959.058  
  25945343.993   136343669.614                                                  
  23500260.001   123494688.080                                                  
  23734957.520   124728022.489                                                  
  25745021.935   135290957.497                                                  
  26992382.413   141845876.933                                                  
  26420141.623   138838700.961                                                  
 21  8 31 20 50 23.0000000  0 16G10G15G18G23G24G32C19C21C22C34E 3E 5
                                E 9E15E31E36
  22006922.397   115647108.939    22006925.542    90114617.766                  
  22164743.073   116476507.468    22164744.074    90760913.730                  
  21161520.551   111204535.531    21161521.927    86652885.394                  
  20290175.386   106625593.340    20290176.243    83084880.246                  
  20298765.901   106670689.914    20298769.099    83120006.862                  
  23773191.333   124928905.817    23773195.568    97347184.742                  
                 119605675.722                   119605675.722    22969013.609  
                 130812516.227                   130812516.227    25121169.117  
                 115461570.860                   115461570.860    22173175.733  
                 133299950.492                   133299950.492    25598858.062  
  25944997.584   136341849.203                                                  
  23500268.096   123494730.638                                                  
  23735311.720   124729883.807                                                  
  25744722.414   135289383.547                                                  
  26992239.979   141845128.426                                                  
  26420735.071   138841819.531                                                  
 21  8 31 20 50 24.0000000  0 16G10G15G18G23G24G32C19C21C22C34E 3E 5
                                E 9E15E31E36
  22006453.264   115644643.591    22006456.409    90112696.718                  
  22165271.835   116479286.082    22165272.836    90763078.891                  
  21161974.442   111206920.668    21161975.800    86654743.945                  
  20290046.961   106624918.425    20290047.819    83084354.348                  
  20298749.407   106670603.145    20298752.606    83119939.255                  
  23772676.973   124926202.923    23772681.226    97345078.598                  
                 119607387.981                   119607387.981    22969342.417  
                 130810172.226                   130810172.226    25120718.978  
                 115460973.214                   115460973.214    22173060.978  
                 133299425.087                   133299425.087    25598757.156  
  25944651.175   136340028.906                                                  
  23500276.244   123494773.372                                                  
  23735665.920   124731745.207                                                  
  25744422.983   135287809.999                                                  
  26992097.635   141844380.347                                                  
  26421328.537   138844938.231                                                  
 21  8 31 20 50 25.0000000  0 16G10G15G18G23G24G32C19C21C22C34E 3E 5
                                E 9E15E31E36
  22005984.166   115642178.429    22005987.293    90110775.821                  
  22165800.615   116482064.852    22165801.616    90765244.169                  
  21162428.423   111209306.325    21162429.781    86656602.898                  
  20289918.608   106624243.919    20289919.465    83083828.758                  
  20298733.022   106670517.098    20298736.220    83119872.208                  
  23772162.685   124923500.199    23772166.902    97342972.582                  
                 119609100.405                   119609100.405    22969671.260  
                 130807828.274                   130807828.274    25120268.840  
                 115460375.786                   115460375.786    22172946.241  
                 133298900.214                   133298900.214    25598656.357  
  25944304.820   136338208.747                                                  
  23500284.392   123494816.274                                                  
  23736020.155   124733606.660                                                  
  25744123.641   135286236.891                                                  
  26991955.361   141843632.732                                                  
  26421922.039   138848057.048                                                  
 21  8 31 20 50 26.0000000  0 16G10G15G18G23G24G32C19C21C22C34E 3E 5
                                E 9E15E31E36
  22005515.086   115639713.425    22005518.213    90108855.043                  
  22166329.431   116484843.781    22166330.432    90767409.570                  
  21162882.492   111211692.504    21162883.833    86658462.265                  
  20289790.326   106623569.800    20289791.184    83083303.477                  
  20298716.779   106670431.750    20298719.977    83119805.712                  
  23771648.396   124920797.645    23771652.613    97340866.703                  
                 119610812.993                   119610812.993    22970000.158  
                 130805484.363                   130805484.363    25119818.719  
                 115459778.562                   115459778.562    22172831.540  
                 133298375.879                   133298375.879    25598555.683  
  25943958.482   136336388.702                                                  
  23500292.594   123494859.360                                                  
  23736374.373   124735468.159                                                  
  25743824.353   135284664.215                                                  
  26991813.178   141842885.542                                                  
  26422515.559   138851175.994                                                  
 21  8 31 20 50 27.0000000  0 16G10G15G18G23G24G32C19C21C22C34E 3E 5
                                E 9E15E31E36
  22005046.042   115637248.596    22005049.187    90106934.398                  
  22166858.283   116487622.859    22166859.284    90769575.085                  
  21163336.687   111214079.199    21163338.027    86660322.028                  
  20289662.116   106622896.086    20289662.974    83082778.508                  
  20298700.679   106670347.109    20298703.877    83119739.757                  
  23771134.144   124918095.259    23771138.379    97338760.949                  
                 119612525.749                   119612525.749    22970329.073  
                 130803140.501                   130803140.501    25119368.598  
                 115459181.556                   115459181.556    22172716.892  
                 133297852.079                   133297852.079    25598455.080  
  25943612.163   136334568.786                                                  
  23500300.832   123494902.626                                                  
  23736728.626   124737329.706                                                  
  25743525.154   135283091.923                                                  
  26991671.083   141842138.781                                                  
  26423109.078   138854295.054                                                  
 21  8 31 20 50 28.0000000  0 16G10G15G18G23G24G32C19C21C22C34E 3E 5
                                E 9E15E31E36
  22004577.034   115634783.941    22004580.161    90105013.888                  
  22167387.135   116490402.102    22167388.135    90771740.731                  
  21163790.936   111216466.417    21163792.294    86662182.200                  
  20289533.977   106622222.782    20289534.853    83082253.856                  
  20298684.704   106670263.204    20298687.902    83119674.375                  
  23770619.927   124915393.046    23770624.162    97336655.331                  
                 119614238.670                   119614238.670    22970658.023  
                 130800796.680                   130800796.680    25118918.495  
                 115458584.753                   115458584.753    22172602.298  
                 133297328.814                   133297328.814    25598354.603  
  25943265.861   136332749.000                                                  
  23500309.105   123494946.067                                                  
  23737082.880   124739191.308                                                  
  25743226.044   135281520.050                                                  
  26991529.060   141841392.477                                                  
  26423702.651   138857414.249                                                  
 21  8 31 20 50 29.0000000  0 16G10G15G18G23G24G32C19C21C22C34E 3E 5
                                E 9E15E31E36
  22004108.062   115632319.448    22004111.189    90103093.503                  
  22167916.058   116493181.500    22167917.058    90773906.491                  
  21164245.327   111218854.160    21164246.667    86664042.774                  
  20289405.946   106621549.861    20289406.803    83081729.501                  
  20298668.872   106670180.001    20298672.088    83119609.543                  
  23770105.746   124912691.000    23770109.981    97334549.843                  
                 119615951.758                   119615951.758    22970986.992  
                 130798452.906                   130798452.906    25118468.393  
                 115457988.168                   115457988.168    22172487.722  
                 133296806.086                   133296806.086    25598254.197  
  25942919.595   136330929.325                                                  
  23500317.396   123494989.682                                                  
  23737437.133   124741052.963                                                  
  25742927.024   135279948.597                                                  
  26991387.127   141840646.614                                                  
  26424296.243   138860533.542                                                  
 21  8 31 20 50 30.0000000  0 16G10G15G18G23G24G32C19C21C22C34E 3E 5
                                E 9E15E31E36
  22003639.125   115629855.124    22003642.234    90101173.253                  
  22168444.981   116495961.062    22168445.981    90776072.382                  
  21164699.772   111221242.426    21164701.148    86665903.763                  
  20289277.968   106620877.335    20289278.825    83081205.457                  
  20298653.183   106670097.510    20298656.381    83119545.265                  
  23769591.600   124909989.133    23769595.817    97332444.492                  
                 119617665.011                   119617665.011    22971316.015  
                 130796109.175                   130796109.175    25118018.308  
                 115457391.793                   115457391.793    22172373.200  
                 133296283.891                   133296283.891    25598153.916  
  25942573.347   136329109.785                                                  
  23500325.741   123495033.476                                                  
  23737791.404   124742914.680                                                  
  25742628.058   135278377.555                                                  
  26991245.282   141839901.190                                                  
  26424889.834   138863652.984                                                  
 21  8 31 20 50 31.0000000  0 16G10G15G18G23G24G32C19C21C22C34E 3E 5
                                E 9E15E31E36
  22003170.206   115627390.989    22003173.333    90099253.148                  
  22168973.940   116498740.768    22168974.940    90778238.391                  
  21165154.360   111223631.196    21165155.700    86667765.140                  
  20289150.061   106620205.220    20289150.919    83080681.727                  
  20298637.601   106670015.718    20298640.800    83119481.531                  
  23769077.473   124907287.430    23769081.725    97330339.274                  
                 119619378.430                   119619378.430    22971645.055  
                 130793765.491                   130793765.491    25117568.223  
                 115456795.630                   115456795.630    22172258.695  
                 133295762.231                   133295762.231    25598053.742  
  25942227.117   136327290.374                                                  
  23500334.104   123495077.454                                                  
  23738145.694   124744776.450                                                  
  25742329.180   135276806.933                                                  
  26991103.527   141839156.216                                                  
  26425483.478   138866772.546                                                  
 21  8 31 20 50 32.0000000  0 16G10G15G18G23G24G32C19C21C22C34E 3E 5
                                E 9E15E31E36
  22002701.323   115624927.012    22002704.468    90097333.163                  
  22169502.934   116501520.642    22169503.935    90780404.524                  
  21165609.019   111226020.497    21165610.377    86669626.933                  
  20289022.244   106619533.501    20289023.102    83080158.310                  
  20298622.180   106669934.660    20298625.379    83119418.371                  
  23768563.399   124904585.895    23768567.616    97328234.184                  
                 119621092.015                   119621092.015    22971974.149  
                 130791421.850                   130791421.850    25117118.156  
                 115456199.676                   115456199.676    22172144.262  
                 133295241.106                   133295241.106    25597953.657  
  25941880.922   136325471.086                                                  
  23500342.502   123495121.609                                                  
  23738499.983   124746638.269                                                  
  25742030.375   135275236.727                                                  
  26990961.844   141838411.685                                                  
  26426077.141   138869892.223                                                  
 21  8 31 20 50 33.0000000  0 16G10G15G18G23G24G32C19C21C22C34E 3E 5
                                E 9E15E31E36
  22002232.475   115622463.202    22002235.602    90095413.311                  
  22170031.964   116504300.671    22170032.965    90782570.780                  
  21166063.804   111228410.309    21166065.144    86671489.122                  
  20288894.480   106618862.176    20288895.356    83079635.199                  
  20298606.902   106669854.300    20298610.101    83119355.751                  
  23768049.343   124901884.532    23768053.578    97326129.226                  
                 119622805.765                   119622805.765    22972303.242  
                 130789078.253                   130789078.253    25116668.106  
                 115455603.932                   115455603.932    22172029.864  
                 133294720.516                   133294720.516    25597853.698  
  25941534.746   136323651.925                                                  
  23500350.937   123495165.946                                                  
  23738854.308   124748500.148                                                  
  25741731.640   135273666.911                                                  
  26990820.232   141837667.591                                                  
  26426670.821   138873012.028                                                  
 21  8 31 20 50 34.0000000  0 16G10G15G18G23G24G32C19C21C22C34E 3E 5
                                E 9E15E31E36
  22001763.664   115619999.571    22001766.809    90093493.601                  
  22170561.013   116507080.858    22170562.013    90784737.160                  
  21166518.660   111230800.655    21166520.018    86673351.731                  
  20288766.824   106618191.255    20288767.682    83079112.401                  
  20298591.731   106669774.656    20298594.948    83119293.691                  
  23767535.322   124899183.346    23767539.557    97324024.410                  
                 119624519.684                   119624519.684    22972632.372  
                 130786734.708                   130786734.708    25116218.039  
                 115455008.406                   115455008.406    22171915.502  
                 133294200.461                   133294200.461    25597753.828  
  25941188.605   136321832.899                                                  
  23500359.424   123495210.458                                                  
  23739208.597   124750362.081                                                  
  25741432.995   135272097.563                                                  
  26990678.727   141836923.937                                                  
  26427264.520   138876131.957                                                  
 21  8 31 20 50 35.0000000  0 16G10G15G18G23G24G32C19C21C22C34E 3E 5
                                E 9E15E31E36
  22001294.888   115617536.113    22001297.997    90091574.024                  
  22171090.096   116509861.210    22171091.097    90786903.668                  
  21166973.623   111233191.520    21166974.981    86675214.739                  
  20288639.221   106617520.740    20288640.079    83078589.922                  
  20298576.721   106669695.743    20298579.920    83119232.200                  
  23767021.320   124896482.324    23767025.555    97321919.715                  
                 119626233.769                   119626233.769    22972961.555  
                 130784391.199                   130784391.199    25115767.972  
                 115454413.086                   115454413.086    22171801.158  
                 133293680.941                   133293680.941    25597654.065  
  25940842.464   136320013.981                                                  
  23500367.912   123495255.144                                                  
  23739562.922   124752224.065                                                  
  25741134.440   135270528.586                                                  
  26990537.294   141836180.741                                                  
  26427858.254   138879252.016                                                  
 21  8 31 20 50 36.0000000  0 16G10G15G18G23G24G32C19C21C22C34E 3E 5
                                E 9E15E31E36
  22000826.112   115615072.820    22000829.257    90089654.579                  
  22171619.216   116512641.723    22171620.217    90789070.297                  
  21167428.693   111235582.893    21167430.034    86677078.148                  
  20288511.708   106616850.609    20288512.566    83078067.746                  
  20298561.836   106669617.511    20298565.035    83119171.237                  
  23766507.371   124893781.473    23766511.606    97319815.156                  
                 119627948.017                   119627948.017    22973290.756  
                 130782047.741                   130782047.741    25115317.959  
                 115453817.982                   115453817.982    22171686.886  
                 133293161.956                   133293161.956    25597554.392  
  25940496.359   136318195.195                                                  
  23500376.453   123495300.012                                                  
  23739917.264   124754086.114                                                  
  25740835.955   135268960.030                                                  
  26990395.968   141835437.979                                                  
  26428452.005   138882372.182                                                  
 21  8 31 20 50 37.0000000  0 16G10G15G18G23G24G32C19C21C22C34E 3E 5
                                E 9E15E31E36
  22000357.425   115612609.703    22000360.534    90087735.265                  
  22172148.354   116515422.374    22172149.354    90791237.038                  
  21167883.853   111237974.794    21167885.193    86678941.965                  
  20288384.266   106616180.888    20288385.124    83077545.884                  
  20298547.077   106669540.027    20298550.275    83119110.862                  
  23765993.458   124891080.809    23765997.675    97317710.747                  
                 119629662.433                   119629662.433    22973619.993  
                 130779704.327                   130779704.327    25114867.927  
                 115453223.087                   115453223.087    22171572.632  
                 133292643.507                   133292643.507    25597454.826  
  25940150.272   136316376.556                                                  
  23500385.013   123495345.073                                                  
  23740271.625   124755948.215                                                  
  25740537.561   135267391.931                                                  
  26990254.695   141834695.673                                                  
  26429045.775   138885492.487                                                  
 21  8 31 20 50 38.0000000  0 16G10G15G18G23G24G32C19C21C22C34E 3E 5
                                E 9E15E31E36
  21999888.721   115610146.747    21999891.866    90085816.078                  
  22172677.527   116518203.192    22172678.528    90793403.907                  
  21168339.120   111240367.215    21168340.478    86680806.187                  
  20288256.878   106615511.555    20288257.736    83077024.328                  
  20298532.478   106669463.226    20298535.676    83119051.020                  
  23765479.563   124888380.298    23765483.798    97315606.452                  
                 119631377.015                   119631377.015    22973949.265  
                 130777360.957                   130777360.957    25114417.896  
                 115452628.404                   115452628.404    22171458.448  
                 133292125.595                   133292125.595    25597355.367  
  25939804.220   136314558.017                                                  
  23500393.643   123495390.293                                                  
  23740625.968   124757810.360                                                  
  25740239.219   135265824.190                                                  
  26990113.512   141833953.788                                                  
  26429639.581   138888612.897                                                  
 21  8 31 20 50 39.0000000  0 16G10G15G18G23G24G32C19C21C22C34E 3E 5
                                E 9E15E31E36
  21999420.088   115607683.973    21999423.197    90083897.036                  
  22173206.718   116520984.163    22173207.737    90795570.898                  
  21168794.476   111242760.161    21168795.835    86682670.820                  
  20288129.597   106614842.633    20288130.455    83076503.090                  
  20298518.004   106669387.157    20298521.202    83118991.743                  
  23764965.703   124885679.954    23764969.938    97313502.288                  
                 119633091.763                   119633091.763    22974278.556  
                 130775017.633                   130775017.633    25113967.900  
                 115452033.930                   115452033.930    22171344.283  
                 133291608.215                   133291608.215    25597256.015  
  25939458.205   136312739.612                                                  
  23500402.274   123495435.704                                                  
  23740980.346   124759672.567                                                  
  25739940.985   135264256.913                                                  
  26989972.436   141833212.359                                                  
  26430233.404   138891733.448                                                  
 21  8 31 20 50 40.0000000  0 16G10G15G18G23G24G32C19C21C22C34E 3E 5
                                E 9E15E31E36
  21998951.455   115605221.366    21998954.582    90081978.122                  
  22173735.963   116523765.292    22173736.963    90797738.011                  
  21169249.940   111245153.614    21169251.298    86684535.849                  
  20288002.387   106614174.098    20288003.245    83075982.151                  
  20298503.655   106669311.809    20298506.853    83118933.028                  
  23764451.880   124882979.800    23764456.097    97311398.277                  
                 119634806.677                   119634806.677    22974607.900  
                 130772674.350                   130772674.350    25113517.887  
                 115451439.672                   115451439.672    22171230.154  
                 133291091.370                   133291091.370    25597156.753  
  25939112.207   136310921.331                                                  
  23500410.941   123495481.284                                                  
  23741334.725   124761534.824                                                  
  25739642.823   135262690.038                                                  
  26989831.414   141832471.372                                                  
  26430827.245   138894854.117                                                  
 21  8 31 20 50 41.0000000  0 16G10G15G18G23G24G32C19C21C22C34E 3E 5
                                E 9E15E31E36
  21998482.875   115602758.918    21998486.002    90080059.333                  
  22174265.225   116526546.583    22174266.226    90799905.251                  
  21169705.493   111247547.581    21169706.869    86686401.277                  
  20287875.231   106613505.968    20287876.107    83075461.535                  
  20298489.467   106669237.159    20298492.665    83118874.864                  
  23763938.074   124880279.797    23763942.326    97309294.378                  
                 119636521.759                   119636521.759    22974937.261  
                 130770331.117                   130770331.117    25113067.891  
                 115450845.620                   115450845.620    22171116.078  
                 133290575.063                   133290575.063    25597057.597  
  25938766.209   136309103.179                                                  
  23500419.661   123495527.038                                                  
  23741689.103   124763397.142                                                  
  25739344.714   135261123.556                                                  
  26989690.499   141831730.812                                                  
  26431421.104   138897974.903                                                  
 21  8 31 20 50 42.0000000  0 16G10G15G18G23G24G32C19C21C22C34E 3E 5
                                E 9E15E31E36
  21998014.314   115600296.657    21998017.441    90078140.684                  
  22174794.524   116529328.032    22174795.524    90802072.614                  
  21170161.153   111249942.079    21170162.529    86688267.118                  
  20287748.165   106612838.243    20287749.040    83074941.225                  
  20298475.386   106669163.226    20298478.585    83118817.254                  
  23763424.321   124877579.972    23763428.556    97307190.626                  
                 119638237.004                   119638237.004    22975266.659  
                 130767987.930                   130767987.930    25112617.896  
                 115450251.786                   115450251.786    22171002.038  
                 133290059.289                   133290059.289    25596958.567  
  25938420.247   136307285.156                                                  
  23500428.399   123495572.983                                                  
  23742043.499   124765259.507                                                  
  25739046.712   135259557.520                                                  
  26989549.655   141830990.720                                                  
  26432014.999   138901095.821                                                  
 21  8 31 20 50 43.0000000  0 16G10G15G18G23G24G32C19C21C22C34E 3E 5
                                E 9E15E31E36
  21997545.806   115597834.558    21997548.915    90076222.167                  
  22175323.840   116532109.625    22175324.840    90804240.087                  
  21170616.920   111252337.094    21170618.260    86690133.363                  
  20287621.187   106612170.914    20287622.045    83074421.231                  
  20298461.448   106669089.991    20298464.647    83118760.187                  
  23762910.605   124874880.324    23762914.822    97305086.999                  
                 119639952.415                   119639952.415    22975596.074  
                 130765644.786                   130765644.786    25112167.936  
                 115449658.162                   115449658.162    22170888.034  
                 133289544.052                   133289544.052    25596859.609  
  25938074.320   136305467.254                                                  
  23500437.172   123495619.113                                                  
  23742397.896   124767121.928                                                  
  25738748.782   135257991.886                                                  
  26989408.918   141830251.054                                                  
  26432608.912   138904216.847                                                  
 21  8 31 20 50 44.0000000  0 16G10G15G18G23G24G32C19C21C22C34E 3E 5
                                E 9E15E31E36
  21997077.298   115595372.644    21997080.443    90074303.793                  
  22175853.174   116534891.383    22175854.192    90806407.688                  
  21171072.777   111254732.634    21171074.117    86692000.015                  
  20287494.264   106611503.985    20287495.139    83073901.544                  
  20298447.653   106669017.489    20298450.852    83118703.691                  
  23762396.906   124872180.848    23762401.141    97302983.516                  
                 119641667.991                   119641667.991    22975925.543  
                 130763301.684                   130763301.684    25111717.958  
                 115449064.746                   115449064.746    22170774.083  
                 133289029.347                   133289029.347    25596760.757  
  25937728.394   136303649.489                                                  
  23500445.982   123495665.418                                                  
  23742752.328   124768984.405                                                  
  25738450.941   135256426.698                                                  
  26989268.236   141829511.837                                                  
  26433202.861   138907338.015                                                  
 21  8 31 20 50 45.0000000  0 16G10G15G18G23G24G32C19C21C22C34E 3E 5
                                E 9E15E31E36
  21996608.862   115592910.891    21996611.989    90072385.546                  
  22176382.562   116537673.301    22176383.580    90808575.414                  
  21171528.723   111257128.687    21171530.081    86693867.074                  
  20287367.447   106610837.454    20287368.305    83073382.169                  
  20298434.001   106668945.716    20298437.200    83118647.761                  
  23761883.243   124869481.531    23761887.460    97300880.152                  
                 119643383.739                   119643383.739    22976255.048  
                 130760958.633                   130760958.633    25111267.998  
                 115448471.544                   115448471.544    22170660.168  
                 133288515.180                   133288515.180    25596662.013  
  25937382.521   136301831.833                                                  
  23500454.827   123495711.882                                                  
  23743106.742   124770846.946                                                  
  25738153.154   135254861.895                                                  
  26989127.660   141828773.069                                                  
  26433796.827   138910459.296                                                  
 21  8 31 20 50 46.0000000  0 16G10G15G18G23G24G32C19C21C22C34E 3E 5
                                E 9E15E31E36
  21996140.425   115590449.312    21996143.552    90070467.430                  
  22176911.985   116540455.370    22176912.986    90810743.262                  
  21171984.776   111259525.260    21171986.134    86695734.532                  
  20287240.685   106610171.320    20287241.542    83072863.105                  
  20298420.457   106668874.632    20298423.655    83118592.371                  
  23761369.598   124866782.390    23761373.833    97298776.926                  
                 119645099.647                   119645099.647    22976584.553  
                 130758615.621                   130758615.621    25110818.056  
                 115447878.556                   115447878.556    22170546.288  
                 133288001.546                   133288001.546    25596563.376  
  25937036.648   136300014.309                                                  
  23500463.708   123495758.540                                                  
  23743461.174   124772709.526                                                  
  25737855.474   135253297.511                                                  
  26988987.156   141828034.742                                                  
  26434390.793   138913580.699                                                  
 21  8 31 20 50 47.0000000  0 16G10G15G18G23G24G32C19C21C22C34E 3E 5
                                E 9E15E31E36
  21995672.042   115587987.899    21995675.152    90068549.448                  
  22177441.426   116543237.594    22177442.427    90812911.226                  
  21172440.937   111261922.347    21172442.277    86697602.391                  
  20287113.975   106609505.593    20287114.869    83072344.360                  
  20298407.073   106668804.267    20298410.271    83118537.543                  
  23760856.007   124864083.423    23760860.242    97296673.841                  
                 119646815.724                   119646815.724    22976914.094  
                 130756272.660                   130756272.660    25110368.114  
                 115447285.778                   115447285.778    22170432.445  
                 133287488.449                   133287488.449    25596464.864  
  25936690.811   136298196.914                                                  
  23500472.625   123495805.383                                                  
  23743815.642   124774572.161                                                  
  25737557.865   135251733.556                                                  
  26988846.741   141827296.854                                                  
  26434984.795   138916702.218                                                  
 21  8 31 20 50 48.0000000  0 16G10G15G18G23G24G32C19C21C22C34E 3E 5
                                E 9E15E31E36
  21995203.677   115585526.657    21995206.804    90066631.597                  
  22177970.903   116546019.979    22177971.904    90815079.321                  
  21172897.186   111264319.952    21172898.544    86699470.653                  
  20286987.373   106608840.257    20286988.249    83071825.914                  
  20298393.814   106668734.594    20298397.012    83118483.255                  
  23760342.433   124861384.622    23760346.668    97294570.879                  
                 119648531.964                   119648531.964    22977243.706  
                 130753929.738                   130753929.738    25109918.172  
                 115446693.212                   115446693.212    22170318.637  
                 133286975.888                   133286975.888    25596366.424  
  25936344.992   136296379.649                                                  
  23500481.559   123495852.387                                                  
  23744170.092   124776434.852                                                  
  25737260.328   135250169.988                                                  
  26988706.416   141826559.407                                                  
  26435578.833   138919823.875                                                  
 21  8 31 20 50 49.0000000  0 16G10G15G18G23G24G32C19C21C22C34E 3E 5
                                E 9E15E31E36
  21994735.366   115583065.585    21994738.475    90064713.883                  
  22178500.398   116548802.523    22178501.399    90817247.535                  
  21173353.525   111266718.083    21173354.883    86701339.324                  
  20286860.843   106608175.326    20286861.718    83071307.785                  
  20298380.698   106668665.655    20298383.897    83118429.536                  
  23759828.913   124858685.995    23759833.148    97292468.055                  
                 119650248.375                   119650248.375    22977573.318  
                 130751586.868                   130751586.868    25109468.266  
                 115446100.855                   115446100.855    22170204.883  
                 133286463.858                   133286463.858    25596268.072  
  25935999.208   136294562.503                                                  
  23500490.547   123495899.578                                                  
  23744524.560   124778297.602                                                  
  25736962.880   135248606.883                                                  
  26988566.180   141825822.426                                                  
  26436172.907   138922945.636                                                  
 21  8 31 20 50 50.0000000  0 16G10G15G18G23G24G32C19C21C22C34E 3E 5
                                E 9E15E31E36
  21994267.055   115580604.698    21994270.182    90062796.309                  
  22179029.929   116551585.222    22179030.912    90819415.867                  
  21173809.972   111269116.728    21173811.348    86703208.398                  
  20286734.384   106607510.790    20286735.259    83070789.966                  
  20298367.725   106668597.411    20298370.924    83118376.355                  
  23759315.393   124855987.532    23759319.646    97290365.355                  
                 119651964.948                   119651964.948    22977902.965  
                 130749244.038                   130749244.038    25109018.342  
                 115445508.710                   115445508.710    22170091.182  
                 133285952.366                   133285952.366    25596169.864  
  25935653.443   136292745.490                                                  
  23500499.553   123495946.937                                                  
  23744879.045   124780160.407                                                  
  25736665.504   135247044.146                                                  
  26988425.997   141825085.853                                                  
  26436766.980   138926067.540                                                  
 21  8 31 20 50 51.0000000  0 16G10G15G18G23G24G32C19C21C22C34E 3E 5
                                E 9E15E31E36
  21993798.797   115578143.966    21993801.924    90060878.851                  
  22179559.477   116554368.074    22179560.478    90821584.323                  
  21174266.525   111271515.898    21174267.883    86705077.879                  
  20286607.996   106606846.657    20286608.872    83070272.457                  
  20298354.859   106668529.899    20298358.058    83118323.750                  
  23758801.945   124853289.242    23758806.162    97288262.798                  
                 119653681.682                   119653681.682    22978232.649  
                 130746901.261                   130746901.261    25108568.418  
                 115444916.781                   115444916.781    22169977.500  
                 133285441.430                   133285441.430    25596071.746  
  25935307.695   136290928.591                                                  
  23500508.595   123495994.487                                                  
  23745233.549   124782023.266                                                  
  25736368.199   135245481.854                                                  
  26988285.922   141824349.744                                                  
  26437361.071   138929189.552                                                  
 21  8 31 20 50 52.0000000  0 16G10G15G18G23G24G32C19C21C22C34E 3E 5
                                E 9E15E31E36
  21993330.575   115575683.425    21993333.702    90058961.547                  
  22180089.079   116557151.087    22180090.080    90823752.907                  
  21174723.168   111273915.578    21174724.526    86706947.762                  
  20286481.698   106606182.923    20286482.555    83069755.266                  
  20298342.155   106668463.111    20298345.353    83118271.707                  
  23758288.496   124850591.125    23758292.713    97286160.367                  
                 119655398.591                   119655398.591    22978562.368  
                 130744558.522                   130744558.522    25108118.547  
                 115444325.061                   115444325.061    22169863.853  
                 133284931.009                   133284931.009    25595973.716  
  25934961.983   136289111.827                                                  
  23500517.672   123496042.207                                                  
  23745588.034   124783886.180                                                  
  25736070.984   135243919.976                                                  
  26988145.936   141823614.083                                                  
  26437955.199   138932311.688                                                  
 21  8 31 20 50 53.0000000  0 16G10G15G18G23G24G32C19C21C22C34E 3E 5
                                E 9E15E31E36
  21992862.389   115573223.040    21992865.498    90057044.363                  
  22180618.699   116559934.250    22180619.700    90825921.601                  
  21175179.918   111276315.778    21175181.258    86708818.043                  
  20286355.489   106605519.594    20286356.347    83069238.382                  
  20298329.575   106668397.024    20298332.773    83118220.211                  
  23757775.101   124847893.187    23757779.318    97284058.082                  
                 119657115.659                   119657115.659    22978892.105  
                 130742215.832                   130742215.832    25107668.641  
                 115443733.554                   115443733.554    22169750.277  
                 133284421.122                   133284421.122    25595875.794  
  25934616.271   136287295.186                                                  
  23500526.803   123496090.106                                                  
  23745942.538   124785749.138                                                  
  25735773.858   135242358.515                                                  
  26988006.021   141822878.854                                                  
  26438549.344   138935433.941                                                  
 21  8 31 20 50 54.0000000  0 16G10G15G18G23G24G32C19C21C22C34E 3E 5
                                E 9E15E31E36
  21992394.220   115570762.828    21992397.347    90055127.317                  
  22181148.337   116562717.563    22181149.338    90828090.414                  
  21175636.758   111278716.497    21175638.098    86710688.735                  
  20286229.316   106604856.661    20286230.191    83068721.813                  
  20298317.138   106668331.644    20298320.336    83118169.266                  
  23757261.742   124845195.414    23757265.959    97281955.921                  
                 119658832.899                   119658832.899    22979221.878  
                 130739873.183                   130739873.183    25107218.753  
                 115443142.258                   115443142.258    22169636.719  
                 133283911.771                   133283911.771    25595777.979  
  25934270.595   136285478.672                                                  
  23500535.952   123496138.202                                                  
  23746297.059   124787612.163                                                  
  25735476.803   135240797.480                                                  
  26987866.196   141822144.065                                                  
  26439143.524   138938556.332                                                  
 21  8 31 20 50 55.0000000  0 16G10G15G18G23G24G32C19C21C22C34E 3E 5
                                E 9E15E31E36
  21991926.088   115568302.792    21991929.215    90053210.410                  
  22181678.029   116565501.040    22181679.011    90830259.359                  
  21176093.704   111281117.736    21176095.062    86712559.828                  
  20286103.232   106604194.130    20286104.125    83068205.550                  
  20298304.844   106668266.969    20298308.043    83118118.872                  
  23756748.401   124842497.805    23756752.618    97279853.890                  
                 119660550.304                   119660550.304    22979551.704  
                 130737530.583                   130737530.583    25106768.882  
                 115442551.175                   115442551.175    22169523.198  
                 133283402.957                   133283402.957    25595680.289  
  25933924.954   136283662.280                                                  
  23500545.137   123496186.456                                                  
  23746651.599   124789475.233                                                  
  25735179.820   135239236.843                                                  
  26987726.461   141821409.720                                                  
  26439737.723   138941678.843                                                  
 21  8 31 20 50 56.0000000  0 16G10G15G18G23G24G32C19C21C22C34E 3E 5
                                E 9E15E31E36
  21991457.973   115565842.935    21991461.118    90051293.632                  
  22182207.720   116568284.672    22182208.739    90832428.426                  
  21176550.740   111283519.488    21176552.081    86714431.323                  
  20285977.237   106603531.992    20285978.113    83067689.601                  
  20298292.657   106668203.025    20298295.856    83118069.043                  
  23756235.077   124839800.372    23756239.312    97277751.997                  
                 119662267.875                   119662267.875    22979881.549  
                 130735188.024                   130735188.024    25106319.011  
                 115441960.301                   115441960.301    22169409.747  
                 133282894.676                   133282894.676    25595582.653  
  25933579.332   136281846.018                                                  
  23500554.357   123496234.880                                                  
  23747006.138   124791338.352                                                  
  25734882.926   135237676.629                                                  
  26987586.796   141820675.832                                                  
  26440331.922   138944801.457                                                  
 21  8 31 20 50 57.0000000  0 16G10G15G18G23G24G32C19C21C22C34E 3E 5
                                E 9E15E31E36
  21990989.912   115563383.242    21990993.056    90049376.993                  
  22182737.465   116571068.460    22182738.484    90834597.609                  
  21177007.884   111285921.757    21177009.224    86716303.218                  
  20285851.314   106602870.257    20285852.172    83067173.965                  
  20298280.614   106668139.778    20298283.812    83118019.762                  
  23755721.825   124837103.109    23755726.042    97275650.234                  
                 119663985.612                   119663985.612    22980211.393  
                 130732845.512                   130732845.512    25105869.159  
                 115441369.640                   115441369.640    22169296.297  
                 133282386.930                   133282386.930    25595485.159  
  25933233.745   136280029.888                                                  
  23500563.596   123496283.495                                                  
  23747360.695   124793201.536                                                  
  25734586.104   135236116.841                                                  
  26987447.239   141819942.378                                                  
  26440926.156   138947924.201                                                  
 21  8 31 20 50 58.0000000  0 16G10G15G18G23G24G32C19C21C22C34E 3E 5
                                E 9E15E31E36
  21990521.886   115560923.716    21990525.013    90047460.481                  
  22183267.246   116573852.407    22183268.247    90836766.918                  
  21177465.098   111288324.547    21177466.456    86718175.523                  
  20285725.481   106602208.926    20285726.338    83066658.640                  
  20298268.749   106668077.254    20298271.911    83117971.042                  
  23755208.573   124834406.016    23755212.808    97273548.605                  
                 119665703.515                   119665703.515    22980541.326  
                 130730503.046                   130730503.046    25105419.324  
                 115440779.191                   115440779.191    22169182.918  
                 133281879.724                   133281879.724    25595387.755  
  25932888.158   136278213.872                                                  
  23500572.888   123496332.292                                                  
  23747715.252   124795064.776                                                  
  25734289.353   135234557.466                                                  
  26987307.736   141819209.382                                                  
  26441520.426   138951047.070                                                  
 21  8 31 20 50 59.0000000  0 16G10G15G18G23G24G32C19C21C22C34E 3E 5
                                E 9E15E31E36
  21990053.896   115558464.376    21990057.023    90045544.110                  
  22183797.045   116576636.514    22183798.045    90838936.352                  
  21177922.438   111290727.855    21177923.796    86720048.230                  
  20285599.701   106601547.988    20285600.576    83066143.624                  
  20298256.955   106668015.455    20298260.154    83117922.882                  
  23754695.357   124831709.094    23754699.574    97271447.110                  
                 119667421.587                   119667421.587    22980871.260  
                 130728160.624                   130728160.624    25104969.471  
                 115440188.957                   115440188.957    22169069.575  
                 133281373.048                   133281373.048    25595290.458  
  25932542.607   136276397.986                                                  
  23500582.215   123496381.274                                                  
  23748069.827   124796928.066                                                  
  25733992.691   135232998.511                                                  
  26987168.340   141818476.821                                                  
  26442114.714   138954170.054                                                  
 21  8 31 20 51  0.0000000  0 16G10G15G18G23G24G32C19C21C22C34E 3E 5
                                E 9E15E31E36
  21989585.925   115556005.196    21989589.052    90043627.866                  
  22184326.861   116579420.769    22184327.862    90841105.899                  
  21178379.885   111293131.687    21178381.243    86721921.344                  
  20285473.992   106600887.456    20285474.886    83065628.926                  
  20298245.340   106667954.345    20298248.539    83117875.266                  
  23754182.177   124829012.348    23754186.412    97269345.751                  
                 119669139.821                   119669139.821    22981201.212  
                 130725818.251                   130725818.251    25104519.654  
                 115439598.935                   115439598.935    22168956.267  
                 133280866.907                   133280866.907    25595193.269  
  25932197.074   136274582.222                                                  
  23500591.561   123496430.417                                                  
  23748424.420   124798791.414                                                  
  25733696.119   135231439.964                                                  
  26987029.015   141817744.699                                                  
  26442709.020   138957293.161                                                  
 21  8 31 20 51  1.0000000  0 17G10G15G18G23G24G32C19C21C22C34E 3E 5
                                E 9E15E24E31E36
  21989118.006   115553546.199    21989121.116    90041711.767                  
  22184856.696   116582205.258    22184857.696    90843275.668                  
  21178837.421   111295535.913    21178838.797    86723794.710                  
  20285348.409   106600227.293    20285349.266    83065114.497                  
  20298233.833   106667893.980    20298237.031    83117828.247                  
  23753669.032   124826315.786    23753673.267    97267244.546                  
                 119670858.215                   119670858.215    22981531.217  
                 130723475.974                   130723475.974    25104069.820  
                 115439009.120                   115439009.120    22168842.995  
                 133280361.335                   133280361.335    25595096.133  
  25931851.558   136272766.656                                                  
  23500600.942   123496479.763                                                  
  23748778.995   124800654.815                                                  
  25733399.619   135229881.822                                                  
  27217509.784   143028982.542                                                  
  26986889.761   141817013.250                                                  
  26443303.379   138960416.271                                                  
 21  8 31 20 51  2.0000000  0 17G10G15G18G23G24G32C19C21C22C34E 3E 5
                                E 9E15E24E31E36
  21988650.088   115551087.363    21988653.215    90039795.788                  
  22185386.584   116584989.833    22185387.584    90845445.466                  
  21179295.065   111297940.782    21179296.423    86725668.633                  
  20285222.861   106599567.558    20285223.719    83064600.418                  
  20298222.486   106667834.311    20298225.684    83117781.754                  
  23753155.923   124823619.374    23753160.140    97265143.450                  
                 119672576.789                   119672576.789    22981861.258  
                 130721133.691                   130721133.691    25103620.003  
                 115438419.528                   115438419.528    22168729.759  
                 133279856.273                   133279856.273    25594999.157  
  25931506.078   136270951.154                                                  
  23500610.359   123496529.261                                                  
  23749133.606   124802518.269                                                  
  25733103.207   135228324.114                                                  
  27217035.844   143026492.003                                                  
  26986750.598   141816282.023                                                  
  26443897.739   138963539.633                                                  
 21  8 31 20 51  3.0000000  0 17G10G15G18G23G24G32C19C21C22C34E 3E 5
                                E 9E15E24E31E36
  21988182.223   115548628.712    21988185.333    90037879.956                  
  22185916.507   116587774.586    22185917.508    90847615.401                  
  21179752.780   111300346.161    21179754.156    86727542.952                  
  20285097.385   106598908.235    20285098.260    83064086.657                  
  20298211.264   106667775.340    20298214.463    83117735.801                  
  23752642.832   124820923.156    23752647.067    97263042.501                  
                 119674295.527                   119674295.527    22982191.316  
                 130718791.458                   130718791.458    25103170.204  
                 115437830.140                   115437830.140    22168616.577  
                 133279351.745                   133279351.745    25594902.254  
  25931160.617   136269135.778                                                  
  23500619.812   123496578.953                                                  
  23749488.217   124804381.753                                                  
  25732806.867   135226766.828                                                  
  27216561.922   143024001.624                                                  
  26986611.541   141815551.234                                                  
  26444492.116   138966663.119                                                  
 21  8 31 20 51  4.0000000  0 17G10G15G18G23G24G32C19C21C22C34E 3E 5
                                E 9E15E24E31E36
  21987714.377   115546170.234    21987717.522    90035964.266                  
  22186446.467   116590559.507    22186447.467    90849785.469                  
  21180210.620   111302752.059    21180211.978    86729417.679                  
  20284971.998   106598249.307    20284972.855    83063573.212                  
  20298200.185   106667717.109    20298203.384    83117690.426                  
  23752129.794   124818227.091    23752134.011    97260941.673                  
                 119676014.433                   119676014.433    22982521.429  
                 130716449.265                   130716449.265    25102720.405  
                 115437240.968                   115437240.968    22168503.448  
                 133278847.753                   133278847.753    25594805.475  
  25930815.173   136267320.531                                                  
  23500629.300   123496628.821                                                  
  23749842.845   124806245.339                                                  
  25732510.599   135225209.969                                                  
  27216088.053   143021511.422                                                  
  26986472.556   141814820.906                                                  
  26445086.511   138969786.719                                                  
 21  8 31 20 51  5.0000000  0 17G10G15G18G23G24G32C19C21C22C34E 3E 5
                                E 9E15E24E31E36
  21987246.584   115543711.929    21987249.728    90034048.699                  
  22186976.444   116593344.574    22186977.445    90851955.649                  
  21180668.532   111305158.477    21180669.907    86731292.809                  
  20284846.682   106597590.785    20284847.540    83063060.075                  
  20298189.214   106667659.571    20298192.412    83117645.590                  
  23751616.775   124815531.195    23751620.992    97258840.978                  
                 119677733.504                   119677733.504    22982851.541  
                 130714107.125                   130714107.125    25102270.624  
                 115436652.013                   115436652.013    22168390.319  
                 133278344.298                   133278344.298    25594708.786  
  25930469.782   136265505.401                                                  
  23500638.824   123496678.868                                                  
  23750197.474   124808108.960                                                  
  25732214.402   135223653.517                                                  
  27215614.220   143019021.375                                                  
  26986333.660   141814091.003                                                  
  26445680.942   138972910.442                                                  
 21  8 31 20 51  6.0000000  0 17G10G15G18G23G24G32C19C21C22C34E 3E 5
                                E 9E15E24E31E36
  21986778.826   115541253.777    21986781.935    90032133.258                  
  22187506.439   116596129.797    22187507.440    90854125.953                  
  21181126.568   111307565.406    21181127.926    86733168.336                  
  20284721.438   106596932.655    20284722.296    83062547.247                  
  20298178.403   106667602.733    20298181.601    83117601.301                  
  23751103.809   124812835.485    23751108.026    97256740.426                  
                 119679452.739                   119679452.739    22983181.707  
                 130711765.023                   130711765.023    25101820.842  
                 115436063.262                   115436063.262    22168277.262  
                 133277841.376                   133277841.376    25594612.204  
  25930124.392   136263690.418                                                  
  23500648.384   123496729.097                                                  
  23750552.120   124809972.649                                                  
  25731918.294   135222097.505                                                  
  27215140.405   143016531.505                                                  
  26986194.835   141813361.555                                                  
  26446275.373   138976034.297                                                  
 21  8 31 20 51  7.0000000  0 17G10G15G18G23G24G32C19C21C22C34E 3E 5
                                E 9E15E24E31E36
  21986311.087   115538795.801    21986314.196    90030217.950                  
  22188036.488   116598915.175    22188037.489    90856296.380                  
  21181584.676   111309972.851    21181586.034    86735044.269                  
  20284596.284   106596274.937    20284597.141    83062034.739                  
  20298167.735   106667546.644    20298170.916    83117557.593                  
  23750590.861   124810139.953    23750595.078    97254640.012                  
                 119681172.142                   119681172.142    22983511.909  
                 130709422.970                   130709422.970    25101371.061  
                 115435474.726                   115435474.726    22168164.241  
                 133277338.989                   133277338.989    25594515.729  
  25929779.037   136261875.574                                                  
  23500657.980   123496779.523                                                  
  23750906.785   124811836.393                                                  
  25731622.276   135220541.916                                                  
  27214666.626   143014041.775                                                  
  26986056.118   141812632.526                                                  
  26446869.858   138979158.293                                                  
 21  8 31 20 51  8.0000000  0 17G10G15G18G23G24G32C19C21C22C34E 3E 5
                                E 9E15E24E31E36
  21985843.383   115536338.048    21985846.492    90028302.820                  
  22188566.537   116601700.692    22188567.538    90858466.910                  
  21182042.892   111312380.847    21182044.286    86736920.628                  
  20284471.183   106595617.621    20284472.058    83061522.542                  
  20298157.192   106667491.268    20298160.373    83117514.446                  
  23750077.948   124807444.548    23750082.165    97252539.696                  
                 119682891.711                   119682891.711    22983842.128  
                 130707080.960                   130707080.960    25100921.298  
                 115434886.406                   115434886.406    22168051.255  
                 133276837.139                   133276837.139    25594419.343  
  25929433.701   136260060.782                                                  
  23500667.593   123496830.066                                                  
  23751261.431   124813700.132                                                  
  25731326.312   135218986.667                                                  
  27214192.865   143011552.215                                                  
  26985917.472   141811903.999                                                  
  26447464.342   138982282.331                                                  
 21  8 31 20 51  9.0000000  0 17G10G15G18G23G24G32C19C21C22C34E 3E 5
                                E 9E15E24E31E36
  21985375.697   115533880.421    21985378.824    90026387.788                  
  22189096.639   116604486.375    22189097.640    90860637.570                  
  21182501.214   111314789.331    21182502.608    86738797.366                  
  20284346.189   106594960.691    20284347.046    83061010.650                  
  20298146.775   106667436.591    20298149.973    83117471.840                  
  23749565.054   124804749.345    23749569.253    97250439.538                  
                 119684611.445                   119684611.445    22984172.383  
                 130704739.000                   130704739.000    25100471.552  
                 115434298.294                   115434298.294    22167938.322  
                 133276335.825                   133276335.825    25594323.065  
  25929088.382   136258246.163                                                  
  23500677.261   123496880.837                                                  
  23751616.096   124815563.964                                                  
  25731030.454   135217431.899                                                  
  27213719.157   143009062.834                                                  
  26985778.916   141811175.884                                                  
  26448058.862   138985406.556                                                  
 21  8 31 20 51 10.0000000  0 17G10G15G18G23G24G32C19C21C22C34E 3E 5
                                E 9E15E24E31E36
  21984908.064   115531422.981    21984911.174    90024472.898                  
  22189626.760   116607272.218    22189627.760    90862808.356                  
  21182959.644   111317198.331    21182961.002    86740674.512                  
  20284221.248   106594304.164    20284222.124    83060499.070                  
  20298136.518   106667382.620    20298139.699    83117429.785                  
  23749052.195   124802054.304    23749056.412    97248339.513                  
                 119686331.349                   119686331.349    22984502.657  
                 130702397.081                   130702397.081    25100021.825  
                 115433710.395                   115433710.395    22167825.408  
                 133275835.043                   133275835.043    25594226.894  
  25928743.081   136256431.667                                                  
  23500686.946   123496931.762                                                  
  23751970.796   124817427.858                                                  
  25730734.686   135215877.531                                                  
  27213245.467   143006573.606                                                  
  26985640.449   141810448.214                                                  
  26448653.401   138988530.875                                                  
 21  8 31 20 51 11.0000000  0 17G10G15G18G23G24G32C19C21C22C34E 3E 5
                                E 9E15E24E31E36
  21984440.468   115528965.704    21984443.577    90022558.136                  
  22190156.916   116610058.206    22190157.916    90864979.254                  
  21183418.163   111319607.851    21183419.521    86742552.059                  
  20284096.380   106593648.039    20284097.255    83059987.804                  
  20298126.386   106667329.372    20298129.585    83117388.290                  
  23748539.372   124799359.441    23748543.607    97246239.620                  
                 119688051.415                   119688051.415    22984832.983  
                 130700055.211                   130700055.211    25099572.079  
                 115433122.708                   115433122.708    22167712.547  
                 133275334.798                   133275334.798    25594130.812  
  25928397.815   136254617.301                                                  
  23500696.666   123496982.868                                                  
  23752325.478   124819291.799                                                  
  25730438.954   135214323.590                                                  
  27212771.795   143004084.534                                                  
  26985502.053   141809720.972                                                  
  26449247.957   138991655.320                                                  
 21  8 31 20 51 12.0000000  0 17G10G15G18G23G24G32C19C21C22C34E 3E 5
                                E 9E15E24E31E36
  21983972.871   115526508.611    21983976.016    90020643.518                  
  22190687.108   116612844.362    22190688.126    90867150.285                  
  21183876.754   111322017.887    21183878.148    86744430.005                  
  20283971.600   106592992.325    20283972.476    83059476.855                  
  20298116.379   106667276.827    20298119.578    83117347.347                  
  23748026.602   124796664.758    23748030.819    97244139.867                  
                 119689771.650                   119689771.650    22985163.346  
                 130697713.382                   130697713.382    25099122.352  
                 115432535.231                   115432535.231    22167599.722  
                 133274835.089                   133274835.089    25594034.856  
  25928052.586   136252803.054                                                  
  23500706.423   123497034.165                                                  
  23752680.196   124821155.796                                                  
  25730143.346   135212770.067                                                  
  27212298.176   143001595.640                                                  
  26985363.765   141808994.192                                                  
  26449842.566   138994779.897                                                  
 21  8 31 20 51 13.0000000  0 17G10G15G18G23G24G32C19C21C22C34E 3E 5
                                E 9E15E24E31E36
  21983505.346   115524051.691    21983508.473    90018729.040                  
  22191217.317   116615630.656    22191218.318    90869321.421                  
  21184335.487   111324428.443    21184336.845    86746308.360                  
  20283846.892   106592337.007    20283847.786    83058966.222                  
  20298106.516   106667224.996    20298109.696    83117306.961                  
  23747513.833   124793970.230    23747518.068    97242040.239                  
                 119691492.047                   119691492.047    22985493.726  
                 130695371.602                   130695371.602    25098672.642  
                 115431947.969                   115431947.969    22167486.933  
                 133274335.915                   133274335.915    25593939.006  
  25927707.356   136250988.940                                                  
  23500716.215   123497085.633                                                  
  23753034.896   124823019.849                                                  
  25729847.775   135211216.957                                                  
  27211824.576   142999106.894                                                  
  26985225.512   141808267.851                                                  
  26450437.158   138997904.595                                                  
 21  8 31 20 51 14.0000000  0 17G10G15G18G23G24G32C19C21C22C34E 3E 5
                                E 9E15E24E31E36
  21983037.839   115521594.933    21983040.966    90016814.683                  
  22191747.563   116618417.118    22191748.563    90871492.692                  
  21184794.275   111326839.509    21184795.668    86748187.113                  
  20283722.274   106591682.085    20283723.132    83058455.894                  
  20298096.777   106667173.878    20298099.976    83117267.129                  
  23747001.117   124791275.884    23747005.334    97239940.746                  
                 119693212.614                   119693212.614    22985824.124  
                 130693029.866                   130693029.866    25098222.915  
                 115431360.919                   115431360.919    22167374.197  
                 133273837.278                   133273837.278    25593843.246  
  25927362.163   136249174.949                                                  
  23500726.043   123497137.279                                                  
  23753389.632   124824883.954                                                  
  25729552.329   135209664.253                                                  
  27211351.029   142996618.335                                                  
  26985087.402   141807541.960                                                  
  26451031.803   139001029.415                                                  
 21  8 31 20 51 15.0000000  0 17G10G15G18G23G24G32C19C21C22C34E 3E 5
                                E 9E15E24E31E36
  21982570.367   115519138.333    21982573.477    90014900.442                  
  22192277.844   116621203.758    22192278.844    90873664.118                  
  21185253.205   111329251.059    21185254.563    86750066.222                  
  20283597.727   106591027.612    20283598.585    83057945.938                  
  20298087.181   106667123.453    20298090.380    83117227.836                  
  23746488.437   124788581.620    23746492.636    97237841.288                  
                 119694933.343                   119694933.343    22986154.576  
                 130690688.177                   130690688.177    25097773.223  
                 115430774.078                   115430774.078    22167261.515  
                 133273339.171                   133273339.171    25593747.575  
  25927017.005   136247361.055                                                  
  23500735.907   123497189.054                                                  
  23753744.386   124826748.113                                                  
  25729256.918   135208111.988                                                  
  27210877.500   142994129.887                                                  
  26984949.346   141806816.529                                                  
  26451626.449   139004154.442                                                  
 21  8 31 20 51 16.0000000  0 17G10G15G18G23G24G32C19C21C22C34E 3E 5
                                E 9E15E24E31E36
  21982102.914   115516681.921    21982106.041    90012986.355                  
  22192808.143   116623990.524    22192809.143    90875835.618                  
  21185712.206   111331663.155    21185713.582    86751945.777                  
  20283473.233   106590373.488    20283474.127    83057436.226                  
  20298077.747   106667073.772    20298080.927    83117189.122                  
  23745975.774   124785887.609    23745979.991    97235742.054                  
                 119696654.243                   119696654.243    22986485.064  
                 130688346.531                   130688346.531    25097323.549  
                 115430187.452                   115430187.452    22167148.851  
                 133272841.605                   133272841.605    25593652.012  
  25926671.864   136245547.296                                                  
  23500745.806   123497241.067                                                  
  23754099.122   124828612.318                                                  
  25728961.614   135206560.132                                                  
  27210404.006   142991641.627                                                  
  26984811.380   141806091.512                                                  
  26452221.112   139007279.488                                                  
 21  8 31 20 51 17.0000000  0 17G10G15G18G23G24G32C19C21C22C34E 3E 5
                                E 9E15E24E31E36
  21981635.514   115514225.685    21981638.641    90011072.398                  
  22193338.477   116626777.449    22193339.478    90878007.245                  
  21186171.297   111334075.773    21186172.673    86753825.735                  
  20283348.847   106589719.769    20283349.723    83056926.835                  
  20298068.401   106667024.782    20298071.600    83117150.945                  
  23745463.166   124783193.773    23745467.365    97233642.966                  
                 119698375.304                   119698375.304    22986815.551  
                 130686004.929                   130686004.929    25096873.857  
                 115429601.039                   115429601.039    22167036.241  
                 133272344.574                   133272344.574    25593556.573  
  25926326.742   136243733.669                                                  
  23500755.723   123497293.239                                                  
  23754453.875   124830476.579                                                  
  25728666.382   135205008.689                                                  
  27209930.549   142989153.544                                                  
  26984673.502   141805366.949                                                  
  26452815.829   139010404.652                                                  
 21  8 31 20 51 18.0000000  0 17G10G15G18G23G24G32C19C21C22C34E 3E 5
                                E 9E15E24E31E36
  21981168.132   115511769.625    21981171.259    90009158.585                  
  22193868.848   116629564.533    22193869.849    90880178.996                  
  21186630.495   111336488.905    21186631.871    86755706.098                  
  20283224.514   106589066.453    20283225.372    83056417.757                  
  20298059.216   106666976.525    20298062.415    83117113.340                  
  23744950.557   124780500.102    23744954.774    97231543.999                  
                 119700096.536                   119700096.536    22987146.093  
                 130683663.376                   130683663.376    25096424.183  
                 115429014.835                   115429014.835    22166923.666  
                 133271848.078                   133271848.078    25593461.224  
  25925981.638   136241920.180                                                  
  23500765.677   123497345.589                                                  
  23754808.647   124832340.890                                                  
  25728371.240   135203457.668                                                  
  27209457.091   142986665.628                                                  
  26984535.696   141804642.827                                                  
  26453410.545   139013529.925                                                  
 21  8 31 20 51 19.0000000  0 17G10G15G18G23G24G32C19C21C22C34E 3E 5
                                E 9E15E24E31E36
  21980700.803   115509313.741    21980703.912    90007244.914                  
  22194399.236   116632351.766    22194400.237    90882350.868                  
  21187089.801   111338902.554    21187091.177    86757586.863                  
  20283100.253   106588413.535    20283101.147    83055908.988                  
  20298050.157   106666928.966    20298053.355    83117076.286                  
  23744438.002   124777806.604    23744442.219    97229445.172                  
                 119701817.931                   119701817.931    22987476.687  
                 130681321.866                   130681321.866    25095974.527  
                 115428428.847                   115428428.847    22166811.127  
                 133271352.114                   133271352.114    25593365.982  
  25925636.551   136240106.808                                                  
  23500775.683   123497398.116                                                  
  23755163.418   124834205.262                                                  
  25728076.169   135201907.071                                                  
  27208983.705   142984177.887                                                  
  26984397.980   141803919.148                                                  
  26454005.298   139016655.339                                                  
 21  8 31 20 51 20.0000000  0 17G10G15G18G23G24G32C19C21C22C34E 3E 5
                                E 9E15E24E31E36
  21980233.474   115506858.036    21980236.619    90005331.375                  
  22194929.660   116635139.157    22194930.661    90884522.859                  
  21187549.195   111341316.727    21187550.571    86759468.035                  
  20282976.099   106587761.022    20282976.957    83055400.538                  
  20298041.258   106666882.132    20298044.439    83117039.790                  
  23743925.483   124775113.276    23743929.682    97227346.477                  
                 119703539.492                   119703539.492    22987807.282  
                 130678980.404                   130678980.404    25095524.853  
                 115427843.070                   115427843.070    22166698.641  
                 133270856.688                   133270856.688    25593270.848  
  25925291.500   136238293.577                                                  
  23500785.708   123497450.828                                                  
  23755518.208   124836069.690                                                  
  25727781.187   135200356.895                                                  
  27208510.319   142981690.294                                                  
  26984260.353   141803195.927                                                  
  26454600.068   139019780.875                                                  
 21  8 31 20 51 21.0000000  0 17G10G15G18G23G24G32C19C21C22C34E 3E 5
                                E 9E15E24E31E36
  21979766.217   115504402.495    21979769.344    90003417.972                  
  22195460.102   116637926.704    22195461.103    90886694.974                  
  21188008.697   111343731.412    21188010.073    86761349.609                  
  20282851.999   106587108.914    20282852.874    83054892.402                  
  20298032.484   106666836.021    20298035.683    83117003.858                  
  23743412.981   124772420.134    23743417.198    97225247.927                  
                 119705261.224                   119705261.224    22988137.913  
                 130676638.987                   130676638.987    25095075.215  
                 115427257.503                   115427257.503    22166586.173  
                 133270361.796                   133270361.796    25593175.802  
  25924946.485   136236480.461                                                  
  23500795.768   123497503.724                                                  
  23755872.997   124837934.177                                                  
  25727486.259   135198807.134                                                  
  27208036.986   142979202.882                                                  
  26984122.815   141802473.137                                                  
  26455194.857   139022906.532                                                  
 21  8 31 20 51 22.0000000  0 17G10G15G18G23G24G32C19C21C22C34E 3E 5
                                E 9E15E24E31E36
  21979298.978   115501947.128    21979302.105    90001504.698                  
  22195990.580   116640714.404    22195991.581    90888867.203                  
  21188468.307   111346146.609    21188469.682    86763231.579                  
  20282727.988   106586457.203    20282728.863    83054384.577                  
  20298023.836   106666790.604    20298027.016    83116968.473                  
  23742900.516   124769727.140    23742904.733    97223149.493                  
                 119706983.113                   119706983.113    22988468.597  
                 130674297.612                   130674297.612    25094625.576  
                 115426672.148                   115426672.148    22166473.759  
                 133269867.440                   133269867.440    25593080.864  
  25924601.488   136234667.476                                                  
  23500805.864   123497556.793                                                  
  23756227.805   124839798.702                                                  
  25727191.438   135197257.789                                                  
  27207563.654   142976715.632                                                  
  26983985.366   141801750.796                                                  
  26455789.663   139026032.313                                                  
 21  8 31 20 51 23.0000000  0 17G10G15G18G23G24G32C19C21C22C34E 3E 5
                                E 9E15E24E31E36
  21978831.757   115499491.934    21978834.884    89999591.558                  
  22196521.093   116643502.259    22196522.094    90891039.560                  
  21188928.005   111348562.324    21188929.363    86765113.954                  
  20282604.048   106585805.890    20282604.924    83053877.059                  
  20298015.312   106666745.909    20298018.529    83116933.644                  
  23742388.103   124767034.329    23742392.303    97221051.198                  
                 119708705.168                   119708705.168    22988799.299  
                 130671956.280                   130671956.280    25094175.938  
                 115426087.003                   115426087.003    22166361.399  
                 133269373.616                   133269373.616    25592986.015  
  25924256.509   136232854.612                                                  
  23500815.996   123497610.042                                                  
  23756582.612   124841663.292                                                  
  25726896.688   135195708.855                                                  
  27207090.375   142974228.531                                                  
  26983847.971   141801028.901                                                  
  26456384.505   139029158.205                                                  
 21  8 31 20 51 24.0000000  0 17G10G15G18G23G24G32C19C21C22C34E 3E 5
                                E 9E15E24E31E36
  21978364.571   115497036.921    21978367.698    89997678.563                  
  22197051.643   116646290.261    22197052.643    90893212.026                  
  21189387.775   111350978.551    21189389.169    86766996.727                  
  20282480.180   106585154.980    20282481.038    83053369.860                  
  20298006.967   106666701.922    20298010.148    83116899.366                  
  23741875.691   124764341.688    23741879.908    97218953.039                  
                 119710427.389                   119710427.389    22989130.037  
                 130669614.992                   130669614.992    25093726.318  
                 115425502.067                   115425502.067    22166249.056  
                 133268880.328                   133268880.328    25592891.292  
  25923911.547   136231041.880                                                  
  23500826.163   123497663.458                                                  
  23756937.455   124843527.934                                                  
  25726601.992   135194160.347                                                  
  27206617.132   142971741.607                                                  
  26983710.684   141800307.450                                                  
  26456979.365   139032284.211                                                  
 21  8 31 20 51 25.0000000  0 17G10G15G18G23G24G32C19C21C22C34E 3E 5
                                E 9E15E24E31E36
  21977897.439   115494582.079    21977900.566    89995765.699                  
  22197582.192   116649078.427    22197583.192    90895384.621                  
  21189847.688   111353395.293    21189849.064    86768879.902                  
  20282356.384   106584504.477    20282357.259    83052862.968                  
  20297998.712   106666658.648    20298001.928    83116865.648                  
  23741363.333   124761649.226    23741367.532    97216855.018                  
                 119712149.779                   119712149.779    22989460.792  
                 130667273.753                   130667273.753    25093276.715  
                 115424917.349                   115424917.349    22166136.785  
                 133268387.574                   133268387.574    25592796.657  
  25923566.621   136229229.274                                                  
  23500836.366   123497717.067                                                  
  23757292.298   124845392.630                                                  
  25726307.403   135192612.261                                                  
  27206143.924   142969254.870                                                  
  26983573.485   141799586.444                                                  
  26457574.242   139035410.346                                                  
 21  8 31 20 51 26.0000000  0 17G10G15G18G23G24G32C19C21C22C34E 3E 5
                                E 9E15E24E31E36
  21977430.325   115492127.401    21977433.452    89993852.965                  
  22198112.794   116651866.743    22198113.795    90897557.337                  
  21190307.654   111355812.550    21190309.048    86770763.481                  
  20282232.676   106583854.368    20282233.534    83052356.390                  
  20297990.617   106666616.081    20297993.798    83116832.477                  
  23740850.992   124758956.925    23740855.227    97214757.122                  
                 119713872.331                   119713872.331    22989791.601  
                 130664932.558                   130664932.558    25092827.095  
                 115424332.835                   115424332.835    22166024.514  
                 133267895.355                   133267895.355    25592702.148  
  25923221.713   136227416.792                                                  
  23500846.587   123497770.841                                                  
  23757647.141   124847257.372                                                  
  25726012.904   135191064.595                                                  
  27205670.717   142966768.266                                                  
  26983436.358   141798865.878                                                  
  26458169.156   139038536.602                                                  
 21  8 31 20 51 27.0000000  0 17G10G15G18G23G24G32C19C21C22C34E 3E 5
                                E 9E15E24E31E36
  21976963.265   115489672.902    21976966.374    89991940.367                  
  22198643.415   116654655.211    22198644.416    90899730.167                  
  21190767.764   111358230.336    21190769.122    86772647.466                  
  20282109.041   106583204.660    20282109.898    83051850.129                  
  20297982.648   106666574.215    20297985.846    83116799.856                  
  23740338.705   124756264.801    23740342.922    97212659.362                  
                 119715595.052                   119715595.052    22990122.446  
                 130662591.406                   130662591.406    25092377.528  
                 115423748.538                   115423748.538    22165912.315  
                 133267403.671                   133267403.671    25592607.728  
  25922876.823   136225604.432                                                  
  23500856.862   123497824.797                                                  
  23758002.002   124849122.184                                                  
  25725718.458   135189517.345                                                  
  27205197.581   142964281.843                                                  
  26983299.321   141798145.771                                                  
  26458764.087   139041662.978                                                  
 21  8 31 20 51 28.0000000  0 17G10G15G18G23G24G32C19C21C22C34E 3E 5
                                E 9E15E24E31E36
  21976496.204   115487218.582    21976499.331    89990027.910                  
  22199174.071   116657443.841    22199175.072    90901903.125                  
  21191227.945   111360648.621    21191229.303    86774531.844                  
  20281985.476   106582555.364    20281986.334    83051344.179                  
  20297974.821   106666533.074    20297978.002    83116767.801                  
  23739826.436   124753572.843    23739830.653    97210561.738                  
                 119717317.938                   119717317.938    22990453.291  
                 130660250.304                   130660250.304    25091927.926  
                 115423164.457                   115423164.457    22165800.133  
                 133266912.522                   133266912.522    25592513.398  
  25922531.951   136223792.199                                                  
  23500867.155   123497878.928                                                  
  23758356.863   124850987.035                                                  
  25725424.102   135187970.503                                                  
  27204724.463   142961795.590                                                  
  26983162.373   141797426.085                                                  
  26459359.036   139044789.477                                                  
 21  8 31 20 51 29.0000000  0 17G10G15G18G23G24G32C19C21C22C34E 3E 5
                                E 9E15E24E31E36
  21976029.197   115484764.442    21976032.324    89988115.594                  
  22199704.764   116660232.617    22199705.782    90904076.196                  
  21191688.215   111363067.434    21191689.609    86776416.633                  
  20281862.001   106581906.466    20281862.859    83050838.546                  
  20297967.119   106666492.655    20297970.318    83116736.305                  
  23739314.220   124750881.062    23739318.420    97208464.250                  
                 119719040.988                   119719040.988    22990784.172  
                 130657909.245                   130657909.245    25091478.359  
                 115422580.585                   115422580.585    22165688.023  
                 133266421.914                   133266421.914    25592419.174  
  25922187.133   136221980.101                                                  
  23500877.483   123497933.245                                                  
  23758711.742   124852851.953                                                  
  25725129.835   135186424.105                                                  
  27204251.362   142959309.493                                                  
  26983025.496   141796706.864                                                  
  26459954.003   139047916.079                                                  
 21  8 31 20 51 30.0000000  0 17G10G15G18G23G24G32C19C21C22C34E 3E 5
                                E 9E15E24E31E36
  21975562.226   115482310.456    21975565.335    89986203.398                  
  22200235.474   116663021.555    22200236.474    90906249.394                  
  21192148.593   111365486.755    21192149.986    86778301.813                  
  20281738.580   106581257.965    20281739.456    83050333.223                  
  20297959.561   106666452.949    20297962.759    83116705.363                  
  23738802.023   124748189.445    23738806.222    97206366.887                  
                 119720764.206                   119720764.206    22991115.124  
                 130655568.230                   130655568.230    25091028.774  
                 115421996.926                   115421996.926    22165575.948  
                 133265931.835                   133265931.835    25592325.058  
  25921842.314   136220168.117                                                  
  23500887.865   123497987.735                                                  
  23759066.638   124854716.919                                                  
  25724835.639   135184878.108                                                  
  27203778.298   142956823.564                                                  
  26982888.726   141795988.085                                                  
  26460549.006   139051042.804                                                  
 21  8 31 20 51 31.0000000  0 17G10G15G18G23G24G32C19C21C22C34E 3E 5
                                E 9E15E24E31E36
  21975095.273   115479856.656    21975098.400    89984291.348                  
  22200766.219   116665810.628    22200767.220    90908422.700                  
  21192609.077   111367906.589    21192610.453    86780187.403                  
  20281615.266   106580609.859    20281616.124    83049828.206                  
  20297952.145   106666413.938    20297955.344    83116674.965                  
  23738289.843   124745498.007    23738294.060    97204269.665                  
                 119722487.590                   119722487.590    22991446.076  
                 130653227.265                   130653227.265    25090579.226  
                 115421413.475                   115421413.475    22165463.892  
                 133265442.298                   133265442.298    25592231.067  
  25921497.531   136218356.263                                                  
  23500898.265   123498042.406                                                  
  23759421.535   124856581.937                                                  
  25724541.515   135183332.529                                                  
  27203305.287   142954337.810                                                  
  26982752.028   141795269.738                                                  
  26461144.026   139054169.659                                                  
 21  8 31 20 51 32.0000000  0 17G10G15G18G23G24G32C19C21C22C34E 3E 5
                                E 9E15E24E31E36
  21974628.355   115477403.029    21974631.482    89982379.431                  
  22201297.001   116668599.874    22201298.001    90910596.136                  
  21193069.651   111370326.943    21193071.027    86782073.391                  
  20281492.005   106579962.168    20281492.881    83049323.511                  
  20297944.855   106666375.655    20297948.035    83116645.137                  
  23737777.699   124742806.731    23737781.916    97202172.571                  
                 119724211.140                   119724211.140    22991777.064  
                 130650886.343                   130650886.343    25090129.677  
                 115420830.243                   115420830.243    22165351.889  
                 133264953.289                   133264953.289    25592137.148  
  25921152.784   136216544.534                                                  
  23500908.700   123498097.245                                                  
  23759776.432   124858447.007                                                  
  25724247.480   135181787.374                                                  
  27202832.276   142951852.206                                                  
  26982615.420   141794551.852                                                  
  26461739.065   139057296.633                                                  
 21  8 31 20 51 33.0000000  0 17G10G15G18G23G24G32C19C21C22C34E 3E 5
                                E 9E15E24E31E36
  21974161.473   115474949.574    21974164.600    89980467.657                  
  22201827.800   116671389.270    22201828.801    90912769.696                  
  21193530.315   111372747.798    21193531.709    86783959.778                  
  20281368.816   106579314.870    20281369.692    83048819.130                  
  20297937.707   106666338.074    20297940.906    83116615.860                  
  23737265.608   124740115.624    23737269.826    97200075.609                  
                 119725934.858                   119725934.858    22992108.088  
                 130648545.465                   130648545.465    25089680.146  
                 115420247.218                   115420247.218    22165239.921  
                 133264464.821                   133264464.821    25592043.335  
  25920808.037   136214732.947                                                  
  23500919.154   123498152.269                                                  
  23760131.364   124860312.137                                                  
  25723953.535   135180242.636                                                  
  27202359.319   142949366.766                                                  
  26982478.883   141793834.403                                                  
  26462334.139   139060423.725                                                  
 21  8 31 20 51 34.0000000  0 17G10G15G18G23G24G32C19C21C22C34E 3E 5
                                E 9E15E24E31E36
  21973694.645   115472496.290    21973697.754    89978556.008                  
  22202358.635   116674178.815    22202359.636    90914943.372                  
  21193991.103   111375169.173    21193992.479    86785846.566                  
  20281245.717   106578667.974    20281246.592    83048315.055                  
  20297930.685   106666301.211    20297933.883    83116587.138                  
  23736753.536   124737424.700    23736757.735    97197978.789                  
                 119727658.739                   119727658.739    22992439.147  
                 130646204.636                   130646204.636    25089230.597  
                 115419664.410                   115419664.410    22165128.008  
                 133263976.885                   133263976.885    25591949.648  
  25920463.326   136212921.462                                                  
  23500929.661   123498207.466                                                  
  23760486.297   124862177.316                                                  
  25723659.661   135178698.321                                                  
  27201886.379   142946881.509                                                  
  26982342.435   141793117.400                                                  
  26462929.213   139063550.938                                                  
 21  8 31 20 51 35.0000000  0 17G10G15G18G23G24G32C19C21C22C34E 3E 5
                                E 9E15E24E31E36
  21973227.817   115470043.180    21973230.944    89976644.497                  
  22202889.506   116676968.516    22202890.507    90917117.167                  
  21194451.981   111377591.067    21194453.339    86787733.759                  
  20281122.706   106578021.468    20281123.564    83047811.293                  
  20297923.805   106666265.044    20297927.004    83116558.960                  
  23736241.499   124734733.931    23736245.698    97195882.093                  
                 119729382.789                   119729382.789    22992770.225  
                 130643863.851                   130643863.851    25088781.084  
                 115419081.812                   115419081.812    22165016.112  
                 133263489.488                   133263489.488    25591856.032  
  25920118.615   136211110.109                                                  
  23500940.203   123498262.839                                                  
  23760841.247   124864042.546                                                  
  25723365.858   135177154.423                                                  
  27201413.476   142944396.406                                                  
  26982206.076   141792400.837                                                  
  26463524.323   139066678.262                                                  
 21  8 31 20 51 36.0000000  0 17G10G15G18G23G24G32C19C21C22C34E 3E 5
                                E 9E15E24E31E36
  21972761.042   115467590.239    21972764.151    89974733.117                  
  22203420.395   116679758.378    22203421.395    90919291.091                  
  21194912.948   111380013.472    21194914.324    86789621.351                  
  20280999.767   106577375.375    20281000.625    83047307.845                  
  20297917.068   106666229.596    20297920.231    83116531.341                  
  23735729.498   124732043.347    23735733.697    97193785.539                  
                 119731107.004                   119731107.004    22993101.338  
                 130641523.109                   130641523.109    25088331.553  
                 115418499.426                   115418499.426    22164904.287  
                 133263002.625                   133263002.625    25591762.541  
  25919773.957   136209298.888                                                  
  23500950.764   123498318.383                                                  
  23761196.179   124865907.828                                                  
  25723072.145   135175610.938                                                  
  27200940.608   142941911.468                                                  
  26982069.825   141791684.726                                                  
  26464119.469   139069805.712                                                  
 21  8 31 20 51 37.0000000  0 17G10G15G18G23G24G32C19C21C22C34E 3E 5
                                E 9E15E24E31E36
  21972294.303   115465137.477    21972297.413    89972821.883                  
  22203951.319   116682548.379    22203952.320    90921465.121                  
  21195374.005   111382436.393    21195375.381    86791509.344                  
  20280876.882   106576729.676    20280877.740    83046804.707                  
  20297910.439   106666194.855    20297913.638    83116504.274                  
  23735217.515   124729352.930    23735221.714    97191689.117                  
                 119732831.383                   119732831.383    22993432.504  
                 130639182.417                   130639182.417    25087882.057  
                 115417917.255                   115417917.255    22164792.481  
                 133262516.297                   133262516.297    25591669.140  
  25919429.317   136207487.782                                                  
  23500961.360   123498374.105                                                  
  23761551.165   124867773.169                                                  
  25722778.504   135174067.867                                                  
  27200467.775   142939426.698                                                  
  26981933.627   141790969.058                                                  
  26464714.614   139072933.276                                                  
 21  8 31 20 51 38.0000000  0 17G10G15G18G23G24G32C19C21C22C34E 3E 5
                                E 9E15E24E31E36
  21971827.600   115462684.898    21971830.692    89970910.785                  
  22204482.261   116685338.546    22204483.262    90923639.282                  
  21195835.186   111384859.828    21195836.545    86793397.737                  
  20280754.086   106576084.391    20280754.944    83046301.890                  
  20297903.988   106666160.851    20297907.169    83116477.784                  
  23734705.603   124726662.684    23734709.784    97189592.828                  
                 119734555.930                   119734555.930    22993763.689  
                 130636841.768                   130636841.768    25087432.562  
                 115417335.294                   115417335.294    22164680.728  
                 133262030.504                   133262030.504    25591575.864  
  25919084.695   136205676.813                                                  
  23500971.992   123498430.035                                                  
  23761906.116   124869638.562                                                  
  25722484.933   135172525.231                                                  
  27199994.961   142936942.100                                                  
  26981797.519   141790253.844                                                  
  26465309.796   139076060.961                                                  
 21  8 31 20 51 39.0000000  0 17G10G15G18G23G24G32C19C21C22C34E 3E 5
                                E 9E15E24E31E36
  21971360.915   115460232.476    21971364.024    89968999.812                  
  22205013.239   116688128.866    22205014.240    90925813.558                  
  21196296.440   111387283.776    21196297.798    86795286.535                  
  20280631.362   106575439.499    20280632.219    83045799.386                  
  20297897.645   106666127.548    20297900.825    83116451.831                  
  23734193.673   124723972.604    23734197.872    97187496.665                  
                 119736280.645                   119736280.645    22994094.873  
                 130634501.169                   130634501.169    25086983.085  
                 115416753.548                   115416753.548    22164568.993  
                 133261545.250                   133261545.250    25591482.659  
  25918740.109   136203865.962                                                  
  23500982.678   123498486.113                                                  
  23762261.102   124871504.009                                                  
  25722191.453   135170982.996                                                  
  27199522.182   142934457.667                                                  
  26981661.500   141789539.063                                                  
  26465904.995   139079188.757                                                  
 21  8 31 20 51 40.0000000  0 17G10G15G18G23G24G32C19C21C22C34E 3E 5
                                E 9E15E24E31E36
  21970894.265   115457780.246    21970897.375    89967088.987                  
  22205544.253   116690919.336    22205545.254    90927987.954                  
  21196757.800   111389708.241    21196759.158    86797175.731                  
  20280508.727   106574795.018    20280509.584    83045297.195                  
  20297891.444   106666094.964    20297894.625    83116426.448                  
  23733681.815   124721282.704    23733685.996    97185400.645                  
                 119738005.524                   119738005.524    22994426.147  
                 130632160.611                   130632160.611    25086533.607  
                 115416172.011                   115416172.011    22164457.312  
                 133261060.527                   133261060.527    25591389.579  
  25918395.523   136202055.237                                                  
  23500993.381   123498542.387                                                  
  23762616.105   124873369.508                                                  
  25721898.079   135169441.211                                                  
  27199049.440   142931973.398                                                  
  26981525.552   141788824.730                                                  
  26466500.212   139082316.680                                                  
 21  8 31 20 51 41.0000000  0 17G10G15G18G23G24G32C19C21C22C34E 3E 5
                                E 9E15E24E31E36
  21970427.652   115455328.183    21970430.761    89965178.293                  
  22206075.303   116693709.964    22206076.303    90930162.472                  
  21197219.267   111392133.219    21197220.625    86799065.324                  
  20280386.163   106574150.930    20280387.021    83044795.313                  
  20297885.369   106666063.078    20297888.567    83116401.609                  
  23733169.975   124718592.965    23733174.156    97183304.754                  
                 119739730.571                   119739730.571    22994757.421  
                 130629820.099                   130629820.099    25086084.112  
                 115415590.689                   115415590.689    22164345.684  
                 133260576.340                   133260576.340    25591296.607  
  25918050.972   136200244.645                                                  
  23501004.121   123498598.819                                                  
  23762971.091   124875235.057                                                  
  25721604.759   135167899.812                                                  
  27198576.732   142929489.294                                                  
  26981389.712   141788110.837                                                  
  26467095.465   139085444.714                                                  
 21  8 31 20 51 42.0000000  0 17G10G15G18G23G24G32C19C21C22C34E 3E 5
                                E 9E15E24E31E36
  21969961.074   115452876.298    21969964.183    89963267.739                  
  22206606.352   116696500.739    22206607.353    90932337.102                  
  21197680.824   111394558.714    21197682.182    86800955.329                  
  20280263.689   106573507.250    20280264.546    83044293.746                  
  20297879.436   106666031.911    20297882.617    83116377.323                  
  23732658.152   124715903.414    23732662.352    97181209.004                  
                 119741455.781                   119741455.781    22995088.713  
                 130627479.633                   130627479.633    25085634.652  
                 115415009.579                   115415009.579    22164234.092  
                 133260092.693                   133260092.693    25591203.723  
  25917706.457   136198434.169                                                  
  23501014.896   123498655.433                                                  
  23763326.095   124877100.668                                                  
  25721311.528   135166358.848                                                  
  27198104.061   142927005.368                                                  
  26981253.943   141787397.394                                                  
  26467690.736   139088572.880                                                  
 21  8 31 20 51 43.0000000  0 17G10G15G18G23G24G32C19C21C22C34E 3E 5
                                E 9E15E24E31E36
  21969494.513   115450424.587    21969497.640    89961357.317                  
  22207137.455   116699291.675    22207138.456    90934511.864                  
  21198142.453   111396984.725    21198143.846    86802845.730                  
  20280141.268   106572863.966    20280142.126    83043792.493                  
  20297873.647   106666001.458    20297876.827    83116353.602                  
  23732146.384   124713214.024    23732150.583    97179113.378                  
                 119743181.157                   119743181.157    22995420.058  
                 130625139.215                   130625139.215    25085185.193  
                 115414428.679                   115414428.679    22164122.536  
                 133259609.578                   133259609.578    25591110.947  
  25917361.960   136196623.832                                                  
  23501025.707   123498712.235                                                  
  23763681.117   124878966.320                                                  
  25721018.351   135164818.313                                                  
  27197631.407   142924521.587                                                  
  26981118.264   141786684.405                                                  
  26468286.025   139091701.160                                                  
 21  8 31 20 51 44.0000000  0 17G10G15G18G23G24G32C19C21C22C34E 3E 5
                                E 9E15E24E31E36
  21969028.025   115447973.043    21969031.116    89959447.032                  
  22207668.576   116702082.758    22207669.577    90936686.734                  
  21198604.224   111399411.241    21198605.582    86804736.524                  
  20280018.919   106572221.090    20280019.777    83043291.555                  
  20297867.982   106665971.720    20297871.163    83116330.430                  
  23731634.633   124710524.802    23731638.832    97177017.887                  
                 119744906.704                   119744906.704    22995751.439  
                 130622798.839                   130622798.839    25084735.751  
                 115413847.997                   115413847.997    22164011.015  
                 133259127.001                   133259127.001    25591018.261  
  25917017.481   136194813.614                                                  
  23501036.535   123498769.199                                                  
  23764036.157   124880832.039                                                  
  25720725.281   135163278.179                                                  
  27197158.772   142922037.984                                                  
  26980982.656   141785971.845                                                  
  26468881.331   139094829.555                                                  
 21  8 31 20 51 45.0000000  0 17G10G15G18G23G24G32C19C21C22C34E 3E 5
                                E 9E15E24E31E36
  21968561.536   115445521.684    21968564.645    89957536.882                  
  22208199.733   116704874.000    22208200.734    90938861.734                  
  21199066.067   111401838.273    21199067.443    86806627.718                  
  20279896.659   106571578.613    20279897.517    83042790.926                  
  20297862.461   106665942.683    20297865.641    83116307.809                  
  23731122.935   124707835.761    23731127.117    97174922.540                  
                 119746632.411                   119746632.411    22996082.838  
                 130620458.511                   130620458.511    25084286.327  
                 115413267.525                   115413267.525    22163899.548  
                 133258644.957                   133258644.957    25590925.699  
  25916673.038   136193003.526                                                  
  23501047.400   123498826.347                                                  
  23764391.196   124882697.809                                                  
  25720432.283   135161738.483                                                  
  27196686.208   142919554.546                                                  
  26980847.155   141785259.745                                                  
  26469476.673   139097958.073                                                  
 21  8 31 20 51 46.0000000  0 17G10G15G18G23G24G32C19C21C22C34E 3E 5
                                E 9E15E24E31E36
  21968095.101   115443070.496    21968098.192    89955626.872                  
  22208730.943   116707665.400    22208731.926    90941036.851                  
  21199528.017   111404265.819    21199529.375    86808519.321                  
  20279774.489   106570936.544    20279775.346    83042290.613                  
  20297857.082   106665914.363    20297860.245    83116285.745                  
  23730611.256   124705146.885    23730615.437    97172827.316                  
                 119748358.290                   119748358.290    22996414.272  
                 130618118.231                   130618118.231    25083836.904  
                 115412687.264                   115412687.264    22163788.117  
                 133258163.450                   133258163.450    25590833.227  
  25916328.595   136191193.558                                                  
  23501058.318   123498883.675                                                  
  23764746.254   124884563.628                                                  
  25720139.356   135160199.195                                                  
  27196213.643   142917071.280                                                  
  26980711.743   141784548.085                                                  
  26470072.033   139101086.706                                                  
 21  8 31 20 51 47.0000000  0 17G10G15G18G23G24G32C19C21C22C34E 3E 5
                                E 9E15E24E31E36
  21967628.684   115440619.486    21967631.775    89953717.001                  
  22209262.136   116710456.929    22209263.136    90943212.075                  
  21199990.056   111406693.888    21199991.414    86810411.320                  
  20279652.372   106570294.871    20279653.247    83041790.612                  
  20297851.829   106665886.765    20297854.991    83116264.247                  
  23730099.612   124702458.182    23730103.793    97170732.225                  
                 119750084.329                   119750084.329    22996745.743  
                 130615777.993                   130615777.993    25083387.480  
                 115412107.219                   115412107.219    22163676.721  
                 133257682.476                   133257682.476    25590740.862  
  25915984.205   136189383.708                                                  
  23501069.253   123498941.187                                                  
  23765101.311   124886429.500                                                  
  25719846.519   135158660.323                                                  
  27195741.115   142914588.171                                                  
  26980576.403   141783836.866                                                  
  26470667.411   139104215.453                                                  
 21  8 31 20 51 48.0000000  0 17G10G15G18G23G24G32C19C21C22C34E 3E 5
                                E 9E15E24E31E36
  21967162.302   115438168.640    21967165.393    89951807.253                  
  22209793.382   116713248.625    22209794.382    90945387.425                  
  21200452.202   111409122.469    21200453.561    86812303.726                  
  20279530.344   106569653.597    20279531.202    83041290.925                  
  20297846.700   106665859.859    20297849.881    83116243.286                  
  23729588.004   124699769.649    23729592.185    97168637.269                  
                 119751810.539                   119751810.539    22997077.249  
                 130613437.801                   130613437.801    25082938.056  
                 115411527.383                   115411527.383    22163565.379  
                 133257202.042                   133257202.042    25590648.604  
  25915639.816   136187573.981                                                  
  23501080.243   123498998.855                                                  
  23765456.405   124888295.422                                                  
  25719553.752   135157121.868                                                  
  27195268.640   142912105.234                                                  
  26980441.135   141783126.093                                                  
  26471262.825   139107344.311                                                  
 21  8 31 20 51 49.0000000  0 17G10G15G18G23G24G32C19C21C22C34E 3E 5
                                E 9E15E24E31E36
  21966695.956   115435717.977    21966699.066    89949897.652                  
  22210324.663   116716040.468    22210325.646    90947562.890                  
  21200914.438   111411551.556    21200915.796    86814196.523                  
  20279408.406   106569012.734    20279409.246    83040791.558                  
  20297841.715   106665833.683    20297844.895    83116222.890                  
  23729076.414   124697081.293    23729080.595    97166542.457                  
                 119753536.909                   119753536.909    22997408.773  
                 130611097.655                   130611097.655    25082488.668  
                 115410947.763                   115410947.763    22163454.055  
                 133256722.141                   133256722.141    25590556.436  
  25915295.462   136185764.374                                                  
  23501091.232   123499056.707                                                  
  23765811.480   124890161.390                                                  
  25719261.076   135155583.824                                                  
  27194796.183   142909622.453                                                  
  26980305.956   141782415.757                                                  
  26471858.239   139110473.302                                                  
 21  8 31 20 51 50.0000000  0 17G10G15G18G23G24G32C19C21C22C34E 3E 5
                                E 9E15E24E31E36
  21966229.646   115433267.489    21966232.738    89947988.184                  
  22210855.963   116718832.475    22210856.946    90949738.485                  
  21201376.781   111413981.153    21201378.140    86816089.718                  
  20279286.521   106568372.271    20279287.361    83040292.496                  
  20297836.872   106665808.218    20297840.035    83116203.056                  
  23728564.877   124694393.097    23728569.059    97164447.767                  
                 119755263.454                   119755263.454    22997740.333  
                 130608757.553                   130608757.553    25082039.280  
                 115410368.354                   115410368.354    22163342.803  
                 133256242.777                   133256242.777    25590464.375  
  25914951.143   136183954.914                                                  
  23501102.275   123499114.727                                                  
  23766166.555   124892027.421                                                  
  25718968.488   135154046.226                                                  
  27194323.762   142907139.851                                                  
  26980170.884   141781705.884                                                  
  26472453.706   139113602.401                                                  
 21  8 31 20 51 51.0000000  0 17G10G15G18G23G24G32C19C21C22C34E 3E 5
                                E 9E15E24E31E36
  21965763.354   115430817.172    21965766.463    89946078.853                  
  22211387.281   116721624.632    22211388.281    90951914.191                  
  21201839.214   111416411.270    21201840.572    86817983.320                  
  20279164.726   106567732.206    20279165.566    83039793.751                  
  20297832.155   106665783.460    20297835.335    83116183.766                  
  23728053.359   124691705.087    23728057.540    97162353.215                  
                 119756990.118                   119756990.118    22998071.946  
                 130606417.501                   130606417.501    25081589.874  
                 115409789.155                   115409789.155    22163231.568  
                 133255763.919                   133255763.919    25590372.421  
  25914606.825   136182145.565                                                  
  23501113.354   123499172.947                                                  
  23766521.684   124893893.507                                                  
  25718675.955   135152509.027                                                  
  27193851.359   142904657.407                                                  
  26980035.883   141780996.440                                                  
  26473049.156   139116731.624                                                  
 21  8 31 20 51 52.0000000  0 17G10G15G18G23G24G32C19C21C22C34E 3E 5
                                E 9E15E24E31E36
  21965297.116   115428367.043    21965300.225    89944169.663                  
  22211918.634   116724416.942    22211919.635    90954090.024                  
  21202301.754   111418841.903    21202303.112    86819877.324                  
  20279043.002   106567092.555    20279043.842    83039295.323                  
  20297827.580   106665759.410    20297830.761    83116165.028                  
  23727541.876   124689017.235    23727546.057    97160258.790                  
                 119758716.991                   119758716.991    22998403.559  
                 130604077.492                   130604077.492    25081140.522  
                 115409210.171                   115409210.171    22163120.387  
                 133255285.626                   133255285.626    25590280.556  
  25914262.543   136180336.349                                                  
  23501124.487   123499231.333                                                  
  23766876.777   124895759.640                                                  
  25718383.546   135150972.259                                                  
  27193379.009   142902175.128                                                  
  26979900.954   141780287.454                                                  
  26473644.659   139119860.958                                                  
 21  8 31 20 51 53.0000000  0 17G10G15G18G23G24G32C19C21C22C34E 3E 5
                                E 9E15E24E31E36
  21964830.895   115425917.078    21964834.004    89942260.602                  
  22212450.041   116727209.407    22212451.024    90956265.964                  
  21202764.383   111421273.043    21202765.741    86821771.719                  
  20278921.332   106566453.300    20278922.208    83038797.203                  
  20297823.149   106665736.069    20297826.312    83116146.840                  
  23727030.447   124686329.570    23727034.628    97158164.508                  
                 119760444.030                   119760444.030    22998735.226  
                 130601737.527                   130601737.527    25080691.134  
                 115408631.403                   115408631.403    22163009.224  
                 133254807.867                   133254807.867    25590188.816  
  25913918.278   136178527.253                                                  
  23501135.619   123499289.893                                                  
  23767231.924   124897625.829                                                  
  25718091.173   135149435.905                                                  
  27192906.677   142899693.034                                                  
  26979766.115   141779578.902                                                  
  26474240.180   139122990.403                                                  
 21  8 31 20 51 54.0000000  0 17G10G15G18G23G24G32C19C21C22C34E 3E 5
                                E 9E15E24E31E36
  21964364.728   115423467.294    21964367.819    89940351.680                  
  22212981.466   116730002.028    22212982.448    90958442.034                  
  21203227.119   111423704.700    21203228.477    86823666.512                  
  20278799.787   106565814.444    20278800.627    83038299.391                  
  20297818.842   106665713.462    20297822.023    83116129.227                  
  23726519.017   124683642.059    23726523.199    97156070.343                  
                 119762171.235                   119762171.235    22999066.929  
                 130599397.614                   130599397.614    25080241.799  
                 115408052.843                   115408052.843    22162898.114  
                 133254330.644                   133254330.644    25590097.184  
  25913574.031   136176718.294                                                  
  23501146.805   123499348.638                                                  
  23767587.035   124899492.068                                                  
  25717798.907   135147899.962                                                  
  27192434.381   142897211.098                                                  
  26979631.382   141778870.790                                                  
  26474835.718   139126119.989                                                  
 21  8 31 20 51 55.0000000  0 17G10G15G18G23G24G32C19C21C22C34E 3E 5
                                E 9E15E24E31E36
  21963898.579   115421017.687    21963901.688    89938442.895                  
  22213512.908   116732794.798    22213513.909    90960618.219                  
  21203689.944   111426136.871    21203691.302    86825561.710                  
  20278678.278   106565175.996    20278679.135    83037801.903                  
  20297814.679   106665691.553    20297817.842    83116112.157                  
  23726007.642   124680954.738    23726011.823    97153976.329                  
                 119763898.605                   119763898.605    22999398.631  
                 130597057.742                   130597057.742    25079792.447  
                 115407474.499                   115407474.499    22162787.058  
                 133253853.961                   133253853.961    25590005.641  
  25913229.838   136174909.444                                                  
  23501158.009   123499407.559                                                  
  23767942.200   124901358.362                                                  
  25717506.695   135146364.462                                                  
  27191962.103   142894729.329                                                  
  26979496.721   141778163.145                                                  
  26475431.275   139129249.678                                                  
 21  8 31 20 51 56.0000000  0 17G10G15G18G23G24G32C19C21C22C34E 3E 5
                                E 9E15E24E31E36
  21963432.465   115418568.253    21963435.556    89936534.245                  
  22214044.386   116735587.715    22214045.351    90962794.516                  
  21204152.859   111428569.552    21204154.217    86827457.304                  
  20278556.875   106564537.950    20278557.715    83037304.722                  
  20297810.640   106665670.367    20297813.821    83116095.644                  
  23725496.284   124678267.575    23725500.465    97151882.439                  
                 119765626.144                   119765626.144    22999730.406  
                 130594717.919                   130594717.919    25079343.095  
                 115406896.367                   115406896.367    22162676.038  
                 133253377.808                   133253377.808    25589914.205  
  25912885.645   136173100.730                                                  
  23501169.266   123499466.650                                                  
  23768297.347   124903224.710                                                  
  25717214.572   135144829.355                                                  
  27191489.878   142892247.731                                                  
  26979362.132   141777455.928                                                  
  26476026.867   139132379.485                                                  
 21  8 31 20 51 57.0000000  0 17G10G15G18G23G24G32C19C21C22C34E 3E 5
                                E 9E15E24E31E36
  21962966.387   115416118.992    21962969.497    89934625.730                  
  22214575.883   116738380.808    22214576.866    90964970.956                  
  21204615.881   111431002.747    21204617.239    86829353.304                  
  20278435.545   106563900.309    20278436.385    83036807.859                  
  20297806.745   106665649.887    20297809.926    83116079.683                  
  23724984.962   124675580.574    23724989.143    97149788.667                  
                 119767353.863                   119767353.863    23000062.180  
                 130592378.128                   130592378.128    25078893.778  
                 115406318.448                   115406318.448    22162565.036  
                 133252902.192                   133252902.192    25589822.859  
  25912541.488   136171292.126                                                  
  23501180.542   123499525.923                                                  
  23768652.494   124905091.122                                                  
  25716922.539   135143294.703                                                  
  27191017.653   142889766.355                                                  
  26979227.632   141776749.208                                                  
  26476622.460   139135509.438                                                  
 21  8 31 20 51 58.0000000  0 17G10G15G18G23G24G32C19C21C22C34E 3E 5
                                E 9E15E24E31E36
  21962500.345   115413669.911    21962503.437    89932717.352                  
  22215107.415   116741174.039    22215108.397    90967147.500                  
  21205078.993   111433436.461    21205080.369    86831249.703                  
  20278314.268   106563263.067    20278315.125    83036311.305                  
  20297802.975   106665630.124    20297806.155    83116064.285                  
  23724473.675   124672893.758    23724477.857    97147695.046                  
                 119769081.734                   119769081.734    23000394.008  
                 130590038.398                   130590038.398    25078444.461  
                 115405740.743                   115405740.743    22162454.105  
                 133252427.115                   133252427.115    25589731.620  
  25912197.348   136169483.655                                                  
  23501191.835   123499585.372                                                  
  23769007.676   124906957.577                                                  
  25716630.577   135141760.453                                                  
  27190545.500   142887285.088                                                  
  26979093.239   141776042.895                                                  
  26477218.106   139138639.479                                                  
 21  8 31 20 51 59.0000000  0 17G10G15G18G23G24G32C19C21C22C34E 3E 5
                                E 9E15E24E31E36
  21962034.339   115411220.999    21962037.448    89930809.114                  
  22215638.982   116743967.417    22215639.965    90969324.156                  
  21205542.212   111435870.671    21205543.587    86833146.492                  
  20278193.080   106562626.221    20278193.920    83035815.066                  
  20297799.365   106665611.058    20297802.528    83116049.429                  
  23723962.443   124670207.109    23723966.606    97145601.558                  
                 119770809.770                   119770809.770    23000725.835  
                 130587698.712                   130587698.712    25077995.145  
                 115405163.251                   115405163.251    22162343.192  
                 133251952.569                   133251952.569    25589640.488  
  25911853.244   136167675.316                                                  
  23501203.182   123499644.997                                                  
  23769362.859   124908824.083                                                  
  25716338.704   135140226.602                                                  
  27190073.365   142884803.995                                                  
  26978958.899   141775337.016                                                  
  26477813.734   139141769.632                                                  
 21  8 31 20 52  0.0000000  0 17G10G15G18G23G24G32C19C21C22C34E 3E 5
                                E 9E15E24E31E36
  21961568.369   115408772.266    21961571.460    89928901.008                  
  22216170.586   116746760.953    22216171.569    90971500.937                  
  21206005.537   111438305.406    21206006.895    86835043.684                  
  20278071.982   106561989.792    20278072.821    83035319.145                  
  20297795.863   106665592.712    20297799.043    83116035.134                  
  23723451.228   124667520.639    23723455.373    97143508.203                  
                 119772537.970                   119772537.970    23001057.717  
                 130585359.070                   130585359.070    25077545.846  
                 115404585.968                   115404585.968    22162232.332  
                 133251478.562                   133251478.562    25589549.463  
  25911509.141   136165867.097                                                  
  23501214.564   123499704.789                                                  
  23769718.059   124910690.648                                                  
  25716046.903   135138693.189                                                  
  27189601.247   142882323.062                                                  
  26978824.667   141774631.592                                                  
  26478409.416   139144899.922                                                  
 21  8 31 20 52  1.0000000  0 17G10G15G18G23G24G32C19C21C22C34E 3E 5
                                E 9E15E24E31E36
  21961102.398   115406323.719    21961105.507    89926993.051                  
  22216702.207   116749554.633    22216703.172    90973677.833                  
  21206468.953   111440740.652    21206470.329    86836941.278                  
  20277950.937   106561353.757    20277951.777    83034823.535                  
  20297792.503   106665575.085    20297795.684    83116021.398                  
  23722940.013   124664834.340    23722944.194    97141414.984                  
                 119774266.340                   119774266.340    23001389.634  
                 130583019.474                   130583019.474    25077096.547  
                 115404008.898                   115404008.898    22162121.527  
                 133251005.089                   133251005.089    25589458.545  
  25911165.055   136164059.010                                                  
  23501225.983   123499764.778                                                  
  23770073.260   124912557.262                                                  
  25715755.173   135137160.200                                                  
  27189129.183   142879842.300                                                  
  26978690.525   141773926.606                                                  
  26479005.115   139148030.313                                                  
 21  8 31 20 52  2.0000000  0 17G10G15G18G23G24G32C19C21C22C34E 3E 5
                                E 9E15E24E31E36
  21960636.499   115403875.332    21960639.608    89925085.216                  
  22217233.846   116752348.481    22217234.847    90975854.852                  
  21206932.457   111443176.415    21206933.815    86838839.277                  
  20277829.981   106560718.137    20277830.839    83034328.245                  
  20297789.287   106665558.171    20297792.468    83116008.218                  
  23722428.851   124662148.210    23722433.033    97139321.899                  
                 119775994.871                   119775994.871    23001721.604  
                 130580679.925                   130580679.925    25076647.267  
                 115403432.043                   115403432.043    22162010.739  
                 133250532.152                   133250532.152    25589367.717  
  25910821.022   136162251.056                                                  
  23501237.437   123499824.946                                                  
  23770428.478   124914423.929                                                  
  25715463.533   135135627.641                                                  
  27188657.137   142877361.714                                                  
  26978556.435   141773222.065                                                  
  26479600.833   139151160.835                                                  
 21  8 31 20 52  3.0000000  0 17G10G15G18G23G24G32C19C21C22C34E 3E 5
                                E 9E15E24E31E36
  21960170.618   115401427.128    21960173.727    89923177.528                  
  22217765.521   116755142.477    22217766.522    90978031.993                  
  21207396.051   111445612.676    21207397.427    86840737.660                  
  20277709.098   106560082.903    20277709.955    83033833.257                  
  20297786.196   106665541.958    20297789.376    83115995.583                  
  23721917.744   124659462.254    23721921.925    97137228.946                  
                 119777723.573                   119777723.573    23002053.575  
                 130578340.422                   130578340.422    25076197.986  
                 115402855.402                   115402855.402    22161900.004  
                 133250059.750                   133250059.750    25589276.996  
  25910477.008   136160443.215                                                  
  23501248.926   123499885.258                                                  
  23770783.714   124916290.661                                                  
  25715171.982   135134095.471                                                  
  27188185.127   142874881.292                                                  
  26978422.453   141772517.988                                                  
  26480196.586   139154291.457                                                  
 21  8 31 20 52  4.0000000  0 17G10G15G18G23G24G32C19C21C22C34E 3E 5
                                E 9E15E24E31E36
  21959704.773   115398979.096    21959707.882    89921269.974                  
  22218297.232   116757936.621    22218298.215    90980209.245                  
  21207859.788   111448049.468    21207861.146    86842636.462                  
  20277588.303   106559448.091    20277589.161    83033338.598                  
  20297783.265   106665526.458    20297786.428    83115983.507                  
  23721406.654   124656776.476    23721410.835    97135136.137                  
                 119779452.441                   119779452.441    23002385.582  
                 130576000.965                   130576000.965    25075748.705  
                 115402278.972                   115402278.972    22161789.324  
                 133249587.888                   133249587.888    25589186.382  
  25910132.994   136158635.507                                                  
  23501260.416   123499945.769                                                  
  23771138.933   124918157.425                                                  
  25714880.503   135132563.763                                                  
  27187713.135   142872401.035                                                  
  26978288.561   141771814.340                                                  
  26480792.339   139157422.211                                                  
 21  8 31 20 52  5.0000000  0 17G10G15G18G23G24G32C19C21C22C34E 3E 5
                                E 9E15E24E31E36
  21959238.963   115396531.250    21959242.054    89919362.559                  
  22218828.978   116760730.917    22218829.961    90982386.621                  
  21208323.579   111450486.763    21208324.937    86844535.650                  
  20277467.580   106558813.669    20277468.420    83032844.241                  
  20297780.442   106665511.672    20297783.622    83115971.985                  
  23720895.600   124654090.849    23720899.781    97133043.438                  
                 119781181.472                   119781181.472    23002717.624  
                 130573661.555                   130573661.555    25075299.442  
                 115401702.753                   115401702.753    22161678.661  
                 133249116.559                   133249116.559    25589095.858  
  25909789.033   136156827.910                                                  
  23501271.977   123500006.456                                                  
  23771494.204   124920024.254                                                  
  25714589.095   135131032.453                                                  
  27187241.196   142869920.951                                                  
  26978154.758   141771111.155                                                  
  26481388.128   139160553.071                                                  
 21  8 31 20 52  6.0000000  0 17G10G15G18G23G24G32C19C21C22C34E 3E 5
                                E 9E15E24E31E36
  21958773.189   115394083.574    21958776.280    89917455.278                  
  22219360.742   116763525.387    22219361.743    90984564.130                  
  21208787.476   111452924.561    21208788.834    86846435.231                  
  20277346.928   106558179.652    20277347.786    83032350.202                  
  20297777.761   106665497.598    20297780.942    83115961.019                  
  23720384.582   124651405.429    23720388.763    97130950.910                  
                 119782910.671                   119782910.671    23003049.702  
                 130571322.186                   130571322.186    25074850.197  
                 115401126.750                   115401126.750    22161568.034  
                 133248645.761                   133248645.761    25589005.440  
  25909445.072   136155020.469                                                  
  23501283.557   123500067.328                                                  
  23771849.458   124921891.153                                                  
  25714297.794   135129501.586                                                  
  27186769.275   142867441.039                                                  
  26978021.026   141770408.384                                                  
  26481983.935   139163684.087                                                  
 21  8 31 20 52  7.0000000  0 17G10G15G18G23G24G32C19C21C22C34E 3E 5
                                E 9E15E24E31E36
  21958307.433   115391636.085    21958310.542    89915548.145                  
  22219892.542   116766319.988    22219893.525    90986741.739                  
  21209251.463   111455362.862    21209252.821    86848335.208                  
  20277226.366   106557546.040    20277227.206    83031856.481                  
  20297775.224   106665484.220    20297778.387    83115950.599                  
  23719873.599   124648720.195    23719877.780    97128858.519                  
                 119784640.037                   119784640.037    23003381.798  
                 130568982.867                   130568982.867    25074400.952  
                 115400550.961                   115400550.961    22161457.460  
                 133248175.505                   133248175.505    25588915.148  
  25909101.165   136153213.145                                                  
  23501295.171   123500128.380                                                  
  23772204.713   124923758.116                                                  
  25714006.564   135127971.148                                                  
  27186297.408   142864961.293                                                  
  26977887.383   141769706.068                                                  
  26482579.778   139166815.234                                                  
 21  8 31 20 52  8.0000000  0 17G10G15G18G23G24G32C19C21C22C34E 3E 5
                                E 9E15E24E31E36
  21957841.748   115389188.749    21957844.840    89913641.130                  
  22220424.360   116769114.742    22220425.361    90988919.469                  
  21209715.558   111457801.714    21209716.916    86850235.610                  
  20277105.857   106556912.836    20277106.697    83031363.075                  
  20297772.812   106665471.605    20297775.975    83115940.766                  
  23719362.616   124646035.036    23719366.798    97126766.188                  
                 119786369.567                   119786369.567    23003713.947  
                 130566643.593                   130566643.593    25073951.724  
                 115399975.383                   115399975.383    22161346.940  
                 133247705.780                   133247705.780    25588824.945  
  25908757.258   136151405.918                                                  
  23501306.822   123500189.586                                                  
  23772560.002   124925625.053                                                  
  25713715.389   135126441.042                                                  
  27185825.558   142862481.687                                                  
  26977753.813   141769004.253                                                  
  26483175.602   139169946.358                                                  
 21  8 31 20 52  9.0000000  0 17G10G15G18G23G24G32C19C21C22C34E 3E 5
                                E 9E15E24E31E36
  21957376.064   115386741.610    21957379.155    89911734.266                  
  22220956.214   116771909.652    22220957.197    90991097.321                  
  21210179.759   111460241.054    21210181.117    86852136.394                  
  20276985.438   106556280.025    20276986.278    83030869.976                  
  20297770.542   106665459.667    20297773.723    83115931.465                  
  23718851.705   124643350.113    23718855.887    97124674.042                  
                 119788099.267                   119788099.267    23004046.114  
                 130564304.367                   130564304.367    25073502.497  
                 115399400.019                   115399400.019    22161236.438  
                 133247236.597                   133247236.597    25588734.832  
  25908413.386   136149598.832                                                  
  23501318.508   123500250.981                                                  
  23772915.274   124927492.102                                                  
  25713424.320   135124911.425                                                  
  27185353.745   142860002.277                                                  
  26977620.349   141768302.823                                                  
  26483771.481   139173077.699                                                  
 21  8 31 20 52 10.0000000  0 17G10G15G18G23G24G32C19C21C22C34E 3E 5
                                E 9E15E24E31E36
  21956910.415   115384294.644    21956913.524    89909827.539                  
  22221488.103   116774704.720    22221489.104    90993275.294                  
  21210644.032   111462680.907    21210645.408    86854037.573                  
  20276865.108   106555647.625    20276865.948    83030377.196                  
  20297768.398   106665448.446    20297771.579    83115922.718                  
  23718340.794   124640665.363    23718344.976    97122582.027                  
                 119789829.129                   119789829.129    23004378.317  
                 130561965.187                   130561965.187    25073053.288  
                 115398824.867                   115398824.867    22161125.972  
                 133246767.946                   133246767.946    25588644.844  
  25908069.532   136147791.875                                                  
  23501330.213   123500312.563                                                  
  23773270.582   124929359.192                                                  
  25713133.323   135123382.220                                                  
  27184881.931   142857523.032                                                  
  26977486.957   141767601.854                                                  
  26484367.377   139176209.152                                                  
 21  8 31 20 52 11.0000000  0 17G10G15G18G23G24G32C19C21C22C34E 3E 5
                                E 9E15E24E31E36
  21956444.802   115381847.839    21956447.893    89907920.942                  
  22222020.028   116777499.937    22222020.993    90995453.383                  
  21211108.448   111465121.274    21211109.806    86855939.160                  
  20276744.831   106555015.630    20276745.671    83029884.735                  
  20297766.397   106665437.929    20297769.577    83115914.523                  
  23717829.937   124637980.783    23717834.118    97120490.148                  
                 119791559.158                   119791559.158    23004710.556  
                 130559626.050                   130559626.050    25072604.078  
                 115398249.928                   115398249.928    22161015.577  
                 133246299.832                   133246299.832    25588554.944  
  25907725.697   136145985.038                                                  
  23501341.988   123500374.310                                                  
  23773625.872   124931226.340                                                  
  25712842.398   135121853.437                                                  
  27184410.207   142855043.960                                                  
  26977353.636   141766901.337                                                  
  26484963.309   139179340.710                                                  
 21  8 31 20 52 12.0000000  0 17G10G15G18G23G24G32C19C21C22C34E 3E 5
                                E 9E15E24E31E36
  21955979.224   115379401.222    21955982.316    89906014.485                  
  22222551.953   116780295.307    22222552.936    90997631.594                  
  21211572.917   111467562.154    21211574.276    86857841.140                  
  20276624.644   106554384.031    20276625.502    83029392.578                  
  20297764.538   106665428.134    20297767.719    83115906.891                  
  23717319.115   124635296.367    23717323.296    97118398.398                  
                 119793289.354                   119793289.354    23005042.813  
                 130557286.960                   130557286.960    25072154.887  
                 115397675.204                   115397675.204    22160905.200  
                 133245832.251                   133245832.251    25588465.135  
  25907381.897   136144178.331                                                  
  23501353.764   123500436.241                                                  
  23773981.197   124933093.536                                                  
  25712551.561   135120325.067                                                  
  27183938.482   142852565.050                                                  
  26977220.422   141766201.256                                                  
  26485559.241   139182472.392                                                  
 21  8 31 20 52 13.0000000  0 17G10G15G18G23G24G32C19C21C22C34E 3E 5
                                E 9E15E24E31E36
  21955513.683   115376954.784    21955516.774    89904108.172                  
  22223083.914   116783090.824    22223084.915    90999809.918                  
  21212037.494   111470003.538    21212038.852    86859743.520                  
  20276504.547   106553752.843    20276505.387    83028900.745                  
  20297762.823   106665419.046    20297765.986    83115899.811                  
  23716808.311   124632612.130    23716812.492    97116306.785                  
                 119795019.714                   119795019.714    23005375.123  
                 130554947.917                   130554947.917    25071705.678  
                 115397100.693                   115397100.693    22160794.877  
                 133245365.208                   133245365.208    25588375.468  
  25907038.115   136142371.755                                                  
  23501365.575   123500498.343                                                  
  23774336.523   124934960.790                                                  
  25712260.797   135118797.132                                                  
  27183466.776   142850086.315                                                  
  26977087.298   141765501.634                                                  
  26486155.208   139185604.190                                                  
 21  8 31 20 52 14.0000000  0 17G10G15G18G23G24G32C19C21C22C34E 3E 5
                                E 9E15E24E31E36
  21955048.177   115374508.511    21955051.286    89902201.987                  
  22223615.929   116785886.497    22223616.911    91001988.362                  
  21212502.178   111472445.434    21212503.536    86861646.293                  
  20276384.503   106553122.054    20276385.342    83028409.219                  
  20297761.215   106665410.677    20297764.395    83115893.290                  
  23716297.561   124629928.057    23716301.742    97114215.309                  
                 119796750.245                   119796750.245    23005707.433  
                 130552608.923                   130552608.923    25071256.504  
                 115396526.390                   115396526.390    22160684.571  
                 133244898.699                   133244898.699    25588285.855  
  25906694.368   136140565.300                                                  
  23501377.423   123500560.621                                                  
  23774691.866   124936828.094                                                  
  25711970.121   135117269.608                                                  
  27182995.123   142847607.730                                                  
  26976954.245   141764802.458                                                  
  26486751.176   139188736.101                                                  
 21  8 31 20 52 15.0000000  0 17G10G15G18G23G24G32C19C21C22C34E 3E 5
                                E 9E15E24E31E36
  21954582.706   115372062.425    21954585.798    89900295.944                  
  22224147.961   116788682.325    22224148.944    91004166.930                  
  21212966.951   111474887.849    21212968.327    86863549.474                  
  20276264.548   106552491.672    20276265.388    83027918.015                  
  20297759.767   106665403.015    20297762.948    83115887.320                  
  23715786.846   124627244.164    23715790.992    97112123.961                  
                 119798480.936                   119798480.936    23006039.815  
                 130550269.969                   130550269.969    25070807.348  
                 115395952.306                   115395952.306    22160574.337  
                 133244432.726                   133244432.726    25588196.385  
  25906350.622   136138758.968                                                  
  23501389.323   123500623.087                                                  
  23775047.192   124938695.462                                                  
  25711679.517   135115742.512                                                  
  27182523.506   142845129.339                                                  
  26976821.282   141764103.710                                                  
  26487347.197   139191868.137                                                  
 21  8 31 20 52 16.0000000  0 17G10G15G18G23G24G32C19C21C22C34E 3E 5
                                E 9E15E24E31E36
  21954117.254   115369616.524    21954120.363    89898390.047                  
  22224680.011   116791478.306    22224680.994    91006345.613                  
  21213431.814   111477330.774    21213433.172    86865453.052                  
  20276144.665   106551861.696    20276145.504    83027427.122                  
  20297758.445   106665396.066    20297761.626    83115881.905                  
  23715276.132   124624560.438    23715280.295    97110032.746                  
                 119800211.802                   119800211.802    23006372.196  
                 130547931.062                   130547931.062    25070358.157  
                 115395378.431                   115395378.431    22160464.139  
                 133243967.293                   133243967.293    25588107.004  
  25906006.911   136136952.774                                                  
  23501401.242   123500685.696                                                  
  23775402.553   124940562.872                                                  
  25711389.003   135114215.731                                                  
  27182051.925   142842651.118                                                  
  26976688.408   141763405.505                                                  
  26487943.219   139195000.297                                                  
 21  8 31 20 52 17.0000000  0 17G10G15G18G23G24G32C19C21C22C34E 3E 5
                                E 9E15E24E31E36
  21953651.838   115367170.776    21953654.947    89896484.265                  
  22225212.097   116794274.430    22225213.080    91008524.409                  
  21213896.802   111479774.210    21213898.160    86867357.028                  
  20276024.853   106551232.046    20276025.693    83026936.453                  
  20297757.266   106665389.872    20297760.429    83115877.101                  
  23714765.489   124621876.937    23714769.634    97107941.734                  
                 119801942.825                   119801942.825    23006704.632  
                 130545592.202                   130545592.202    25069909.019  
                 115394804.768                   115394804.768    22160353.959  
                 133243502.390                   133243502.390    25588017.712  
  25905663.218   136135146.703                                                  
  23501413.178   123500748.505                                                  
  23775757.932   124942430.340                                                  
  25711098.560   135112689.477                                                  
  27181580.343   142840173.056                                                  
  26976555.605   141762707.661                                                  
  26488539.276   139198132.563                                                  
 21  8 31 20 52 18.0000000  0 17G10G15G18G23G24G32C19C21C22C34E 3E 5
                                E 9E15E24E31E36
  21953186.475   115364725.227    21953189.584    89894578.640                  
  22225744.219   116797070.716    22225745.201    91010703.331                  
  21214361.861   111482218.159    21214363.219    86869261.402                  
  20275905.112   106550602.879    20275905.988    83026446.192                  
  20297756.194   106665384.352    20297759.374    83115872.800                  
  23714254.846   124619193.563    23714259.027    97105850.793                  
                 119803674.019                   119803674.019    23007037.085  
                 130543253.391                   130543253.391    25069459.863  
                 115394231.324                   115394231.324    22160243.832  
                 133243038.028                   133243038.028    25587928.546  
  25905319.561   136133340.755                                                  
  23501425.186   123500811.505                                                  
  23776113.293   124944297.864                                                  
  25710808.224   135111163.649                                                  
  27181108.815   142837695.164                                                  
  26976422.892   141762010.268                                                  
  26489135.333   139201264.948                                                  
 21  8 31 20 52 19.0000000  0 17G10G15G18G23G24G32C19C21C22C34E 3E 5
                                E 9E15E24E31E36
  21952721.147   115362279.851    21952724.239    89892673.157                  
  22226276.358   116799867.157    22226277.341    91012882.379                  
  21214827.045   111484662.625    21214828.403    86871166.181                  
  20275785.479   106549974.121    20275786.319    83025956.250                  
  20297755.282   106665379.560    20297758.463    83115869.061                  
  23713744.238   124616510.360    23713748.420    97103759.988                  
                 119805405.379                   119805405.379    23007369.574  
                 130540914.624                   130540914.624    25069010.743  
                 115393658.089                   115393658.089    22160133.759  
                 133242574.200                   133242574.200    25587839.469  
  25904975.922   136131534.922                                                  
  23501437.194   123500874.660                                                  
  23776468.708   124946165.429                                                  
  25710517.942   135109638.232                                                  
  27180637.323   142835217.442                                                  
  26976290.268   141761313.325                                                  
  26489731.443   139204397.446                                                  
 21  8 31 20 52 20.0000000  0 17G10G15G18G23G24G32C19C21C22C34E 3E 5
                                E 9E15E24E31E36
  21952255.820   115359834.649    21952258.911    89890767.809                  
  22226808.533   116802663.745    22226809.516    91015061.538                  
  21215292.301   111487107.590    21215293.659    86873071.353                  
  20275665.900   106549345.750    20275666.758    83025466.617                  
  20297754.496   106665375.443    20297757.677    83115865.860                  
  23713233.685   124613827.320    23713237.848    97101669.312                  
                 119807136.901                   119807136.901    23007702.098  
                 130538575.903                   130538575.903    25068561.605  
                 115393085.072                   115393085.072    22160023.721  
                 133242110.905                   133242110.905    25587750.499  
  25904632.319   136129729.218                                                  
  23501449.238   123500938.000                                                  
  23776824.105   124948033.047                                                  
  25710227.749   135108113.219                                                  
  27180165.867   142832739.890                                                  
  26976157.716   141760616.816                                                  
  26490327.554   139207530.057                                                  
 21  8 31 20 52 21.0000000  0 17G10G15G18G23G24G32C19C21C22C34E 3E 5
                                E 9E15E24E31E36
  21951790.564   115357389.623    21951793.656    89888862.598                  
  22227340.744   116805460.489    22227341.727    91017240.823                  
  21215757.664   111489553.071    21215759.022    86874976.925                  
  20275546.392   106548717.793    20275547.267    83024977.304                  
  20297753.853   106665372.051    20297757.033    83115863.224                  
  23712723.149   124611144.462    23712727.312    97099578.780                  
                 119808868.593                   119808868.593    23008034.659  
                 130536237.229                   130536237.229    25068112.485  
                 115392512.261                   115392512.261    22159913.719  
                 133241648.148                   133241648.148    25587661.618  
  25904288.715   136127923.631                                                  
  23501461.318   123501001.513                                                  
  23777179.502   124949900.727                                                  
  25709937.627   135106588.659                                                  
  27179694.446   142830262.508                                                  
  26976025.288   141759920.771                                                  
  26490923.700   139210662.778                                                  
 21  8 31 20 52 22.0000000  0 17G10G15G18G23G24G32C19C21C22C34E 3E 5
                                E 9E15E24E31E36
  21951325.327   115354944.769    21951328.400    89886957.516                  
  22227872.955   116808257.388    22227873.956    91019420.223                  
  21216223.116   111491999.063    21216224.474    86876882.890                  
  20275426.973   106548090.235    20275427.849    83024488.293                  
  20297753.352   106665369.383    20297756.515    83115861.145                  
  23712212.649   124608461.769    23712216.812    97097488.370                  
                 119810600.453                   119810600.453    23008367.237  
                 130533898.601                   130533898.601    25067663.383  
                 115391939.668                   115391939.668    22159803.754  
                 133241185.926                   133241185.926    25587572.863  
  25903945.165   136126118.189                                                  
  23501473.469   123501065.208                                                  
  23777534.917   124951768.454                                                  
  25709647.577   135105064.504                                                  
  27179223.044   142827785.294                                                  
  26975892.897   141759225.145                                                  
  26491519.864   139213795.621                                                  
 21  8 31 20 52 23.0000000  0 17G10G15G18G23G24G32C19C21C22C34E 3E 5
                                E 9E15E24E31E36
  21950860.106   115352500.101    21950863.198    89885052.581                  
  22228405.220   116811054.436    22228406.221    91021599.741                  
  21216688.658   111494445.560    21216690.016    86878789.251                  
  20275307.644   106547463.081    20275308.501    83023999.605                  
  20297752.977   106665367.423    20297756.158    83115859.613                  
  23711702.184   124605779.255    23711706.348    97095398.101                  
                 119812332.476                   119812332.476    23008699.851  
                 130531560.014                   130531560.014    25067214.281  
                 115391367.285                   115391367.285    22159693.841  
                 133240724.241                   133240724.241    25587484.197  
  25903601.598   136124312.860                                                  
  23501485.602   123501129.074                                                  
  23777890.332   124953636.236                                                  
  25709357.617   135103540.777                                                  
  27178751.659   142825308.247                                                  
  26975760.612   141758529.989                                                  
  26492116.046   139216928.585                                                  
 21  8 31 20 52 24.0000000  0 17G10G15G18G23G24G32C19C21C22C34E 3E 5
                                E 9E15E24E31E36
  21950394.940   115350055.614    21950398.031    89883147.784                  
  22228937.520   116813851.644    22228938.521    91023779.383                  
  21217154.325   111496892.570    21217155.683    86880696.012                  
  20275188.386   106546836.336    20275189.226    83023511.230                  
  20297752.745   106665366.164    20297755.926    83115858.632                  
  23711191.738   124603096.902    23711195.901    97093307.961                  
                 119814064.667                   119814064.667    23009032.501  
                 130529221.480                   130529221.480    25066765.179  
                 115390795.117                   115390795.117    22159583.965  
                 133240263.089                   133240263.089    25587395.638  
  25903258.101   136122507.661                                                  
  23501497.806   123501193.124                                                  
  23778245.782   124955504.077                                                  
  25709067.745   135102017.469                                                  
  27178280.346   142822831.378                                                  
  26975628.417   141757835.273                                                  
  26492712.264   139220061.663                                                  
 21  8 31 20 52 25.0000000  0 17G10G15G18G23G24G32C19C21C22C34E 3E 5
                                E 9E15E24E31E36
  21949929.792   115347611.298    21949932.901    89881243.120                  
  22229469.838   116816649.001    22229470.839    91025959.140                  
  21217620.063   111499340.091    21217621.421    86882603.171                  
  20275069.182   106546209.990    20275070.039    83023023.168                  
  20297752.638   106665365.621    20297755.800    83115858.212                  
  23710681.345   124600414.731    23710685.508    97091217.958                  
                 119815797.025                   119815797.025    23009365.186  
                 130526882.992                   130526882.992    25066316.094  
                 115390223.164                   115390223.164    22159474.124  
                 133239802.478                   133239802.478    25587307.186  
  25902914.605   136120702.582                                                  
  23501510.029   123501257.347                                                  
  23778601.233   124957371.962                                                  
  25708777.963   135100494.575                                                  
  27177809.014   142820354.672                                                  
  26975496.294   141757141.003                                                  
  26493308.482   139223194.844                                                  
 21  8 31 20 52 26.0000000  0 17G10G15G18G23G24G32C19C21C22C34E 3E 5
                                E 9E15E24E31E36
  21949464.697   115345167.149    21949467.788    89879338.593                  
  22230002.192   116819446.519    22230003.175    91028139.026                  
  21218085.908   111501788.116    21218087.284    86884510.723                  
  20274950.085   106545584.054    20274950.924    83022535.426                  
  20297752.655   106665365.786    20297755.836    83115858.340                  
  23710170.952   124597732.727    23710175.133    97089128.087                  
                 119817529.548                   119817529.548    23009697.907  
                 130524544.547                   130524544.547    25065867.028  
                 115389651.421                   115389651.421    22159364.319  
                 133239342.398                   133239342.398    25587218.842  
  25902571.127   136118897.632                                                  
  23501522.269   123501321.746                                                  
  23778956.684   124959239.905                                                  
  25708488.235   135098972.101                                                  
  27177337.755   142817878.132                                                  
  26975364.260   141756447.176                                                  
  26493904.718   139226328.152                                                  
 21  8 31 20 52 27.0000000  0 17G10G15G18G23G24G32C19C21C22C34E 3E 5
                                E 9E15E24E31E36
  21948999.620   115342723.188    21949002.729    89877434.210                  
  22230534.564   116822244.187    22230535.565    91030319.023                  
  21218551.861   111504236.655    21218553.219    86886418.676                  
  20274831.041   106544958.515    20274831.881    83022047.997                  
  20297752.834   106665366.681    20297755.997    83115859.035                  
  23709660.648   124595050.894    23709664.794    97087038.349                  
                 119819262.233                   119819262.233    23010030.647  
                 130522206.149                   130522206.149    25065417.962  
                 115389079.895                   115389079.895    22159254.567  
                 133238882.860                   133238882.860    25587130.587  
  25902227.684   136117092.808                                                  
  23501534.563   123501386.325                                                  
  23779312.152   124961107.905                                                  
  25708198.596   135097450.068                                                  
  27176866.513   142815401.775                                                  
  26975232.315   141755753.807                                                  
  26494501.007   139229461.570                                                  
 21  8 31 20 52 28.0000000  0 17G10G15G18G23G24G32C19C21C22C34E 3E 5
                                E 9E15E24E31E36
  21948534.578   115340279.405    21948537.687    89875529.962                  
  22231066.972   116825042.001    22231067.955    91032499.136                  
  21219017.903   111506685.714    21219019.261    86888327.026                  
  20274712.087   106544333.378    20274712.927    83021560.875                  
  20297753.138   106665368.274    20297756.319    83115860.281                  
  23709150.327   124592369.242    23709154.508    97084948.750                  
                 119820995.091                   119820995.091    23010363.421  
                 130519867.798                   130519867.798    25064968.895  
                 115388508.579                   115388508.579    22159144.833  
                 133238423.851                   133238423.851    25587042.439  
  25901884.260   136115288.105                                                  
  23501546.874   123501451.073                                                  
  23779667.638   124962975.943                                                  
  25707909.046   135095928.427                                                  
  27176395.325   142812925.576                                                  
  26975100.459   141755060.875                                                  
  26495097.296   139232595.106                                                  
 21  8 31 20 52 29.0000000  0 17G10G15G18G23G24G32C19C21C22C34E 3E 5
                                E 9E15E24E31E36
  21948069.573   115337835.802    21948072.682    89873625.855                  
  22231599.415   116827839.977    22231600.398    91034679.379                  
  21219484.016   111509135.274    21219485.392    86890235.777                  
  20274593.204   106543708.657    20274594.044    83021074.077                  
  20297753.585   106665370.575    20297756.765    83115862.074                  
  23708640.059   124589687.755    23708644.223    97082859.282                  
                 119822728.108                   119822728.108    23010696.232  
                 130517529.493                   130517529.493    25064519.864  
                 115387937.476                   115387937.476    22159035.171  
                 133237965.379                   133237965.379    25586954.398  
  25901540.853   136113483.536                                                  
  23501559.240   123501516.007                                                  
  23780023.125   124964844.048                                                  
  25707619.568   135094407.230                                                  
  27175924.136   142810449.550                                                  
  26974968.675   141754368.398                                                  
  26495693.604   139235728.757                                                  
 21  8 31 20 52 30.0000000  0 17G10G15G18G23G24G32C19C21C22C34E 3E 5
                                E 9E15E24E31E36
  21947604.621   115335392.375    21947607.694    89871721.891                  
  22232131.876   116830638.106    22232132.877    91036859.739                  
  21219950.255   111511585.350    21219951.613    86892144.925                  
  20274474.393   106543084.333    20274475.233    83020587.593                  
  20297754.156   106665373.594    20297757.319    83115864.427                  
  23708129.827   124587006.438    23708133.973    97080769.946                  
                 119824461.297                   119824461.297    23011029.078  
                 130515191.232                   130515191.232    25064070.816  
                 115387366.587                   115387366.587    22158925.545  
                 133237507.446                   133237507.446    25586866.447  
  25901197.481   136111679.088                                                  
  23501571.623   123501581.122                                                  
  23780378.611   124966712.200                                                  
  25707330.179   135092886.466                                                  
  27175453.002   142807973.700                                                  
  26974836.998   141753676.365                                                  
  26496289.946   139238862.528                                                  
 21  8 31 20 52 31.0000000  0 17G10G15G18G23G24G32C19C21C22C34E 3E 5
                                E 9E15E24E31E36
  21947139.687   115332949.121    21947142.778    89869818.054                  
  22232664.373   116833436.378    22232665.356    91039040.211                  
  21220416.601   111514035.935    21220417.959    86894054.474                  
  20274355.654   106542460.413    20274356.511    83020101.422                  
  20297754.853   106665377.327    20297758.034    83115867.333                  
  23707619.613   124584325.294    23707623.776    97078680.743                  
                 119826194.649                   119826194.649    23011361.942  
                 130512853.020                   130512853.020    25063621.785  
                 115386795.913                   115386795.913    22158815.954  
                 133237050.048                   133237050.048    25586778.603  
  25900854.128   136109874.766                                                  
  23501584.042   123501646.387                                                  
  23780734.133   124968580.410                                                  
  25707040.862   135091366.105                                                  
  27174981.903   142805498.020                                                  
  26974705.393   141752984.774                                                  
  26496886.307   139241996.410                                                  
 21  8 31 20 52 32.0000000  0 17G10G15G18G23G24G32C19C21C22C34E 3E 5
                                E 9E15E24E31E36
  21946674.788   115330506.040    21946677.862    89867914.355                  
  22233196.906   116836234.800    22233197.906    91041220.797                  
  21220883.018   111516487.021    21220884.376    86895964.406                  
  20274237.021   106541836.902    20274237.861    83019615.571                  
  20297755.693   106665381.761    20297758.874    83115870.790                  
  23707109.434   124581644.323    23707113.598    97076591.680                  
                 119827928.169                   119827928.169    23011694.860  
                 130510514.852                   130510514.852    25063172.755  
                 115386225.449                   115386225.449    22158706.399  
                 133236593.185                   133236593.185    25586690.884  
  25900510.793   136108070.571                                                  
  23501596.497   123501711.852                                                  
  23781089.637   124970448.668                                                  
  25706751.616   135089846.161                                                  
  27174510.822   142803022.505                                                  
  26974573.877   141752293.629                                                  
  26497482.686   139245130.401                                                  
 21  8 31 20 52 33.0000000  0 17G10G15G18G23G24G32C19C21C22C34E 3E 5
                                E 9E15E24E31E36
  21946209.908   115328063.135    21946212.999    89866010.797                  
  22233729.456   116839033.387    22233730.439    91043401.512                  
  21221349.542   111518938.617    21221350.900    86897874.741                  
  20274118.442   106541213.798    20274119.300    83019130.031                  
  20297756.676   106665386.917    20297759.857    83115874.808                  
  23706599.292   124578963.529    23706603.455    97074502.746                  
                 119829661.855                   119829661.855    23012027.778  
                 130508176.730                   130508176.730    25062723.760  
                 115385655.203                   115385655.203    22158596.880  
                 133236136.859                   133236136.859    25586603.236  
  25900167.493   136106266.501                                                  
  23501609.005   123501777.487                                                  
  23781445.177   124972316.981                                                  
  25706462.477   135088326.659                                                  
  27174039.776   142800547.165                                                  
  26974442.432   141751602.936                                                  
  26498079.082   139248264.515                                                  
 21  8 31 20 52 34.0000000  0 17G10G15G18G23G24G32C19C21C22C34E 3E 5
                                E 9E15E24E31E36
  21945745.063   115325620.421    21945748.154    89864107.379                  
  22234262.042   116841832.117    22234263.025    91045582.341                  
  21221816.156   111521390.722    21221817.532    86899785.472                  
  20273999.935   106540591.099    20274000.793    83018644.813                  
  20297757.802   106665392.797    20297760.982    83115879.388                  
  23706089.202   124576282.910    23706093.366    97072413.957                  
                 119831395.707                   119831395.707    23012360.767  
                 130505838.658                   130505838.658    25062274.765  
                 115385085.167                   115385085.167    22158487.414  
                 133235681.066                   133235681.066    25586515.714  
  25899824.211   136104462.546                                                  
  23501621.513   123501843.298                                                  
  23781800.717   124974185.345                                                  
  25706173.392   135086807.560                                                  
  27173568.767   142798071.987                                                  
  26974311.077   141750912.692                                                  
  26498675.515   139251398.738                                                  
