     2.11           OBSERVATION DATA    M (MIXED)           RINEX VERSION / TYPE
CONVBIN 2.4.3                           20210831 165242 UTC PGM / RUN BY / DATE 
log: logs/21_08_31_07_17_54_txlm_SW.rtcm                    COMMENT             
format: RTCM 3, station ID: 1510                            COMMENT             
1510                                                        MARKER NAME         
                                                            MARKER NUMBER       
                                                            OBSERVER / AGENCY   
                    SWFT                                    REC # / TYPE / VERS 
                    NULL                                    ANT # / TYPE        
  -491239.0844 -5588289.7352  3024736.2942                  APPROX POSITION XYZ 
        0.0000        0.0000        0.0000                  ANTENNA: DELTA H/E/N
     1     1                                                WAVELENGTH FACT L1/2
     5    C1    L1    P2    L2    C2                        # / TYPES OF OBSERV 
  2021     8    31     7    17   59.0000000     GPS         TIME OF FIRST OBS   
  2021     8    31     7    47   57.0000000     GPS         TIME OF LAST OBS    
                                                            END OF HEADER       
 21  8 31  7 17 59.0000000  0 17G 1G 4G 7G 8G 9G14G17G21G27E 1E 4E 9
                                E19E21E26E31E33
  23265500.315   122260977.259    23265503.925    95268280.031                  
  24050113.103   126384185.816    24050114.801    98481182.191                  
  20496157.993   107708049.316    20496157.474    83928352.851                  
  21770868.440   114406642.188    21770870.995    89148022.152                  
  21922361.999   115202750.908    21922364.411    89768367.464                  
  22795636.358   119791878.766    22795637.108    93344323.497                  
  23221158.960   122028010.753    23221159.318    95086760.220                  
  22551170.648   118507197.069    22551170.094    92343269.922                  
  24342291.624   127919572.544    24342293.661    99677581.637                  
  24892611.304   130811523.872                                                  
  25008943.611   131422893.160                                                  
  24103587.280   126665197.012                                                  
  27564080.128   144850194.008                                                  
  27830976.036   146252731.167                                                  
  25182840.243   132336686.223                                                  
  25016448.565   131462302.321                                                  
  25954808.607   136393457.420                                                  
 21  8 31  7 18  0.0000000  0 17G 1G 4G 7G 8G 9G14G17G21G27E 1E 4E 9
                                E19E21E26E31E33
  23264951.879   122258095.129    23264955.489    95266034.216                  
  24050811.067   126387853.621    24050812.765    98484040.223                  
  20495950.372   107706958.344    20495949.872    83927502.745                  
  21771369.112   114409273.258    21771371.685    89150072.336                  
  21922889.099   115205520.763    21922891.494    89770525.793                  
  22795316.538   119790198.137    22795317.306    93343013.918                  
  23220529.488   122024702.888    23220529.864    95084182.660                  
  22550957.059   118506074.775    22550956.541    92342395.407                  
  24342983.924   127923210.574    24342985.961    99680416.465                  
  24892751.951   130812263.063                                                  
  25009299.205   131424761.723                                                  
  24103474.527   126664604.500                                                  
  27564637.338   144853122.144                                                  
  27831263.996   146254244.418                                                  
  25182705.118   132335976.089                                                  
  25016309.133   131461569.715                                                  
  25954324.320   136390912.573                                                  
 21  8 31  7 18  1.0000000  0 23G 1G 4G 7G 8G 9G14G17G21G27C20C23C25
                                C27C28C32E 1E 4E 9E19E21E26E31E33
  23264403.443   122255213.128    23264407.035    95263788.501                  
  24051509.031   126391521.464    24051510.747    98486898.281                  
  20495742.859   107705867.730    20495742.341    83926652.919                  
  21771869.874   114411904.719    21771872.411    89152122.828                  
  21923416.236   115208290.979    21923418.666    89772684.403                  
  22794996.754   119788517.669    22794997.505    93341704.458                  
  23219900.088   122021395.277    23219900.445    95081605.305                  
  22550743.578   118504952.929    22550743.060    92341521.242                  
  24343676.241   127926848.741    24343678.278    99683251.403                  
                 133363694.708                   133363694.708    25611091.035  
                 119439895.663                   119439895.663    22937167.293  
                 136416809.929                   136416809.929    26197413.312  
                 129844391.602                   129844391.602    24935251.832  
                 115887667.132                   115887667.132    22255007.889  
                 134032832.770                   134032832.770    25739603.440  
  24892892.616   130813002.253                                                  
  25009654.834   131426630.591                                                  
  24103361.862   126664012.440                                                  
  27565194.512   144856050.204                                                  
  27831551.955   146255757.646                                                  
  25182570.064   132335266.399                                                  
  25016169.737   131460837.142                                                  
  25953840.088   136388367.898                                                  
 21  8 31  7 18  2.0000000  0 23G 1G 4G 7G 8G 9G14G17G21G27C20C23C25
                                C27C28C32E 1E 4E 9E19E21E26E31E33
  23263855.043   122252331.250    23263858.635    95261542.879                  
  24052206.995   126395189.343    24052208.693    98489756.368                  
  20495535.382   107704777.453    20495534.882    83925803.352                  
  21772370.707   114414536.585    21772373.262    89154173.632                  
  21923943.479   115211061.547    21923945.873    89774843.285                  
  22794677.024   119786837.366    22794677.756    93340395.138                  
  23219270.705   122018087.919    23219271.080    95079028.141                  
  22550530.204   118503831.539    22550529.668    92340647.433                  
  24344368.576   127930487.035    24344370.613    99686086.433                  
                 133364752.448                   133364752.448    25611294.152  
                 119440509.258                   119440509.258    22937285.139  
                 136418752.518                   136418752.518    26197786.381  
                 129841067.691                   129841067.691    24934613.515  
                 115886127.403                   115886127.403    22254712.192  
                 134035250.050                   134035250.050    25740067.641  
  24893033.281   130813741.441                                                  
  25010010.517   131428499.767                                                  
  24103249.288   126663420.829                                                  
  27565751.704   144858978.156                                                  
  27831839.896   146257270.823                                                  
  25182435.099   132334557.134                                                  
  25016030.341   131460104.583                                                  
  25953355.873   136385823.338                                                  
 21  8 31  7 18  3.0000000  0 23G 1G 4G 7G 8G 9G14G17G21G27C20C23C25
                                C27C28C32E 1E 4E 9E19E21E26E31E33
  23263306.661   122249449.507    23263310.252    95259297.368                  
  24052904.995   126398857.265    24052906.693    98492614.489                  
  20495327.976   107703687.523    20495327.458    83924954.054                  
  21772871.593   114417168.855    21772874.167    89156224.750                  
  21924470.758   115213832.477    21924473.188    89777002.453                  
  22794357.293   119785157.239    22794358.044    93339085.945                  
  23218641.376   122014780.825    23218641.769    95076451.187                  
  22550316.884   118502710.594    22550316.348    92339773.970                  
  24345060.947   127934125.445    24345062.984    99688921.563                  
                 133365810.563                   133365810.563    25611497.358  
                 119441123.025                   119441123.025    22937403.003  
                 136420695.238                   136420695.238    26198159.433  
                 129837743.855                   129837743.855    24933975.216  
                 115884588.154                   115884588.154    22254416.603  
                 134037667.322                   134037667.322    25740531.860  
  24893173.946   130814480.629                                                  
  25010366.271   131430369.277                                                  
  24103136.784   126662829.673                                                  
  27566308.860   144861906.064                                                  
  27832127.838   146258783.980                                                  
  25182300.206   132333848.297                                                  
  25015890.945   131459372.054                                                  
  25952871.676   136383278.937                                                  
 21  8 31  7 18  4.0000000  0 23G 1G 4G 7G 8G 9G14G17G21G27C20C23C25
                                C27C28C32E 1E 4E 9E19E21E26E31E33
  23262758.314   122246567.891    23262761.923    95257051.952                  
  24053602.977   126402525.223    24053604.675    98495472.636                  
  20495120.642   107702597.945    20495120.124    83924105.031                  
  21773372.587   114419801.507    21773375.142    89158276.167                  
  21924998.127   115216603.773    21925000.539    89779161.907                  
  22794037.598   119783477.273    22794038.367    93337776.883                  
  23218012.118   122011473.983    23218012.476    95073874.429                  
  22550103.653   118501590.090    22550103.117    92338900.847                  
  24345753.336   127937763.985    24345755.373    99691756.788                  
                 133366869.038                   133366869.038    25611700.636  
                 119441736.960                   119441736.960    22937520.903  
                 136422638.086                   136422638.086    26198532.556  
                 129834420.089                   129834420.089    24933336.916  
                 115883049.387                   115883049.387    22254121.103  
                 134040084.581                   134040084.581    25740996.062  
  24893314.593   130815219.813                                                  
  25010722.097   131432239.073                                                  
  24103024.388   126662238.956                                                  
  27566865.998   144864833.863                                                  
  27832415.779   146260297.085                                                  
  25182165.402   132333139.886                                                  
  25015751.548   131458639.548                                                  
  25952387.533   136380734.685                                                  
 21  8 31  7 18  5.0000000  0 23G 1G 4G 7G 8G 9G14G17G21G27C20C23C25
                                C27C28C32E 1E 4E 9E19E21E26E31E33
  23262209.985   122243686.403    23262213.577    95254806.637                  
  24054300.977   126406193.219    24054302.674    98498330.812                  
  20494913.362   107701508.704    20494912.843    83923256.270                  
  21773873.635   114422434.573    21773876.208    89160327.907                  
  21925525.549   115219375.421    21925527.961    89781321.628                  
  22793717.957   119781797.477    22793718.708    93336467.949                  
  23217382.878   122008167.403    23217383.254    95071297.876                  
  22549890.529   118500470.040    22549889.975    92338028.081                  
  24346445.761   127941402.660    24346447.798    99694592.117                  
                 133367927.883                   133367927.883    25611903.986  
                 119442351.070                   119442351.070    22937638.839  
                 136424581.062                   136424581.062    26198905.679  
                 129831096.401                   129831096.401    24932698.635  
                 115881511.097                   115881511.097    22253825.674  
                 134042501.832                   134042501.832    25741460.281  
  24893455.276   130815959.004                                                  
  25011077.959   131434109.203                                                  
  24102912.063   126661648.680                                                  
  27567423.118   144867761.594                                                  
  27832703.721   146261810.163                                                  
  25182030.687   132332431.907                                                  
  25015612.152   131457907.078                                                  
  25951903.407   136378190.574                                                  
 21  8 31  7 18  6.0000000  0 23G 1G 4G 7G 8G 9G14G17G21G27C20C23C25
                                C27C28C32E 1E 4E 9E19E21E26E31E33
  23261661.674   122240805.042    23261665.284    95252561.425                  
  24054998.977   126409861.262    24055000.674    98501189.028                  
  20494706.134   107700419.789    20494705.634    83922407.765                  
  21774374.753   114425068.032    21774377.327    89162379.953                  
  21926053.042   115222147.433    21926055.455    89783481.637                  
  22793398.316   119780117.843    22793399.085    93335159.146                  
  23216753.728   122004861.060    23216754.085    95068721.500                  
  22549677.459   118499350.436    22549676.940    92337155.665                  
  24347138.186   127945041.441    24347140.223    99697427.531                  
                 133368987.091                   133368987.091    25612107.389  
                 119442965.351                   119442965.351    22937756.792  
                 136426524.169                   136426524.169    26199278.838  
                 129827772.786                   129827772.786    24932060.389  
                 115879973.293                   115879973.293    22253530.353  
                 134044919.066                   134044919.066    25741924.483  
  24893595.941   130816698.188                                                  
  25011433.892   131435979.605                                                  
  24102799.828   126661058.844                                                  
  27567980.239   144870689.273                                                  
  27832991.644   146263323.199                                                  
  25181896.044   132331724.346                                                  
  25015472.774   131457174.622                                                  
  25951419.300   136375646.630                                                  
 21  8 31  7 18  7.0000000  0 23G 1G 4G 7G 8G 9G14G17G21G27C20C23C25
                                C27C28C32E 1E 4E 9E19E21E26E31E33
  23261113.399   122237923.824    23261117.008    95250316.316                  
  24055696.994   126413529.343    24055698.692    98504047.273                  
  20494498.997   107699331.223    20494498.479    83921559.536                  
  21774875.962   114427701.870    21774878.517    89164432.296                  
  21926580.607   115224919.794    21926583.020    89785641.919                  
  22793078.747   119778438.376    22793079.479    93333850.465                  
  23216124.578   122001554.952    23216124.953    95066145.316                  
  22549464.496   118498231.276    22549463.960    92336283.594                  
  24347830.646   127948680.351    24347832.683    99700263.047                  
                 133370046.669                   133370046.669    25612310.863  
                 119443579.810                   119443579.810    22937874.799  
                 136428467.403                   136428467.403    26199652.014  
                 129824449.241                   129824449.241    24931422.125  
                 115878435.969                   115878435.969    22253235.139  
                 134047336.293                   134047336.293    25742388.684  
  24893736.606   130817437.364                                                  
  25011789.879   131437850.304                                                  
  24102687.664   126660469.446                                                  
  27568537.359   144873616.884                                                  
  27833279.532   146264836.192                                                  
  25181761.455   132331017.224                                                  
  25015333.395   131456442.192                                                  
  25950935.246   136373102.836                                                  
 21  8 31  7 18  8.0000000  0 23G 1G 4G 7G 8G 9G14G17G21G27C20C23C25
                                C27C28C32E 1E 4E 9E19E21E26E31E33
  23260565.141   122235042.710    23260568.733    95248071.294                  
  24056395.012   126417197.442    24056396.727    98506905.531                  
  20494291.895   107698242.974    20494291.394    83920711.548                  
  21775377.259   114430336.133    21775379.797    89166484.964                  
  21927108.244   115227692.534    21927110.656    89787802.495                  
  22792759.177   119776759.073    22792759.928    93332541.922                  
  23215495.516   121998249.211    23215495.874    95063569.414                  
  22549251.622   118497112.573    22549251.086    92335411.876                  
  24348523.142   127952319.398    24348525.179    99703098.669                  
                 133371106.612                   133371106.612    25612514.427  
                 119444194.437                   119444194.437    22937992.842  
                 136430410.766                   136430410.766    26200025.227  
                 129821125.774                   129821125.774    24930783.879  
                 115876899.124                   115876899.124    22252939.996  
                 134049753.509                   134049753.509    25742852.886  
  24893877.253   130818176.566                                                  
  25012145.937   131439721.429                                                  
  24102575.608   126659880.555                                                  
  27569094.426   144876544.266                                                  
  27833567.456   146266349.185                                                  
  25181627.008   132330310.573                                                  
  25015194.035   131455709.804                                                  
  25950451.174   136370559.124                                                  
 21  8 31  7 18  9.0000000  0 23G 1G 4G 7G 8G 9G14G17G21G27C20C23C25
                                C27C28C32E 1E 4E 9E19E21E26E31E33
  23260016.920   122232161.739    23260020.494    95245826.384                  
  24057093.047   126420865.593    24057094.745    98509763.831                  
  20494084.900   107697155.097    20494084.382    83919863.852                  
  21775878.593   114432970.754    21775881.166    89168537.918                  
  21927635.934   115230465.614    21927638.364    89789963.337                  
  22792439.643   119775079.947    22792440.394    93331233.508                  
  23214866.491   121994943.657    23214866.866    95060993.656                  
  22549038.820   118495994.325    22549038.284    92334540.516                  
  24349215.638   127955958.566    24349217.675    99705934.382                  
                 133372166.923                   133372166.923    25612718.045  
                 119444809.239                   119444809.239    22938110.903  
                 136432354.257                   136432354.257    26200398.439  
                 129817802.374                   129817802.374    24930145.652  
                 115875362.765                   115875362.765    22252644.961  
                 134052170.708                   134052170.708    25743317.087  
  24894017.918   130818915.754                                                  
  25012502.049   131441592.783                                                  
  24102463.604   126659292.063                                                  
  27569651.475   144879471.684                                                  
  27833855.361   146267862.116                                                  
  25181492.597   132329604.319                                                  
  25015054.674   131454977.430                                                  
  25949967.174   136368015.618                                                  
 21  8 31  7 18 10.0000000  0 23G 1G 4G 7G 8G 9G14G17G21G27C20C23C25
                                C27C28C32E 1E 4E 9E19E21E26E31E33
  23259468.698   122229280.891    23259472.308    95243581.567                  
  24057791.065   126424533.774    24057792.780    98512622.152                  
  20493877.941   107696067.558    20493877.441    83919016.419                  
  21776380.033   114435605.778    21776382.588    89170591.180                  
  21928163.713   115233239.064    21928166.126    89792124.464                  
  22792120.145   119773400.973    22792120.896    93329925.218                  
  23214237.519   121991638.359    23214237.877    95058418.101                  
  22548826.107   118494876.515    22548825.589    92333669.497                  
  24349908.188   127959597.854    24349910.225    99708770.195                  
                 133373227.596                   133373227.596    25612921.734  
                 119445424.212                   119445424.212    22938228.999  
                 136434297.878                   136434297.878    26200771.705  
                 129814479.056                   129814479.056    24929507.442  
                 115873826.886                   115873826.886    22252349.997  
                 134054587.898                   134054587.898    25743781.289  
  24894158.583   130819654.933                                                  
  25012858.196   131443464.441                                                  
  24102351.709   126658704.035                                                  
  27570208.542   144882399.004                                                  
  27834143.267   146269375.012                                                  
  25181358.276   132328898.496                                                  
  25014915.296   131454245.082                                                  
  25949483.173   136365472.237                                                  
 21  8 31  7 18 11.0000000  0 23G 1G 4G 7G 8G 9G14G17G21G27C20C23C25
                                C27C28C32E 1E 4E 9E19E21E26E31E33
  23258920.512   122226400.169    23258924.122    95241336.847                  
  24058489.100   126428201.993    24058490.798    98515480.509                  
  20493671.053   107694980.372    20493670.535    83918169.263                  
  21776881.545   114438241.182    21776884.100    89172644.747                  
  21928691.564   115236012.860    21928693.959    89794285.864                  
  22791800.683   119771722.172    22791801.415    93328617.062                  
  23213608.583   121988333.337    23213608.959    95055842.757                  
  22548613.483   118493759.159    22548612.947    92332798.828                  
  24350600.738   127963237.275    24350602.775    99711606.105                  
                 133374288.639                   133374288.639    25613125.494  
                 119446039.360                   119446039.360    22938347.113  
                 136436241.627                   136436241.627    26201144.971  
                 129811155.805                   129811155.805    24928869.267  
                 115872291.487                   115872291.487    22252055.140  
                 134057005.073                   134057005.073    25744245.472  
  24894299.248   130820394.114                                                  
  25013214.433   131445336.429                                                  
  24102239.902   126658116.438                                                  
  27570765.573   144885326.243                                                  
  27834431.137   146270887.870                                                  
  25181224.062   132328193.099                                                  
  25014775.953   131453512.764                                                  
  25948999.226   136362928.995                                                  
 21  8 31  7 18 12.0000000  0 23G 1G 4G 7G 8G 9G14G17G21G27C20C23C25
                                C27C28C32E 1E 4E 9E19E21E26E31E33
  23258372.362   122223519.583    23258375.954    95239092.234                  
  24059187.154   126431870.262    24059188.851    98518338.898                  
  20493464.237   107693893.531    20493463.719    83917322.372                  
  21777383.129   114440876.995    21777385.666    89174698.625                  
  21929219.469   115238787.032    21929221.881    89796447.554                  
  22791481.238   119770043.538    22791482.007    93327309.038                  
  23212979.701   121985028.558    23212980.076    95053267.609                  
  22548400.931   118492642.267    22548400.395    92331928.522                  
  24351293.323   127966876.812    24351295.360    99714442.108                  
                 133375350.051                   133375350.051    25613329.326  
                 119446654.679                   119446654.679    22938465.299  
                 136438185.508                   136438185.508    26201518.273  
                 129807832.632                   129807832.632    24928231.075  
                 115870756.570                   115870756.570    22251760.372  
                 134059422.242                   134059422.242    25744709.656  
  24894439.895   130821133.302                                                  
  25013570.723   131447208.721                                                  
  24102128.167   126657529.296                                                  
  27571322.604   144888253.411                                                  
  27834719.025   146272400.696                                                  
  25181089.901   132327488.142                                                  
  25014636.593   131452780.470                                                  
  25948515.298   136360385.926                                                  
 21  8 31  7 18 13.0000000  0 23G 1G 4G 7G 8G 9G14G17G21G27C20C23C25
                                C27C28C32E 1E 4E 9E19E21E26E31E33
  23257824.248   122220639.128    23257827.822    95236847.726                  
  24059885.225   126435538.557    24059886.923    98521197.310                  
  20493257.475   107692807.043    20493256.975    83916475.753                  
  21777884.766   114443513.195    21777887.321    89176752.804                  
  21929747.445   115241561.550    21929749.839    89798609.521                  
  22791161.847   119768365.078    22791162.598    93326001.149                  
  23212350.872   121981724.035    23212351.247    95050692.656                  
  22548188.487   118491525.818    22548187.968    92331058.562                  
  24351985.926   127970516.488    24351987.963    99717278.219                  
                 133376411.824                   133376411.824    25613533.212  
                 119447270.173                   119447270.173    22938583.503  
                 136440129.516                   136440129.516    26201891.593  
                 129804509.531                   129804509.531    24927592.901  
                 115869222.136                   115869222.136    22251465.712  
                 134061839.394                   134061839.394    25745173.857  
  24894580.578   130821872.492                                                  
  25013927.067   131449081.325                                                  
  24102016.522   126656942.606                                                  
  27571879.599   144891180.476                                                  
  27835006.895   146273913.480                                                  
  25180955.848   132326783.619                                                  
  25014497.268   131452048.208                                                  
  25948031.387   136357842.991                                                  
 21  8 31  7 18 14.0000000  0 24G 1G 4G 7G 8G 9G14G17G21G27G30C20C23
                                C25C27C28C32E 1E 4E 9E19E21E26E31E33
  23257276.115   122217758.800    23257279.725    95234603.317                  
  24060583.278   126439206.900    24060584.976    98524055.753                  
  20493050.802   107691720.895    20493050.284    83915629.411                  
  21778386.492   114446149.782    21778389.047    89178807.290                  
  21930275.475   115244336.435    21930277.887    89800771.766                  
  22790842.474   119766686.779    22790843.225    93324693.379                  
  23211722.097   121978419.772    23211722.454    95048117.911                  
  22547976.113   118490409.818    22547975.577    92330188.954                  
  24352678.565   127974156.278    24352680.603    99720114.422                  
  22051062.600   115879076.083    22051064.781    90295374.039                  
                 133377473.963                   133377473.963    25613737.205  
                 119447885.836                   119447885.836    22938701.724  
                 136442073.655                   136442073.655    26202264.966  
                 129801186.504                   129801186.504    24926954.762  
                 115867688.185                   115867688.185    22251171.141  
                 134064256.535                   134064256.535    25745638.041  
  24894721.243   130822611.671                                                  
  25014283.483   131450954.239                                                  
  24101904.965   126656356.344                                                  
  27572436.576   144894107.477                                                  
  27835294.765   146275426.238                                                  
  25180821.866   132326079.515                                                  
  25014357.925   131451315.957                                                  
  25947547.493   136355300.207                                                  
 21  8 31  7 18 15.0000000  0 24G 1G 4G 7G 8G 9G14G17G21G27G30C20C23
                                C25C27C28C32E 1E 4E 9E19E21E26E31E33
  23256728.037   122214878.597    23256731.646    95232359.001                  
  24061281.332   126442875.268    24061283.047    98526914.227                  
  20492844.182   107690635.096    20492843.664    83914783.332                  
  21778888.308   114448786.774    21778890.863    89180862.087                  
  21930803.576   115247111.669    21930806.006    89802934.286                  
  22790523.137   119765008.644    22790523.887    93323385.746                  
  23211093.358   121975115.777    23211093.733    95045543.367                  
  22547763.847   118489294.278    22547763.293    92329319.702                  
  24353371.205   127977796.188    24353373.242    99722950.715                  
  22050591.913   115876602.636    22050594.093    90293446.676                  
                 133378536.472                   133378536.472    25613941.233  
                 119448501.672                   119448501.672    22938819.999  
                 136444017.922                   136444017.922    26202638.321  
                 129797863.555                   129797863.555    24926316.624  
                 115866154.716                   115866154.716    22250876.642  
                 134066673.664                   134066673.664    25746102.225  
  24894861.908   130823350.859                                                  
  25014639.934   131452827.453                                                  
  24101793.480   126655770.546                                                  
  27572993.554   144897034.375                                                  
  27835582.617   146276938.940                                                  
  25180687.937   132325375.846                                                  
  25014218.583   131450583.754                                                  
  25947063.654   136352757.572                                                  
 21  8 31  7 18 16.0000000  0 24G 1G 4G 7G 8G 9G14G17G21G27G30C20C23
                                C25C27C28C32E 1E 4E 9E19E21E26E31E33
  23256179.976   122211998.562    23256183.586    95230114.825                  
  24061979.421   126446543.696    24061981.119    98529772.742                  
  20492637.616   107689549.697    20492637.116    83913937.586                  
  21779390.159   114451424.130    21779392.715    89182917.167                  
  21931331.766   115249887.190    21931334.178    89805096.992                  
  22790203.835   119763330.706    22790204.586    93322078.273                  
  23210464.672   121971812.040    23210465.065    95042969.024                  
  22547551.635   118488179.144    22547551.098    92328450.741                  
  24354063.879   127981436.204    24354065.916    99725787.073                  
  22050121.278   115874129.207    22050123.458    90291519.262                  
                 133379599.347                   133379599.347    25614145.369  
                 119449117.684                   119449117.684    22938938.292  
                 136445962.317                   136445962.317    26203011.712  
                 129794540.675                   129794540.675    24925678.503  
                 115864621.727                   115864621.727    22250582.232  
                 134069090.781                   134069090.781    25746566.408  
  24895002.555   130824090.079                                                  
  25014996.457   131454700.981                                                  
  24101682.103   126655185.226                                                  
  27573550.514   144899961.211                                                  
  27835870.487   146278451.578                                                  
  25180554.116   132324672.656                                                  
  25014079.240   131449851.491                                                  
  25946579.832   136350215.072                                                  
 21  8 31  7 18 17.0000000  0 24G 1G 4G 7G 8G 9G14G17G21G27G30C20C23
                                C25C27C28C32E 1E 4E 9E19E21E26E31E33
  23255631.933   122209118.642    23255635.543    95227870.731                  
  24062677.492   126450212.140    24062679.208    98532631.270                  
  20492431.140   107688464.593    20492430.622    83913092.051                  
  21779892.118   114454061.868    21779894.655    89184972.547                  
  21931860.028   115252663.152    21931862.422    89807260.079                  
  22789884.552   119761652.911    22789885.302    93320770.899                  
  23209836.057   121968508.558    23209836.415    95040394.887                  
  22547339.547   118487064.508    22547338.993    92327582.199                  
  24354756.572   127985076.376    24354758.627    99728623.570                  
  22049650.644   115871656.040    22049652.824    90289592.121                  
                 133380662.585                   133380662.585    25614349.540  
                 119449733.870                   119449733.870    22939056.621  
                 136447906.840                   136447906.840    26203385.157  
                 129791217.875                   129791217.875    24925040.382  
                 115863089.218                   115863089.218    22250287.947  
                 134071507.886                   134071507.886    25747030.574  
  24895143.220   130824829.260                                                  
  25015353.033   131456574.823                                                  
  24101570.779   126654600.311                                                  
  27574107.455   144902888.054                                                  
  27836158.321   146279964.228                                                  
  25180420.384   132323969.852                                                  
  25013939.915   131449119.323                                                  
  25946096.046   136347672.754                                                  
 21  8 31  7 18 18.0000000  0 24G 1G 4G 7G 8G 9G14G17G21G27G30C20C23
                                C25C27C28C32E 1E 4E 9E19E21E26E31E33
  23255083.944   122206238.848    23255087.535    95225626.738                  
  24063375.599   126453880.635    24063377.297    98535489.836                  
  20492224.717   107687379.839    20492224.199    83912246.788                  
  21780394.113   114456700.001    21780396.686    89187028.233                  
  21932388.326   115255439.472    21932390.738    89809423.445                  
  22789565.322   119759975.278    22789566.054    93319463.652                  
  23209207.479   121965205.344    23209207.836    95037820.953                  
  22547127.495   118485950.322    22547126.977    92326713.999                  
  24355449.300   127988716.671    24355451.338    99731460.164                  
  22049180.045   115869183.024    22049182.225    90287665.094                  
                 133381726.193                   133381726.193    25614553.801  
                 119450350.227                   119450350.227    22939174.985  
                 136449851.496                   136449851.496    26203758.602  
                 129787895.144                   129787895.144    24924402.280  
                 115861557.195                   115861557.195    22249993.734  
                 134073924.977                   134073924.977    25747494.757  
  24895283.885   130825568.445                                                  
  25015709.681   131458448.985                                                  
  24101459.562   126654015.854                                                  
  27574664.379   144905814.723                                                  
  27836446.155   146281476.833                                                  
  25180286.724   132323267.483                                                  
  25013800.608   131448387.207                                                  
  25945612.278   136345130.556                                                  
 21  8 31  7 18 19.0000000  0 24G 1G 4G 7G 8G 9G14G17G21G27G30C20C23
                                C25C27C28C32E 1E 4E 9E19E21E26E31E33
  23254535.954   122203359.177    23254539.564    95223382.840                  
  24064073.688   126457549.157    24064075.386    98538348.421                  
  20492018.365   107686295.429    20492017.847    83911401.797                  
  21780896.214   114459338.531    21780898.787    89189084.231                  
  21932916.695   115258216.141    21932919.125    89811587.083                  
  22789246.091   119758297.824    22789246.842    93318156.547                  
  23208578.936   121961902.378    23208579.293    95035247.214                  
  22546915.587   118484836.581    22546915.033    92325846.152                  
  24356142.065   127992357.089    24356144.102    99734296.855                  
  22048709.465   115866710.144    22048711.645    90285738.176                  
                 133382790.161                   133382790.161    25614758.115  
                 119450966.759                   119450966.759    22939293.385  
                 136451796.278                   136451796.278    26204132.082  
                 129784572.488                   129784572.488    24923764.195  
                 115860025.651                   115860025.651    22249699.627  
                 134076342.054                   134076342.054    25747958.941  
  24895424.532   130826307.641                                                  
  25016066.383   131460323.452                                                  
  24101348.435   126653431.846                                                  
  27575221.303   144908741.304                                                  
  27836734.007   146282989.409                                                  
  25180153.153   132322565.546                                                  
  25013661.284   131447655.095                                                  
  25945128.546   136342588.499                                                  
 21  8 31  7 18 20.0000000  0 24G 1G 4G 7G 8G 9G14G17G21G27G30C20C23
                                C25C27C28C32E 1E 4E 9E19E21E26E31E33
  23253988.001   122200479.626    23253991.592    95221139.032                  
  24064771.795   126461217.728    24064773.493    98541207.046                  
  20491812.068   107685211.364    20491811.567    83910557.067                  
  21781398.405   114461977.442    21781400.943    89191140.523                  
  21933445.153   115260993.171    21933447.583    89813751.000                  
  22788926.915   119756620.523    22788927.665    93316849.559                  
  23207950.464   121958599.686    23207950.822    95032673.692                  
  22546703.714   118483723.295    22546703.178    92324978.656                  
  24356834.829   127995997.633    24356836.866    99737133.641                  
  22048238.920   115864237.419    22048241.100    90283811.376                  
                 133383854.501                   133383854.501    25614962.519  
                 119451583.460                   119451583.460    22939411.821  
                 136453741.190                   136453741.190    26204505.580  
                 129781249.911                   129781249.911    24923126.145  
                 115858494.593                   115858494.593    22249405.593  
                 134078759.121                   134078759.121    25748423.125  
  24895565.197   130827046.823                                                  
  25016423.138   131462198.221                                                  
  24101237.379   126652848.284                                                  
  27575778.209   144911667.812                                                  
  27837021.824   146284501.950                                                  
  25180019.654   132321864.039                                                  
  25013521.977   131446923.012                                                  
  25944644.831   136340046.600                                                  
 21  8 31  7 18 21.0000000  0 24G 1G 4G 7G 8G 9G14G17G21G27G30C20C23
                                C25C27C28C32E 1E 4E 9E19E21E26E31E33
  23253440.065   122197600.216    23253443.657    95218895.336                  
  24065469.902   126464886.319    24065471.600    98544065.691                  
  20491605.841   107684127.649    20491605.323    83909712.614                  
  21781900.632   114464616.750    21781903.205    89193197.128                  
  21933973.683   115263770.562    21933976.096    89815915.198                  
  22788607.774   119754943.392    22788608.525    93315542.704                  
  23207322.029   121955297.243    23207322.386    95030100.355                  
  22546491.966   118482610.468    22546491.412    92324111.520                  
  24357527.629   127999638.298    24357529.666    99739970.525                  
  22047768.393   115861764.827    22047770.573    90281884.685                  
                 133384919.199                   133384919.199    25615166.977  
                 119452200.335                   119452200.335    22939530.275  
                 136455686.231                   136455686.231    26204879.097  
                 129777927.407                   129777927.407    24922488.078  
                 115856964.015                   115856964.015    22249111.665  
                 134081176.174                   134081176.174    25748887.273  
  24895705.862   130827786.010                                                  
  25016779.946   131464073.313                                                  
  24101126.412   126652265.159                                                  
  27576335.079   144914594.226                                                  
  27837309.640   146286014.450                                                  
  25179886.244   132321162.950                                                  
  25013382.652   131446190.958                                                  
  25944161.153   136337504.849                                                  
 21  8 31  7 18 22.0000000  0 24G 1G 4G 7G 8G 9G14G17G21G27G30C20C23
                                C25C27C28C32E 1E 4E 9E19E21E26E31E33
  23252892.165   122194720.932    23252895.739    95216651.743                  
  24066168.027   126468554.952    24066169.725    98546924.370                  
  20491399.686   107683044.277    20491399.168    83908868.432                  
  21782402.966   114467256.439    21782405.503    89195254.036                  
  21934502.267   115266548.308    21934504.679    89818079.683                  
  22788288.651   119753266.422    22788289.402    93314235.977                  
  23206693.647   121951995.056    23206694.004    95027527.231                  
  22546280.271   118481498.083    22546279.735    92323244.731                  
  24358220.446   128003279.082    24358222.483    99742807.504                  
  22047297.919   115859292.378    22047300.099    90279958.106                  
                 133385984.269                   133385984.269    25615371.523  
                 119452817.387                   119452817.387    22939648.782  
                 136457631.402                   136457631.402    26205252.666  
                 129774604.973                   129774604.973    24921850.047  
                 115855433.919                   115855433.919    22248817.827  
                 134083593.216                   134083593.216    25749351.438  
  24895846.527   130828525.186                                                  
  25017136.826   131465948.696                                                  
  24101015.535   126651682.484                                                  
  27576891.931   144917520.558                                                  
  27837597.456   146287526.903                                                  
  25179752.923   132320462.294                                                  
  25013243.363   131445458.918                                                  
  25943677.492   136334963.238                                                  
 21  8 31  7 18 23.0000000  0 24G 1G 4G 7G 8G 9G14G17G21G27G30C20C23
                                C25C27C28C32E 1E 4E 9E19E21E26E31E33
  23252344.265   122191841.778    23252347.857    95214408.250                  
  24066866.134   126472223.620    24066867.832    98549783.077                  
  20491193.585   107681961.242    20491193.085    83908024.516                  
  21782905.336   114469896.536    21782907.909    89197311.254                  
  21935030.922   115269326.406    21935033.334    89820244.437                  
  22787969.564   119751589.611    22787970.315    93312929.375                  
  23206065.300   121948693.120    23206065.658    95024954.302                  
  22546068.684   118480386.153    22546068.148    92322378.297                  
  24358913.282   128006919.996    24358915.319    99745644.582                  
  22046827.445   115856820.070    22046829.626    90278031.632                  
                 133387049.703                   133387049.703    25615576.124  
                 119453434.608                   119453434.608    22939767.325  
                 136459576.704                   136459576.704    26205626.218  
                 129771282.617                   129771282.617    24921212.016  
                 115853904.304                   115853904.304    22248524.078  
                 134086010.243                   134086010.243    25749815.622  
  24895987.174   130829264.371                                                  
  25017493.760   131467824.407                                                  
  24100904.747   126651100.251                                                  
  27577448.784   144920446.819                                                  
  27837885.255   146289039.332                                                  
  25179619.656   132319762.079                                                  
  25013104.074   131444726.914                                                  
  25943193.885   136332421.785                                                  
 21  8 31  7 18 24.0000000  0 24G 1G 4G 7G 8G 9G14G17G21G27G30C20C23
                                C25C27C28C32E 1E 4E 9E19E21E26E31E33
  23251796.401   122188962.755    23251799.993    95212164.859                  
  24067564.277   126475892.320    24067565.974    98552641.809                  
  20490987.555   107680878.554    20490987.037    83907180.868                  
  21783407.813   114472537.020    21783410.386    89199368.781                  
  21935559.648   115272104.868    21935562.061    89822409.477                  
  22787650.513   119749912.975    22787651.263    93311622.915                  
  23205437.008   121945391.446    23205437.383    95022381.571                  
  22545857.187   118479274.669    22545856.633    92321512.208                  
  24359606.136   128010561.025    24359608.173    99748481.754                  
  22046357.008   115854347.914    22046359.188    90276105.282                  
                 133388115.500                   133388115.500    25615780.795  
                 119454052.004                   119454052.004    22939885.886  
                 136461522.134                   136461522.134    26205999.824  
                 129767960.340                   129767960.340    24920574.020  
                 115852375.173                   115852375.173    22248230.418  
                 134088427.253                   134088427.253    25750279.788  
  24896127.857   130830003.556                                                  
  25017850.747   131469700.406                                                  
  24100794.048   126650518.464                                                  
  27578005.618   144923372.992                                                  
  27838173.053   146290551.723                                                  
  25179486.496   132319062.290                                                  
  25012964.785   131443994.934                                                  
  25942710.277   136329880.468                                                  
 21  8 31  7 18 25.0000000  0 24G 1G 4G 7G 8G 9G14G17G21G27G30C20C23
                                C25C27C28C32E 1E 4E 9E19E21E26E31E33
  23251248.572   122186083.867    23251252.164    95209921.574                  
  24068262.420   126479561.070    24068264.117    98555500.573                  
  20490781.597   107679796.203    20490781.079    83906337.478                  
  21783910.361   114475177.874    21783912.898    89201426.594                  
  21936088.446   115274883.679    21936090.841    89824574.786                  
  22787331.497   119748236.499    22787332.248    93310316.569                  
  23204808.769   121942090.030    23204809.144    95019809.044                  
  22545645.742   118478163.637    22545645.224    92320646.473                  
  24360299.043   128014202.188    24360301.080    99751319.024                  
  22045886.606   115851875.891    22045888.786    90274179.032                  
                 133389181.664                   133389181.664    25615985.539  
                 119454669.574                   119454669.574    22940004.483  
                 136463467.686                   136463467.686    26206373.465  
                 129764638.132                   129764638.132    24919936.025  
                 115850846.523                   115850846.523    22247936.866  
                 134090844.259                   134090844.259    25750743.936  
  24896268.521   130830742.737                                                  
  25018207.806   131471576.739                                                  
  24100683.421   126649937.132                                                  
  27578562.435   144926299.077                                                  
  27838460.852   146292064.079                                                  
  25179353.425   132318362.937                                                  
  25012825.496   131443262.974                                                  
  25942226.724   136327339.312                                                  
 21  8 31  7 18 26.0000000  0 24G 1G 4G 7G 8G 9G14G17G21G27G30C20C23
                                C25C27C28C32E 1E 4E 9E19E21E26E31E33
  23250700.762   122183205.112    23250704.353    95207678.390                  
  24068960.562   126483229.853    24068962.260    98558359.363                  
  20490575.692   107678714.208    20490575.174    83905494.364                  
  21784412.963   114477819.106    21784415.518    89203484.695                  
  21936617.298   115277662.851    21936619.692    89826740.375                  
  22787012.499   119746560.192    22787013.232    93309010.356                  
  23204180.583   121938788.867    23204180.940    95017236.706                  
  22545434.423   118477053.054    22545433.887    92319781.081                  
  24360991.932   128017843.469    24360993.987    99754156.386                  
  22045416.222   115849404.000    22045418.402    90272252.883                  
                 133390248.197                   133390248.197    25616190.353  
                 119455287.315                   119455287.315    22940123.098  
                 136465413.375                   136465413.375    26206747.106  
                 129761316.003                   129761316.003    24919298.047  
                 115849318.358                   115849318.358    22247643.403  
                 134093261.243                   134093261.243    25751208.101  
  24896409.186   130831481.910                                                  
  25018564.919   131473453.363                                                  
  24100572.865   126649356.235                                                  
  27579119.234   144929225.089                                                  
  27838748.632   146293576.397                                                  
  25179220.426   132317664.013                                                  
  25012686.225   131442531.046                                                  
  25941743.188   136324798.297                                                  
 21  8 31  7 18 27.0000000  0 24G 1G 4G 7G 8G 9G14G17G21G27G30C20C23
                                C25C27C28C32E 1E 4E 9E19E21E26E31E33
  23250152.987   122180326.488    23250156.578    95205435.305                  
  24069658.723   126486898.662    24069660.421    98561218.177                  
  20490369.859   107677632.558    20490369.358    83904651.523                  
  21784915.636   114480460.750    21784918.192    89205543.118                  
  21937146.221   115280442.378    21937148.633    89828906.238                  
  22786693.537   119744884.050    22786694.288    93307704.274                  
  23203552.433   121935487.956    23203552.809    95014664.570                  
  22545223.158   118475942.925    22545222.622    92318916.051                  
  24361684.875   128021484.870    24361686.912    99756993.844                  
  22044945.855   115846932.270    22044948.035    90270326.864                  
                 133391315.090                   133391315.090    25616395.240  
                 119455905.234                   119455905.234    22940241.766  
                 136467359.192                   136467359.192    26207120.783  
                 129757993.947                   129757993.947    24918660.087  
                 115847790.676                   115847790.676    22247350.012  
                 134095678.220                   134095678.220    25751672.231  
  24896549.833   130832221.098                                                  
  25018922.085   131475330.309                                                  
  24100462.417   126648775.801                                                  
  27579676.015   144932151.013                                                  
  27839036.413   146295088.677                                                  
  25179087.498   132316965.523                                                  
  25012546.936   131441799.145                                                  
  25941259.652   136322257.428                                                  
 21  8 31  7 18 28.0000000  0 24G 1G 4G 7G 8G 9G14G17G21G27G30C20C23
                                C25C27C28C32E 1E 4E 9E19E21E26E31E33
  23249605.212   122177448.000    23249608.821    95203192.329                  
  24070356.884   126490567.511    24070358.581    98564077.019                  
  20490164.097   107676551.261    20490163.579    83903808.953                  
  21785418.399   114483102.777    21785420.955    89207601.839                  
  21937675.216   115283222.272    21937677.646    89831072.391                  
  22786374.629   119743208.078    22786375.361    93306398.319                  
  23202924.337   121932187.335    23202924.712    95012092.655                  
  22545012.000   118474833.246    22545011.464    92318051.363                  
  24362377.835   128025126.403    24362379.872    99759831.397                  
  22044475.543   115844460.672    22044477.705    90268400.941                  
                 133392382.347                   133392382.347    25616600.197  
                 119456523.325                   119456523.325    22940360.452  
                 136469305.137                   136469305.137    26207494.478  
                 129754671.969                   129754671.969    24918022.127  
                 115846263.474                   115846263.474    22247056.745  
                 134098095.174                   134098095.174    25752136.397  
  24896690.498   130832960.274                                                  
  25019279.322   131477207.552                                                  
  24100352.040   126648195.795                                                  
  27580232.778   144935076.855                                                  
  27839324.176   146296600.921                                                  
  25178954.660   132316267.453                                                  
  25012407.664   131441067.267                                                  
  25940776.188   136319716.715                                                  
 21  8 31  7 18 29.0000000  0 24G 1G 4G 7G 8G 9G14G17G21G27G30C20C23
                                C25C27C28C32E 1E 4E 9E19E21E26E31E33
  23249057.473   122174569.629    23249061.082    95200949.442                  
  24071055.044   126494236.394    24071056.742    98566935.890                  
  20489958.407   107675470.310    20489957.906    83902966.652                  
  21785921.234   114485745.210    21785923.807    89209660.880                  
  21938204.282   115286002.506    21938206.694    89833238.805                  
  22786055.720   119741532.270    22786056.453    93305092.495                  
  23202296.295   121928886.949    23202296.652    95009520.931                  
  22544800.913   118473724.019    22544800.377    92317187.030                  
  24363070.814   128028768.042    24363072.851    99762669.043                  
  22044005.212   115841989.227    22044007.392    90266475.138                  
                 133393449.973                   133393449.973    25616805.244  
                 119457141.587                   119457141.587    22940479.191  
                 136471251.212                   136471251.212    26207868.209  
                 129751350.064                   129751350.064    24917384.185  
                 115844736.754                   115844736.754    22246763.532  
                 134100512.126                   134100512.126    25752600.563  
  24896831.163   130833699.449                                                  
  25019636.596   131479085.100                                                  
  24100241.752   126647616.254                                                  
  27580789.541   144938002.603                                                  
  27839611.956   146298113.137                                                  
  25178821.893   132315569.821                                                  
  25012268.393   131440335.410                                                  
  25940292.742   136317176.143                                                  
 21  8 31  7 18 30.0000000  0 24G 1G 4G 7G 8G 9G14G17G21G27G30C20C23
                                C25C27C28C32E 1E 4E 9E19E21E26E31E33
  23248509.787   122171691.399    23248513.379    95198706.663                  
  24071753.205   126497905.308    24071754.920    98569794.785                  
  20489752.752   107674389.702    20489752.252    83902124.622                  
  21786424.157   114488388.027    21786426.713    89211720.215                  
  21938733.401   115288783.099    21938735.814    89835405.496                  
  22785736.866   119739856.632    22785737.598    93303786.808                  
  23201668.324   121925586.839    23201668.681    95006949.414                  
  22544589.915   118472615.246    22544589.379    92316323.054                  
  24363763.846   128032409.815    24363765.883    99765506.788                  
  22043534.953   115839517.925    22043537.133    90264549.453                  
                 133394517.960                   133394517.960    25617010.327  
                 119457760.023                   119457760.023    22940597.967  
                 136473197.419                   136473197.419    26208241.939  
                 129748028.234                   129748028.234    24916746.261  
                 115843210.520                   115843210.520    22246470.445  
                 134102929.060                   134102929.060    25753064.693  
  24896971.828   130834438.622                                                  
  25019993.940   131480962.977                                                  
  24100131.554   126647037.155                                                  
  27581346.286   144940928.289                                                  
  27839899.701   146299625.308                                                  
  25178689.234   132314872.622                                                  
  25012129.140   131439603.590                                                  
  25939809.295   136314635.727                                                  
 21  8 31  7 18 31.0000000  0 24G 1G 4G 7G 8G 9G14G17G21G27G30C20C23
                                C25C27C28C32E 1E 4E 9E19E21E26E31E33
  23247962.102   122168813.303    23247965.675    95196463.996                  
  24072451.383   126501574.270    24072453.099    98572653.716                  
  20489547.205   107673309.438    20489546.704    83901282.855                  
  21786927.135   114491031.234    21786929.708    89213779.860                  
  21939262.592   115291564.055    21939265.023    89837572.477                  
  22785418.029   119738181.153    22785418.761    93302481.238                  
  23201040.352   121922286.984    23201040.746    95004378.099                  
  22544379.025   118471506.923    22544378.471    92315459.423                  
  24364456.861   128036051.710    24364458.898    99768344.628                  
  22043064.694   115837046.759    22043066.874    90262623.866                  
                 133395586.316                   133395586.316    25617215.499  
                 119458378.634                   119458378.634    22940716.760  
                 136475143.750                   136475143.750    26208615.724  
                 129744706.480                   129744706.480    24916108.355  
                 115841684.766                   115841684.766    22246177.446  
                 134105345.976                   134105345.976    25753528.841  
  24897112.475   130835177.813                                                  
  25020351.356   131482841.153                                                  
  24100021.445   126646458.488                                                  
  27581902.995   144943853.875                                                  
  27840187.464   146301137.441                                                  
  25178556.645   132314175.843                                                  
  25011989.887   131438871.786                                                  
  25939325.902   136312095.457                                                  
 21  8 31  7 18 32.0000000  0 24G 1G 4G 7G 8G 9G14G17G21G27G30C20C23
                                C25C27C28C32E 1E 4E 9E19E21E26E31E33
  23247414.434   122165935.340    23247418.026    95194221.425                  
  24073149.580   126505243.257    24073151.277    98575512.665                  
  20489341.693   107672229.523    20489341.193    83900441.363                  
  21787430.201   114493674.829    21787432.756    89215839.801                  
  21939791.873   115294345.366    21939794.285    89839739.735                  
  22785099.227   119736505.844    22785099.960    93301175.800                  
  23200412.489   121918987.391    23200412.846    95001806.989                  
  22544168.207   118470399.054    22544167.653    92314596.153                  
  24365149.928   128039693.727    24365151.966    99771182.563                  
  22042594.488   115834575.733    22042596.668    90260698.394                  
                 133396655.035                   133396655.035    25617420.743  
                 119458997.414                   119458997.414    22940835.607  
                 136477090.210                   136477090.210    26208989.526  
                 129741384.802                   129741384.802    24915470.466  
                 115840159.497                   115840159.497    22245884.537  
                 134107762.884                   134107762.884    25753992.988  
  24897253.140   130835916.980                                                  
  25020708.826   131484719.632                                                  
  24099911.426   126645880.281                                                  
  27582459.722   144946779.394                                                  
  27840475.209   146302649.547                                                  
  25178424.147   132313479.507                                                  
  25011850.615   131438140.008                                                  
  25938842.545   136309555.337                                                  
 21  8 31  7 18 33.0000000  0 24G 1G 4G 7G 8G 9G14G17G21G27G30C20C23
                                C25C27C28C32E 1E 4E 9E19E21E26E31E33
  23246866.802   122163057.497    23246870.394    95191978.950                  
  24073847.758   126508912.289    24073849.473    98578371.653                  
  20489136.253   107671149.960    20489135.752    83899600.149                  
  21787933.339   114496318.808    21787935.894    89217900.042                  
  21940321.207   115297127.027    21940323.619    89841907.263                  
  22784780.462   119734830.700    22784781.194    93299870.497                  
  23199784.643   121915688.047    23199785.000    94999236.069                  
  22543957.459   118469291.637    22543956.923    92313733.226                  
  24365842.996   128043335.879    24365845.033    99774020.602                  
  22042124.301   115832104.872    22042126.481    90258773.043                  
                 133397724.121                   133397724.121    25617626.040  
                 119459616.371                   119459616.371    22940954.454  
                 136479036.806                   136479036.806    26209363.346  
                 129738063.199                   129738063.199    24914832.578  
                 115838634.711                   115838634.711    22245591.718  
                 134110179.774                   134110179.774    25754457.118  
  24897393.805   130836656.164                                                  
  25021066.332   131486598.421                                                  
  24099801.477   126645302.520                                                  
  27583016.396   144949704.816                                                  
  27840762.936   146304161.622                                                  
  25178291.701   132312783.609                                                  
  25011711.380   131437408.259                                                  
  25938359.206   136307015.366                                                  
 21  8 31  7 18 34.0000000  0 24G 1G 4G 7G 8G 9G14G17G21G27G30C20C23
                                C25C27C28C32E 1E 4E 9E19E21E26E31E33
  23246319.188   122160179.789    23246322.780    95189736.583                  
  24074545.954   126512581.356    24074547.688    98581230.664                  
  20488930.902   107670070.737    20488930.384    83898759.194                  
  21788436.549   114498963.157    21788439.104    89219960.579                  
  21940850.595   115299909.048    21940853.025    89844075.067                  
  22784461.714   119733155.723    22784462.465    93298565.315                  
  23199156.832   121912388.970    23199157.208    94996665.364                  
  22543746.819   118468184.672    22543746.283    92312870.656                  
  24366536.100   128046978.146    24366538.137    99776858.734                  
  22041654.149   115829634.134    22041656.311    90256847.792                  
                 133398793.570                   133398793.570    25617831.427  
                 119460235.499                   119460235.499    22941073.354  
                 136480983.524                   136480983.524    26209737.184  
                 129734741.672                   129734741.672    24914194.725  
                 115837110.408                   115837110.408    22245298.987  
                 134112596.647                   134112596.647    25754921.266  
  24897534.452   130837395.340                                                  
  25021423.927   131488477.524                                                  
  24099691.619   126644725.206                                                  
  27583573.088   144952630.153                                                  
  27841050.663   146305673.643                                                  
  25178159.363   132312088.130                                                  
  25011572.145   131436676.534                                                  
  25937875.885   136304475.528                                                  
 21  8 31  7 18 35.0000000  0 24G 1G 4G 7G 8G 9G14G17G21G27G30C20C23
                                C25C27C28C32E 1E 4E 9E19E21E26E31E33
  23245771.592   122157302.208    23245775.201    95187494.309                  
  24075244.186   126516250.447    24075245.884    98584089.695                  
  20488725.605   107668991.864    20488725.087    83897918.511                  
  21788939.812   114501607.914    21788942.385    89222021.426                  
  21941380.072   115302691.425    21941382.502    89846243.153                  
  22784143.002   119731480.910    22784143.753    93297260.269                  
  23198529.094   121909090.145    23198529.469    94994094.852                  
  22543536.233   118467078.156    22543535.715    92312008.441                  
  24367229.222   128050620.536    24367231.259    99779696.960                  
  22041183.997   115827163.551    22041186.177    90254922.663                  
                 133399863.383                   133399863.383    25618036.867  
                 119460854.805                   119460854.805    22941192.273  
                 136482930.376                   136482930.376    26210111.057  
                 129731420.220                   129731420.220    24913556.855  
                 115835586.581                   115835586.581    22245006.364  
                 134115013.512                   134115013.512    25755385.396  
  24897675.117   130838134.513                                                  
  25021781.557   131490356.933                                                  
  24099581.831   126644148.331                                                  
  27584129.743   144955555.423                                                  
  27841338.408   146307185.635                                                  
  25178027.097   132311393.091                                                  
  25011432.891   131435944.832                                                  
  25937392.599   136301935.856                                                  
 21  8 31  7 18 36.0000000  0 24G 1G 4G 7G 8G 9G14G17G21G27G30C20C23
                                C25C27C28C32E 1E 4E 9E19E21E26E31E33
  23245224.031   122154424.772    23245227.641    95185252.152                  
  24075942.383   126519919.575    24075944.098    98586948.754                  
  20488520.361   107667913.333    20488519.843    83897078.098                  
  21789443.182   114504253.052    21789445.738    89224082.570                  
  21941909.620   115305474.165    21941912.015    89848411.520                  
  22783824.344   119729806.258    22783825.077    93295955.348                  
  23197901.408   121905791.593    23197901.766    94991524.551                  
  22543325.771   118465972.095    22543325.235    92311146.575                  
  24367922.361   128054263.043    24367924.398    99782535.277                  
  22040713.881   115824693.106    22040716.061    90252997.644                  
                 133400933.562                   133400933.562    25618242.378  
                 119461474.283                   119461474.283    22941311.245  
                 136484877.356                   136484877.356    26210484.966  
                 129728098.844                   129728098.844    24912919.020  
                 115834063.246                   115834063.246    22244713.813  
                 134117430.364                   134117430.364    25755849.526  
  24897815.782   130838873.683                                                  
  25022139.259   131492236.661                                                  
  24099472.133   126643571.909                                                  
  27584686.381   144958480.589                                                  
  27841626.099   146308697.601                                                  
  25177894.920   132310698.478                                                  
  25011293.656   131435213.157                                                  
  25936909.331   136299396.320                                                  
 21  8 31  7 18 37.0000000  0 24G 1G 4G 7G 8G 9G14G17G21G27G30C20C23
                                C25C27C28C32E 1E 4E 9E19E21E26E31E33
  23244676.524   122151547.458    23244680.098    95183010.091                  
  24076640.597   126523588.733    24076642.295    98589807.841                  
  20488315.171   107666835.141    20488314.689    83896237.948                  
  21789946.606   114506898.578    21789949.162    89226144.019                  
  21942439.222   115308257.246    21942441.635    89850580.156                  
  22783505.704   119728131.783    22783506.436    93294650.562                  
  23197273.741   121902493.290    23197274.116    94988954.446                  
  22543115.382   118464866.483    22543114.846    92310285.059                  
  24368615.536   128057905.677    24368617.573    99785373.691                  
  22040243.801   115822222.809    22040245.981    90251072.738                  
                 133402004.105                   133402004.105    25618447.962  
                 119462093.935                   119462093.935    22941430.234  
                 136486824.464                   136486824.464    26210858.876  
                 129724777.547                   129724777.547    24912281.203  
                 115832540.391                   115832540.391    22244421.368  
                 134119847.196                   134119847.196    25756313.656  
  24897956.447   130839612.859                                                  
  25022497.015   131494116.683                                                  
  24099362.543   126642995.929                                                  
  27585243.001   144961405.691                                                  
  27841913.826   146310209.523                                                  
  25177762.814   132310004.293                                                  
  25011154.438   131434481.520                                                  
  25936426.117   136296856.942                                                  
 21  8 31  7 18 38.0000000  0 24G 1G 4G 7G 8G 9G14G17G21G27G30C20C23
                                C25C27C28C32E 1E 4E 9E19E21E26E31E33
  23244129.000   122148670.278    23244132.591    95180768.128                  
  24077338.847   126527257.941    24077340.544    98592666.964                  
  20488110.088   107665757.303    20488109.552    83895398.075                  
  21790450.102   114509544.493    21790452.657    89228205.769                  
  21942968.896   115311040.696    21942971.308    89852749.079                  
  22783187.081   119726457.469    22783187.814    93293345.903                  
  23196646.163   121899195.246    23196646.521    94986384.543                  
  22542905.081   118463761.326    22542904.545    92309423.897                  
  24369308.711   128061548.431    24369310.766    99788212.203                  
  22039773.756   115819752.660    22039775.918    90249147.945                  
                 133403075.011                   133403075.011    25618653.616  
                 119462713.758                   119462713.758    22941549.278  
                 136488771.702                   136488771.702    26211232.821  
                 129721456.319                   129721456.319    24911643.404  
                 115831018.018                   115831018.018    22244128.995  
                 134122264.017                   134122264.017    25756777.786  
  24898097.094   130840352.041                                                  
  25022854.842   131495997.019                                                  
  24099253.024   126642420.414                                                  
  27585799.622   144964330.694                                                  
  27842201.517   146311721.409                                                  
  25177630.798   132309310.542                                                  
  25011015.221   131433749.894                                                  
  25935942.921   136294317.703                                                  
 21  8 31  7 18 39.0000000  0 24G 1G 4G 7G 8G 9G14G17G21G27G30C20C23
                                C25C27C28C32E 1E 4E 9E19E21E26E31E33
  23243581.529   122145793.242    23243585.120    95178526.286                  
  24078037.061   126530927.184    24078038.777    98595526.114                  
  20487905.041   107664679.806    20487904.523    83894558.469                  
  21790953.687   114512190.776    21790956.242    89230267.812                  
  21943498.641   115313824.496    21943501.035    89854918.273                  
  22782868.494   119724783.322    22782869.245    93292041.371                  
  23196018.603   121895897.478    23196018.978    94983814.852                  
  22542694.852   118462656.626    22542694.316    92308563.093                  
  24370001.940   128065191.305    24370003.977    99791050.808                  
  22039303.711   115817282.647    22039305.891    90247223.267                  
                 133404146.287                   133404146.287    25618859.342  
                 119463333.753                   119463333.753    22941668.339  
                 136490719.069                   136490719.069    26211606.802  
                 129718135.176                   129718135.176    24911005.605  
                 115829496.128                   115829496.128    22243836.747  
                 134124680.823                   134124680.823    25757241.899  
  24898237.759   130841091.219                                                  
  25023212.705   131497877.669                                                  
  24099143.576   126641845.323                                                  
  27586356.224   144967255.620                                                  
  27842489.226   146313233.272                                                  
  25177498.889   132308617.235                                                  
  25010876.003   131433018.298                                                  
  25935459.743   136291778.633                                                  
 21  8 31  7 18 40.0000000  0 24G 1G 4G 7G 8G 9G14G17G21G27G30C20C23
                                C25C27C28C32E 1E 4E 9E19E21E26E31E33
  23243034.057   122142916.332    23243037.667    95176284.536                  
  24078735.293   126534596.460    24078737.026    98598385.290                  
  20487700.066   107663602.661    20487699.565    83893719.133                  
  21791457.325   114514837.446    21791459.880    89232330.148                  
  21944028.440   115316608.648    21944030.852    89857087.742                  
  22782549.961   119723109.336    22782550.694    93290736.969                  
  23195391.097   121892599.953    23195391.472    94981245.356                  
  22542484.712   118461552.379    22542484.176    92307702.640                  
  24370695.187   128068834.296    24370697.224    99793889.503                  
  22038833.720   115814812.786    22038835.900    90245298.695                  
                 133405217.917                   133405217.917    25619065.140  
                 119463953.926                   119463953.926    22941787.436  
                 136492666.566                   136492666.566    26211980.800  
                 129714814.105                   129714814.105    24910367.842  
                 115827974.724                   115827974.724    22243544.589  
                 134127097.614                   134127097.614    25757706.029  
  24898378.424   130841830.386                                                  
  25023570.640   131499758.624                                                  
  24099034.235   126641270.691                                                  
  27586912.808   144970180.464                                                  
  27842776.900   146314745.086                                                  
  25177367.015   132307924.341                                                  
  25010736.786   131432286.725                                                  
  25934976.600   136289239.698                                                  
 21  8 31  7 18 41.0000000  0 24G 1G 4G 7G 8G 9G14G17G21G27G30C20C23
                                C25C27C28C32E 1E 4E 9E19E21E26E31E33
  23242486.640   122140039.569    23242490.214    95174042.903                  
  24079433.561   126538265.770    24079435.259    98601244.493                  
  20487495.162   107662525.874    20487494.644    83892880.078                  
  21791961.035   114517484.533    21791963.608    89234392.812                  
  21944558.328   115319393.164    21944560.722    89859257.492                  
  22782231.446   119721435.527    22782232.178    93289432.700                  
  23194763.662   121889302.695    23194764.019    94978676.062                  
  22542274.680   118460448.586    22542274.144    92306842.544                  
  24371388.433   128072477.411    24371390.488    99796728.294                  
  22038363.765   115812343.069    22038365.945    90243374.243                  
                 133406289.922                   133406289.922    25619271.027  
                 119464574.270                   119464574.270    22941906.551  
                 136494614.192                   136494614.192    26212354.817  
                 129711493.110                   129711493.110    24909730.061  
                 115826453.800                   115826453.800    22243252.502  
                 134129514.391                   134129514.391    25758170.141  
  24898519.071   130842569.559                                                  
  25023928.645   131501639.890                                                  
  24098924.984   126640696.516                                                  
  27587469.357   144973105.220                                                  
  27843064.591   146316256.872                                                  
  25177235.231   132307231.888                                                  
  25010597.586   131431555.185                                                  
  25934493.475   136286700.913                                                  
 21  8 31  7 18 42.0000000  0 24G 1G 4G 7G 8G 9G14G17G21G27G30C20C23
                                C25C27C28C32E 1E 4E 9E19E21E26E31E33
  23241939.222   122137162.918    23241942.814    95171801.356                  
  24080131.793   126541935.110    24080133.508    98604103.714                  
  20487290.311   107661449.424    20487289.793    83892041.288                  
  21792464.834   114520131.980    21792467.407    89236455.761                  
  21945088.251   115322178.031    21945090.681    89861427.519                  
  22781912.948   119719761.870    22781913.699    93288128.554                  
  23194136.262   121886005.699    23194136.620    94976106.976                  
  22542064.719   118459345.230    22542064.183    92305982.784                  
  24372081.716   128076120.655    24372083.753    99799567.187                  
  22037893.792   115809873.485    22037895.972    90241449.891                  
                 133407362.285                   133407362.285    25619476.931  
                 119465194.788                   119465194.788    22942025.737  
                 136496561.948                   136496561.948    26212728.851  
                 129708172.191                   129708172.191    24909092.315  
                 115824933.364                   115824933.364    22242960.522  
                 134131931.154                   134131931.154    25758634.235  
  24898659.736   130843308.738                                                  
  25024286.687   131503521.458                                                  
  24098815.804   126640122.767                                                  
  27588025.905   144976029.894                                                  
  27843352.265   146317768.600                                                  
  25177103.554   132306539.863                                                  
  25010458.368   131430823.665                                                  
  25934010.404   136284162.278                                                  
 21  8 31  7 18 43.0000000  0 24G 1G 4G 7G 8G 9G14G17G21G27G30C20C23
                                C25C27C28C32E 1E 4E 9E19E21E26E31E33
  23241391.841   122134286.410    23241395.432    95169559.921                  
  24080830.061   126545604.485    24080831.758    98606962.968                  
  20487085.532   107660373.321    20487085.014    83891202.766                  
  21792968.705   114522779.809    21792971.260    89238519.004                  
  21945618.264   115324963.254    21945620.677    89863597.821                  
  22781594.504   119718088.389    22781595.237    93286824.543                  
  23193508.917   121882708.958    23193509.274    94973538.087                  
  22541854.847   118458242.344    22541854.293    92305123.395                  
  24372775.034   128079764.022    24372777.089    99802406.172                  
  22037423.872   115807404.058    22037426.052    90239525.660                  
                 133408435.011                   133408435.011    25619682.961  
                 119465815.484                   119465815.484    22942144.924  
                 136498509.832                   136498509.832    26213102.939  
                 129704851.347                   129704851.347    24908454.588  
                 115823413.407                   115823413.407    22242668.614  
                 134134347.899                   134134347.899    25759098.365  
  24898800.401   130844047.905                                                  
  25024644.800   131505403.344                                                  
  24098706.696   126639549.475                                                  
  27588582.436   144978954.491                                                  
  27843639.938   146319280.317                                                  
  25176971.967   132305848.278                                                  
  25010319.187   131430092.169                                                  
  25933527.333   136281623.792                                                  
 21  8 31  7 18 44.0000000  0 24G 1G 4G 7G 8G 9G14G17G21G27G30C20C23
                                C25C27C28C32E 1E 4E 9E19E21E26E31E33
  23240844.477   122131410.034    23240848.086    95167318.590                  
  24081528.347   126549273.896    24081530.044    98609822.246                  
  20486880.843   107659297.579    20486880.324    83890364.523                  
  21793472.647   114525428.032    21793475.202    89240582.554                  
  21946148.349   115327748.832    21946150.761    89865768.403                  
  22781276.078   119716415.070    22781276.829    93285520.656                  
  23192881.625   121879412.477    23192881.982    94970969.403                  
  22541645.065   118457139.907    22541644.529    92304264.355                  
  24373468.352   128083407.515    24373470.407    99805245.258                  
  22036954.006   115804934.782    22036956.186    90237601.546                  
                 133409508.104                   133409508.104    25619889.045  
                 119466436.351                   119466436.351    22942264.164  
                 136500457.847                   136500457.847    26213477.027  
                 129701530.581                   129701530.581    24907816.878  
                 115821893.934                   115821893.934    22242376.812  
                 134136764.629                   134136764.629    25759562.459  
  24898941.066   130844787.087                                                  
  25025002.967   131507285.528                                                  
  24098597.695   126638976.633                                                  
  27589138.967   144981879.004                                                  
  27843927.593   146320791.992                                                  
  25176840.433   132305157.124                                                  
  25010179.987   131429360.705                                                  
  25933044.315   136279085.456                                                  
 21  8 31  7 18 45.0000000  0 24G 1G 4G 7G 8G 9G14G17G21G27G30C20C23
                                C25C27C28C32E 1E 4E 9E19E21E26E31E33
  23240297.166   122128533.788    23240300.740    95165077.363                  
  24082226.596   126552943.336    24082228.294    98612681.555                  
  20486676.189   107658222.180    20486675.688    83889526.550                  
  21793976.661   114528076.653    21793979.216    89242646.415                  
  21946678.505   115330534.765    21946680.899    89867939.258                  
  22780957.688   119714741.918    22780958.421    93284216.903                  
  23192254.368   121876116.261    23192254.726    94968400.926                  
  22541435.354   118456037.919    22541434.818    92303405.661                  
  24374161.723   128087051.120    24374163.761    99808084.433                  
  22036484.140   115802465.637    22036486.320    90235677.540                  
                 133410581.563                   133410581.563    25620095.182  
                 119467057.390                   119467057.390    22942383.422  
                 136502405.993                   136502405.993    26213851.133  
                 129698209.895                   129698209.895    24907179.168  
                 115820374.946                   115820374.946    22242085.118  
                 134139181.348                   134139181.348    25760026.571  
  24899081.713   130845526.254                                                  
  25025361.205   131509168.021                                                  
  24098488.783   126638404.231                                                  
  27589695.462   144984803.425                                                  
  27844215.267   146322303.629                                                  
  25176709.006   132304466.399                                                  
  25010040.787   131428629.258                                                  
  25932561.298   136276547.270                                                  
 21  8 31  7 18 46.0000000  0 24G 1G 4G 7G 8G 9G14G17G21G27G30C20C23
                                C25C27C28C32E 1E 4E 9E19E21E26E31E33
  23239749.838   122125657.679    23239753.448    95162836.237                  
  24082924.882   126556612.813    24082926.580    98615540.883                  
  20486471.624   107657147.130    20486471.106    83888688.847                  
  21794480.746   114530725.659    21794483.301    89244710.573                  
  21947208.697   115333321.051    21947211.127    89870110.387                  
  22780639.316   119713068.930    22780640.066    93282913.274                  
  23191627.166   121872820.309    23191627.523    94965832.649                  
  22541225.732   118454936.380    22541225.196    92302547.321                  
  24374855.095   128090694.848    24374857.132    99810923.699                  
  22036014.292   115799996.636    22036016.472    90233753.645                  
                 133411655.383                   133411655.383    25620301.408  
                 119467678.607                   119467678.607    22942502.715  
                 136504354.264                   136504354.264    26214225.292  
                 129694889.281                   129694889.281    24906541.476  
                 115818856.441                   115818856.441    22241793.496  
                 134141598.052                   134141598.052    25760490.683  
  24899222.378   130846265.427                                                  
  25025719.479   131511050.822                                                  
  24098379.943   126637832.277                                                  
  27590251.939   144987727.764                                                  
  27844502.905   146323815.231                                                  
  25176577.633   132303776.102                                                  
  25009901.605   131427897.841                                                  
  25932078.334   136274009.230                                                  
 21  8 31  7 18 47.0000000  0 24G 1G 4G 7G 8G 9G14G17G21G27G30C20C23
                                C25C27C28C32E 1E 4E 9E19E21E26E31E33
  23239202.564   122122781.700    23239206.155    95160595.214                  
  24083623.168   126560282.324    24083624.883    98618400.242                  
  20486267.095   107656072.426    20486266.595    83887851.417                  
  21794984.902   114533375.055    21794987.458    89246775.040                  
  21947738.978   115336107.691    21947741.408    89872281.797                  
  22780320.997   119711396.110    22780321.747    93281609.777                  
  23191000.016   121869524.616    23191000.374    94963264.578                  
  22541016.218   118453835.293    22541015.682    92301689.333                  
  24375548.503   128094338.697    24375550.540    99813763.062                  
  22035544.498   115797527.782    22035546.678    90231829.860                  
                 133412729.566                   133412729.566    25620507.688  
                 119468299.992                   119468299.992    22942622.063  
                 136506302.669                   136506302.669    26214599.452  
                 129691568.745                   129691568.745    24905903.802  
                 115817338.418                   115817338.418    22241501.981  
                 134144014.733                   134144014.733    25760954.778  
  24899363.043   130847004.594                                                  
  25026077.824   131512933.931                                                  
  24098271.174   126637260.770                                                  
  27590808.398   144990652.018                                                  
  27844790.542   146325326.798                                                  
  25176446.367   132303086.240                                                  
  25009762.424   131427166.444                                                  
  25931595.406   136271471.343                                                  
 21  8 31  7 18 48.0000000  0 24G 1G 4G 7G 8G 9G14G17G21G27G30C20C23
                                C25C27C28C32E 1E 4E 9E19E21E26E31E33
  23238655.325   122119905.864    23238658.899    95158354.305                  
  24084321.454   126563951.872    24084323.151    98621259.628                  
  20486062.656   107654998.069    20486062.155    83887014.258                  
  21795489.148   114536024.836    21795491.704    89248839.802                  
  21948269.348   115338894.680    21948271.743    89874453.477                  
  22780002.696   119709723.454    22780003.447    93280306.409                  
  23190372.921   121866229.183    23190373.278    94960696.707                  
  22540806.757   118452734.669    22540806.239    92300831.700                  
  24376241.928   128097982.665    24376243.965    99816602.520                  
  22035074.721   115795059.071    22035076.901    90229906.192                  
                 133413804.113                   133413804.113    25620714.040  
                 119468921.554                   119468921.554    22942741.428  
                 136508251.199                   136508251.199    26214973.665  
                 129688248.288                   129688248.288    24905266.146  
                 115815820.878                   115815820.878    22241210.555  
                 134146431.405                   134146431.405    25761418.872  
  24899503.708   130847743.758                                                  
  25026436.223   131514817.345                                                  
  24098162.495   126636689.715                                                  
  27591364.857   144993576.199                                                  
  27845078.180   146326838.329                                                  
  25176315.155   132302396.809                                                  
  25009623.242   131426435.074                                                  
  25931112.477   136268933.606                                                  
 21  8 31  7 18 49.0000000  0 24G 1G 4G 7G 8G 9G14G17G21G27G30C20C23
                                C25C27C28C32E 1E 4E 9E19E21E26E31E33
  23238108.086   122117030.157    23238111.678    95156113.493                  
  24085019.757   126567621.452    24085021.455    98624119.046                  
  20485858.288   107653924.075    20485857.787    83886177.378                  
  21795993.466   114538675.012    21795996.021    89250904.874                  
  21948799.737   115341682.031    21948802.167    89876625.439                  
  22779684.449   119708050.965    22779685.181    93279003.171                  
  23189745.861   121862933.997    23189746.219    94958129.031                  
  22540597.422   118451634.498    22540596.886    92299974.425                  
  24376935.389   128101626.754    24376937.426    99819442.070                  
  22034604.962   115792590.517    22034607.142    90227982.641                  
                 133414879.029                   133414879.029    25620920.462  
                 119469543.294                   119469543.294    22942860.828  
                 136510199.859                   136510199.859    26215347.878  
                 129684927.906                   129684927.906    24904628.508  
                 115814303.827                   115814303.827    22240919.218  
                 134148848.063                   134148848.063    25761882.966  
  24899644.355   130848482.933                                                  
  25026794.676   131516701.082                                                  
  24098053.923   126636119.102                                                  
  27591921.299   144996500.292                                                  
  27845365.800   146328349.828                                                  
  25176184.068   132301707.818                                                  
  25009484.078   131425703.739                                                  
  25930629.603   136266396.036                                                  
 21  8 31  7 18 50.0000000  0 24G 1G 4G 7G 8G 9G14G17G21G27G30C20C23
                                C25C27C28C32E 1E 4E 9E19E21E26E31E33
  23237560.883   122114154.577    23237564.475    95153872.785                  
  24085718.061   126571291.065    24085719.758    98626978.485                  
  20485653.973   107652850.414    20485653.455    83885340.758                  
  21796497.837   114541325.567    21796500.392    89252970.242                  
  21949330.214   115344469.733    21949332.645    89878797.672                  
  22779366.201   119706378.640    22779366.934    93277700.063                  
  23189118.855   121859639.087    23189119.212    94955561.571                  
  22540388.140   118450534.769    22540387.604    92299117.496                  
  24377628.832   128105270.970    24377630.887    99822281.716                  
  22034135.239   115790122.097    22034137.419    90226059.199                  
                 133415954.299                   133415954.299    25621126.957  
                 119470165.202                   119470165.202    22942980.247  
                 136512148.654                   136512148.654    26215722.127  
                 129681607.606                   129681607.606    24903990.852  
                 115812787.258                   115812787.258    22240627.971  
                 134151264.703                   134151264.703    25762347.061  
  24899785.020   130849222.109                                                  
  25027153.200   131518585.124                                                  
  24097945.422   126635548.933                                                  
  27592477.722   144999424.288                                                  
  27845653.419   146329861.292                                                  
  25176053.017   132301019.249                                                  
  25009344.914   131424972.413                                                  
  25930146.746   136263858.595                                                  
 21  8 31  7 18 51.0000000  0 24G 1G 4G 7G 8G 9G14G17G21G27G30C20C23
                                C25C27C28C32E 1E 4E 9E19E21E26E31E33
  23237013.698   122111279.146    23237017.307    95151632.183                  
  24086416.382   126574960.716    24086418.080    98629837.948                  
  20485449.748   107651777.098    20485449.212    83884504.411                  
  21797002.297   114543976.507    21797004.853    89255035.909                  
  21949860.781   115347257.800    21949863.194    89880970.191                  
  22779048.008   119704706.477    22779048.740    93276397.081                  
  23188491.903   121856344.414    23188492.260    94952994.294                  
  22540178.965   118449435.504    22540178.411    92298260.926                  
  24378322.347   128108915.308    24378324.384    99825121.460                  
  22033665.534   115787653.818    22033667.714    90224135.862                  
                 133417029.957                   133417029.957    25621333.523  
                 119470787.282                   119470787.282    22943099.719  
                 136514097.593                   136514097.593    26216096.394  
                 129678287.388                   129678287.388    24903353.267  
                 115811271.164                   115811271.164    22240336.813  
                 134153681.320                   134153681.320    25762811.137  
  24899925.685   130849961.282                                                  
  25027511.778   131520469.462                                                  
  24097837.029   126634979.222                                                  
  27593034.128   145002348.219                                                  
  27845941.039   146331372.730                                                  
  25175922.072   132300331.121                                                  
  25009205.768   131424241.125                                                  
  25929663.907   136261321.303                                                  
 21  8 31  7 18 52.0000000  0 24G 1G 4G 7G 8G 9G14G17G21G27G30C20C23
                                C25C27C28C32E 1E 4E 9E19E21E26E31E33
  23236466.548   122108403.833    23236470.140    95149391.684                  
  24087114.686   126578630.394    24087116.401    98632697.437                  
  20485245.559   107650704.137    20485245.041    83883668.335                  
  21797506.811   114546627.828    21797509.384    89257101.874                  
  21950391.402   115350046.215    21950393.814    89883142.980                  
  22778729.832   119703034.484    22778730.582    93275094.230                  
  23187865.004   121853050.015    23187865.361    94950427.229                  
  22539969.862   118448336.682    22539969.326    92297404.704                  
  24379015.861   128112559.770    24379017.898    99827961.305                  
  22033195.883   115785185.691    22033198.063    90222212.649                  
                 133418105.957                   133418105.957    25621540.160  
                 119471409.539                   119471409.539    22943219.192  
                 136516046.644                   136516046.644    26216470.696  
                 129674967.236                   129674967.236    24902715.665  
                 115809755.563                   115809755.563    22240045.781  
                 134156097.928                   134156097.928    25763275.213  
  24900066.332   130850700.458                                                  
  25027870.427   131522354.115                                                  
  24097728.689   126634409.953                                                  
  27593590.498   145005272.051                                                  
  27846228.659   146332884.114                                                  
  25175791.218   132299643.425                                                  
  25009066.604   131423509.860                                                  
  25929181.104   136258784.162                                                  
 21  8 31  7 18 53.0000000  0 24G 1G 4G 7G 8G 9G14G17G21G27G30C20C23
                                C25C27C28C32E 1E 4E 9E19E21E26E31E33
  23235919.417   122105528.663    23235923.026    95147151.294                  
  24087813.025   126582300.106    24087814.722    98635556.958                  
  20485041.441   107649631.520    20485040.941    83882832.532                  
  21798011.432   114549279.554    21798014.006    89259168.152                  
  21950922.076   115352834.980    21950924.506    89885316.046                  
  22778411.692   119701362.664    22778412.442    93273791.513                  
  23187238.140   121849755.871    23187238.498    94947860.364                  
  22539760.848   118447238.321    22539760.294    92296548.831                  
  24379709.394   128116204.349    24379711.449    99830801.234                  
  22032726.231   115782717.706    22032728.393    90220289.544                  
                 133419182.324                   133419182.324    25621746.851  
                 119472031.974                   119472031.974    22943338.735  
                 136517995.825                   136517995.825    26216845.016  
                 129671647.165                   129671647.165    24902078.080  
                 115808240.440                   115808240.440    22239754.819  
                 134158514.522                   134158514.522    25763739.308  
  24900206.997   130851439.622                                                  
  25028229.112   131524239.066                                                  
  24097620.438   126633841.134                                                  
  27594146.885   145008195.800                                                  
  27846516.261   146334395.473                                                  
  25175660.416   132298956.156                                                  
  25008927.440   131422778.616                                                  
  25928698.319   136256247.187                                                  
 21  8 31  7 18 54.0000000  0 24G 1G 4G 7G 8G 9G14G17G21G27G30C20C23
                                C25C27C28C32E 1E 4E 9E19E21E26E31E33
  23235372.321   122102653.637    23235375.912    95144911.012                  
  24088511.346   126585969.854    24088513.044    98638416.500                  
  20484837.395   107648559.243    20484836.877    83881996.992                  
  21798516.125   114551931.671    21798518.680    89261234.738                  
  21951452.840   115355624.097    21951455.252    89887489.382                  
  22778093.588   119699691.000    22778094.338    93272488.915                  
  23186611.349   121846462.005    23186611.706    94945293.715                  
  22539551.923   118446140.415    22539551.387    92295693.324                  
  24380402.962   128119849.042    24380404.999    99833641.258                  
  22032256.615   115780249.870    22032258.795    90218366.555                  
                 133420259.055                   133420259.055    25621953.632  
                 119472654.577                   119472654.577    22943458.297  
                 136519945.134                   136519945.134    26217219.355  
                 129668327.168                   129668327.168    24901440.496  
                 115806725.808                   115806725.808    22239463.947  
                 134160931.101                   134160931.101    25764203.384  
  24900347.662   130852178.789                                                  
  25028587.886   131526124.335                                                  
  24097512.277   126633272.755                                                  
  27594703.237   145011119.473                                                  
  27846803.863   146335906.793                                                  
  25175529.722   132298269.316                                                  
  25008788.294   131422047.396                                                  
  25928215.587   136253710.345                                                  
 21  8 31  7 18 55.0000000  0 24G 1G 4G 7G 8G 9G14G17G21G27G30C20C23
                                C25C27C28C32E 1E 4E 9E19E21E26E31E33
  23234825.243   122099778.773    23234828.817    95142670.883                  
  24089209.686   126589639.614    24089211.383    98641276.050                  
  20484633.420   107647487.310    20484632.902    83881161.712                  
  21799020.854   114554584.209    21799023.427    89263301.679                  
  21951983.657   115358413.575    21951986.052    89889663.003                  
  22777775.519   119698019.479    22777776.252    93271186.429                  
  23185984.575   121843168.451    23185984.914    94942727.343                  
  22539343.052   118445043.016    22539342.516    92294838.243                  
  24381096.566   128123493.683    24381098.621    99836481.160                  
  22031787.035   115777782.148    22031789.215    90216443.643                  
                 133421336.111                   133421336.111    25622160.483  
                 119473277.355                   119473277.355    22943577.894  
                 136521894.553                   136521894.553    26217593.728  
                 129665007.155                   129665007.155    24900802.965  
                 115805211.696                   115805211.696    22239173.165  
                 134163347.649                   134163347.649    25764667.460  
  24900488.291   130852918.009                                                  
  25028946.678   131528009.903                                                  
  24097404.223   126632704.698                                                  
  27595259.447   145014043.686                                                  
  27847091.447   146337417.984                                                  
  25175399.118   132297582.840                                                  
  25008649.148   131421316.266                                                  
  25927732.838   136251173.784                                                  
 21  8 31  7 18 56.0000000  0 24G 1G 4G 7G 8G 9G14G17G21G27G30C20C23
                                C25C27C28C32E 1E 4E 9E19E21E26E31E33
  23234278.183   122096904.017    23234281.774    95140430.813                  
  24089908.025   126593309.429    24089909.722    98644135.644                  
  20484429.499   107646415.743    20484428.998    83880326.723                  
  21799525.671   114557237.101    21799528.244    89265368.867                  
  21952514.546   115361203.411    21952516.958    89891836.903                  
  22777457.468   119696348.156    22777458.219    93269884.097                  
  23185357.855   121839875.110    23185358.212    94940161.107                  
  22539134.324   118443946.023    22539133.752    92293983.440                  
  24381790.188   128127138.626    24381792.243    99839321.375                  
  22031317.473   115775314.615    22031319.653    90214520.890                  
                 133422413.571                   133422413.571    25622367.407  
                 119473900.316                   119473900.316    22943697.545  
                 136523844.130                   136523844.130    26217968.120  
                 129661687.321                   129661687.321    24900165.416  
                 115803698.035                   115803698.035    22238882.453  
                 134165764.199                   134165764.199    25765131.519  
  24900628.956   130853657.185                                                  
  25029305.560   131529895.788                                                  
  24097296.240   126632137.223                                                  
  27595815.763   145016967.192                                                  
  27847379.013   146338929.234                                                  
  25175268.584   132296896.872                                                  
  25008510.020   131420585.113                                                  
  25927250.160   136248637.261                                                  
 21  8 31  7 18 57.0000000  0 24G 1G 4G 7G 8G 9G14G17G21G27G30C20C23
                                C25C27C28C32E 1E 4E 9E19E21E26E31E33
  23233731.158   122094029.396    23233734.732    95138190.847                  
  24090606.364   126596979.288    24090608.062    98646995.277                  
  20484225.667   107645344.523    20484225.148    83879492.008                  
  21800030.578   114559890.347    21800033.134    89267436.329                  
  21953045.506   115363993.599    21953047.900    89894011.074                  
  22777139.453   119694676.999    22777140.204    93268581.899                  
  23184731.224   121836582.022    23184731.563    94937595.071                  
  22538925.632   118442849.481    22538925.096    92293128.992                  
  24382483.792   128130783.692    24382485.865    99842161.688                  
  22030847.947   115772847.219    22030850.127    90212598.246                  
                 133423491.395                   133423491.395    25622574.384  
                 119474523.449                   119474523.449    22943817.196  
                 136525793.829                   136525793.829    26218342.548  
                 129658367.561                   129658367.561    24899527.885  
                 115802184.860                   115802184.860    22238591.885  
                 134168180.734                   134168180.734    25765595.595  
  24900769.621   130854396.355                                                  
  25029664.477   131531781.990                                                  
  24097188.347   126631570.203                                                  
  27596372.079   145019890.601                                                  
  27847666.597   146340440.454                                                  
  25175138.123   132296211.329                                                  
  25008370.873   131419853.984                                                  
  25926767.499   136246100.871                                                  
 21  8 31  7 18 58.0000000  0 24G 1G 4G 7G 8G 9G14G17G21G27G30C20C23
                                C25C27C28C32E 1E 4E 9E19E21E26E31E33
  23233184.152   122091154.901    23233187.743    95135950.985                  
  24091304.721   126600649.168    24091306.419    98649854.926                  
  20484021.853   107644273.646    20484021.352    83878657.558                  
  21800535.539   114562543.992    21800538.094    89269504.104                  
  21953576.520   115366784.136    21953578.914    89896185.521                  
  22776821.474   119693006.007    22776822.224    93267279.829                  
  23184104.593   121833289.207    23184104.968    94935029.239                  
  22538717.065   118441753.391    22538716.528    92292274.899                  
  24383177.467   128134428.876    24383179.522    99845002.089                  
  22030378.438   115770379.964    22030380.618    90210675.710                  
                 133424569.579                   133424569.579    25622781.432  
                 119475146.759                   119475146.759    22943936.901  
                 136527743.664                   136527743.664    26218716.975  
                 129655047.884                   129655047.884    24898890.372  
                 115800672.165                   115800672.165    22238301.389  
                 134170597.250                   134170597.250    25766059.654  
  24900910.286   130855135.528                                                  
  25030023.483   131533668.485                                                  
  24097080.526   126631003.616                                                  
  27596928.360   145022813.937                                                  
  27847954.163   146341951.636                                                  
  25175007.768   132295526.217                                                  
  25008231.763   131419122.875                                                  
  25926284.857   136243564.648                                                  
 21  8 31  7 18 59.0000000  0 24G 1G 4G 7G 8G 9G14G17G21G27G30C20C23
                                C25C27C28C32E 1E 4E 9E19E21E26E31E33
  23232637.181   122088280.544    23232640.773    95133711.222                  
  24092003.078   126604319.083    24092004.776    98652714.593                  
  20483818.164   107643203.130    20483817.645    83877823.390                  
  21801040.607   114565198.039    21801043.144    89271572.191                  
  21954107.605   115369575.031    21954110.017    89898360.242                  
  22776503.513   119691335.179    22776504.263    93265977.883                  
  23183478.033   121829996.645    23183478.409    94932463.606                  
  22538508.587   118440657.759    22538508.015    92291421.159                  
  24383871.143   128138074.191    24383873.198    99847842.595                  
  22029908.965   115767912.871    22029911.145    90208753.302                  
                 133425648.129                   133425648.129    25622988.552  
                 119475770.243                   119475770.243    22944056.623  
                 136529693.624                   136529693.624    26219091.438  
                 129651728.281                   129651728.281    24898252.876  
                 115799159.958                   115799159.958    22238010.981  
                 134173013.753                   134173013.753    25766523.712  
  24901050.933   130855874.703                                                  
  25030382.526   131535555.294                                                  
  24096972.775   126630437.485                                                  
  27597484.640   145025737.179                                                  
  27848241.712   146343462.777                                                  
  25174877.467   132294841.564                                                  
  25008092.635   131418391.789                                                  
  25925802.268   136241028.562                                                  
 21  8 31  7 19  0.0000000  0 24G 1G 4G 7G 8G 9G14G17G21G27G30C20C23
                                C25C27C28C32E 1E 4E 9E19E21E26E31E33
  23232090.246   122085406.328    23232093.820    95131471.573                  
  24092701.436   126607989.043    24092703.169    98655574.309                  
  20483614.492   107642132.960    20483613.992    83876989.489                  
  21801545.729   114567852.462    21801548.266    89273640.570                  
  21954638.762   115372366.281    21954641.174    89900535.242                  
  22776185.605   119689664.515    22776186.337    93264676.067                  
  23182851.545   121826704.355    23182851.903    94929898.183                  
  22538300.162   118439562.573    22538299.626    92290567.770                  
  24384564.836   128141719.607    24384566.873    99850683.180                  
  22029439.528   115765445.915    22029441.708    90206830.992                  
                 133426727.044                   133426727.044    25623195.743  
                 119476393.899                   119476393.899    22944176.399  
                 136531643.715                   136531643.715    26219465.937  
                 129648408.755                   129648408.755    24897615.399  
                 115797648.231                   115797648.231    22237720.663  
                 134175430.239                   134175430.239    25766987.789  
  24901191.598   130856613.879                                                  
  25030741.621   131537442.414                                                  
  24096865.132   126629871.788                                                  
  27598040.903   145028660.359                                                  
  27848529.278   146344973.889                                                  
  25174747.256   132294157.329                                                  
  25007953.525   131417660.727                                                  
  25925319.680   136238492.641                                                  
 21  8 31  7 19  1.0000000  0 24G 1G 4G 7G 8G 9G14G17G21G27G30C20C23
                                C25C27C28C32E 1E 4E 9E19E21E26E31E33
  23231543.329   122082532.236    23231546.902    95129232.023                  
  24093399.829   126611659.028    24093401.526    98658434.035                  
  20483410.929   107641063.128    20483410.428    83876155.855                  
  21802050.904   114570507.278    21802053.459    89275709.258                  
  21955169.972   115375157.878    21955172.402    89902710.512                  
  22775867.715   119687994.016    22775868.465    93263374.379                  
  23182225.075   121823412.318    23182225.433    94927332.961                  
  22538091.845   118438467.850    22538091.291    92289714.739                  
  24385258.565   128145365.148    24385260.620    99853523.864                  
  22028970.109   115762979.100    22028972.289    90204908.801                  
                 133427806.321                   133427806.321    25623403.024  
                 119477017.729                   119477017.729    22944296.193  
                 136533593.938                   136533593.938    26219840.454  
                 129645089.310                   129645089.310    24896977.922  
                 115796136.992                   115796136.992    22237430.435  
                 134177846.711                   134177846.711    25767451.847  
  24901332.263   130857353.043                                                  
  25031100.789   131539329.831                                                  
  24096757.561   126629306.557                                                  
  27598597.148   145031583.445                                                  
  27848816.826   146346484.969                                                  
  25174617.133   132293473.524                                                  
  25007814.396   131416929.689                                                  
  25924837.145   136235956.864                                                  
 21  8 31  7 19  2.0000000  0 24G 1G 4G 7G 8G 9G14G17G21G27G30C20C23
                                C25C27C28C32E 1E 4E 9E19E21E26E31E33
  23230996.411   122079658.290    23231000.003    95126992.587                  
  24094098.204   126615329.040    24094099.901    98661293.785                  
  20483207.400   107639993.647    20483206.900    83875322.496                  
  21802556.168   114573162.464    21802558.724    89277778.238                  
  21955701.254   115377949.830    21955703.684    89904886.054                  
  22775549.861   119686323.687    22775550.593    93262072.824                  
  23181598.677   121820120.544    23181599.034    94924767.941                  
  22537883.600   118437373.586    22537883.064    92288862.066                  
  24385952.294   128149010.813    24385954.367    99856364.640                  
  22028500.708   115760512.432    22028502.888    90202986.722                  
                 133428885.956                   133428885.956    25623610.340  
                 119477641.734                   119477641.734    22944416.023  
                 136535544.285                   136535544.285    26220215.007  
                 129641769.940                   129641769.940    24896340.480  
                 115794626.236                   115794626.236    22237140.313  
                 134180263.159                   134180263.159    25767915.906  
  24901472.892   130858092.216                                                  
  25031459.992   131541217.562                                                  
  24096650.079   126628741.755                                                  
  27599153.357   145034506.429                                                  
  27849104.357   146347996.004                                                  
  25174487.083   132292790.149                                                  
  25007675.304   131416198.688                                                  
  25924354.627   136233421.231                                                  
 21  8 31  7 19  3.0000000  0 24G 1G 4G 7G 8G 9G14G17G21G27G30C20C23
                                C25C27C28C32E 1E 4E 9E19E21E26E31E33
  23230449.548   122076784.470    23230453.140    95124753.247                  
  24094796.579   126618999.087    24094798.276    98664153.560                  
  20483003.962   107638924.516    20483003.443    83874489.403                  
  21803061.504   114575818.040    21803064.060    89279847.516                  
  21956232.625   115380742.136    21956235.037    89907061.880                  
  22775232.042   119684653.519    22775232.775    93260771.395                  
  23180972.314   121816829.026    23180972.671    94922203.126                  
  22537675.461   118436279.758    22537674.925    92288009.730                  
  24386646.059   128152656.598    24386648.114    99859205.511                  
  22028031.342   115758045.911    22028033.522    90201064.757                  
                 133429965.958                   133429965.958    25623817.746  
                 119478265.919                   119478265.919    22944535.888  
                 136537494.765                   136537494.765    26220589.559  
                 129638450.649                   129638450.649    24895703.038  
                 115793115.965                   115793115.965    22236850.281  
                 134182679.599                   134182679.599    25768379.946  
  24901613.557   130858831.383                                                  
  25031819.284   131543105.598                                                  
  24096542.704   126628177.405                                                  
  27599709.584   145037429.351                                                  
  27849391.905   146349506.996                                                  
  25174357.121   132292107.224                                                  
  25007536.176   131415467.708                                                  
  25923872.146   136230885.762                                                  
 21  8 31  7 19  4.0000000  0 24G 1G 4G 7G 8G 9G14G17G21G27G30C20C23
                                C25C27C28C32E 1E 4E 9E19E21E26E31E33
  23229902.702   122073910.797    23229906.276    95122514.023                  
  24095494.971   126622669.164    24095496.687    98667013.360                  
  20482800.558   107637855.737    20482800.058    83873656.590                  
  21803566.912   114578474.003    21803569.485    89281917.098                  
  21956764.032   115383534.792    21956766.462    89909237.978                  
  22774914.242   119682983.515    22774914.974    93259470.094                  
  23180346.023   121813537.784    23180346.380    94919638.524                  
  22537467.394   118435186.395    22537466.840    92287157.759                  
  24387339.860   128156302.507    24387341.915    99862046.481                  
  22027561.994   115755579.539    22027564.174    90199142.909                  
                 133431046.323                   133431046.323    25624025.223  
                 119478890.270                   119478890.270    22944655.772  
                 136539445.374                   136539445.374    26220964.166  
                 129635131.436                   129635131.436    24895065.615  
                 115791606.175                   115791606.175    22236560.338  
                 134185096.018                   134185096.018    25768843.987  
  24901754.222   130859570.556                                                  
  25032178.613   131544993.939                                                  
  24096435.382   126627613.516                                                  
  27600265.775   145040352.173                                                  
  27849679.418   146351017.970                                                  
  25174227.231   132291424.706                                                  
  25007397.083   131414736.749                                                  
  25923389.682   136228350.442                                                  
 21  8 31  7 19  5.0000000  0 24G 1G 4G 7G 8G 9G14G17G21G27G30C20C23
                                C25C27C28C32E 1E 4E 9E19E21E26E31E33
  23229355.874   122071037.259    23229359.484    95120274.898                  
  24096193.364   126626339.272    24096195.080    98669873.185                  
  20482597.263   107636787.308    20482596.744    83872824.048                  
  21804072.408   114581130.360    21804074.964    89283986.984                  
  21957295.546   115386327.806    21957297.958    89911414.347                  
  22774596.477   119681313.676    22774597.227    93258168.923                  
  23179719.767   121810246.803    23179720.124    94917074.121                  
  22537259.417   118434093.474    22537258.863    92286306.132                  
  24388033.678   128159948.532    24388035.715    99864887.538                  
  22027092.682   115753113.312    22027094.862    90197221.176                  
                 133432127.052                   133432127.052    25624232.754  
                 119479514.801                   119479514.801    22944775.727  
                 136541396.114                   136541396.114    26221338.772  
                 129631812.305                   129631812.305    24894428.227  
                 115790096.876                   115790096.876    22236270.485  
                 134187512.423                   134187512.423    25769308.046  
  24901894.887   130860309.720                                                  
  25032538.012   131546882.603                                                  
  24096328.168   126627050.069                                                  
  27600821.948   145043274.910                                                  
  27849966.948   146352528.903                                                  
  25174097.466   132290742.641                                                  
  25007258.009   131414005.813                                                  
  25922907.254   136225815.270                                                  
 21  8 31  7 19  6.0000000  0 24G 1G 4G 7G 8G 9G14G17G21G27G30C20C23
                                C25C27C28C32E 1E 4E 9E19E21E26E31E33
  23228809.082   122068163.847    23228812.674    95118035.878                  
  24096891.775   126630009.425    24096893.473    98672733.044                  
  20482394.002   107635719.230    20482393.502    83871991.777                  
  21804577.959   114583787.098    21804580.514    89286057.167                  
  21957827.096   115389121.163    21957829.526    89913590.992                  
  22774278.748   119679644.005    22774279.498    93256867.875                  
  23179093.565   121806956.066    23179093.904    94914509.915                  
  22537051.529   118433001.008    22537050.975    92285454.862                  
  24388727.497   128163594.667    24388729.552    99867728.684                  
  22026623.406   115750647.210    22026625.586    90195299.540                  
                 133433208.138                   133433208.138    25624440.356  
                 119480139.504                   119480139.504    22944895.681  
                 136543346.984                   136543346.984    26221713.414  
                 129628493.250                   129628493.250    24893790.821  
                 115788588.059                   115788588.059    22235980.739  
                 134189928.804                   134189928.804    25769772.086  
  24902035.534   130861048.884                                                  
  25032897.483   131548771.536                                                  
  24096221.026   126626487.031                                                  
  27601378.122   145046197.597                                                  
  27850254.461   146354039.806                                                  
  25173967.737   132290060.995                                                  
  25007118.898   131413274.895                                                  
  25922424.862   136223280.270                                                  
 21  8 31  7 19  7.0000000  0 24G 1G 4G 7G 8G 9G14G17G21G27G30C20C23
                                C25C27C28C32E 1E 4E 9E19E21E26E31E33
  23228262.326   122065290.573    23228265.900    95115796.966                  
  24097590.186   126633679.601    24097591.901    98675592.917                  
  20482190.814   107634651.510    20482190.313    83871159.792                  
  21805083.599   114586444.214    21805086.136    89288127.652                  
  21958358.717   115391914.861    21958361.147    89915767.899                  
  22773961.036   119677974.491    22773961.805    93255566.960                  
  23178467.399   121803665.616    23178467.756    94911945.925                  
  22536843.712   118431908.997    22536843.176    92284603.945                  
  24389421.369   128167240.933    24389423.424    99870569.930                  
  22026154.147   115748181.284    22026156.327    90193378.040                  
                 133434289.591                   133434289.591    25624648.048  
                 119480764.381                   119480764.381    22945015.672  
                 136545297.980                   136545297.980    26222088.074  
                 129625174.273                   129625174.273    24893153.433  
                 115787079.725                   115787079.725    22235691.082  
                 134192345.177                   134192345.177    25770236.091  
  24902176.199   130861788.048                                                  
  25033256.972   131550660.802                                                  
  24096113.954   126625924.450                                                  
  27601934.259   145049120.196                                                  
  27850541.955   146355550.671                                                  
  25173838.098   132289379.786                                                  
  25006979.824   131412544.000                                                  
  25921942.506   136220745.435                                                  
 21  8 31  7 19  8.0000000  0 24G 1G 4G 7G 8G 9G14G17G21G27G30C20C23
                                C25C27C28C32E 1E 4E 9E19E21E26E31E33
  23227715.587   122062417.460    23227719.179    95113558.177                  
  24098288.597   126637349.801    24098290.294    98678452.817                  
  20481987.697   107633584.081    20481987.178    83870328.027                  
  21805589.292   114589101.710    21805591.847    89290198.430                  
  21958890.428   115394708.957    21958892.840    89917945.113                  
  22773643.379   119676305.169    22773644.111    93254266.187                  
  23177841.304   121800375.398    23177841.643    94909382.121                  
  22536636.002   118430817.450    22536635.466    92283753.386                  
  24390115.241   128170887.308    24390117.296    99873411.262                  
  22025684.925   115745715.503    22025687.105    90191456.649                  
                 133435371.404                   133435371.404    25624855.793  
                 119481389.433                   119481389.433    22945135.716  
                 136547249.109                   136547249.109    26222462.787  
                 129621855.371                   129621855.371    24892516.080  
                 115785571.874                   115785571.874    22235401.496  
                 134194761.527                   134194761.527    25770700.132  
  24902316.864   130862527.227                                                  
  25033616.569   131552550.384                                                  
  24096007.008   126625362.392                                                  
  27602490.379   145052042.601                                                  
  27850829.468   146357061.487                                                  
  25173708.565   132288699.009                                                  
  25006840.731   131411813.178                                                  
  25921460.132   136218210.644                                                  
 21  8 31  7 19  9.0000000  0 24G 1G 4G 7G 8G 9G14G17G21G27G30C20C23
                                C25C27C28C32E 1E 4E 9E19E21E26E31E33
  23227168.867   122059544.465    23227172.458    95111319.481                  
  24098987.025   126641020.042    24098988.723    98681312.745                  
  20481784.633   107632517.051    20481784.133    83869496.575                  
  21806095.075   114591759.601    21806097.612    89292269.512                  
  21959422.174   115397503.383    21959424.586    89920122.589                  
  22773325.739   119674635.993    22773326.507    93252965.530                  
  23177215.245   121797085.473    23177215.584    94906818.544                  
  22536428.382   118429726.360    22536427.828    92282903.186                  
  24390809.149   128174533.809    24390811.203    99876252.691                  
  22025215.720   115743249.859    22025217.900    90189535.370                  
                 133436453.577                   133436453.577    25625063.628  
                 119482014.659                   119482014.659    22945255.778  
                 136549200.367                   136549200.367    26222837.483  
                 129618536.551                   129618536.551    24891878.746  
                 115784064.511                   115784064.511    22235112.018  
                 134197177.865                   134197177.865    25771164.173  
  24902457.493   130863266.379                                                  
  25033976.183   131554440.245                                                  
  24095900.116   126624800.712                                                  
  27603046.499   145054965.013                                                  
  27851116.963   146358572.282                                                  
  25173579.104   132288018.669                                                  
  25006701.657   131411082.328                                                  
  25920977.829   136215676.078                                                  
 21  8 31  7 19 10.0000000  0 24G 1G 4G 7G 8G 9G14G17G21G27G30C20C23
                                C25C27C28C32E 1E 4E 9E19E21E26E31E33
  23226622.182   122056671.608    23226625.756    95109080.891                  
  24099685.436   126644690.321    24099687.151    98684172.698                  
  20481581.659   107631450.367    20481581.141    83868665.395                  
  21806600.929   114594417.874    21806603.484    89294340.891                  
  21959953.992   115400298.151    21959956.422    89922300.331                  
  22773008.135   119672966.984    22773008.886    93251665.004                  
  23176589.221   121793795.790    23176589.579    94904255.151                  
  22536220.816   118428635.723    22536220.280    92282053.344                  
  24391503.074   128178180.436    24391505.147    99879094.219                  
  22024746.569   115740784.359    22024748.749    90187614.204                  
                 133437536.118                   133437536.118    25625271.498  
                 119482640.063                   119482640.063    22945375.876  
                 136551151.755                   136551151.755    26223212.232  
                 129615217.812                   129615217.812    24891241.393  
                 115782557.637                   115782557.637    22234822.647  
                 134199594.179                   134199594.179    25771628.195  
  24902598.158   130864005.538                                                  
  25034335.886   131556330.435                                                  
  24095793.313   126624239.490                                                  
  27603602.601   145057887.324                                                  
  27851404.439   146360083.027                                                  
  25173449.696   132287338.751                                                  
  25006562.600   131410351.512                                                  
  25920495.544   136213141.657                                                  
 21  8 31  7 19 11.0000000  0 24G 1G 4G 7G 8G 9G14G17G21G27G30C20C23
                                C25C27C28C32E 1E 4E 9E19E21E26E31E33
  23226075.515   122053798.894    23226079.106    95106842.411                  
  24100383.883   126648360.626    24100385.580    98687032.677                  
  20481378.738   107630384.036    20481378.220    83867834.485                  
  21807106.837   114597076.516    21807109.392    89296412.558                  
  21960485.899   115403093.281    21960488.293    89924478.352                  
  22772690.585   119671298.137    22772691.317    93250364.606                  
  23175963.287   121790506.381    23175963.627    94901691.981                  
  22536013.374   118427545.540    22536012.820    92281203.848                  
  24392197.018   128181827.169    24392199.073    99881935.829                  
  22024277.400   115738318.999    22024279.580    90185693.145                  
                 133438619.018                   133438619.018    25625479.458  
                 119483265.641                   119483265.641    22945496.027  
                 136553103.274                   136553103.274    26223586.999  
                 129611899.149                   129611899.149    24890604.077  
                 115781051.243                   115781051.243    22234533.366  
                 134202010.479                   134202010.479    25772092.218  
  24902738.823   130864744.699                                                  
  25034695.625   131558220.921                                                  
  24095686.617   126623678.711                                                  
  27604158.685   145060809.542                                                  
  27851691.916   146361593.751                                                  
  25173320.396   132286659.262                                                  
  25006423.543   131409620.723                                                  
  25920013.277   136210607.382                                                  
 21  8 31  7 19 12.0000000  0 24G 1G 4G 7G 8G 9G14G17G21G27G30C20C23
                                C25C27C28C32E 1E 4E 9E19E21E26E31E33
  23225528.883   122050926.304    23225532.457    95104604.031                  
  24101082.311   126652030.961    24101084.027    98689892.680                  
  20481175.871   107629318.051    20481175.389    83867003.847                  
  21807612.834   114599735.564    21807615.407    89298484.548                  
  21961017.860   115405888.757    21961020.254    89926656.645                  
  22772373.034   119669629.457    22772373.785    93249064.336                  
  23175337.353   121787217.235    23175337.729    94899129.007                  
  22535806.004   118426455.809    22535805.468    92280354.707                  
  24392890.997   128185474.034    24392893.052    99884777.542                  
  22023808.302   115735853.801    22023810.482    90183772.207                  
                 133439702.282                   133439702.282    25625687.471  
                 119483891.390                   119483891.390    22945616.178  
                 136555054.918                   136555054.918    26223961.784  
                 129608580.568                   129608580.568    24889966.778  
                 115779545.331                   115779545.331    22234244.155  
                 134204426.762                   134204426.762    25772556.241  
  24902879.488   130865483.860                                                  
  25035055.436   131560111.712                                                  
  24095579.974   126623118.387                                                  
  27604714.733   145063731.683                                                  
  27851979.393   146363104.429                                                  
  25173191.185   132285980.219                                                  
  25006284.486   131408889.957                                                  
  25919531.063   136208073.263                                                  
 21  8 31  7 19 13.0000000  0 24G 1G 4G 7G 8G 9G14G17G21G27G30C20C23
                                C25C27C28C32E 1E 4E 9E19E21E26E31E33
  23224982.252   122048053.855    23224985.862    95102365.757                  
  24101780.758   126655701.325    24101782.473    98692752.699                  
  20480973.093   107628252.414    20480972.593    83866173.482                  
  21808118.920   114602394.999    21808121.458    89300556.832                  
  21961549.874   115408684.585    21961552.304    89928835.212                  
  22772055.520   119667960.950    22772056.252    93247764.198                  
  23174711.526   121783928.360    23174711.866    94896566.250                  
  22535598.723   118425366.530    22535598.152    92279505.923                  
  24393584.994   128189120.999    24393587.031    99887619.335                  
  22023339.204   115733388.747    22023341.385    90181851.388                  
                 133440785.901                   133440785.901    25625895.574  
                 119484517.311                   119484517.311    22945736.383  
                 136557006.692                   136557006.692    26224336.604  
                 129605262.056                   129605262.056    24889329.497  
                 115778039.905                   115778039.905    22233955.053  
                 134206843.018                   134206843.018    25773020.264  
  24903020.135   130866223.018                                                  
  25035415.300   131562002.800                                                  
  24095473.439   126622558.500                                                  
  27605270.781   145066653.731                                                  
  27852266.852   146364615.071                                                  
  25173062.046   132285301.598                                                  
  25006145.412   131408159.218                                                  
  25919048.868   136205539.296                                                  
 21  8 31  7 19 14.0000000  0 24G 1G 4G 7G 8G 9G14G17G21G27G30C20C23
                                C25C27C28C32E 1E 4E 9E19E21E26E31E33
  23224435.675   122045181.546    23224439.284    95100127.594                  
  24102479.222   126659371.719    24102480.920    98695612.751                  
  20480770.387   107627187.127    20480769.887    83865343.390                  
  21808625.060   114605054.789    21808627.598    89302629.398                  
  21962081.978   115411480.774    21962084.408    89931014.058                  
  22771738.041   119666292.599    22771738.773    93246464.187                  
  23174085.700   121780639.724    23174086.057    94894003.676                  
  22535391.514   118424277.712    22535390.960    92278657.489                  
  24394278.991   128192768.093    24394281.064    99890461.226                  
  22022870.143   115730923.825    22022872.323    90179930.667                  
                 133441869.884                   133441869.884    25626103.766  
                 119485143.407                   119485143.407    22945856.624  
                 136558958.595                   136558958.595    26224711.443  
                 129601943.626                   129601943.626    24888692.217  
                 115776534.962                   115776534.962    22233666.039  
                 134209259.263                   134209259.263    25773484.286  
  24903160.800   130866962.176                                                  
  25035775.218   131563894.207                                                  
  24095366.976   126621999.071                                                  
  27605826.811   145069575.696                                                  
  27852554.329   146366125.687                                                  
  25172932.996   132284623.409                                                  
  25006006.355   131407428.508                                                  
  25918566.672   136203005.476                                                  
 21  8 31  7 19 15.0000000  0 24G 1G 4G 7G 8G 9G14G17G21G27G30C20C23
                                C25C27C28C32E 1E 4E 9E19E21E26E31E33
  23223889.115   122042309.370    23223892.724    95097889.535                  
  24103177.686   126663042.141    24103179.384    98698472.820                  
  20480567.717   107626122.204    20480567.216    83864513.578                  
  21809131.254   114607714.966    21809133.827    89304702.257                  
  21962614.135   115414277.303    21962616.566    89933193.172                  
  22771420.597   119664624.418    22771421.348    93245164.305                  
  23173459.944   121777351.372    23173460.302    94891441.325                  
  22535184.394   118423189.351    22535183.858    92277809.418                  
  24394973.042   128196415.307    24394975.097    99893303.211                  
  22022401.117   115728459.080    22022403.297    90178010.086                  
                 133442954.227                   133442954.227    25626311.976  
                 119485769.680                   119485769.680    22945976.882  
                 136560910.620                   136560910.620    26225086.317  
                 129598625.274                   129598625.274    24888054.971  
                 115775030.504                   115775030.504    22233377.133  
                 134211675.488                   134211675.488    25773948.273  
  24903301.465   130867701.335                                                  
  25036135.207   131565785.926                                                  
  24095260.619   126621440.085                                                  
  27606382.842   145072497.573                                                  
  27852841.788   146367636.271                                                  
  25172804.017   132283945.669                                                  
  25005867.316   131406697.824                                                  
  25918084.548   136200471.809                                                  
 21  8 31  7 19 16.0000000  0 24G 1G 4G 7G 8G 9G14G17G21G27G30C20C23
                                C25C27C28C32E 1E 4E 9E19E21E26E31E33
  23223342.609   122039437.343    23223346.182    95095651.594                  
  24103876.133   126666712.605    24103877.848    98701332.922                  
  20480365.136   107625057.622    20480364.635    83863684.030                  
  21809637.555   114610375.525    21809640.092    89306775.426                  
  21963146.364   115417074.188    21963148.777    89935372.562                  
  22771103.172   119662956.395    22771103.923    93243864.547                  
  23172834.243   121774063.285    23172834.600    94888879.181                  
  22534977.382   118422101.443    22534976.846    92276961.699                  
  24395667.093   128200062.642    24395669.165    99896145.288                  
  22021932.126   115725994.460    22021934.306    90176089.605                  
                 133444038.930                   133444038.930    25626520.293  
                 119486396.121                   119486396.121    22946097.194  
                 136562862.782                   136562862.782    26225461.191  
                 129595307.000                   129595307.000    24887417.744  
                 115773526.526                   115773526.526    22233088.316  
                 134214091.695                   134214091.695    25774412.278  
  24903442.094   130868440.531                                                  
  25036495.232   131567677.812                                                  
  24095154.316   126620881.495                                                  
  27606938.837   145075419.339                                                  
  27853129.211   146369146.878                                                  
  25172675.146   132283268.363                                                  
  25005728.277   131405967.156                                                  
  25917602.442   136197938.089                                                  
 21  8 31  7 19 17.0000000  0 24G 1G 4G 7G 8G 9G14G17G21G27G30C20C23
                                C25C27C28C32E 1E 4E 9E19E21E26E31E33
  23222796.084   122036565.419    23222799.676    95093413.720                  
  24104574.597   126670383.075    24104576.313    98704193.015                  
  20480162.626   107623993.385    20480162.126    83862854.758                  
  21810143.891   114613036.421    21810146.465    89308848.831                  
  21963678.665   115419871.404    21963681.077    89937552.207                  
  22770785.800   119661288.589    22770786.533    93242564.988                  
  23172208.577   121770775.529    23172208.934    94886317.325                  
  22534770.441   118421013.992    22534769.905    92276114.337                  
  24396361.197   128203710.067    24396363.252    99898987.422                  
  22021463.136   115723530.016    22021465.316    90174169.273                  
                 133445123.997                   133445123.997    25626728.681  
                 119487022.743                   119487022.743    22946217.524  
                 136564815.074                   136564815.074    26225836.119  
                 129591988.806                   129591988.806    24886780.499  
                 115772023.040                   115772023.040    22232799.588  
                 134216507.884                   134216507.884    25774876.301  
  24903582.759   130869179.692                                                  
  25036855.347   131569570.138                                                  
  24095048.121   126620323.421                                                  
  27607494.813   145078341.064                                                  
  27853416.652   146370657.379                                                  
  25172546.328   132282591.480                                                  
  25005589.238   131405236.528                                                  
  25917120.353   136195404.730                                                  
 21  8 31  7 19 18.0000000  0 24G 1G 4G 7G 8G 9G14G17G21G27G30C20C23
                                C25C27C28C32E 1E 4E 9E19E21E26E31E33
  23222249.596   122033693.665    23222253.206    95091175.989                  
  24105273.080   126674053.600    24105274.795    98707053.169                  
  20479960.188   107622929.513    20479959.652    83862025.761                  
  21810650.335   114615697.742    21810652.908    89310922.591                  
  21964211.018   115422668.992    21964213.449    89939732.148                  
  22770468.447   119659620.901    22770469.179    93241265.491                  
  23171582.982   121767487.952    23171583.322    94883755.579                  
  22534563.607   118419926.999    22534563.035    92275267.327                  
  24397055.301   128207357.625    24397057.356    99901829.677                  
  22020994.199   115721065.699    22020996.379    90172249.028                  
                 133446209.425                   133446209.425    25626937.123  
                 119487649.534                   119487649.534    22946337.908  
                 136566767.491                   136566767.491    26226211.065  
                 129588670.692                   129588670.692    24886143.308  
                 115770520.039                   115770520.039    22232510.932  
                 134218924.053                   134218924.053    25775340.306  
  24903723.424   130869918.859                                                  
  25037215.497   131571462.760                                                  
  24094942.015   126619765.770                                                  
  27608050.772   145081262.724                                                  
  27853704.093   146372167.886                                                  
  25172417.600   132281915.037                                                  
  25005450.217   131404505.909                                                  
  25916638.301   136192871.535                                                  
 21  8 31  7 19 19.0000000  0 24G 1G 4G 7G 8G 9G14G17G21G27G30C20C23
                                C25C27C28C32E 1E 4E 9E19E21E26E31E33
  23221703.161   122030822.043    23221706.735    95088938.359                  
  24105971.562   126677724.152    24105973.277    98709913.337                  
  20479757.785   107621865.972    20479757.285    83861197.031                  
  21811156.833   114618359.449    21811159.406    89312996.648                  
  21964743.444   115425466.924    21964745.856    89941912.353                  
  22770151.128   119657953.386    22770151.861    93239966.124                  
  23170957.423   121764200.654    23170957.781    94881194.048                  
  22534356.844   118418840.461    22534356.272    92274420.676                  
  24397749.441   128211005.320    24397751.478    99904672.034                  
  22020525.280   115718601.528    22020527.460    90170328.895                  
                 133447295.216                   133447295.216    25627145.637  
                 119488276.508                   119488276.508    22946458.292  
                 136568720.043                   136568720.043    26226586.046  
                 129585352.657                   129585352.657    24885506.098  
                 115769017.520                   115769017.520    22232222.401  
                 134221340.208                   134221340.208    25775804.293  
  24903864.071   130870658.023                                                  
  25037575.701   131573355.711                                                  
  24094835.980   126619208.586                                                  
  27608606.731   145084184.269                                                  
  27853991.517   146373678.329                                                  
  25172288.960   132281239.019                                                  
  25005311.178   131403775.331                                                  
  25916156.284   136190338.481                                                  
 21  8 31  7 19 20.0000000  0 24G 1G 4G 7G 8G 9G14G17G21G27G30C20C23
                                C25C27C28C32E 1E 4E 9E19E21E26E31E33
  23221156.727   122027950.559    23221160.318    95086700.840                  
  24106670.062   126681394.733    24106671.759    98712773.528                  
  20479555.455   107620802.789    20479554.954    83860368.579                  
  21811663.420   114621021.539    21811665.975    89315070.999                  
  21965275.941   115428265.217    21965278.353    89944092.841                  
  22769833.846   119656286.030    22769834.579    93238666.890                  
  23170331.918   121760913.605    23170332.258    94878632.711                  
  22534150.153   118417754.374    22534149.599    92273574.375                  
  24398443.581   128214653.124    24398445.636    99907514.484                  
  22020056.379   115716137.489    22020058.559    90168408.862                  
                 133448381.367                   133448381.367    25627354.222  
                 119488903.653                   119488903.653    22946578.747  
                 136570672.722                   136570672.722    26226961.028  
                 129582034.698                   129582034.698    24884868.925  
                 115767515.488                   115767515.488    22231933.959  
                 134223756.339                   134223756.339    25776268.280  
  24904004.736   130871397.187                                                  
  25037935.976   131575248.953                                                  
  24094730.034   126618651.836                                                  
  27609162.672   145087105.718                                                  
  27854278.940   146375188.731                                                  
  25172160.393   132280563.441                                                  
  25005172.157   131403044.771                                                  
  25915674.285   136187805.579                                                  
 21  8 31  7 19 21.0000000  0 24G 1G 4G 7G 8G 9G14G17G21G27G30C20C23
                                C25C27C28C32E 1E 4E 9E19E21E26E31E33
  23220610.328   122025079.198    23220613.919    95084463.418                  
  24107368.544   126685065.341    24107370.260    98715633.739                  
  20479353.213   107619739.958    20479352.695    83859540.394                  
  21812170.078   114623684.035    21812172.615    89317145.671                  
  21965808.491   115431063.859    21965810.921    89946273.599                  
  22769516.582   119654618.832    22769517.314    93237367.772                  
  23169706.467   121757626.820    23169706.824    94876071.582                  
  22533943.552   118416668.749    22533943.016    92272728.433                  
  24399137.757   128218301.052    24399139.812    99910357.024                  
  22019587.514   115713673.606    22019589.694    90166488.953                  
                 133449467.879                   133449467.879    25627562.879  
                 119489530.970                   119489530.970    22946699.202  
                 136572625.532                   136572625.532    26227336.045  
                 129578716.823                   129578716.823    24884231.769  
                 115766013.940                   115766013.940    22231645.606  
                 134226172.456                   134226172.456    25776732.285  
  24904145.401   130872136.351                                                  
  25038296.305   131577142.503                                                  
  24094624.178   126618095.526                                                  
  27609718.595   145090027.094                                                  
  27854566.363   146376699.106                                                  
  25172031.915   132279888.301                                                  
  25005033.136   131402314.234                                                  
  25915192.304   136185272.833                                                  
 21  8 31  7 19 22.0000000  0 24G 1G 4G 7G 8G 9G14G17G21G27G30C20C23
                                C25C27C28C32E 1E 4E 9E19E21E26E31E33
  23220063.964   122022207.993    23220067.538    95082226.113                  
  24108067.044   126688735.981    24108068.760    98718493.976                  
  20479151.043   107618677.476    20479150.525    83858712.489                  
  21812676.808   114626346.912    21812679.363    89319220.640                  
  21966341.113   115433862.848    21966343.543    89948454.628                  
  22769199.335   119652951.801    22769200.085    93236068.790                  
  23169081.069   121754340.311    23169081.408    94873510.669                  
  22533737.057   118415583.590    22533736.521    92271882.855                  
  24399831.969   128221949.090    24399834.006    99913199.647                  
  22019118.684   115711209.875    22019120.864    90164569.163                  
                 133450554.755                   133450554.755    25627771.607  
                 119490158.464                   119490158.464    22946819.693  
                 136574578.470                   136574578.470    26227711.080  
                 129575399.026                   129575399.026    24883594.613  
                 115764512.879                   115764512.879    22231357.343  
                 134228588.556                   134228588.556    25777196.254  
  24904286.066   130872875.507                                                  
  25038656.705   131579036.355                                                  
  24094518.394   126617539.680                                                  
  27610274.501   145092948.372                                                  
  27854853.768   146378209.446                                                  
  25171903.526   132279213.577                                                  
  25004894.133   131401583.723                                                  
  25914710.376   136182740.231                                                  
 21  8 31  7 19 23.0000000  0 24G 1G 4G 7G 8G 9G14G17G21G27G30C20C23
                                C25C27C28C32E 1E 4E 9E19E21E26E31E33
  23219517.601   122019336.923    23219521.175    95079988.918                  
  24108765.544   126692406.656    24108767.260    98721354.247                  
  20478948.926   107617615.344    20478948.408    83857884.851                  
  21813183.609   114629010.173    21813186.164    89321295.911                  
  21966873.825   115436662.194    21966876.237    89950635.937                  
  22768882.142   119651284.937    22768882.892    93234769.933                  
  23168455.707   121751054.058    23168456.046    94870949.954                  
  22533530.634   118414498.883    22533530.098    92271037.628                  
  24400526.180   128225597.244    24400528.217    99916042.367                  
  22018649.873   115708746.274    22018652.053    90162649.476                  
                 133451641.991                   133451641.991    25627980.388  
                 119490786.133                   119490786.133    22946940.237  
                 136576531.538                   136576531.538    26228086.133  
                 129572081.311                   129572081.311    24882957.475  
                 115763012.306                   115763012.306    22231069.152  
                 134231004.638                   134231004.638    25777660.241  
  24904426.695   130873614.644                                                  
  25039017.141   131580930.500                                                  
  24094412.698   126616984.263                                                  
  27610830.388   145095869.572                                                  
  27855141.156   146379719.739                                                  
  25171775.226   132278539.288                                                  
  25004755.112   131400853.231                                                  
  25914228.466   136180207.788                                                  
 21  8 31  7 19 24.0000000  0 24G 1G 4G 7G 8G 9G14G17G21G27G30C20C23
                                C25C27C28C32E 1E 4E 9E19E21E26E31E33
  23218971.274   122016465.994    23218974.865    95077751.827                  
  24109464.062   126696077.355    24109465.760    98724214.527                  
  20478746.863   107616553.558    20478746.363    83857057.487                  
  21813690.482   114631673.816    21813693.019    89323371.477                  
  21967406.572   115439461.887    21967409.002    89952817.511                  
  22768564.985   119649618.247    22768565.735    93233471.215                  
  23167830.398   121747768.074    23167830.738    94868389.443                  
  22533324.318   118413414.630    22533323.782    92270192.759                  
  24401220.428   128229245.511    24401222.465    99918885.175                  
  22018181.097   115706282.839    22018183.277    90160729.917                  
                 133452729.585                   133452729.585    25628189.242  
                 119491413.976                   119491413.976    22947060.817  
                 136578484.738                   136578484.738    26228461.239  
                 129568763.675                   129568763.675    24882320.355  
                 115761512.210                   115761512.210    22230781.085  
                 134233420.696                   134233420.696    25778124.228  
  24904567.360   130874353.811                                                  
  25039377.649   131582824.974                                                  
  24094307.092   126616429.320                                                  
  27611386.240   145098790.671                                                  
  27855428.561   146381229.991                                                  
  25171646.980   132277865.445                                                  
  25004616.127   131400122.761                                                  
  25913746.575   136177675.500                                                  
 21  8 31  7 19 25.0000000  0 24G 1G 4G 7G 8G 9G14G17G21G27G30C20C23
                                C25C27C28C32E 1E 4E 9E19E21E26E31E33
  23218424.982   122013595.199    23218428.556    95075514.847                  
  24110162.580   126699748.094    24110164.278    98727074.843                  
  20478544.872   107615492.130    20478544.354    83856230.403                  
  21814197.426   114634337.849    21814199.981    89325447.345                  
  21967939.426   115442261.929    21967941.838    89954999.367                  
  22768247.863   119647951.712    22768248.596    93232172.617                  
  23167205.143   121744482.352    23167205.483    94865829.142                  
  22533118.074   118412330.845    22533117.520    92269348.250                  
  24401914.675   128232893.917    24401916.748    99921728.091                  
  22017712.339   115703819.543    22017714.519    90158810.470                  
                 133453817.548                   133453817.548    25628398.184  
                 119492041.996                   119492041.996    22947181.415  
                 136580438.066                   136580438.066    26228836.364  
                 129565446.117                   129565446.117    24881683.253  
                 115760012.608                   115760012.608    22230493.108  
                 134235836.738                   134235836.738    25778588.198  
  24904708.025   130875092.972                                                  
  25039738.228   131584719.738                                                  
  24094201.576   126615874.800                                                  
  27611942.091   145101711.695                                                  
  27855715.949   146382740.226                                                  
  25171518.841   132277192.024                                                  
  25004477.124   131399392.321                                                  
  25913264.736   136175143.355                                                  
 21  8 31  7 19 26.0000000  0 24G 1G 4G 7G 8G 9G14G17G21G27G30C20C23
                                C25C27C28C32E 1E 4E 9E19E21E26E31E33
  23217878.726   122010724.540    23217882.300    95073277.972                  
  24110861.098   126703418.843    24110862.796    98729935.176                  
  20478342.952   107614431.042    20478342.434    83855403.581                  
  21814704.441   114637002.246    21814706.997    89327523.505                  
  21968472.316   115445062.323    21968474.746    89957181.497                  
  22767930.759   119646285.345    22767931.492    93230874.148                  
  23166579.942   121741196.887    23166580.281    94863269.042                  
  22532911.919   118411247.499    22532911.383    92268504.085                  
  24402608.958   128236542.425    24402611.013    99924571.082                  
  22017243.616   115701356.394    22017245.796    90156891.132                  
                 133454905.863                   133454905.863    25628607.180  
                 119492670.191                   119492670.191    22947302.067  
                 136582391.524                   136582391.524    26229211.506  
                 129562128.640                   129562128.640    24881046.187  
                 115758513.489                   115758513.489    22230205.220  
                 134238252.761                   134238252.761    25779052.185  
  24904848.672   130875832.122                                                  
  25040098.843   131586614.820                                                  
  24094096.149   126615320.727                                                  
  27612497.943   145104632.630                                                  
  27856003.318   146384250.413                                                  
  25171390.774   132276519.038                                                  
  25004338.139   131398661.902                                                  
  25912782.916   136172611.372                                                  
 21  8 31  7 19 27.0000000  0 24G 1G 4G 7G 8G 9G14G17G21G27G30C20C23
                                C25C27C28C32E 1E 4E 9E19E21E26E31E33
  23217332.488   122007854.015    23217336.062    95071041.202                  
  24111559.616   126707089.629    24111561.314    98732795.532                  
  20478141.103   107613370.309    20478140.603    83854577.043                  
  21815211.529   114639667.016    21815214.084    89329599.949                  
  21969005.277   115447863.063    21969007.708    89959363.892                  
  22767613.674   119644619.132    22767614.424    93229575.813                  
  23165954.776   121737911.678    23165955.116    94860709.143                  
  22532705.854   118410164.605    22532705.300    92267660.276                  
  24403303.277   128240191.042    24403305.314    99927414.169                  
  22016774.947   115698893.402    22016777.092    90154971.921                  
                 133455994.547                   133455994.547    25628816.248  
                 119493298.558                   119493298.558    22947422.736  
                 136584345.113                   136584345.113    26229586.666  
                 129558811.242                   129558811.242    24880409.102  
                 115757014.855                   115757014.855    22229917.422  
                 134240668.771                   134240668.771    25779516.136  
  24904989.337   130876571.286                                                  
  25040459.529   131588510.195                                                  
  24093990.793   126614767.111                                                  
  27613053.759   145107553.477                                                  
  27856290.706   146385760.571                                                  
  25171262.796   132275846.489                                                  
  25004199.136   131397931.515                                                  
  25912301.114   136170079.539                                                  
 21  8 31  7 19 28.0000000  0 24G 1G 4G 7G 8G 9G14G17G21G27G30C20C23
                                C25C27C28C32E 1E 4E 9E19E21E26E31E33
  23216786.267   122004983.641    23216789.841    95068804.551                  
  24112258.152   126710760.454    24112259.867    98735655.914                  
  20477939.326   107612309.923    20477938.808    83853750.770                  
  21815718.687   114642332.161    21815721.242    89331676.692                  
  21969538.292   115450664.150    21969540.723    89961546.563                  
  22767296.641   119642953.091    22767297.374    93228277.598                  
  23165329.682   121734626.751    23165330.021    94858149.464                  
  22532499.877   118409082.175    22532499.324    92266816.831                  
  24403997.595   128243839.788    24403999.668    99930257.352                  
  22016306.261   115696430.543    22016308.441    90153052.817                  
                 133457083.586                   133457083.586    25629025.387  
                 119493927.105                   119493927.105    22947543.442  
                 136586298.828                   136586298.828    26229961.862  
                 129555493.925                   129555493.925    24879772.036  
                 115755516.708                   115755516.708    22229629.713  
                 134243084.754                   134243084.754    25779980.105  
  24905130.002   130877310.438                                                  
  25040820.233   131590405.887                                                  
  24093885.526   126614213.935                                                  
  27613609.557   145110474.230                                                  
  27856578.058   146387270.691                                                  
  25171134.908   132275174.383                                                  
  25004060.168   131397201.145                                                  
  25911819.365   136167547.855                                                  
 21  8 31  7 19 29.0000000  0 24G 1G 4G 7G 8G 9G14G17G21G27G30C20C23
                                C25C27C28C32E 1E 4E 9E19E21E26E31E33
  23216240.065   122002113.398    23216243.657    95066568.007                  
  24112956.706   126714431.305    24112958.403    98738516.320                  
  20477737.603   107611249.892    20477737.103    83852924.776                  
  21816225.917   114644997.696    21816228.472    89333753.735                  
  21970071.397   115453465.591    21970073.827    89963729.505                  
  22766979.645   119641287.210    22766980.378    93226979.516                  
  23164704.623   121731342.082    23164704.981    94855589.989                  
  22532293.973   118408000.194    22532293.419    92265973.734                  
  24404691.968   128247488.648    24404694.023    99933100.620                  
  22015837.628   115693967.840    22015839.808    90151133.831                  
                 133458172.989                   133458172.989    25629234.597  
                 119494555.823                   119494555.823    22947664.183  
                 136588252.679                   136588252.679    26230337.076  
                 129552176.693                   129552176.693    24879135.005  
                 115754019.048                   115754019.048    22229342.093  
                 134245500.722                   134245500.722    25780444.056  
  24905270.631   130878049.585                                                  
  25041181.044   131592301.872                                                  
  24093780.367   126613661.223                                                  
  27614165.337   145113394.919                                                  
  27856865.427   146388780.773                                                  
  25171007.073   132274502.690                                                  
  25003921.183   131396470.805                                                  
  25911337.616   136165016.333                                                  
 21  8 31  7 19 30.0000000  0 24G 1G 4G 7G 8G 9G14G17G21G27G30C20C23
                                C25C27C28C32E 1E 4E 9E19E21E26E31E33
  23215693.898   121999243.302    23215697.472    95064331.571                  
  24113655.242   126718102.177    24113656.939    98741376.747                  
  20477535.951   107610190.218    20477535.433    83852099.064                  
  21816733.237   114647663.625    21816735.774    89335831.087                  
  21970604.555   115456267.376    21970606.985    89965912.719                  
  22766662.666   119639621.500    22766663.399    93225681.562                  
  23164079.619   121728057.674    23164079.958    94853030.719                  
  22532088.175   118406918.668    22532087.621    92265130.988                  
  24405386.340   128251137.626    24405388.377    99935943.984                  
  22015369.013   115691505.289    22015371.193    90149214.965                  
                 133459262.749                   133459262.749    25629443.879  
                 119495184.719                   119495184.719    22947784.959  
                 136590206.657                   136590206.657    26230712.325  
                 129548859.536                   129548859.536    24878497.975  
                 115752521.871                   115752521.871    22229054.580  
                 134247916.671                   134247916.671    25780908.026  
  24905411.296   130878788.746                                                  
  25041541.891   131594198.171                                                  
  24093675.262   126613108.936                                                  
  27614721.118   145116315.499                                                  
  27857152.779   146390290.820                                                  
  25170879.345   132273831.444                                                  
  25003782.198   131395740.491                                                  
  25910855.921   136162484.955                                                  
 21  8 31  7 19 31.0000000  0 24G 1G 4G 7G 8G 9G14G17G21G27G30C20C23
                                C25C27C28C32E 1E 4E 9E19E21E26E31E33
  23215147.785   121996373.341    23215151.359    95062095.243                  
  24114353.795   126721773.090    24114355.493    98744237.203                  
  20477334.353   107609130.882    20477333.852    83851273.614                  
  21817240.628   114650329.930    21817243.165    89337908.731                  
  21971137.802   115459069.516    21971140.197    89968096.207                  
  22766345.723   119637955.948    22766346.456    93224383.739                  
  23163454.685   121724773.551    23163455.025    94850471.660                  
  22531882.467   118405837.597    22531881.895    92264288.604                  
  24406080.748   128254786.704    24406082.785    99938787.426                  
  22014900.433   115689042.879    22014902.613    90147296.206                  
                 133460352.875                   133460352.875    25629653.215  
                 119495813.789                   119495813.789    22947905.754  
                 136592160.761                   136592160.761    26231087.575  
                 129545542.458                   129545542.458    24877860.980  
                 115751025.180                   115751025.180    22228767.157  
                 134250332.598                   134250332.598    25781371.977  
  24905551.961   130879527.898                                                  
  25041902.792   131596094.773                                                  
  24093570.245   126612557.110                                                  
  27615276.862   145119236.003                                                  
  27857440.113   146391800.837                                                  
  25170751.688   132273160.638                                                  
  25003643.248   131395010.195                                                  
  25910374.243   136159953.743                                                  
 21  8 31  7 19 32.0000000  0 24G 1G 4G 7G 8G 9G14G17G21G27G30C20C23
                                C25C27C28C32E 1E 4E 9E19E21E26E31E33
  23214601.654   121993503.512    23214605.246    95059859.014                  
  24115052.331   126725444.026    24115054.047    98747097.675                  
  20477132.862   107608071.910    20477132.344    83850448.441                  
  21817748.054   114652996.613    21817750.627    89339986.673                  
  21971671.103   115461872.003    21971673.498    89970279.969                  
  22766028.816   119636290.569    22766029.531    93223086.044                  
  23162829.788   121721489.669    23162830.127    94847912.797                  
  22531676.812   118404756.980    22531676.258    92263446.570                  
  24406775.156   128258435.913    24406777.193    99941630.972                  
  22014431.872   115686580.618    22014434.052    90145377.566                  
                 133461443.359                   133461443.359    25629862.640  
                 119496443.037                   119496443.037    22948026.602  
                 136594114.999                   136594114.999    26231462.878  
                 129542225.461                   129542225.461    24877223.985  
                 115749528.978                   115749528.978    22228479.841  
                 134252748.509                   134252748.509    25781835.928  
  24905692.626   130880267.039                                                  
  25042263.782   131597991.679                                                  
  24093465.318   126612005.733                                                  
  27615832.607   145122156.410                                                  
  27857727.465   146393310.819                                                  
  25170624.121   132272490.257                                                  
  25003504.281   131394279.928                                                  
  25909892.602   136157422.679                                                  
 21  8 31  7 19 33.0000000  0 24G 1G 4G 7G 8G 9G14G17G21G27G30C20C23
                                C25C27C28C32E 1E 4E 9E19E21E26E31E33
  23214055.577   121990633.839    23214059.169    95057622.910                  
  24115750.903   126729114.992    24115752.618    98749958.172                  
  20476931.406   107607013.285    20476930.888    83849623.542                  
  21818255.606   114655663.689    21818258.143    89342064.914                  
  21972204.458   115464674.841    21972206.852    89972464.001                  
  22765711.927   119634625.349    22765712.660    93221788.472                  
  23162204.926   121718206.062    23162205.265    94845354.147                  
  22531471.283   118403676.836    22531470.711    92262604.899                  
  24407469.600   128262085.238    24407471.637    99944474.606                  
  22013963.364   115684118.510    22013965.544    90143459.048                  
                 133462534.204                   133462534.204    25630072.118  
                 119497072.453                   119497072.453    22948147.486  
                 136596069.368                   136596069.368    26231838.181  
                 129538908.545                   129538908.545    24876587.008  
                 115748033.261                   115748033.261    22228192.596  
                 134255164.399                   134255164.399    25782299.880  
  24905833.273   130881006.206                                                  
  25042624.808   131599888.891                                                  
  24093360.481   126611454.805                                                  
  27616388.315   145125076.750                                                  
  27858014.799   146394820.766                                                  
  25170496.644   132271820.305                                                  
  25003365.296   131393549.685                                                  
  25909410.978   136154891.767                                                  
 21  8 31  7 19 34.0000000  0 24G 1G 4G 7G 8G 9G14G17G21G27G30C20C23
                                C25C27C28C32E 1E 4E 9E19E21E26E31E33
  23213509.517   121987764.292    23213513.091    95055386.906                  
  24116449.474   126732785.981    24116451.172    98752818.688                  
  20476730.022   107605955.011    20476729.504    83848798.918                  
  21818763.193   114658331.129    21818765.749    89344143.441                  
  21972737.884   115467478.020    21972740.296    89974648.296                  
  22765395.074   119632960.293    22765395.824    93220491.032                  
  23161580.118   121714922.719    23161580.457    94842795.703                  
  22531265.825   118402597.135    22531265.253    92261763.583                  
  24408164.062   128265734.685    24408166.117    99947318.331                  
  22013494.856   115681656.540    22013497.036    90141540.632                  
                 133463625.409                   133463625.409    25630281.686  
                 119497702.052                   119497702.052    22948268.388  
                 136598023.867                   136598023.867    26232213.520  
                 129535591.714                   129535591.714    24875950.049  
                 115746538.026                   115746538.026    22227905.459  
                 134257580.269                   134257580.269    25782763.813  
  24905973.920   130881745.352                                                  
  25042985.905   131601786.414                                                  
  24093255.715   126610904.308                                                  
  27616944.024   145127996.981                                                  
  27858302.115   146396330.686                                                  
  25170369.220   132271150.790                                                  
  25003226.364   131392819.462                                                  
  25908929.408   136152361.005                                                  
 21  8 31  7 19 35.0000000  0 24G 1G 4G 7G 8G 9G14G17G21G27G30C20C23
                                C25C27C28C32E 1E 4E 9E19E21E26E31E33
  23212963.494   121984894.879    23212967.068    95053151.005                  
  24117148.046   126736457.011    24117149.743    98755679.235                  
  20476528.692   107604897.087    20476528.174    83847974.561                  
  21819270.852   114660998.956    21819273.408    89346222.274                  
  21973271.381   115470281.559    21973273.776    89976832.880                  
  22765078.256   119631295.401    22765079.006    93219193.714                  
  23160955.381   121711639.629    23160955.720    94840237.458                  
  22531060.438   118401517.895    22531059.884    92260922.617                  
  24408858.559   128269384.235    24408860.596    99950162.143                  
  22013026.402   115679194.720    22013028.564    90139622.333                  
                 133464716.978                   133464716.978    25630491.308  
                 119498331.820                   119498331.820    22948389.325  
                 136599978.491                   136599978.491    26232588.894  
                 129532274.962                   129532274.962    24875313.071  
                 115745043.281                   115745043.281    22227618.393  
                 134259996.121                   134259996.121    25783227.764  
  24906114.585   130882484.505                                                  
  25043347.038   131603684.239                                                  
  24093151.056   126610354.270                                                  
  27617499.715   145130917.133                                                  
  27858589.448   146397840.554                                                  
  25170241.903   132270481.704                                                  
  25003087.396   131392089.263                                                  
  25908447.838   136149830.398                                                  
 21  8 31  7 19 36.0000000  0 24G 1G 4G 7G 8G 9G14G17G21G27G30C20C23
                                C25C27C28C32E 1E 4E 9E19E21E26E31E33
  23212417.488   121982025.614    23212421.062    95050915.216                  
  24117846.618   126740128.062    24117848.315    98758539.797                  
  20476327.451   107603839.520    20476326.933    83847150.493                  
  21819778.601   114663667.183    21819781.156    89348301.414                  
  21973804.933   115473085.446    21973807.345    89979017.730                  
  22764761.474   119629630.680    22764762.206    93217896.536                  
  23160330.680   121708356.809    23160331.001    94837679.421                  
  22530855.159   118400439.110    22530854.605    92260082.012                  
  24409553.057   128273033.914    24409555.094    99953006.054                  
  22012557.965   115676733.047    22012560.127    90137704.152                  
                 133465808.902                   133465808.902    25630701.001  
                 119498961.769                   119498961.769    22948510.299  
                 136601933.250                   136601933.250    26232964.287  
                 129528958.285                   129528958.285    24874676.166  
                 115743549.023                   115743549.023    22227331.435  
                 134262411.953                   134262411.953    25783691.698  
  24906255.232   130883223.657                                                  
  25043708.242   131605582.355                                                  
  24093046.486   126609804.688                                                  
  27618055.388   145133837.191                                                  
  27858876.764   146399350.395                                                  
  25170114.658   132269813.057                                                  
  25002948.465   131391359.090                                                  
  25907966.303   136147299.932                                                  
 21  8 31  7 19 37.0000000  0 24G 1G 4G 7G 8G 9G14G17G21G27G30C20C23
                                C25C27C28C32E 1E 4E 9E19E21E26E31E33
  23211871.518   121979156.489    23211875.074    95048679.539                  
  24118545.225   126743799.157    24118546.922    98761400.390                  
  20476126.264   107602782.285    20476125.764    83846326.676                  
  21820286.420   114666335.802    21820288.976    89350380.860                  
  21974338.573   115475889.687    21974340.985    89981202.856                  
  22764444.727   119627966.114    22764445.442    93216599.474                  
  23159706.014   121705074.270    23159706.354    94835121.601                  
  22530649.951   118399360.782    22530649.397    92259241.759                  
  24410247.608   128276683.702    24410249.645    99955850.051                  
  22012089.547   115674271.534    22012091.727    90135786.093                  
                 133466901.188                   133466901.188    25630910.765  
                 119499591.891                   119499591.891    22948631.308  
                 136603888.136                   136603888.136    26233339.697  
                 129525641.695                   129525641.695    24874039.242  
                 115742055.249                   115742055.249    22227044.583  
                 134264827.764                   134264827.764    25784155.613  
  24906395.897   130883962.801                                                  
  25044069.500   131607480.794                                                  
  24092941.988   126609255.530                                                  
  27618611.043   145136757.175                                                  
  27859164.063   146400860.207                                                  
  25169987.502   132269144.848                                                  
  25002809.515   131390628.937                                                  
  25907484.804   136144769.645                                                  
 21  8 31  7 19 38.0000000  0 24G 1G 4G 7G 8G 9G14G17G21G27G30C20C23
                                C25C27C28C32E 1E 4E 9E19E21E26E31E33
  23211325.566   121976287.508    23211329.139    95046443.972                  
  24119243.796   126747470.263    24119245.494    98764260.997                  
  20475925.166   107601725.429    20475924.648    83845503.156                  
  21820794.312   114669004.803    21820796.867    89352460.608                  
  21974872.267   115478694.277    21974874.680    89983388.253                  
  22764127.999   119626301.718    22764128.714    93215302.546                  
  23159081.421   121701791.975    23159081.760    94832563.977                  
  22530444.833   118398282.906    22530444.279    92258401.860                  
  24410942.159   128280333.613    24410944.196    99958694.140                  
  22011621.164   115671810.160    22011623.326    90133868.144                  
                 133467993.836                   133467993.836    25631120.601  
                 119500222.189                   119500222.189    22948752.335  
                 136605843.153                   136605843.153    26233715.143  
                 129522325.184                   129522325.184    24873402.337  
                 115740561.965                   115740561.965    22226757.803  
                 134267243.559                   134267243.559    25784619.565  
  24906536.545   130884701.944                                                  
  25044430.812   131609379.522                                                  
  24092837.562   126608706.835                                                  
  27619166.680   145139677.066                                                  
  27859451.361   146402369.981                                                  
  25169860.435   132268477.067                                                  
  25002670.584   131389898.823                                                  
  25907003.341   136142239.494                                                  
 21  8 31  7 19 39.0000000  0 24G 1G 4G 7G 8G 9G14G17G21G27G30C20C23
                                C25C27C28C32E 1E 4E 9E19E21E26E31E33
  23210779.631   121973418.656    23210783.205    95044208.507                  
  24119942.404   126751141.405    24119944.101    98767121.634                  
  20475724.104   107600668.890    20475723.585    83844679.883                  
  21821302.274   114671674.160    21821304.812    89354540.629                  
  21975406.015   115481499.210    21975408.445    89985573.922                  
  22763811.306   119624637.493    22763812.039    93214005.750                  
  23158456.880   121698509.977    23158457.220    94830006.578                  
  22530239.821   118397205.497    22530239.267    92257562.325                  
  24411636.728   128283983.638    24411638.765    99961538.320                  
  22011152.799   115669348.933    22011154.961    90131950.309                  
                 133469086.844                   133469086.844    25631330.509  
                 119500852.661                   119500852.661    22948873.415  
                 136607798.301                   136607798.301    26234090.607  
                 129519008.754                   129519008.754    24872765.431  
                 115739069.165                   115739069.165    22226471.148  
                 134269659.332                   134269659.332    25785083.480  
  24906677.192   130885441.105                                                  
  25044792.195   131611278.574                                                  
  24092733.242   126608158.598                                                  
  27619722.300   145142596.883                                                  
  27859738.659   146403879.719                                                  
  25169733.440   132267809.724                                                  
  25002531.634   131389168.724                                                  
  25906521.896   136139709.509                                                  
 21  8 31  7 19 40.0000000  0 24G 1G 4G 7G 8G 9G14G17G21G27G30C20C23
                                C25C27C28C32E 1E 4E 9E19E21E26E31E33
  23210233.732   121970549.966    23210237.324    95041973.169                  
  24120640.993   126754812.573    24120642.709    98769982.289                  
  20475523.113   107599612.720    20475522.595    83843856.894                  
  21821810.326   114674343.918    21821812.864    89356620.962                  
  21975939.852   115484304.487    21975942.264    89987759.855                  
  22763494.631   119622973.426    22763495.364    93212709.081                  
  23157832.376   121695228.219    23157832.715    94827449.366                  
  22530034.882   118396128.534    22530034.328    92256723.140                  
  24412331.315   128287633.790    24412333.352    99964382.599                  
  22010684.488   115666887.855    22010686.632    90130032.595                  
                 133470180.210                   133470180.210    25631540.452  
                 119501483.310                   119501483.310    22948994.513  
                 136609753.579                   136609753.579    26234466.107  
                 129515692.405                   129515692.405    24872128.579  
                 115737576.853                   115737576.853    22226184.547  
                 134272075.086                   134272075.086    25785547.396  
  24906817.857   130886180.258                                                  
  25045153.614   131613177.914                                                  
  24092628.977   126607610.786                                                  
  27620277.901   145145516.595                                                  
  27860025.939   146405389.423                                                  
  25169606.534   132267142.809                                                  
  25002392.720   131388438.656                                                  
  25906040.487   136137179.656                                                  
 21  8 31  7 19 41.0000000  0 24G 1G 4G 7G 8G 9G14G17G21G27G30C20C23
                                C25C27C28C32E 1E 4E 9E19E21E26E31E33
  23209687.887   121967681.387    23209691.443    95039737.917                  
  24121339.601   126758483.770    24121341.298    98772842.964                  
  20475322.194   107598556.894    20475321.675    83843034.179                  
  21822318.432   114677014.046    21822320.987    89358701.590                  
  21976473.743   115487110.114    21976476.155    89989946.059                  
  22763178.028   119621309.526    22763178.743    93211412.543                  
  23157207.943   121691946.742    23157208.265    94824892.379                  
  22529830.013   118395052.040    22529829.459    92255884.316                  
  24413025.937   128291284.044    24413027.974    99967226.957                  
  22010216.176   115664426.929    22010218.338    90128114.993                  
                 133471273.936                   133471273.936    25631750.502  
                 119502114.133                   119502114.133    22949115.683  
                 136611708.983                   136611708.983    26234841.624  
                 129512376.136                   129512376.136    24871491.727  
                 115736085.024                   115736085.024    22225898.053  
                 134274490.822                   134274490.822    25786011.311  
  24906958.521   130886919.398                                                  
  25045515.122   131615077.567                                                  
  24092524.836   126607063.441                                                  
  27620833.503   145148436.233                                                  
  27860313.219   146406899.085                                                  
  25169479.700   132266476.337                                                  
  25002253.807   131387708.607                                                  
  25905559.096   136134649.980                                                  
 21  8 31  7 19 42.0000000  0 24G 1G 4G 7G 8G 9G14G17G21G27G30C20C23
                                C25C27C28C32E 1E 4E 9E19E21E26E31E33
  23209142.025   121964812.964    23209145.598    95037502.789                  
  24122038.226   126762155.003    24122039.923    98775703.667                  
  20475121.364   107597501.423    20475120.845    83842211.738                  
  21822826.627   114679684.590    21822829.164    89360782.532                  
  21977007.705   115489916.095    21977010.117    89992132.543                  
  22762861.425   119619645.788    22762862.140    93210116.130                  
  23156583.546   121688665.524    23156583.885    94822335.590                  
  22529625.252   118393975.984    22529624.698    92255045.835                  
  24413720.577   128294934.413    24413722.615    99970071.407                  
  22009747.901   115661966.160    22009750.063    90126197.512                  
                 133472368.023                   133472368.023    25631960.606  
                 119502745.131                   119502745.131    22949236.835  
                 136613664.523                   136613664.523    26235217.160  
                 129509059.950                   129509059.950    24870854.875  
                 115734593.680                   115734593.680    22225611.666  
                 134276906.531                   134276906.531    25786475.227  
  24907099.186   130887658.551                                                  
  25045876.666   131616977.523                                                  
  24092420.767   126606516.536                                                  
  27621389.069   145151355.774                                                  
  27860600.500   146408408.729                                                  
  25169352.955   132265810.288                                                  
  25002114.857   131386978.575                                                  
  25905077.740   136132120.453                                                  
 21  8 31  7 19 43.0000000  0 24G 1G 4G 7G 8G 9G14G17G21G27G30C20C23
                                C25C27C28C32E 1E 4E 9E19E21E26E31E33
  23208596.215   121961944.696    23208599.771    95035267.777                  
  24122736.833   126765826.262    24122738.513    98778564.391                  
  20474920.587   107596446.301    20474920.033    83841389.570                  
  21823334.876   114682355.493    21823337.413    89362863.762                  
  21977541.721   115492722.349    21977544.115    89994319.239                  
  22762544.839   119617982.220    22762545.554    93208819.841                  
  23155959.202   121685384.579    23155959.524    94819779.012                  
  22529420.580   118392900.406    22529420.026    92254207.731                  
  24414415.254   128298584.902    24414417.309    99972915.946                  
  22009279.661   115659505.534    22009281.823    90124280.144                  
                 133473462.473                   133473462.473    25632170.781  
                 119503376.310                   119503376.310    22949358.059  
                 136615620.189                   136615620.189    26235592.713  
                 129505743.849                   129505743.849    24870218.059  
                 115733102.828                   115733102.828    22225325.369  
                 134279322.224                   134279322.224    25786939.143  
  24907239.816   130888397.715                                                  
  25046238.281   131618877.780                                                  
  24092316.787   126605970.074                                                  
  27621944.617   145154275.228                                                  
  27860887.762   146409918.321                                                  
  25169226.299   132265144.684                                                  
  25001975.961   131386248.578                                                  
  25904596.420   136129591.082                                                  
 21  8 31  7 19 44.0000000  0 24G 1G 4G 7G 8G 9G14G17G21G27G30C20C23
                                C25C27C28C32E 1E 4E 9E19E21E26E31E33
  23208050.424   121959076.554    23208053.998    95033032.866                  
  24123435.458   126769497.548    24123437.138    98781425.138                  
  20474719.865   107595391.537    20474719.346    83840567.676                  
  21823843.196   114685026.774    21823845.733    89364945.282                  
  21978075.826   115495529.031    21978078.220    89996506.266                  
  22762228.307   119616318.813    22762229.040    93207523.687                  
  23155334.894   121682103.901    23155335.234    94817222.648                  
  22529215.998   118391825.277    22529215.426    92253369.973                  
  24415109.948   128302235.508    24415111.985    99975760.577                  
  22008811.457   115657045.055    22008813.619    90122362.894                  
                 133474557.281                   133474557.281    25632381.046  
                 119504007.660                   119504007.660    22949479.300  
                 136617575.985                   136617575.985    26235968.302  
                 129502427.820                   129502427.820    24869581.261  
                 115731612.461                   115731612.461    22225039.161  
                 134281737.899                   134281737.899    25787403.040  
  24907380.481   130889136.855                                                  
  25046599.933   131620778.340                                                  
  24092212.861   126605424.059                                                  
  27622500.165   145157194.602                                                  
  27861175.025   146411427.889                                                  
  25169099.715   132264479.507                                                  
  25001837.047   131385518.604                                                  
  25904115.118   136127061.866                                                  
 21  8 31  7 19 45.0000000  0 24G 1G 4G 7G 8G 9G14G17G21G27G30C20C23
                                C25C27C28C32E 1E 4E 9E19E21E26E31E33
  23207504.668   121956208.554    23207508.224    95030798.067                  
  24124134.083   126773168.857    24124135.781    98784285.902                  
  20474519.195   107594337.122    20474518.677    83839746.063                  
  21824351.605   114687698.422    21824354.143    89367027.090                  
  21978609.984   115498336.057    21978612.379    89998693.561                  
  22761911.793   119614655.571    22761912.526    93206227.660                  
  23154710.658   121678823.475    23154710.979    94814666.477                  
  22529011.487   118390750.606    22529010.915    92252532.567                  
  24415804.659   128305886.229    24415806.679    99978605.302                  
  22008343.252   115654584.728    22008345.415    90120445.759                  
                 133475652.444                   133475652.444    25632591.347  
                 119504639.184                   119504639.184    22949600.577  
                 136619531.915                   136619531.915    26236343.927  
                 129499111.879                   129499111.879    24868944.462  
                 115730122.577                   115730122.577    22224753.042  
                 134284153.547                   134284153.547    25787866.938  
  24907521.146   130889875.999                                                  
  25046961.655   131622679.206                                                  
  24092109.060   126604878.495                                                  
  27623055.677   145160113.879                                                  
  27861462.287   146412937.423                                                  
  25168973.220   132263814.766                                                  
  25001698.134   131384788.652                                                  
  25903633.851   136124532.800                                                  
 21  8 31  7 19 46.0000000  0 24G 1G 4G 7G 8G 9G14G17G21G27G30C20C23
                                C25C27C28C32E 1E 4E 9E19E21E26E31E33
  23206958.912   121953340.697    23206962.504    95028563.376                  
  24124832.726   126776840.195    24124834.406    98787146.692                  
  20474318.616   107593283.059    20474318.097    83838924.716                  
  21824860.086   114690370.452    21824862.606    89369109.195                  
  21979144.197   115501143.429    21979146.591    90000881.129                  
  22761595.333   119612992.492    22761596.066    93204931.758                  
  23154086.457   121675543.317    23154086.796    94812110.511                  
  22528807.083   118389676.389    22528806.493    92251695.520                  
  24416499.371   128309537.061    24416501.426    99981450.108                  
  22007875.120   115652124.542    22007877.264    90118528.735                  
                 133476747.973                   133476747.973    25632801.737  
                 119505270.886                   119505270.886    22949721.908  
                 136621487.970                   136621487.970    26236719.551  
                 129495796.019                   129495796.019    24868307.682  
                 115728633.184                   115728633.184    22224467.012  
                 134286569.179                   134286569.179    25788330.836  
  24907661.793   130890615.148                                                  
  25047323.432   131624580.379                                                  
  24092005.312   126604333.380                                                  
  27623611.189   145163033.074                                                  
  27861749.514   146414446.918                                                  
  25168846.815   132263150.460                                                  
  25001559.238   131384058.728                                                  
  25903152.621   136122003.886                                                  
 21  8 31  7 19 47.0000000  0 24G 1G 4G 7G 8G 9G14G17G21G27G30C20C23
                                C25C27C28C32E 1E 4E 9E19E21E26E31E33
  23206413.228   121950472.981    23206416.784    95026328.790                  
  24125531.352   126780511.565    24125533.031    98790007.496                  
  20474118.125   107592229.352    20474117.571    83838103.645                  
  21825368.621   114693042.863    21825371.158    89371191.594                  
  21979678.498   115503951.154    21979680.893    90003068.966                  
  22761278.873   119611329.582    22761279.623    93203635.981                  
  23153462.328   121672263.422    23153462.631    94809554.749                  
  22528602.733   118388602.633    22528602.179    92250858.824                  
  24417194.137   128313188.017    24417196.156    99984295.004                  
  22007406.987   115649664.512    22007409.131    90116611.829                  
                 133477843.860                   133477843.860    25633012.180  
                 119505902.765                   119505902.765    22949843.238  
                 136623444.156                   136623444.156    26237095.212  
                 129492480.243                   129492480.243    24867670.919  
                 115727144.277                   115727144.277    22224181.072  
                 134288984.792                   134288984.792    25788794.733  
  24907802.440   130891354.292                                                  
  25047685.279   131626481.855                                                  
  24091901.672   126603788.711                                                  
  27624166.665   145165952.179                                                  
  27862036.758   146415956.383                                                  
  25168720.481   132262486.585                                                  
  25001420.342   131383328.825                                                  
  25902671.426   136119475.128                                                  
 21  8 31  7 19 48.0000000  0 24G 1G 4G 7G 8G 9G14G17G21G27G30C20C23
                                C25C27C28C32E 1E 4E 9E19E21E26E31E33
  23205867.544   121947605.411    23205871.100    95024094.320                  
  24126229.995   126784182.965    24126231.692    98792868.327                  
  20473917.653   107591175.984    20473917.134    83837282.839                  
  21825877.245   114695715.685    21825879.782    89373274.310                  
  21980212.854   115506759.221    21980215.266    90005257.066                  
  22760962.484   119609666.829    22760963.198    93202340.327                  
  23152838.234   121668983.821    23152838.556    94806999.214                  
  22528398.508   118387529.321    22528397.918    92250022.477                  
  24417888.902   128316839.078    24417890.939    99987139.989                  
  22006938.872   115647204.634    22006941.034    90114695.039                  
                 133478940.104                   133478940.104    25633222.695  
                 119506534.821                   119506534.821    22949964.623  
                 136625400.473                   136625400.473    26237470.926  
                 129489164.543                   129489164.543    24867034.174  
                 115725655.856                   115725655.856    22223895.239  
                 134291400.383                   134291400.383    25789258.613  
  24907943.105   130892093.438                                                  
  25048047.181   131628383.641                                                  
  24091798.103   126603244.488                                                  
  27624722.142   145168871.192                                                  
  27862324.003   146417465.813                                                  
  25168594.236   132261823.141                                                  
  25001281.464   131382598.960                                                  
  25902190.249   136116946.520                                                  
 21  8 31  7 19 49.0000000  0 24G 1G 4G 7G 8G 9G14G17G21G27G30C20C23
                                C25C27C28C32E 1E 4E 9E19E21E26E31E33
  23205321.878   121944737.980    23205325.434    95021859.960                  
  24126928.638   126787854.392    24126930.335    98795729.177                  
  20473717.287   107590122.972    20473716.751    83836462.308                  
  21826385.922   114698388.870    21826388.459    89375357.309                  
  21980747.280   115509567.641    21980749.675    90007445.445                  
  22760646.095   119608004.247    22760646.827    93201044.809                  
  23152214.194   121665704.466    23152214.516    94804443.875                  
  22528194.336   118386456.469    22528193.765    92249186.488                  
  24418583.704   128320490.263    24418585.741    99989985.070                  
  22006470.793   115644744.897    22006472.955    90112778.360                  
                 133480036.712                   133480036.712    25633433.299  
                 119507167.047                   119507167.047    22950086.043  
                 136627356.920                   136627356.920    26237846.640  
                 129485848.931                   129485848.931    24866397.448  
                 115724167.923                   115724167.923    22223609.496  
                 134293815.950                   134293815.950    25789722.493  
  24908083.752   130892832.579                                                  
  25048409.135   131630285.727                                                  
  24091694.641   126602700.717                                                  
  27625277.600   145171790.126                                                  
  27862611.247   146418975.206                                                  
  25168468.063   132261160.138                                                  
  25001142.568   131381869.092                                                  
  25901709.072   136114418.067                                                  
 21  8 31  7 19 50.0000000  0 24G 1G 4G 7G 8G 9G14G17G21G27G30C20C23
                                C25C27C28C32E 1E 4E 9E19E21E26E31E33
  23204776.265   121941870.683    23204779.821    95019625.703                  
  24127627.299   126791525.847    24127628.996    98798590.056                  
  20473516.958   107589070.312    20473516.440    83835642.056                  
  21826894.689   114701062.411    21826897.226    89377440.585                  
  21981281.761   115512376.398    21981284.155    90009634.089                  
  22760329.742   119606341.823    22760330.474    93199749.418                  
  23151590.208   121662425.379    23151590.512    94801888.741                  
  22527990.272   118385384.089    22527989.700    92248350.870                  
  24419278.523   128324141.550    24419280.560    99992830.232                  
  22006002.768   115642285.316    22006004.912    90110861.804                  
                 133481133.675                   133481133.675    25633643.957  
                 119507799.452                   119507799.452    22950207.481  
                 136629313.499                   136629313.499    26238222.372  
                 129482533.393                   129482533.393    24865760.739  
                 115722680.476                   115722680.476    22223323.859  
                 134296231.500                   134296231.500    25790186.373  
  24908224.417   130893571.719                                                  
  25048771.144   131632188.119                                                  
  24091591.233   126602157.390                                                  
  27625833.041   145174708.969                                                  
  27862898.456   146420484.563                                                  
  25168341.979   132260497.566                                                  
  25001003.672   131381139.280                                                  
  25901227.984   136111889.788                                                  
 21  8 31  7 19 51.0000000  0 24G 1G 4G 7G 8G 9G14G17G21G27G30C20C23
                                C25C27C28C32E 1E 4E 9E19E21E26E31E33
  23204230.652   121939003.539    23204234.226    95017391.563                  
  24128325.960   126795197.321    24128327.657    98801450.937                  
  20473316.717   107588018.004    20473316.199    83834822.073                  
  21827403.527   114703736.345    21827406.047    89379524.179                  
  21981816.313   115515185.540    21981818.725    90011823.035                  
  22760013.442   119604679.567    22760014.157    93198454.153                  
  23150966.275   121659146.529    23150966.597    94799333.782                  
  22527786.297   118384312.156    22527785.725    92247515.591                  
  24419973.360   128327792.934    24419975.397    99995675.445                  
  22005534.760   115639825.887    22005536.922    90108945.363                  
                 133482231.042                   133482231.042    25633854.705  
                 119508432.032                   119508432.032    22950328.954  
                 136631270.243                   136631270.243    26238598.139  
                 129479217.941                   129479217.941    24865124.047  
                 115721193.517                   115721193.517    22223038.295  
                 134298647.050                   134298647.050    25790650.253  
  24908365.064   130894310.860                                                  
  25049133.224   131634090.833                                                  
  24091487.932   126601614.496                                                  
  27626388.446   145177627.774                                                  
  27863185.665   146421993.887                                                  
  25168215.985   132259835.422                                                  
  25000864.794   131380409.477                                                  
  25900746.878   136109361.637                                                  
 21  8 31  7 19 52.0000000  0 24G 1G 4G 7G 8G 9G14G17G21G27G30C20C23
                                C25C27C28C32E 1E 4E 9E19E21E26E31E33
  23203685.075   121936136.530    23203688.649    95015157.534                  
  24129024.621   126798868.829    24129026.318    98804311.851                  
  20473116.549   107586966.046    20473116.013    83834002.367                  
  21827912.419   114706410.634    21827914.939    89381608.039                  
  21982350.936   115517995.004    21982353.348    90014012.226                  
  22759697.142   119603017.478    22759697.857    93197159.017                  
  23150342.378   121655867.966    23150342.700    94796779.058                  
  22527582.394   118383240.686    22527581.840    92246680.679                  
  24420668.232   128331444.465    24420670.251    99998520.796                  
  22005066.753   115637366.605    22005068.915    90107029.040                  
                 133483328.726                   133483328.726    25634065.505  
                 119509064.789                   119509064.789    22950450.481  
                 136633227.077                   136633227.077    26238973.943  
                 129475902.569                   129475902.569    24864487.356  
                 115719707.044                   115719707.044    22222752.837  
                 134301062.559                   134301062.559    25791114.133  
  24908505.729   130895050.006                                                  
  25049495.340   131635993.828                                                  
  24091384.721   126601072.066                                                  
  27626943.833   145180546.435                                                  
  27863472.874   146423503.180                                                  
  25168090.080   132259173.730                                                  
  25000725.934   131379679.703                                                  
  25900265.826   136106833.636                                                  
 21  8 31  7 19 53.0000000  0 24G 1G 4G 7G 8G 9G14G17G21G27G30C20C23
                                C25C27C28C32E 1E 4E 9E19E21E26E31E33
  23203139.534   121933269.665    23203143.108    95012923.609                  
  24129723.299   126802540.367    24129724.997    98807172.794                  
  20472916.416   107585914.442    20472915.897    83833182.934                  
  21828421.382   114709085.305    21828423.920    89383692.200                  
  21982885.648   115520804.809    21982888.043    90016201.687                  
  22759380.896   119601355.544    22759381.611    93195864.003                  
  23149718.535   121652589.671    23149718.857    94794224.547                  
  22527378.598   118382169.680    22527378.026    92245846.129                  
  24421363.123   128335096.104    24421365.160   100001366.229                  
  22004598.816   115634907.470    22004600.961    90105112.833                  
                 133484426.770                   133484426.770    25634276.360  
                 119509697.724                   119509697.724    22950572.027  
                 136635184.046                   136635184.046    26239349.764  
                 129472587.285                   129472587.285    24863850.683  
                 115718221.056                   115718221.056    22222467.487  
                 134303478.042                   134303478.042    25791577.995  
  24908646.376   130895789.159                                                  
  25049857.545   131637897.129                                                  
  24091281.581   126600530.091                                                  
  27627499.238   145183465.011                                                  
  27863760.083   146425012.434                                                  
  25167964.246   132258512.458                                                  
  25000587.056   131378949.941                                                  
  25899784.792   136104305.820                                                  
 21  8 31  7 19 54.0000000  0 24G 1G 4G 7G 8G 9G14G17G21G27G30C20C23
                                C25C27C28C32E 1E 4E 9E19E21E26E31E33
  23202594.028   121930402.938    23202597.584    95010689.800                  
  24130421.978   126806211.922    24130423.658    98810033.741                  
  20472716.372   107584863.199    20472715.854    83832363.786                  
  21828930.435   114711760.383    21828932.973    89385776.676                  
  21983420.379   115523614.969    21983422.773    90018391.422                  
  22759064.686   119599693.789    22759065.401    93194569.130                  
  23149094.763   121649311.637    23149095.085    94791670.234                  
  22527174.873   118381099.129    22527174.301    92245011.933                  
  24422058.013   128338747.858    24422060.068   100004211.754                  
  22004130.880   115632448.484    22004133.043    90103196.738                  
                 133485525.172                   133485525.172    25634487.304  
                 119510330.833                   119510330.833    22950693.607  
                 136637141.145                   136637141.145    26239725.603  
                 129469272.079                   129469272.079    24863214.045  
                 115716735.560                   115716735.560    22222182.208  
                 134305893.508                   134305893.508    25792041.874  
  24908787.041   130896528.308                                                  
  25050219.786   131639800.735                                                  
  24091178.548   126599988.554                                                  
  27628054.607   145186383.508                                                  
  27864047.273   146426521.665                                                  
  25167838.484   132257851.626                                                  
  25000448.195   131378220.217                                                  
  25899303.794   136101778.148                                                  
 21  8 31  7 19 55.0000000  0 24G 1G 4G 7G 8G 9G14G17G21G27G30C20C23
                                C25C27C28C32E 1E 4E 9E19E21E26E31E33
  23202048.523   121927536.366    23202052.097    95008456.105                  
  24131120.657   126809883.516    24131122.337    98812894.723                  
  20472516.400   107583812.306    20472515.881    83831544.906                  
  21829439.559   114714435.831    21829442.097    89387861.441                  
  21983955.199   115526425.466    21983957.593    90020581.417                  
  22758748.476   119598032.184    22758749.209    93193274.375                  
  23148471.027   121646033.878    23148471.349    94789116.137                  
  22526971.238   118380029.035    22526970.684    92244178.094                  
  24422752.940   128342399.735    24422754.977   100007057.370                  
  22003662.980   115629989.651    22003665.142    90101280.766                  
                 133486623.935                   133486623.935    25634698.301  
                 119510964.114                   119510964.114    22950815.224  
                 136639098.374                   136639098.374    26240101.460  
                 129465956.958                   129465956.958    24862577.408  
                 115715250.546                   115715250.546    22221897.018  
                 134308308.953                   134308308.953    25792505.736  
  24908927.688   130897267.446                                                  
  25050582.080   131641704.640                                                  
  24091075.551   126599447.465                                                  
  27628609.959   145189301.908                                                  
  27864334.464   146428030.840                                                  
  25167712.829   132257191.232                                                  
  25000309.335   131377490.499                                                  
  25898822.813   136099250.628                                                  
 21  8 31  7 19 56.0000000  0 24G 1G 4G 7G 8G 9G14G17G21G27G30C20C23
                                C25C27C28C32E 1E 4E 9E19E21E26E31E33
  23201503.053   121924669.927    23201506.627    95006222.516                  
  24131819.336   126813555.124    24131821.033    98815755.719                  
  20472316.499   107582761.762    20472315.963    83830726.300                  
  21829948.755   114717111.672    21829951.292    89389946.512                  
  21984490.108   115529236.313    21984492.503    90022771.687                  
  22758432.319   119596370.747    22758433.034    93191979.746                  
  23147847.327   121642756.396    23147847.666    94786562.255                  
  22526767.691   118378959.402    22526767.138    92243344.618                  
  24423447.902   128346051.715    24423449.939   100009903.071                  
  22003195.098   115627530.962    22003197.260    90099364.902                  
                 133487723.052                   133487723.052    25634909.388  
                 119511597.575                   119511597.575    22950936.858  
                 136641055.729                   136641055.729    26240477.335  
                 129462641.918                   129462641.918    24861940.788  
                 115713766.024                   115713766.024    22221611.936  
                 134310724.375                   134310724.375    25792969.598  
  24909068.335   130898006.592                                                  
  25050944.446   131643608.857                                                  
  24090972.679   126598906.813                                                  
  27629165.292   145192220.222                                                  
  27864621.637   146429539.989                                                  
  25167587.227   132256531.257                                                  
  25000170.493   131376760.819                                                  
  25898341.887   136096723.261                                                  
 21  8 31  7 19 57.0000000  0 24G 1G 4G 7G 8G 9G14G17G21G27G30C20C23
                                C25C27C28C32E 1E 4E 9E19E21E26E31E33
  23200957.619   121921803.634    23200961.175    95003989.043                  
  24132518.032   126817226.765    24132519.712    98818616.738                  
  20472116.634   107581711.575    20472116.116    83829907.973                  
  21830458.022   114719787.886    21830460.560    89392031.874                  
  21985025.035   115532047.511    21985027.465    90024962.232                  
  22758116.181   119594709.479    22758116.895    93190685.254                  
  23147223.698   121639479.169    23147224.019    94784008.571                  
  22526564.235   118377890.236    22526563.681    92242511.499                  
  24424142.882   128349703.824    24424144.901   100012748.870                  
  22002727.269   115625072.428    22002729.413    90097449.164                  
                 133488822.533                   133488822.533    25635120.528  
                 119512231.210                   119512231.210    22951058.564  
                 136643013.218                   136643013.218    26240853.264  
                 129459326.960                   129459326.960    24861304.186  
                 115712281.985                   115712281.985    22221326.943  
                 134313139.773                   134313139.773    25793433.442  
  24909209.000   130898745.739                                                  
  25051306.866   131645513.367                                                  
  24090869.879   126598366.628                                                  
  27629720.626   145195138.437                                                  
  27864908.828   146431049.114                                                  
  25167461.715   132255871.739                                                  
  25000031.633   131376031.151                                                  
  25897860.960   136094196.047                                                  
 21  8 31  7 19 58.0000000  0 24G 1G 4G 7G 8G 9G14G17G21G27G30C20C23
                                C25C27C28C32E 1E 4E 9E19E21E26E31E33
  23200412.221   121918937.482    23200415.776    95001755.676                  
  24133216.711   126820898.426    24133218.427    98821477.770                  
  20471916.876   107580661.747    20471916.340    83829089.922                  
  21830967.361   114722464.503    21830969.898    89394117.547                  
  21985560.052   115534859.053    21985562.464    90027153.046                  
  22757800.078   119593048.379    22757800.828    93189390.890                  
  23146600.105   121636202.211    23146600.444    94781455.098                  
  22526360.885   118376821.524    22526360.296    92241678.737                  
  24424837.862   128353356.032    24424839.899   100015594.747                  
  22002259.440   115622614.044    22002261.602    90095533.540                  
                 133489922.368                   133489922.368    25635331.740  
                 119512865.023                   119512865.023    22951180.252  
                 136644970.840                   136644970.840    26241229.192  
                 129456012.085                   129456012.085    24860667.602  
                 115710798.437                   115710798.437    22221042.039  
                 134315555.152                   134315555.152    25793897.304  
  24909349.665   130899484.885                                                  
  25051669.339   131647418.185                                                  
  24090767.185   126597826.886                                                  
  27630275.923   145198056.579                                                  
  27865196.001   146432558.198                                                  
  25167336.293   132255212.642                                                  
  24999892.808   131375301.524                                                  
  25897380.086   136091668.988                                                  
 21  8 31  7 19 59.0000000  0 24G 1G 4G 7G 8G 9G14G17G21G27G30C20C23
                                C25C27C28C32E 1E 4E 9E19E21E26E31E33
  23199866.822   121916071.465    23199870.396    94999522.418                  
  24133915.426   126824570.125    24133917.123    98824338.832                  
  20471717.154   107579612.265    20471716.636    83828272.149                  
  21831476.789   114725141.479    21831479.326    89396203.505                  
  21986095.157   115537670.950    21986097.552    90029344.132                  
  22757484.028   119591387.434    22757484.743    93188096.649                  
  23145976.583   121632925.504    23145976.905    94778901.821                  
  22526157.607   118375753.265    22526157.018    92240846.327                  
  24425532.877   128357008.358    24425534.914   100018440.716                  
  22001791.664   115620155.822    22001793.827    90093618.042                  
                 133491022.561                   133491022.561    25635543.023  
                 119513499.013                   119513499.013    22951302.012  
                 136646928.585                   136646928.585    26241605.157  
                 129452697.293                   129452697.293    24860031.018  
                 115709315.374                   115709315.374    22220757.242  
                 134317970.513                   134317970.513    25794361.148  
  24909490.294   130900224.026                                                  
  25052031.865   131649323.308                                                  
  24090664.564   126597287.582                                                  
  27630831.203   145200974.630                                                  
  27865483.157   146434067.247                                                  
  25167210.959   132254553.987                                                  
  24999753.966   131374571.903                                                  
  25896899.249   136089142.105                                                  
 21  8 31  7 20  0.0000000  0 24G 1G 4G 7G 8G 9G14G17G21G27G30C20C23
                                C25C27C28C32E 1E 4E 9E19E21E26E31E33
  23199321.478   121913205.597    23199325.033    94997289.277                  
  24134614.122   126828241.836    24134615.820    98827199.906                  
  20471517.521   107578563.132    20471517.003    83827454.640                  
  21831986.253   114727818.841    21831988.808    89398289.758                  
  21986630.299   115540483.179    21986632.693    90031535.477                  
  22757167.979   119589726.659    22757168.694    93186802.539                  
  23145353.079   121629649.077    23145353.419    94776348.762                  
  22525954.401   118374685.454    22525953.811    92240014.269                  
  24426227.929   128360660.796    24426229.948   100021286.773                  
  22001323.907   115617697.731    22001326.051    90091702.649                  
                 133492123.118                   133492123.118    25635754.360  
                 119514133.180                   119514133.180    22951423.807  
                 136648886.466                   136648886.466    26241981.157  
                 129449382.581                   129449382.581    24859394.452  
                 115707832.801                   115707832.801    22220472.517  
                 134320385.847                   134320385.847    25794824.975  
  24909630.959   130900963.161                                                  
  25052394.464   131651228.739                                                  
  24090562.013   126596748.743                                                  
  27631386.483   145203892.587                                                  
  27865770.312   146435576.261                                                  
  25167085.698   132253895.755                                                  
  24999615.124   131373842.320                                                  
  25896418.411   136086615.360                                                  
 21  8 31  7 20  1.0000000  0 24G 1G 4G 7G 8G 9G14G17G21G27G30C20C23
                                C25C27C28C32E 1E 4E 9E19E21E26E31E33
  23198776.133   121910339.876    23198779.707    94995056.243                  
  24135312.837   126831913.591    24135314.535    98830061.016                  
  20471317.942   107577514.355    20471317.424    83826637.411                  
  21832495.823   114730496.575    21832498.361    89400376.304                  
  21987165.512   115543295.766    21987167.924    90033727.100                  
  22756851.983   119588066.046    22756852.698    93185508.555                  
  23144729.665   121626372.907    23144729.986    94773795.902                  
  22525751.284   118373618.125    22525750.712    92239182.582                  
  24426922.980   128364313.351    24426924.999   100024132.917                  
  22000856.185   115615239.796    22000858.348    90089787.375                  
                 133493224.032                   133493224.032    25635965.787  
                 119514767.520                   119514767.520    22951545.620  
                 136650844.478                   136650844.478    26242357.174  
                 129446067.957                   129446067.957    24858757.922  
                 115706350.715                   115706350.715    22220187.900  
                 134322801.162                   134322801.162    25795288.819  
  24909771.624   130901702.301                                                  
  25052757.098   131653134.458                                                  
  24090459.552   126596210.348                                                  
  27631941.727   145206810.453                                                  
  27866057.467   146437085.233                                                  
  25166960.525   132253237.966                                                  
  24999476.281   131373112.763                                                  
  25895937.627   136084088.773                                                  
 21  8 31  7 20  2.0000000  0 24G 1G 4G 7G 8G 9G14G17G21G27G30C20C23
                                C25C27C28C32E 1E 4E 9E19E21E26E31E33
  23198230.842   121907474.297    23198234.398    94992823.324                  
  24136011.551   126835585.367    24136013.231    98832922.140                  
  20471118.434   107576465.938    20471117.898    83825820.465                  
  21833005.448   114733174.676    21833007.985    89402463.136                  
  21987700.796   115546108.696    21987703.209    90035918.996                  
  22756536.023   119586405.597    22756536.738    93184214.699                  
  23144106.268   121623097.003    23144106.608    94771243.254                  
  22525548.256   118372551.248    22525547.702    92238351.251                  
  24427618.067   128367966.020    24427620.086   100026979.156                  
  22000388.482   115612782.011    22000390.644    90087872.220                  
                 133494325.304                   133494325.304    25636177.284  
                 119515402.036                   119515402.036    22951667.487  
                 136652802.615                   136652802.615    26242733.228  
                 129442753.411                   129442753.411    24858121.392  
                 115704869.112                   115704869.112    22219903.371  
                 134325216.453                   134325216.453    25795752.645  
  24909912.253   130902441.442                                                  
  25053119.821   131655040.499                                                  
  24090357.198   126595672.391                                                  
  27632496.954   145209728.230                                                  
  27866344.604   146438594.191                                                  
  25166835.442   132252580.609                                                  
  24999337.457   131372383.224                                                  
  25895456.861   136081562.348                                                  
 21  8 31  7 20  3.0000000  0 24G 1G 4G 7G 8G 9G14G17G21G27G30C20C23
                                C25C27C28C32E 1E 4E 9E19E21E26E31E33
  23197685.568   121904608.866    23197689.142    94990590.523                  
  24136710.284   126839257.180    24136711.981    98835783.288                  
  20470918.998   107575417.867    20470918.462    83825003.785                  
  21833515.144   114735853.152    21833517.681    89404550.261                  
  21988236.152   115548921.984    21988238.564    90038111.169                  
  22756220.063   119584745.316    22756220.778    93182920.973                  
  23143482.943   121619821.372    23143483.265    94768690.812                  
  22525345.335   118371484.831    22525344.763    92237520.277                  
  24428313.154   128371618.798    24428315.173   100029825.474                  
  21999920.796   115610324.375    21999922.958    90085957.176                  
                 133495426.934                   133495426.934    25636388.836  
                 119516036.730                   119516036.730    22951789.354  
                 136654760.883                   136654760.883    26243109.282  
                 129439438.950                   129439438.950    24857484.897  
                 115703388.004                   115703388.004    22219618.932  
                 134327631.723                   134327631.723    25796216.471  
  24910052.918   130903180.591                                                  
  25053482.580   131656946.829                                                  
  24090254.898   126595134.882                                                  
  27633052.180   145212645.949                                                  
  27866631.742   146440103.096                                                  
  25166710.448   132251923.703                                                  
  24999198.632   131371653.702                                                  
  25894976.113   136079036.079                                                  
 21  8 31  7 20  4.0000000  0 24G 1G 4G 7G 8G 9G14G17G21G27G30C20C23
                                C25C27C28C32E 1E 4E 9E19E21E26E31E33
  23197140.313   121901743.562    23197143.887    94988357.821                  
  24137408.998   126842929.000    24137410.696    98838644.449                  
  20470719.616   107574370.149    20470719.098    83824187.383                  
  21834024.911   114738532.007    21834027.449    89406637.680                  
  21988771.580   115551735.606    21988773.974    90040303.602                  
  22755904.156   119583085.187    22755904.871    93181627.368                  
  23142859.654   121616545.996    23142859.975    94766138.574                  
  22525142.486   118370418.866    22525141.914    92236689.657                  
  24429008.277   128375271.696    24429010.296   100032671.890                  
  21999453.163   115607866.886    21999455.325    90084042.250                  
                 133496528.927                   133496528.927    25636600.459  
                 119516671.598                   119516671.598    22951911.274  
                 136656719.284                   136656719.284    26243485.389  
                 129436124.573                   129436124.573    24856848.403  
                 115701907.378                   115701907.378    22219334.600  
                 134330046.974                   134330046.974    25796680.297  
  24910193.583   130903919.726                                                  
  25053845.393   131658853.466                                                  
  24090152.705   126594597.825                                                  
  27633607.388   145215563.539                                                  
  27866918.861   146441611.975                                                  
  25166585.508   132251267.202                                                  
  24999059.826   131370924.207                                                  
  25894495.419   136076509.953                                                  
 21  8 31  7 20  5.0000000  0 24G 1G 4G 7G 8G 9G14G17G21G27G30C20C23
                                C25C27C28C32E 1E 4E 9E19E21E26E31E33
  23196595.093   121898878.417    23196598.667    94986125.238                  
  24138107.749   126846600.855    24138109.428    98841505.632                  
  20470520.323   107573322.785    20470519.786    83823371.253                  
  21834534.768   114741211.241    21834537.288    89408725.395                  
  21989307.061   115554549.575    21989309.455    90042496.305                  
  22755588.286   119581425.237    22755589.000    93180333.898                  
  23142236.418   121613270.903    23142236.739    94763586.550                  
  22524939.726   118369353.362    22524939.154    92235859.394                  
  24429703.418   128378924.703    24429705.455   100035518.391                  
  21998985.549   115605409.558    21998987.693    90082127.449                  
                 133497631.272                   133497631.272    25636812.153  
                 119517306.644                   119517306.644    22952033.248  
                 136658677.814                   136658677.814    26243861.478  
                 129432810.278                   129432810.278    24856211.926  
                 115700427.241                   115700427.241    22219050.358  
                 134332462.195                   134332462.195    25797144.124  
  24910334.212   130904658.867                                                  
  25054208.277   131660760.406                                                  
  24090050.602   126594061.211                                                  
  27634162.579   145218481.062                                                  
  27867205.999   146443120.822                                                  
  25166460.657   132250611.157                                                  
  24998921.001   131370194.742                                                  
  25894014.742   136073983.992                                                  
 21  8 31  7 20  6.0000000  0 24G 1G 4G 7G 8G 9G14G17G21G27G30C20C23
                                C25C27C28C32E 1E 4E 9E19E21E26E31E33
  23196049.892   121896013.409    23196053.466    94983892.765                  
  24138806.481   126850272.739    24138808.161    98844366.843                  
  20470321.083   107572275.792    20470320.565    83822555.414                  
  21835044.661   114743890.856    21835047.198    89410813.406                  
  21989842.595   115557363.887    21989845.008    90044689.273                  
  22755272.415   119579765.442    22755273.165    93179040.550                  
  23141613.236   121609996.067    23141613.557    94761034.735                  
  22524737.056   118368288.321    22524736.484    92235029.493                  
  24430398.576   128382577.833    24430400.614   100038364.984                  
  21998517.952   115602952.380    21998520.114    90080212.763                  
                 133498733.978                   133498733.978    25637023.919  
                 119517941.867                   119517941.867    22952155.222  
                 136660636.471                   136660636.471    26244237.621  
                 129429496.067                   129429496.067    24855575.467  
                 115698947.593                   115698947.593    22218766.204  
                 134334877.402                   134334877.402    25797607.914  
  24910474.877   130905398.016                                                  
  25054571.197   131662667.636                                                  
  24089948.552   126593525.026                                                  
  27634717.734   145221398.520                                                  
  27867493.118   146444629.633                                                  
  25166335.895   132249955.551                                                  
  24998782.195   131369465.282                                                  
  25893534.101   136071458.203                                                  
 21  8 31  7 20  7.0000000  0 24G 1G 4G 7G 8G 9G14G17G21G27G30C20C23
                                C25C27C28C32E 1E 4E 9E19E21E26E31E33
  23195504.744   121893148.548    23195508.300    94981660.405                  
  24139505.214   126853944.652    24139506.893    98847228.074                  
  20470121.897   107571229.145    20470121.379    83821739.847                  
  21835554.661   114746570.855    21835557.180    89412901.715                  
  21990378.219   115560178.542    21990380.614    90046882.511                  
  22754956.616   119578105.815    22754957.348    93177747.336                  
  23140990.125   121606721.513    23140990.447    94758483.130                  
  22524534.475   118367223.751    22524533.903    92234199.957                  
  24431093.789   128386231.063    24431095.808   100041211.656                  
  21998050.391   115600495.337    21998052.554    90078298.184                  
                 133499837.044                   133499837.044    25637235.738  
                 119518577.264                   119518577.264    22952277.232  
                 136662595.265                   136662595.265    26244613.800  
                 129426181.937                   129426181.937    24854939.026  
                 115697468.432                   115697468.432    22218482.140  
                 134337292.582                   134337292.582    25798071.740  
  24910615.542   130906137.157                                                  
  25054934.206   131664575.165                                                  
  24089846.627   126592989.307                                                  
  27635272.906   145224315.913                                                  
  27867780.220   146446138.409                                                  
  25166211.241   132249300.382                                                  
  24998643.388   131368735.842                                                  
  25893053.478   136068932.573                                                  
 21  8 31  7 20  8.0000000  0 24G 1G 4G 7G 8G 9G14G17G21G27G30C20C23
                                C25C27C28C32E 1E 4E 9E19E21E26E31E33
  23194959.595   121890283.828    23194963.151    94979428.161                  
  24140203.964   126857616.572    24140205.643    98850089.308                  
  20469922.800   107570182.811    20469922.282    83820924.520                  
  21836064.714   114749251.233    21836067.234    89414990.324                  
  21990913.897   115562993.562    21990916.291    90049076.030                  
  22754640.817   119576446.355    22754641.531    93176454.250                  
  23140367.032   121603447.203    23140367.354    94755931.724                  
  22524331.983   118366159.614    22524331.393    92233370.757                  
  24431788.983   128389884.422    24431791.020   100044058.430                  
  21997582.884   115598038.464    21997585.028    90076383.737                  
                 133500940.464                   133500940.464    25637447.647  
                 119519212.839                   119519212.839    22952399.295  
                 136664554.185                   136664554.185    26244989.978  
                 129422867.894                   129422867.894    24854302.603  
                 115695989.761                   115695989.761    22218198.184  
                 134339707.742                   134339707.742    25798535.549  
  24910756.171   130906876.288                                                  
  25055297.269   131666483.047                                                  
  24089744.756   126592454.075                                                  
  27635828.025   145227233.051                                                  
  27868067.321   146447647.141                                                  
  25166086.640   132248645.610                                                  
  24998504.600   131368006.491                                                  
  25892572.908   136066407.043                                                  
 21  8 31  7 20  9.0000000  0 24G 1G 4G 7G 8G 9G14G17G21G27G30C20C23
                                C25C27C28C32E 1E 4E 9E19E21E26E31E33
  23194414.501   121887419.270    23194418.057    94977196.035                  
  24140902.696   126861288.523    24140904.394    98852950.571                  
  20469723.757   107569136.874    20469723.239    83820109.504                  
  21836574.839   114751931.987    21836577.376    89417079.223                  
  21991449.646   115565808.918    21991452.040    90051269.812                  
  22754325.089   119574787.060    22754325.804    93175161.293                  
  23139743.993   121600173.183    23139744.332    94753380.539                  
  22524129.580   118365095.956    22524129.009    92232541.937                  
  24432484.213   128393537.886    24432486.232   100046905.285                  
  21997115.359   115595581.727    21997117.521    90074469.399                  
                 133502044.243                   133502044.243    25637659.627  
                 119519848.589                   119519848.589    22952521.394  
                 136666513.235                   136666513.235    26245366.193  
                 129419553.933                   129419553.933    24853666.180  
                 115694511.578                   115694511.578    22217914.317  
                 134342122.879                   134342122.879    25798999.339  
  24910896.836   130907615.429                                                  
  25055660.367   131668391.198                                                  
  24089642.992   126591919.255                                                  
  27636383.145   145230150.231                                                  
  27868354.423   146449155.858                                                  
  25165962.111   132247991.313                                                  
  24998365.793   131367277.116                                                  
  25892092.339   136063881.716                                                  
 21  8 31  7 20 10.0000000  0 24G 1G 4G 7G 8G 9G14G17G21G27G30C20C23
                                C25C27C28C32E 1E 4E 9E19E21E26E31E33
  23193869.406   121884554.837    23193872.980    94974964.007                  
  24141601.464   126864960.519    24141603.162    98855811.866                  
  20469524.804   107568091.274    20469524.267    83819294.751                  
  21837085.053   114754613.146    21837087.573    89419168.433                  
  21991985.448   115568624.610    21991987.843    90053463.860                  
  22754009.361   119573127.917    22754010.076    93173868.456                  
  23139121.025   121596899.415    23139121.365    94750829.552                  
  22523927.232   118364032.755    22523926.678    92231713.469                  
  24433179.461   128397191.460    24433181.498   100049752.228                  
  21996647.905   115593125.153    21996650.068    90072555.183                  
                 133503148.382                   133503148.382    25637871.661  
                 119520484.518                   119520484.518    22952643.529  
                 136668472.419                   136668472.419    26245742.443  
                 129416240.053                   129416240.053    24853029.774  
                 115693033.880                   115693033.880    22217630.539  
                 134344537.993                   134344537.993    25799463.148  
  24911037.501   130908354.567                                                  
  25056023.537   131670299.649                                                  
  24089541.299   126591384.883                                                  
  27636938.246   145233067.295                                                  
  27868641.524   146450664.531                                                  
  25165837.707   132247337.436                                                  
  24998227.022   131366547.771                                                  
  25891611.823   136061356.526                                                  
 21  8 31  7 20 11.0000000  0 24G 1G 4G 7G 8G 9G14G17G21G27G30C20C23
                                C25C27C28C32E 1E 4E 9E19E21E26E31E33
  23193324.365   121881690.551    23193327.921    94972732.098                  
  24142300.215   126868632.526    24142301.912    98858673.173                  
  20469325.886   107567046.035    20469325.367    83818480.277                  
  21837595.339   114757294.692    21837597.858    89421257.949                  
  21992521.323   115571440.656    21992523.717    90055658.184                  
  22753693.651   119571468.956    22753694.384    93172575.757                  
  23138498.093   121593625.927    23138498.415    94748278.781                  
  22523725.026   118362970.015    22523724.436    92230885.360                  
  24433874.745   128400845.147    24433876.782   100052599.257                  
  21996180.452   115590668.726    21996182.614    90070641.087                  
                 133504252.879                   133504252.879    25638083.766  
                 119521120.623                   119521120.623    22952765.681  
                 136670431.730                   136670431.730    26246118.693  
                 129412926.261                   129412926.261    24852393.405  
                 115691556.671                   115691556.671    22217346.868  
                 134346953.081                   134346953.081    25799926.938  
  24911178.148   130909093.699                                                  
  25056386.761   131672208.411                                                  
  24089439.696   126590850.960                                                  
  27637493.311   145235984.281                                                  
  27868928.608   146452173.164                                                  
  25165713.339   132246683.996                                                  
  24998088.216   131365818.446                                                  
  25891131.325   136058831.501                                                  
 21  8 31  7 20 12.0000000  0 24G 1G 4G 7G 8G 9G14G17G21G27G30C20C23
                                C25C27C28C32E 1E 4E 9E19E21E26E31E33
  23192779.324   121878826.409    23192782.880    94970500.302                  
  24142999.001   126872304.572    24143000.680    98861534.500                  
  20469127.057   107566001.152    20469126.521    83817666.087                  
  21838105.678   114759976.601    21838108.216    89423347.753                  
  21993057.268   115574257.040    21993059.663    90057852.766                  
  22753377.995   119569810.153    22753378.727    93171283.184                  
  23137875.215   121590352.699    23137875.554    94745728.214                  
  22523522.873   118361907.730    22523522.302    92230057.606                  
  24434570.046   128404498.949    24434572.065   100055446.375                  
  21995713.034   115588212.452    21995715.196    90068727.109                  
                 133505357.730                   133505357.730    25638295.943  
                 119521756.901                   119521756.901    22952887.852  
                 136672391.173                   136672391.173    26246494.997  
                 129409612.550                   129409612.550    24851757.035  
                 115690079.950                   115690079.950    22217063.269  
                 134349368.154                   134349368.154    25800390.729  
  24911318.795   130909832.839                                                  
  25056750.038   131674117.472                                                  
  24089338.182   126590317.489                                                  
  27638048.395   145238901.176                                                  
  27869215.674   146453681.769                                                  
  25165589.078   132246030.987                                                  
  24997949.445   131365089.145                                                  
  25890650.845   136056306.628                                                  
 21  8 31  7 20 13.0000000  0 24G 1G 4G 7G 8G 9G14G17G21G27G30C20C23
                                C25C27C28C32E 1E 4E 9E19E21E26E31E33
  23192234.319   121875962.417    23192237.875    94968268.622                  
  24143697.769   126875976.629    24143699.466    98864395.848                  
  20468928.282   107564956.606    20468927.764    83816852.152                  
  21838616.107   114762658.878    21838618.644    89425437.837                  
  21993593.267   115577073.776    21993595.680    90060047.628                  
  22753062.356   119568151.503    22753063.071    93169990.731                  
  23137252.408   121587079.738    23137252.711    94743177.860                  
  22523320.828   118360845.909    22523320.239    92229230.215                  
  24435265.366   128408152.872    24435267.385   100058293.585                  
  21995245.652   115585756.313    21995247.814    90066813.234                  
                 133506462.945                   133506462.945    25638508.173  
                 119522393.360                   119522393.360    22953010.076  
                 136674350.744                   136674350.744    26246871.301  
                 129406298.923                   129406298.923    24851120.702  
                 115688603.718                   115688603.718    22216779.777  
                 134351783.195                   134351783.195    25800854.519  
  24911459.460   130910571.974                                                  
  25057113.387   131676026.829                                                  
  24089236.757   126589784.452                                                  
  27638603.442   145241817.967                                                  
  27869502.740   146455190.331                                                  
  25165464.906   132245378.419                                                  
  24997810.656   131364359.864                                                  
  25890170.400   136053781.910                                                  
 21  8 31  7 20 14.0000000  0 24G 1G 4G 7G 8G 9G14G17G21G27G30C20C23
                                C25C27C28C32E 1E 4E 9E19E21E26E31E33
  23191689.368   121873098.571    23191692.924    94966037.051                  
  24144396.537   126879648.716    24144398.217    98867257.212                  
  20468729.578   107563912.438    20468729.060    83816038.515                  
  21839126.607   114765341.542    21839129.144    89427528.227                  
  21994129.338   115579890.855    21994131.733    90062242.750                  
  22752746.772   119566493.023    22752747.504    93168698.410                  
  23136629.637   121583807.054    23136629.958    94740627.714                  
  22523118.837   118359784.554    22523118.283    92228403.183                  
  24435960.685   128411806.891    24435962.722   100061140.875                  
  21994778.305   115583300.332    21994780.467    90064899.481                  
                 133507568.512                   133507568.512    25638720.493  
                 119523029.993                   119523029.993    22953132.336  
                 136676310.445                   136676310.445    26247247.640  
                 129402985.378                   129402985.378    24850484.368  
                 115687127.972                   115687127.972    22216496.374  
                 134354198.218                   134354198.218    25801318.292  
  24911600.107   130911311.106                                                  
  25057476.771   131677936.495                                                  
  24089135.404   126589251.876                                                  
  27639158.472   145244734.689                                                  
  27869789.824   146456698.875                                                  
  25165340.805   132244726.279                                                  
  24997671.903   131363630.609                                                  
  25889689.992   136051257.349                                                  
 21  8 31  7 20 15.0000000  0 24G 1G 4G 7G 8G 9G14G17G21G27G30C20C23
                                C25C27C28C32E 1E 4E 9E19E21E26E31E33
  23191144.398   121870234.855    23191147.972    94963805.586                  
  24145095.323   126883320.820    24145097.003    98870118.590                  
  20468530.964   107562868.613    20468530.428    83815225.148                  
  21839637.161   114768024.576    21839639.698    89429618.898                  
  21994665.480   115582708.278    21994667.875    90064438.144                  
  22752431.205   119564834.708    22752431.919    93167406.216                  
  23136006.919   121580534.636    23136007.241    94738077.778                  
  22522916.953   118358723.651    22522916.381    92227576.507                  
  24436656.040   128415461.027    24436658.077   100063988.254                  
  21994310.959   115580844.513    21994313.121    90062985.855                  
                 133508674.442                   133508674.442    25638932.884  
                 119523666.801                   119523666.801    22953254.632  
                 136678270.277                   136678270.277    26247624.015  
                 129399671.922                   129399671.922    24849848.052  
                 115685652.720                   115685652.720    22216213.060  
                 134356613.218                   134356613.218    25801782.064  
  24911740.754   130912050.235                                                  
  25057840.245   131679846.460                                                  
  24089034.140   126588719.743                                                  
  27639713.502   145247651.313                                                  
  27870076.871   146458207.367                                                  
  25165216.794   132244074.579                                                  
  24997533.114   131362901.384                                                  
  25889209.619   136048732.945                                                  
 21  8 31  7 20 16.0000000  0 24G 1G 4G 7G 8G 9G14G17G21G27G30C20C23
                                C25C27C28C32E 1E 4E 9E19E21E26E31E33
  23190599.500   121867371.294    23190603.056    94961574.231                  
  24145794.091   126886992.918    24145795.806    98872979.953                  
  20468332.386   107561825.176    20468331.868    83814412.089                  
  21840147.804   114770707.988    21840150.341    89431709.880                  
  21995201.676   115585525.985    21995204.088    90066633.731                  
  22752115.656   119563176.551    22752116.388    93166114.145                  
  23135384.237   121577262.527    23135384.559    94735528.105                  
  22522715.158   118357663.203    22522714.604    92226750.175                  
  24437351.413   128419115.270    24437353.468   100066835.718                  
  21993843.666   115578388.896    21993845.828    90061072.422                  
                 133509780.727                   133509780.727    25639145.311  
                 119524303.789                   119524303.789    22953376.963  
                 136680230.243                   136680230.243    26248000.408  
                 129396358.546                   129396358.546    24849211.754  
                 115684177.950                   115684177.950    22215929.836  
                 134359028.195                   134359028.195    25802245.837  
  24911881.419   130912789.261                                                  
  25058203.737   131681756.745                                                  
  24088932.966   126588188.004                                                  
  27640268.496   145250567.853                                                  
  27870363.919   146459715.829                                                  
  25165092.855   132243423.231                                                  
  24997394.361   131362172.177                                                  
  25888729.281   136046208.827                                                  
 21  8 31  7 20 17.0000000  0 24G 1G 4G 7G 8G 9G14G17G21G27G30C20C23
                                C25C27C28C32E 1E 4E 9E19E21E26E31E33
  23190054.602   121864507.862    23190058.158    94959342.988                  
  24146492.895   126890665.078    24146494.575    98875841.375                  
  20468133.897   107560782.062    20468133.361    83813599.273                  
  21840658.500   114773391.749    21840661.038    89433801.120                  
  21995737.961   115588344.100    21995740.356    90068829.665                  
  22751800.160   119561518.555    22751800.875    93164822.198                  
  23134761.627   121573990.625    23134761.948    94732978.569                  
  22522513.452   118356603.222    22522512.881    92225924.218                  
  24438046.822   128422769.629    24438048.859   100069683.269                  
  21993376.409   115575933.358    21993378.553    90059159.021                  
                 133510887.367                   133510887.367    25639357.845  
                 119524940.952                   119524940.952    22953499.312  
                 136682190.337                   136682190.337    26248376.819  
                 129393045.253                   129393045.253    24848575.456  
                 115682703.672                   115682703.672    22215646.720  
                 134361443.149                   134361443.149    25802709.592  
  24912022.067   130913528.390                                                  
  25058567.318   131683667.312                                                  
  24088831.881   126587656.757                                                  
  27640823.472   145253484.295                                                  
  27870650.967   146461224.253                                                  
  25164969.022   132242772.403                                                  
  24997255.609   131361442.993                                                  
  25888248.962   136043684.746                                                  
 21  8 31  7 20 18.0000000  0 24G 1G 4G 7G 8G 9G14G17G21G27G30C20C23
                                C25C27C28C32E 1E 4E 9E19E21E26E31E33
  23189509.740   121861644.589    23189513.296    94957111.863                  
  24147191.681   126894337.259    24147193.379    98878702.809                  
  20467935.461   107559739.312    20467934.943    83812786.735                  
  21841169.286   114776075.901    21841171.824    89435892.665                  
  21996274.282   115591162.559    21996276.694    90071025.864                  
  22751484.682   119559860.727    22751485.397    93163530.382                  
  23134139.052   121570719.015    23134139.374    94730429.262                  
  22522311.836   118355543.707    22522311.264    92225098.617                  
  24438742.267   128426424.106    24438744.286   100072530.911                  
  21992909.152   115573477.991    21992911.314    90057245.743                  
                 133511994.367                   133511994.367    25639570.433  
                 119525578.292                   119525578.292    22953621.715  
                 136684150.559                   136684150.559    26248753.266  
                 129389732.051                   129389732.051    24847939.194  
                 115681229.880                   115681229.880    22215363.692  
                 134363858.077                   134363858.077    25803173.364  
  24912162.714   130914267.530                                                  
  25058930.934   131685578.174                                                  
  24088730.867   126587125.962                                                  
  27641378.448   145256400.653                                                  
  27870937.998   146462732.635                                                  
  25164845.244   132242122.003                                                  
  24997116.856   131360713.829                                                  
  25887768.678   136041160.810                                                  
 21  8 31  7 20 19.0000000  0 24G 1G 4G 7G 8G 9G14G17G21G27G30C20C23
                                C25C27C28C32E 1E 4E 9E19E21E26E31E33
  23188964.896   121858781.462    23188968.452    94954880.851                  
  24147890.485   126898009.477    24147892.182    98881564.274                  
  20467737.097   107558696.911    20467736.579    83811974.472                  
  21841680.126   114778760.434    21841682.663    89437984.504                  
  21996810.692   115593981.363    21996813.104    90073222.333                  
  22751169.241   119558203.071    22751169.955    93162238.700                  
  23133516.531   121567447.677    23133516.853    94727880.163                  
  22522110.291   118354484.653    22522109.738    92224273.378                  
  24439437.693   128430078.692    24439439.748   100075378.638                  
  21992441.948   115571022.764    21992444.093    90055332.579                  
                 133513101.722                   133513101.722    25639783.092  
                 119526215.809                   119526215.809    22953744.136  
                 136686110.915                   136686110.915    26249129.713  
                 129386418.925                   129386418.925    24847302.967  
                 115679756.579                   115679756.579    22215080.772  
                 134366272.984                   134366272.984    25803637.119  
  24912303.361   130915006.659                                                  
  25059294.623   131687489.348                                                  
  24088629.961   126586595.634                                                  
  27641933.388   145259316.914                                                  
  27871225.046   146464241.001                                                  
  25164721.554   132241472.040                                                  
  24996978.103   131359984.686                                                  
  25887288.413   136038637.034                                                  
 21  8 31  7 20 20.0000000  0 24G 1G 4G 7G 8G 9G14G17G21G27G30C20C23
                                C25C27C28C32E 1E 4E 9E19E21E26E31E33
  23188420.105   121855918.476    23188423.661    94952649.953                  
  24148589.289   126901681.711    24148590.986    98884425.754                  
  20467538.805   107557654.867    20467538.286    83811162.493                  
  21842191.037   114781445.337    21842193.575    89440076.634                  
  21997347.156   115596800.514    21997349.568    90075419.074                  
  22750853.834   119556545.572    22750854.567    93160947.142                  
  23132894.082   121564176.606    23132894.403    94725331.277                  
  22521908.854   118353426.050    22521908.300    92223448.495                  
  24440133.156   128433733.406    24440135.193   100078226.469                  
  21991974.763   115568567.699    21991976.925    90053419.539                  
                 133514209.438                   133514209.438    25639995.823  
                 119526853.501                   119526853.501    22953866.628  
                 136688071.398                   136688071.398    26249506.213  
                 129383105.891                   129383105.891    24846666.723  
                 115678283.761                   115678283.761    22214797.941  
                 134368687.868                   134368687.868    25804100.874  
  24912444.026   130915745.794                                                  
  25059658.364   131689400.825                                                  
  24088529.126   126586065.731                                                  
  27642488.329   145262233.083                                                  
  27871512.058   146465749.328                                                  
  25164597.954   132240822.512                                                  
  24996839.367   131359255.576                                                  
  25886808.183   136036113.420                                                  
 21  8 31  7 20 21.0000000  0 24G 1G 4G 7G 8G 9G14G17G21G27G30C20C23
                                C25C27C28C32E 1E 4E 9E19E21E26E31E33
  23187875.314   121853055.640    23187878.888    94950419.171                  
  24149288.093   126905353.964    24149289.772    98887287.251                  
  20467340.584   107556613.176    20467340.065    83810350.786                  
  21842702.038   114784130.586    21842704.575    89442169.038                  
  21997883.691   115599620.012    21997886.104    90077616.082                  
  22750538.464   119554888.239    22750539.179    93159655.714                  
  23132271.668   121560905.800    23132271.972    94722782.601                  
  22521707.506   118352367.921    22521706.934    92222623.976                  
  24440828.654   128437388.218    24440830.673   100081074.372                  
  21991507.595   115566112.786    21991509.757    90051506.618                  
                 133515317.511                   133515317.511    25640208.625  
                 119527491.370                   119527491.370    22953989.102  
                 136690032.016                   136690032.016    26249882.731  
                 129379792.939                   129379792.939    24846030.496  
                 115676811.437                   115676811.437    22214515.182  
                 134371102.726                   134371102.726    25804564.629  
  24912584.673   130916484.929                                                  
  25060022.160   131691312.606                                                  
  24088428.363   126585536.281                                                  
  27643043.215   145265149.171                                                  
  27871799.088   146467257.625                                                  
  25164474.444   132240173.429                                                  
  24996700.615   131358526.491                                                  
  25886327.988   136033589.965                                                  
 21  8 31  7 20 22.0000000  0 24G 1G 4G 7G 8G 9G14G17G21G27G30C20C23
                                C25C27C28C32E 1E 4E 9E19E21E26E31E33
  23187330.559   121850192.948    23187334.115    94948188.504                  
  24149986.896   126909026.248    24149988.594    98890148.770                  
  20467142.416   107555571.843    20467141.898    83809539.360                  
  21843213.092   114786816.220    21843215.611    89444261.737                  
  21998420.280   115602439.844    21998422.675    90079813.356                  
  22750223.094   119553231.074    22750223.826    93158364.419                  
  23131649.308   121557635.266    23131649.611    94720234.133                  
  22521506.247   118351310.251    22521505.657    92221799.816                  
  24441524.152   128441043.144    24441526.207   100083922.366                  
  21991040.481   115563658.021    21991042.643    90049593.813                  
                 133516425.939                   133516425.939    25640421.481  
                 119528129.419                   119528129.419    22954111.648  
                 136691992.758                   136691992.758    26250259.285  
                 129376480.065                   129376480.065    24845394.305  
                 115675339.601                   115675339.601    22214232.547  
                 134373517.563                   134373517.563    25805028.365  
  24912725.320   130917224.063                                                  
  25060386.027   131693224.687                                                  
  24088327.706   126585007.291                                                  
  27643598.120   145268065.156                                                  
  27872086.100   146468765.879                                                  
  25164351.004   132239524.766                                                  
  24996561.879   131357797.425                                                  
  25885847.812   136031066.665                                                  
