     2.11           OBSERVATION DATA    M (MIXED)           RINEX VERSION / TYPE
CONVBIN 2.4.3                           20210902 202015 UTC PGM / RUN BY / DATE 
log: logs/21_09_02_07_16_56_scwt_VZ.rtcm                    COMMENT             
format: RTCM 3, station ID: 862                             COMMENT             
0862                                                        MARKER NAME         
                                                            MARKER NUMBER       
                                                            OBSERVER / AGENCY   
                    TRIMBLE ALLOY                           REC # / TYPE / VERS 
                    GPPNULLANTENNA                          ANT # / TYPE        
   861394.5452 -5290252.0636  3445541.4149                  APPROX POSITION XYZ 
        0.0000        0.0000        0.0000                  ANTENNA: DELTA H/E/N
     1     1                                                WAVELENGTH FACT L1/2
     7    C1    L1    P2    L2    C2    C5    L5            # / TYPES OF OBSERV 
  2021     9     2     7    17   15.0000000     GPS         TIME OF FIRST OBS   
  2021     9     2     7    47    0.0000000     GPS         TIME OF LAST OBS    
                                                            END OF HEADER       
 21  9  2  7 17 15.0000000  0 19G 1G 7G 8G 9G14G21G27G30R12R13R14R24
                                E 2E 3E 8E11E24E25E36
  22635456.828   118950131.013                    92688422.115    22635458.043  
  22635453.040    88826385.305  
  20323094.504   106798594.671                    83219686.274    20323091.270  
                                
  21132429.710   111051684.435                    86533792.473    21132429.871  
  21132424.618    82928198.128  
  22996922.360   120849648.017                    94168560.420    22996922.324  
  22996919.108    90244857.474  
  23761799.795   124869104.012                    97300599.415    23761798.347  
  23761798.848    93246408.513  
  21603893.732   113529236.323    21603891.748    88464329.549                  
                                
  23441326.319   123185018.264                    95988335.778    23441325.837  
  23441321.977    91988801.660  
  22230338.934   116821220.804                    91029525.057    22230339.631  
  22230335.074    87236612.249  
  23003844.784   122882455.929    23003842.658    95575266.566                  
                                
  20159344.064   107649782.819    20159339.454    83727593.771                  
                                
  21112110.469   112539438.171    21112107.145    87530668.942                  
                                
  19943541.821   106647088.085    19943537.068    82947726.774                  
                                
  24632434.006   129444331.118                                                  
                                
  26370796.817   138579481.318                                                  
                                
  24542554.035   128971997.141                                                  
                                
  23132531.573   121562275.615                                                  
                                
  27839069.649   146295371.481                                                  
                                
  24264808.539   127512464.346                                                  
                                
  25056608.069   131673380.245                                                  
                                
 21  9  2  7 17 16.0000000  0 19G 1G 7G 8G 9G14G21G27G30R12R13R14R24
                                E 2E 3E 8E11E24E25E36
  22634823.943   118946805.558                    92685830.854    22634825.140  
  22634820.262    88823902.006  
  20322877.824   106797458.053                    83218800.607    20322875.233  
                                
  21132859.389   111053943.511                    86535552.785    21132859.782  
  21132854.421    82929885.109  
  22997478.623   120852571.350                    94170838.337    22997478.337  
  22997475.335    90247040.484  
  23761372.636   124866857.483                    97298848.869    23761371.010  
  23761371.367    93244730.906  
  21603644.405   113527924.906    21603642.279    88463307.655                  
                                
  23441980.558   123188457.370                    95991015.573    23441980.201  
  23441976.269    91991369.819  
  22229816.122   116818472.986                    91027383.894    22229816.908  
  22229812.191    87234560.312  
  23004296.477   122884870.786    23004294.815    95577144.781                  
                                
  20159405.533   107650112.950    20159401.263    83727850.548                  
                                
  21111667.514   112537077.313    21111664.172    87528832.722                  
                                
  19943061.859   106644520.453    19943057.017    82945729.729                  
                                
  24632213.788   129443173.577                                                  
                                
  26371255.014   138581889.629                                                  
                                
  24542666.074   128972586.314                                                  
                                
  23132528.303   121562258.745                                                  
                                
  27839387.307   146297042.133                                                  
                                
  24264890.003   127512892.083                                                  
                                
  25056142.384   131670932.832                                                  
                                
 21  9  2  7 17 17.0000000  0 19G 1G 7G 8G 9G14G21G27G30R12R13R14R24
                                E 2E 3E 8E11E24E25E36
  22634191.058   118943480.317                    92683239.746    22634191.987  
  22634187.395    88821418.870  
  20322661.752   106796321.938                    83217915.311    20322658.839  
                                
  21133289.675   111056202.946                    86537313.383    21133289.550  
  21133284.404    82931572.349  
  22998034.635   120855494.885                    94173116.426    22998034.778  
  22998031.598    90249223.646  
  23760944.851   124864611.010                    97297098.366    23760943.779  
  23760943.761    93243053.352  
  21603395.311   113526614.024    21603392.738    88462286.199                  
                                
  23442634.779   123191896.553                    95993695.478    23442634.546  
  23442630.812    91993938.046  
  22229292.828   116815725.415                    91025242.927    22229294.114  
  22229289.343    87232508.550  
  23004747.813   122887285.908    23004746.973    95579023.207                  
                                
  20159467.664   107650443.472    20159463.250    83728107.611                  
                                
  21111224.916   112534716.535    21111221.360    87526996.566                  
                                
  19942581.844   106641953.531    19942576.948    82943733.237                  
                                
  24631993.624   129442016.058                                                  
                                
  26371713.372   138584298.081                                                  
                                
  24542778.131   128973175.897                                                  
                                
  23132524.979   121562242.332                                                  
                                
  27839705.179   146298712.806                                                  
                                
  24264971.290   127513319.890                                                  
                                
  25055676.539   131668485.679                                                  
                                
 21  9  2  7 17 18.0000000  0 19G 1G 7G 8G 9G14G21G27G30R12R13R14R24
                                E 2E 3E 8E11E24E25E36
  22633558.637   118940155.341                    92680648.871    22633559.834  
  22633554.706    88818935.948  
  20322445.876   106795186.356                    83217030.447    20322442.642  
                                
  21133719.514   111058462.797                    86539074.311    21133719.514  
  21133714.439    82933259.896  
  22998590.970   120858418.696                    94175394.720    22998590.987  
  22998587.950    90251407.005  
  23760517.335   124862364.649                    97295347.952    23760516.281  
  23760516.334    93241375.868  
  21603146.127   113525303.728    21603143.376    88461265.189                  
                                
  23443289.053   123195335.926                    95996375.496    23443289.267  
  23443285.247    91996506.407  
  22228769.909   116812978.126                    91023102.189    22228771.410  
  22228766.567    87230457.011  
  23005200.650   122889701.331    23005198.988    95580901.869                  
                                
  20159529.169   107650774.417    20159525.131    83728365.013                  
                                
  21110782.354   112532355.947    21110778.548    87525160.551                  
                                
  19942101.828   106639387.365    19942096.986    82941737.337                  
                                
  24631773.352   129440858.609                                                  
                                
  26372171.802   138586706.717                                                  
                                
  24542890.634   128973765.965                                                  
                                
  23132522.156   121562226.489                                                  
                                
  27840023.480   146300383.575                                                  
                                
  24265052.754   127513747.832                                                  
                                
  25055210.997   131666038.859                                                  
                                
 21  9  2  7 17 19.0000000  0 19G 1G 7G 8G 9G14G21G27G30R12R13R14R24
                                E 2E 3E 8E11E24E25E36
  22632926.235   118936830.525                    92678058.081    22632927.503  
  22632922.018    88816453.123  
  20322229.518   106794051.188                    83216145.891    20322227.052  
                                
  21134149.514   111060722.938                    86540835.448    21134149.586  
  21134144.511    82934947.662  
  22999147.339   120861342.628                    94177673.106    22999147.911  
  22999144.427    90253590.462  
  23760089.479   124860118.261                    97293597.524    23760088.639  
  23760088.675    93239698.370  
  21602896.533   113523993.913    21602894.031    88460244.555                  
                                
  23443944.221   123198775.325                    95999055.538    23443944.381  
  23443939.843    91999074.777  
  22228247.472   116810231.019                    91020961.593    22228248.955  
  22228243.791    87228405.595  
  23005652.754   122892116.927    23005651.235    95582780.659                  
                                
  20159591.336   107651105.615    20159587.261    83728622.610                  
                                
  21110339.327   112529995.372    21110335.664    87523324.557                  
                                
  19941622.099   106636821.850    19941617.310    82939741.936                  
                                
  24631552.991   129439701.110                                                  
                                
  26372630.053   138589115.430                                                  
                                
  24543002.905   128974356.361                                                  
                                
  23132519.118   121562211.060                                                  
                                
  27840340.995   146302054.356                                                  
                                
  24265134.041   127514175.784                                                  
                                
  25054745.616   131663592.233                                                  
                                
 21  9  2  7 17 20.0000000  0 19G 1G 7G 8G 9G14G21G27G30R12R13R14R24
                                E 2E 3E 8E11E24E25E36
  22632293.421   118933505.980                    92675467.535    22632294.600  
  22632289.383    88813970.504  
  20322013.553   106792916.575                    83215261.775    20322010.873  
                                
  21134579.890   111062983.532                    86542596.943    21134579.908  
  21134574.672    82936635.765  
  22999703.888   120864266.841                    94179951.720    22999704.085  
  22999700.761    90255774.132  
  23759662.427   124857872.017                    97291847.198    23759660.783  
  23759661.248    93238020.976  
  21602647.475   113522684.721    21602644.901    88459224.409                  
                                
  23444598.137   123202214.898                    96001735.750    23444597.709  
  23444594.367    92001643.302  
  22227724.839   116807484.240                    91018821.241    22227726.411  
  22227721.229    87226354.430  
  23006106.252   122894532.911    23006103.482    95584659.765                  
                                
  20159653.913   107651437.279    20159649.320    83728880.577                  
                                
  21109897.087   112527634.969    21109892.780    87521488.686                  
                                
  19941142.208   106634257.150    19941137.705    82937747.170                  
                                
  24631332.791   129438543.728                                                  
                                
  26373088.322   138591524.324                                                  
                                
  24543115.659   128974947.265                                                  
                                
  23132516.205   121562196.197                                                  
                                
  27840658.831   146303725.231                                                  
                                
  24265215.595   127514603.884                                                  
                                
  25054280.021   131661145.966                                                  
                                
 21  9  2  7 17 21.0000000  0 19G 1G 7G 8G 9G14G21G27G30R12R13R14R24
                                E 2E 3E 8E11E24E25E36
  22631660.822   118930181.605                    92672877.113    22631661.429  
  22631656.748    88811488.011  
  20321797.266   106791782.396                    83214378.003    20321794.783  
                                
  21135009.926   111065244.416                    86544358.684    21135010.426  
  21135004.958    82938324.094  
  23000260.562   120867191.224                    94182230.449    23000260.258  
  23000257.292    90257957.918  
  23759234.875   124855625.764                    97290096.875    23759233.803  
  23759233.750    93236343.586  
  21602398.863   113521376.016    21602395.736    88458204.639                  
                                
  23445253.395   123205654.556                    96004415.991    23445253.055  
  23445248.999    92004211.866  
  22227202.492   116804737.658                    91016681.056    22227203.457  
  22227198.471    87224303.406  
  23006558.910   122896949.050    23006555.658    95586538.977                  
                                
  20159715.382   107651769.232    20159711.469    83729138.763                  
                                
  21109453.864   112525274.557    21109450.075    87519652.806                  
                                
  19940663.050   106631693.130    19940658.208    82935752.937                  
                                
  24631112.752   129437386.308                                                  
                                
  26373546.913   138593933.295                                                  
                                
  24543228.019   128975538.527                                                  
                                
  23132513.507   121562181.768                                                  
                                
  27840976.953   146305396.132                                                  
                                
  24265297.131   127515032.029                                                  
                                
  25053814.390   131658699.903                                                  
                                
 21  9  2  7 17 22.0000000  0 19G 1G 7G 8G 9G14G21G27G30R12R13R14R24
                                E 2E 3E 8E11E24E25E36
  22631027.937   118926857.512                    92670286.904    22631029.313  
  22631024.184    88809005.743  
  20321582.177   106790648.774                    83213494.671    20321579.175  
                                
  21135440.391   111067505.746                    86546120.755    21135440.265  
  21135435.208    82940012.752  
  23000817.146   120870115.892                    94184509.404    23000816.824  
  23000813.840    90260141.930  
  23758807.287   124853379.641                    97288346.658    23758805.912  
  23758806.376    93234666.293  
  21602149.786   113520067.909    21602146.713    88457185.330                  
                                
  23445907.633   123209094.375                    96007096.363    23445907.454  
  23445903.452    92006780.573  
  22226679.662   116801991.387                    91014541.107    22226680.752  
  22226675.945    87222252.630  
  23007011.157   122899365.517    23007008.030    95588418.454                  
                                
  20159777.709   107652101.647    20159773.689    83729397.298                  
                                
  21109011.016   112522914.265    21109007.263    87517817.027                  
                                
  19940183.446   106629129.926    19940178.889    82933759.332                  
                                
  24630892.213   129436228.976                                                  
                                
  26374005.146   138596342.492                                                  
                                
  24543341.130   128976130.279                                                  
                                
  23132510.809   121562167.906                                                  
                                
  27841295.111   146307067.119                                                  
                                
  24265378.542   127515460.306                                                  
                                
  25053349.098   131656254.202                                                  
                                
 21  9  2  7 17 23.0000000  0 19G 1G 7G 8G 9G14G21G27G30R12R13R14R24
                                E 2E 3E 8E11E24E25E36
  22630395.070   118923533.545                    92667696.809    22630396.410  
  22630391.603    88806523.553  
  20321366.641   106789515.558                    83212611.638    20321363.639  
                                
  21135870.712   111069767.340                    86547883.034    21135870.659  
  21135865.638    82941701.598  
  23001373.677   120873040.668                    94186788.448    23001374.123  
  23001370.353    90262326.012  
  23758379.753   124851133.493                    97286596.405    23758378.949  
  23758378.896    93232988.973  
  21601901.050   113518760.263    21601897.762    88456166.379                  
                                
  23446562.158   123212534.214                    96009776.760    23446561.443  
  23446557.994    92009349.278  
  22226157.243   116799245.298                    91012401.293    22226158.172  
  22226153.312    87220201.968  
  23007462.796   122901782.160    23007460.438    95590298.065                  
                                
  20159840.555   107652434.306    20159836.105    83729656.033                  
                                
  21108568.114   112520553.987    21108564.361    87515981.244                  
                                
  19939704.627   106626567.338    19939699.660    82931766.209                  
                                
  24630671.977   129435071.580                                                  
                                
  26374463.701   138598751.715                                                  
                                
  24543453.455   128976722.375                                                  
                                
  23132508.146   121562154.443                                                  
                                
  27841612.751   146308738.079                                                  
                                
  24265460.132   127515888.577                                                  
                                
  25052883.771   131653808.686                                                  
                                
 21  9  2  7 17 24.0000000  0 19G 1G 7G 8G 9G14G21G27G30R12R13R14R24
                                E 2E 3E 8E11E24E25E36
  22629763.042   118920209.895                    92665106.942    22629763.310  
  22629759.236    88804041.600  
  20321151.176   106788382.922                    83211729.061    20321148.049  
                                
  21136301.213   111072029.377                    86549645.660    21136301.177  
  21136296.156    82943390.784  
  23001930.350   120875965.779                    94189067.749    23001930.082  
  23001926.884    90264510.339  
  23757952.362   124848887.490                    97284846.274    23757951.111  
  23757951.361    93231311.776  
  21601651.866   113517453.242    21601649.275    88455147.941                  
                                
  23447217.236   123215974.262                    96012457.326    23447216.736  
  23447212.679    92011918.150  
  22225634.449   116796499.549                    91010261.744    22225635.646  
  22225630.858    87218151.572  
  23007915.169   122904199.179    23007912.756    95592177.978                  
                                
  20159903.329   107652767.440    20159898.379    83729915.137                  
                                
  21108125.409   112518193.915    21108121.764    87514145.637                  
                                
  19939225.344   106624005.603    19939220.502    82929773.749                  
                                
  24630451.884   129433914.310                                                  
                                
  26374922.077   138601161.179                                                  
                                
  24543566.440   128977314.995                                                  
                                
  23132505.698   121562141.566                                                  
                                
  27841930.802   146310409.186                                                  
                                
  24265541.597   127516317.033                                                  
                                
  25052418.462   131651363.527                                                  
                                
 21  9  2  7 17 25.0000000  0 19G 1G 7G 8G 9G14G21G27G30R12R13R14R24
                                E 2E 3E 8E11E24E25E36
  22629130.997   118916886.397                    92662517.213    22629131.444  
  22629126.762    88801559.780  
  20320935.658   106787250.715                    83210846.826    20320932.709  
                                
  21136731.570   111074291.722                    86551408.534    21136731.463  
  21136726.603    82945080.193  
  23002486.863   120878891.025                    94191347.168    23002486.828  
  23002483.593    90266694.770  
  23757524.738   124846641.516                    97283096.151    23757523.648  
  23757523.845    93229634.563  
  21601403.576   113516146.723    21601400.842    88454129.870                  
                                
  23447871.510   123219414.363                    96015137.919    23447871.510  
  23447867.472    92014487.056  
  22225111.941   116793753.982                    91008122.343    22225113.174  
  22225108.457    87216101.324  
  23008367.880   122906616.413    23008365.361    95594058.058                  
                                
  20159965.852   107653100.875    20159960.849    83730174.476                  
                                
  21107682.579   112515833.899    21107678.916    87512310.076                  
                                
  19938746.204   106621444.564    19938741.701    82927781.834                  
                                
  24630231.738   129432757.002                                                  
                                
  26375380.614   138603570.716                                                  
                                
  24543679.265   128977907.948                                                  
                                
  23132503.215   121562129.112                                                  
                                
  27842248.549   146312080.304                                                  
                                
  24265623.152   127516745.521                                                  
                                
  25051953.117   131648918.592                                                  
                                
 21  9  2  7 17 26.0000000  0 19G 1G 7G 8G 9G14G21G27G30R12R13R14R24
                                E 2E 3E 8E11E24E25E36
  22628498.094   118913563.143                    92659927.653    22628499.095  
  22628494.360    88799078.119  
  20320720.318   106786119.025                    83209964.980    20320717.316  
                                
  21137162.357   111076554.443                    86553171.688    21137162.053  
  21137157.210    82946769.887  
  23003043.662   120881816.488                    94193626.748    23003043.716  
  23003040.160    90268879.384  
  23757097.526   124844395.592                    97281346.090    23757096.239  
  23757096.471    93227957.432  
  21601154.678   113514840.782    21601152.373    88453112.242                  
                                
  23448526.303   123222854.596                    96017818.629    23448525.338  
  23448521.907    92017056.059  
  22224589.647   116791008.694                    91005983.158    22224590.702  
  22224586.002    87214051.262  
  23008819.734   122909033.909    23008817.840    95595938.338                  
                                
  20160027.661   107653434.718    20160023.337    83730434.134                  
                                
  21107239.945   112513474.002    21107236.103    87510474.600                  
                                
  19938267.601   106618884.283    19938262.919    82925790.505                  
                                
  24630011.395   129431599.740                                                  
                                
  26375839.187   138605980.403                                                  
                                
  24543791.805   128978501.372                                                  
                                
  23132501.052   121562117.169                                                  
                                
  27842566.742   146313751.461                                                  
                                
  24265704.581   127517174.091                                                  
                                
  25051487.986   131646473.952                                                  
                                
 21  9  2  7 17 27.0000000  0 19G 1G 7G 8G 9G14G21G27G30R12R13R14R24
                                E 2E 3E 8E11E24E25E36
  22627865.602   118910240.080                    92657338.244    22627866.549  
  22627861.939    88796596.615  
  20320504.693   106784987.795                    83209083.509    20320502.173  
                                
  21137592.714   111078817.504                    86554935.110    21137593.107  
  21137587.782    82948459.842  
  23003600.514   120884742.163                    94195906.501    23003600.193  
  23003597.048    90271064.139  
  23756670.117   124842149.721                    97279596.055    23756668.598  
  23756669.116    93226280.313  
  21600906.621   113513535.360    21600903.940    88452095.037                  
                                
  23449181.238   123226294.926                    96020499.396    23449180.684  
  23449176.610    92019625.145  
  22224067.658   116788263.647                    91003844.151    22224068.265  
  22224063.655    87212001.385  
  23009272.660   122911451.629    23009270.480    95597818.782                  
                                
  20160089.935   107653768.931    20160086.022    83730694.077                  
                                
  21106797.419   112511114.168    21106793.327    87508639.169                  
                                
  19937788.603   106616324.692    19937784.422    82923799.710                  
                                
  24629791.159   129430442.491                                                  
                                
  26376297.617   138608390.201                                                  
                                
  24543905.076   128979095.181                                                  
                                
  23132498.783   121562105.707                                                  
                                
  27842884.918   146315422.659                                                  
                                
  24265786.081   127517602.735                                                  
                                
  25051022.873   131644029.575                                                  
                                
 21  9  2  7 17 28.0000000  0 19G 1G 7G 8G 9G14G21G27G30R12R13R14R24
                                E 2E 3E 8E11E24E25E36
  22627233.432   118906917.216                    92654749.022    22627234.075  
  22627229.519    88794115.262  
  20320289.532   106783857.029                    83208202.397    20320286.709  
                                
  21138023.572   111081080.944                    86556698.827    21138023.572  
  21138018.569    82950150.069  
  23004157.188   120887668.025                    94198186.387    23004157.402  
  23004153.614    90273249.034  
  23756242.332   124839903.888                    97277846.035    23756241.689  
  23756241.796    93224603.219  
  21600658.259   113512230.470    21600655.722    88451078.235                  
                                
  23449835.602   123229735.332                    96023180.255    23449835.048  
  23449831.170    92022194.282  
  22223545.096   116785518.813                    91001705.320    22223545.954  
  22223541.272    87209951.674  
  23009725.068   122913869.600    23009723.174    95599699.423                  
                                
  20160152.530   107654103.451    20160148.652    83730954.260                  
                                
  21106354.356   112508754.378    21106350.800    87506803.779                  
                                
  19937310.268   106613765.770    19937305.765    82921809.439                  
                                
  24629571.049   129429285.244                                                  
                                
  26376756.154   138610800.132                                                  
                                
  24544018.348   128979689.410                                                  
                                
  23132496.764   121562094.712                                                  
                                
  27843202.772   146317093.891                                                  
                                
  24265867.618   127518031.440                                                  
                                
  25050557.760   131641585.452                                                  
                                
 21  9  2  7 17 29.0000000  0 19G 1G 7G 8G 9G14G21G27G30R12R13R14R24
                                E 2E 3E 8E11E24E25E36
  22626600.869   118903594.616                    92652159.965    22626601.744  
  22626597.384    88791634.091  
  20320074.693   106782726.820                    83207321.704    20320071.780  
                                
  21138454.073   111083344.801                    86558462.869    21138454.877  
  21138449.320    82951840.600  
  23004713.772   120890594.160                    94200466.492    23004713.612  
  23004710.538    90275434.124  
  23755815.245   124837658.148                    97276096.131    23755814.512  
  23755814.369    93222926.213  
  21600410.041   113510926.184    21600407.450    88450061.908                  
                                
  23450490.233   123233175.908                    96025861.221    23450489.751  
  23450485.927    92024763.539  
  22223022.623   116782774.291                    90999566.727    22223024.017  
  22223019.139    87207902.184  
  23010177.869   122916287.910    23010175.797    95601580.332                  
                                
  20160215.018   107654438.442    20160211.337    83731214.811                  
                                
  21105911.759   112506394.723    21105908.113    87504968.489                  
                                
  19936831.271   106611207.645    19936827.464    82919819.784                  
                                
  24629350.616   129428128.068                                                  
                                
  26377214.959   138613210.227                                                  
                                
  24544131.620   128980284.091                                                  
                                
  23132495.031   121562084.268                                                  
                                
  27843520.734   146318765.221                                                  
                                
  24265949.368   127518460.266                                                  
                                
  25050092.701   131639141.646                                                  
                                
 21  9  2  7 17 30.0000000  0 19G 1G 7G 8G 9G14G21G27G30R12R13R14R24
                                E 2E 3E 8E11E24E25E36
  22625969.073   118900272.222                    92649571.089    22625969.842  
  22625965.053    88789153.087  
  20319859.478   106781597.081                    83206441.397    20319856.673  
                                
  21138884.984   111085608.998                    86560227.183    21138885.377  
  21138880.213    82953531.405  
  23005270.911   120893520.480                    94202746.743    23005270.696  
  23005267.408    90277619.380  
  23755387.567   124835412.456                    97274346.243    23755387.156  
  23755386.978    93221249.235  
  21600162.197   113509622.429    21600159.410    88449046.002                  
                                
  23451145.276   123236616.593                    96028542.261    23451143.900  
  23451140.737    92027332.873  
  22222500.401   116780030.001                    90997428.312    22222501.420  
  22222496.917    87205852.883  
  23010631.028   122918706.441    23010628.526    95603461.412                  
                                
  20160278.221   107654773.765    20160274.111    83731475.615                  
                                
  21105469.607   112504035.135    21105465.444    87503133.257                  
                                
  19936353.203   106608650.261    19936349.254    82917830.710                  
                                
  24629130.613   129426970.921                                                  
                                
  26377673.621   138615620.448                                                  
                                
  24544244.874   128980879.191                                                  
                                
  23132492.743   121562074.306                                                  
                                
  27843838.606   146320436.583                                                  
                                
  24266031.030   127518889.177                                                  
                                
  25049627.803   131636698.110                                                  
                                
 21  9  2  7 17 31.0000000  0 19G 1G 7G 8G 9G14G21G27G30R12R13R14R24
                                E 2E 3E 8E11E24E25E36
  22625336.885   118896950.001                    92646982.348    22625337.368  
  22625332.740    88786672.205  
  20319644.996   106780467.794                    83205561.419    20319641.869  
                                
  21139315.824   111087873.511                    86561991.739    21139316.414  
  21139311.214    82955222.438  
  23005827.763   120896446.973                    94205027.125    23005827.638  
  23005824.207    90279804.729  
  23754960.158   124833166.802                    97272596.371    23754959.712  
  23754959.712    93219572.285  
  21599913.943   113508319.152    21599911.405    88448030.457                  
                                
  23451799.675   123240057.328                    96031223.353    23451799.479  
  23451795.333    92029902.263  
  22221978.411   116777285.916                    90995290.075    22221979.376  
  22221974.695    87203803.733  
  23011084.097   122921125.202    23011081.238    95605342.659                  
                                
  20160341.674   107655109.427    20160336.956    83731736.685                  
                                
  21105026.813   112501675.605    21105022.775    87501298.060                  
                                
  19935875.439   106606093.591    19935871.096    82915842.191                  
                                
  24628910.288   129425813.733                                                  
                                
  26378132.211   138618030.742                                                  
                                
  24544358.270   128981474.649                                                  
                                
  23132491.135   121562064.772                                                  
                                
  27844157.014   146322107.954                                                  
                                
  24266112.620   127519318.117                                                  
                                
  25049162.672   131634254.798                                                  
                                
 21  9  2  7 17 32.0000000  0 19G 1G 7G 8G 9G14G21G27G30R12R13R14R24
                                E 2E 3E 8E11E24E25E36
  22624704.554   118893628.023                    92644393.794    22624705.394  
  22624700.641    88784191.508  
  20319430.121   106779339.005                    83204681.848    20319427.280  
                                
  21139747.075   111090138.416                    86563756.604    21139747.504  
  21139742.179    82956913.767  
  23006385.026   120899373.713                    94207307.695    23006384.419  
  23006381.095    90281990.288  
  23754533.178   124830921.198                    97270846.561    23754532.606  
  23754532.338    93217895.386  
  21599665.814   113507016.483    21599663.455    88447015.397                  
                                
  23452454.629   123243498.221                    96033904.575    23452454.236  
  23452450.197    92032471.766  
  22221456.207   116774542.125                    90993152.049    22221457.494  
  22221452.651    87201754.785  
  23011536.523   122923544.259    23011534.146    95607224.149                  
                                
  20160404.537   107655445.465    20160399.891    83731998.044                  
                                
  21104583.733   112499316.217    21104580.123    87499462.987                  
                                
  19935397.907   106603537.705    19935393.225    82913854.280                  
                                
  24628690.249   129424656.627                                                  
                                
  26378590.802   138620441.215                                                  
                                
  24544471.578   128982070.589                                                  
                                
  23132489.402   121562055.757                                                  
                                
  27844474.707   146323779.425                                                  
                                
  24266194.228   127519747.168                                                  
                                
  25048697.970   131631811.811                                                  
                                
 21  9  2  7 17 33.0000000  0 19G 1G 7G 8G 9G14G21G27G30R12R13R14R24
                                E 2E 3E 8E11E24E25E36
  22624072.366   118890306.222                    92641805.386    22624073.367  
  22624068.560    88781710.944  
  20319215.175   106778210.672                    83203802.627    20319212.244  
                                
  21140178.112   111092403.640                    86565521.711    21140178.469  
  21140173.198    82958605.326  
  23006941.807   120902300.602                    94209588.395    23006941.396  
  23006938.216    90284175.963  
  23754106.090   124828675.631                    97269096.756    23754105.447  
  23754104.893    93216218.491  
  21599418.203   113505714.295    21599415.683    88446000.698                  
                                
  23453109.278   123246939.161                    96036585.825    23453109.493  
  23453105.061    92035041.297  
  22220934.217   116771798.533                    90991014.178    22220934.950  
  22220930.572    87199705.995  
  23011989.234   122925963.494    23011987.072    95609105.779                  
                                
  20160466.953   107655781.807    20160462.879    83732259.643                  
                                
  21104141.421   112496956.868    21104137.543    87497627.936                  
                                
  19934920.125   106600982.498    19934915.390    82911866.894                  
                                
  24628470.049   129423499.471                                                  
                                
  26379049.696   138622851.779                                                  
                                
  24544584.975   128982666.883                                                  
                                
  23132487.811   121562047.191                                                  
                                
  27844793.044   146325450.860                                                  
                                
  24266275.853   127520176.246                                                  
                                
  25048233.108   131629369.038                                                  
                                
 21  9  2  7 17 34.0000000  0 19G 1G 7G 8G 9G14G21G27G30R12R13R14R24
                                E 2E 3E 8E11E24E25E36
  22623440.267   118886984.740                    92639217.219    22623440.964  
  22623436.461    88779230.619  
  20319000.300   106777082.925                    83202923.870    20318997.923  
                                
  21140608.952   111094669.339                    86567287.191    21140609.309  
  21140604.395    82960297.244  
  23007498.552   120905227.817                    94211869.344    23007498.463  
  23007495.139    90286361.861  
  23753678.967   124826430.218                    97267347.092    23753677.984  
  23753677.609    93214541.730  
  21599170.574   113504412.767    21599168.054    88444986.528                  
                                
  23453763.856   123250380.333                    96039267.241    23453763.874  
  23453759.818    92037610.994  
  22220412.531   116769055.296                    90988876.584    22220412.817  
  22220408.600    87197657.478  
  23012442.000   122928383.159    23012440.106    95610987.736                  
                                
  20160530.102   107656118.665    20160525.975    83732521.641                  
                                
  21103698.680   112494597.706    21103694.892    87495793.035                  
                                
  19934441.950   106598428.133    19934437.697    82909880.166                  
                                
  24628249.902   129422342.462                                                  
                                
  26379508.430   138625262.576                                                  
                                
  24544698.479   128983263.721                                                  
                                
  23132486.346   121562039.230                                                  
                                
  27845111.220   146327122.486                                                  
                                
  24266357.533   127520605.524                                                  
                                
  25047768.352   131626926.647                                                  
                                
 21  9  2  7 17 35.0000000  0 19G 1G 7G 8G 9G14G21G27G30R12R13R14R24
                                E 2E 3E 8E11E24E25E36
  22622808.472   118883663.441                    92636629.184    22622809.133  
  22622804.505    88776750.421  
  20318785.621   106775955.654                    83202045.461    20318782.977  
                                
  21141040.471   111096935.358                    86569052.912    21141040.989  
  21141035.539    82961989.391  
  23008055.709   120908155.217                    94214150.425    23008055.423  
  23008052.242    90288547.904  
  23753251.665   124824184.860                    97265597.449    23753251.076  
  23753250.450    93212864.978  
  21598923.088   113503111.753    21598920.389    88443972.748                  
                                
  23454418.988   123253821.575                    96041948.727    23454418.559  
  23454414.700    92040180.740  
  22219890.541   116766312.273                    90986739.169    22219891.113  
  22219886.592    87195609.115  
  23012895.855   122930803.036    23012893.157    95612869.871                  
                                
  20160593.395   107656455.833    20160589.142    83732783.885                  
                                
  21103255.814   112492238.566    21103252.187    87493958.154                  
                                
  19933964.597   106595874.406    19933960.165    82907893.937                  
                                
  24628029.631   129421185.433                                                  
                                
  26379967.271   138627673.474                                                  
                                
  24544812.519   128983860.913                                                  
                                
  23132484.935   121562031.718                                                  
                                
  27845429.056   146328794.118                                                  
                                
  24266439.283   127521034.840                                                  
                                
  25047303.543   131624484.505                                                  
                                
 21  9  2  7 17 36.0000000  0 19G 1G 7G 8G 9G14G21G27G30R12R13R14R24
                                E 2E 3E 8E11E24E25E36
  22622176.373   118880342.355                    92634041.313    22622177.106  
  22622172.335    88774270.396  
  20318571.711   106774828.834                    83201167.418    20318568.602  
                                
  21141471.793   111099201.718                    86570818.908    21141471.668  
  21141466.915    82963681.807  
  23008612.740   120911082.790                    94216431.665    23008613.079  
  23008609.309    90290734.081  
  23752824.810   124821939.520                    97263847.842    23752823.666  
  23752823.041    93211188.280  
  21598675.137   113501811.259    21598672.868    88442959.385                  
                                
  23455073.924   123257262.902                    96044630.294    23455073.691  
  23455069.492    92042750.576  
  22219368.283   116763569.489                    90984601.931    22219368.980  
  22219364.763    87193560.931  
  23013349.657   122933223.139    23013346.119    95614752.169                  
                                
  20160656.597   107656793.356    20160652.327    83733046.399                  
                                
  21102814.056   112489879.487    21102809.678    87492123.314                  
                                
  19933487.458   106593321.376    19933482.526    82905908.246                  
                                
  24627809.556   129420028.432                                                  
                                
  26380426.058   138630084.491                                                  
                                
  24544926.237   128984458.549                                                  
                                
  23132483.666   121562024.690                                                  
                                
  27845747.250   146330465.791                                                  
                                
  24266520.927   127521464.237                                                  
                                
  25046838.824   131622042.618                                                  
                                
 21  9  2  7 17 37.0000000  0 19G 1G 7G 8G 9G14G21G27G30R12R13R14R24
                                E 2E 3E 8E11E24E25E36
  22621544.364   118877021.431                    92631453.592    22621545.418  
  22621540.468    88771790.485  
  20318357.229   106773702.464                    83200289.726    20318354.281  
                                
  21141902.848   111101468.394                    86572585.157    21141903.420  
  21141898.166    82965374.455  
  23009169.914   120914010.545                    94218713.019    23009169.520  
  23009166.572    90292920.385  
  23752396.847   124819694.189                    97262098.231    23752396.061  
  23752395.882    93209511.568  
  21598428.044   113500511.263    21598425.525    88441946.410                  
                                
  23455729.485   123260704.300                    96047311.887    23455728.805  
  23455724.463    92045320.451  
  22218846.686   116760826.918                    90982464.861    22218847.151  
  22218842.880    87191512.903  
  23013801.779   122935643.418    23013799.349    95616634.611                  
                                
  20160719.836   107657131.189    20160715.601    83733309.165                  
                                
  21102370.887   112487520.472    21102367.170    87490288.528                  
                                
  19933009.766   106590769.032    19933005.352    82903923.088                  
                                
  24627589.302   129418871.400                                                  
                                
  26380884.720   138632495.583                                                  
                                
  24545039.831   128985056.540                                                  
                                
  23132482.111   121562018.102                                                  
                                
  27846065.497   146332137.465                                                  
                                
  24266602.553   127521893.650                                                  
                                
  25046374.015   131619600.966                                                  
                                
 21  9  2  7 17 38.0000000  0 19G 1G 7G 8G 9G14G21G27G30R12R13R14R24
                                E 2E 3E 8E11E24E25E36
  22620912.551   118873700.795                    92628866.083    22620913.498  
  22620908.459    88769310.785  
  20318143.248   106772576.633                    83199412.463    20318140.156  
                                
  21142334.635   111103735.508                    86574351.736    21142334.760  
  21142329.649    82967067.429  
  23009727.248   120916938.561                    94220994.613    23009726.945  
  23009723.710    90295106.913  
  23751970.010   124817448.981                    97260348.723    23751968.669  
  23751968.526    93207834.953  
  21598181.041   113499211.901    21598178.307    88440933.914                  
                                
  23456383.705   123264145.892                    96049993.642    23456383.598  
  23456379.292    92047890.459  
  22218324.697   116758084.667                    90980328.033    22218325.286  
  22218321.123    87189465.118  
  23014253.704   122938064.073    23014252.561    95618517.347                  
                                
  20160783.110   107657469.466    20160778.964    83733572.265                  
                                
  21101928.450   112485161.632    21101924.554    87488453.868                  
                                
  19932532.413   106588217.533    19932528.088    82901938.591                  
                                
  24627369.156   129417714.456                                                  
                                
  26381343.507   138634906.887                                                  
                                
  24545153.871   128985655.021                                                  
                                
  23132481.003   121562012.078                                                  
                                
  27846383.726   146333809.252                                                  
                                
  24266684.500   127522323.221                                                  
                                
  25045909.509   131617159.658                                                  
                                
 21  9  2  7 17 39.0000000  0 19G 1G 7G 8G 9G14G21G27G30R12R13R14R24
                                E 2E 3E 8E11E24E25E36
  22620280.827   118870380.311                    92626278.716    22620281.435  
  22620276.557    88766831.214  
  20317928.712   106771451.261                    83198535.544    20317925.996  
                                
  21142765.993   111106002.921                    86576118.552    21142766.243  
  21142761.097    82968760.625  
  23010284.208   120919866.745                    94223276.309    23010284.637  
  23010280.920    90297293.537  
  23751542.886   124815203.787                    97258599.231    23751541.725  
  23751541.367    93206158.352  
  21597933.876   113497913.032    21597931.196    88439921.806                  
                                
  23457038.355   123267587.519                    96052675.438    23457038.122  
  23457034.263    92050460.521  
  22217802.885   116755342.589                    90978191.356    22217803.779  
  22217799.258    87187417.456  
  23014707.220   122940484.946    23014705.648    95620400.249                  
                                
  20160846.813   107657808.069    20160842.346    83733835.624                  
                                
  21101485.941   112482802.848    21101482.010    87486619.263                  
                                
  19932055.453   106585666.754    19932051.182    82899954.647                  
                                
  24627149.028   129416557.505                                                  
                                
  26381802.384   138637318.279                                                  
                                
  24545267.696   128986253.865                                                  
                                
  23132479.913   121562006.491                                                  
                                
  27846702.260   146335481.040                                                  
                                
  24266766.108   127522752.833                                                  
                                
  25045445.076   131614718.581                                                  
                                
 21  9  2  7 17 40.0000000  0 19G 1G 7G 8G 9G14G21G27G30R12R13R14R24
                                E 2E 3E 8E11E24E25E36
  22619648.943   118867060.079                    92623691.504    22619649.586  
  22619644.708    88764351.820  
  20317714.802   106770326.398                    83197659.026    20317711.997  
                                
  21143197.852   111108270.698                    86577885.653    21143197.959  
  21143192.670    82970454.101  
  23010841.436   120922795.174                    94225558.198    23010841.614  
  23010838.166    90299480.353  
  23751115.567   124812958.679                    97256849.789    23751114.637  
  23751114.155    93204481.804  
  21597686.962   113496614.729    21597684.157    88438910.155                  
                                
  23457693.397   123271029.283                    96055357.337    23457693.147  
  23457689.037    92053030.663  
  22217281.217   116752600.808                    90976054.898    22217282.182  
  22217277.536    87185370.029  
  23015160.825   122942906.103    23015158.860    95622283.375                  
                                
  20160910.230   107658147.059    20160905.745    83734099.288                  
                                
  21101043.540   112480444.181    21101039.412    87484784.739                  
                                
  19931579.189   106583116.677    19931574.258    82897971.258                  
                                
  24626928.846   129415400.584                                                  
                                
  26382261.278   138639729.802                                                  
                                
  24545381.683   128986853.171                                                  
                                
  23132478.984   121562001.411                                                  
                                
  27847020.150   146337152.889                                                  
                                
  24266847.787   127523182.539                                                  
                                
  25044980.642   131612277.777                                                  
                                
 21  9  2  7 17 41.0000000  0 19G 1G 7G 8G 9G14G21G27G30R12R13R14R24
                                E 2E 3E 8E11E24E25E36
  22619017.076   118863740.126                    92621104.528    22619017.934  
  22619012.913    88761872.624  
  20317500.981   106769202.070                    83196782.938    20317497.837  
                                
  21143629.514   111110538.903                    86579653.100    21143629.138  
  21143624.296    82972147.896  
  23011399.164   120925723.854                    94227840.290    23011398.645  
  23011395.483    90301667.352  
  23750688.229   124810713.673                    97255100.441    23750687.460  
  23750686.960    93202805.347  
  21597440.030   113495317.031    21597437.278    88437898.957                  
                                
  23458348.243   123274471.203                    96058039.346    23458348.279  
  23458344.062    92055600.933  
  22216759.334   116749859.335                    90973918.683    22216760.496  
  22216755.796    87183322.820  
  23015614.073   122945327.533    23015612.232    95624166.712                  
                                
  20160973.326   107658486.490    20160969.341    83734363.281                  
                                
  21100600.799   112478085.635    21100597.029    87482950.320                  
                                
  19931102.658   106580567.403    19931097.512    82895988.489                  
                                
  24626708.592   129414243.740                                                  
                                
  26382720.262   138642141.532                                                  
                                
  24545496.063   128987452.934                                                  
                                
  23132478.019   121561996.866                                                  
                                
  27847338.522   146338824.849                                                  
                                
  24266929.538   127523612.377                                                  
                                
  25044516.154   131609837.326                                                  
                                
 21  9  2  7 17 42.0000000  0 19G 1G 7G 8G 9G14G21G27G30R12R13R14R24
                                E 2E 3E 8E11E24E25E36
  22618385.317   118860420.335                    92618517.682    22618385.835  
  22618381.207    88759393.572  
  20317286.928   106768078.212                    83195907.190    20317284.016  
                                
  21144060.943   111112807.458                    86581420.791    21144061.283  
  21144055.994    82973841.939  
  23011955.891   120928652.715                    94230122.509    23011955.748  
  23011952.782    90303854.480  
  23750260.498   124808468.685                    97253351.093    23750260.570  
  23750259.783    93201128.893  
  21597192.866   113494019.834    21597190.632    88436888.159                  
                                
  23459003.661   123277913.206                    96060721.433    23459003.536  
  23458999.033    92058171.248  
  22216237.541   116747118.046                    90971782.612    22216238.506  
  22216234.164    87181275.752  
  23016067.446   122947749.173    23016065.516    95626050.205                  
                                
  20161037.261   107658826.211    20161032.990    83734627.503                  
                                
  21100158.773   112475727.120    21100154.449    87481115.912                  
                                
  19930625.788   106578018.819    19930620.910    82894006.257                  
                                
  24626488.606   129413086.880                                                  
                                
  26383179.335   138644553.343                                                  
                                
  24545610.121   128988053.087                                                  
                                
  23132477.162   121561992.798                                                  
                                
  27847656.608   146340496.822                                                  
                                
  24267011.396   127524042.262                                                  
                                
  25044051.792   131607397.106                                                  
                                
 21  9  2  7 17 43.0000000  0 19G 1G 7G 8G 9G14G21G27G30R12R13R14R24
                                E 2E 3E 8E11E24E25E36
  22617753.594   118857100.761                    92615931.010    22617754.398  
  22617749.484    88756914.664  
  20317073.072   106766954.832                    83195031.834    20317070.481  
                                
  21144492.891   111115076.347                    86583188.759    21144492.945  
  21144487.727    82975536.238  
  23012513.958   120931581.746                    94232404.896    23012513.386  
  23012510.224    90306041.757  
  23749833.446   124806223.768                    97251601.799    23749832.910  
  23749832.624    93199452.480  
  21596946.273   113492723.175    21596943.861    88435877.773                  
                                
  23459658.954   123281355.311                    96063403.581    23459658.686  
  23459654.040    92060741.653  
  22215715.944   116744377.028                    90969646.756    22215716.963  
  22215712.531    87179228.884  
  23016521.301   122950171.063    23016518.942    95627933.897                  
                                
  20161101.322   107659166.334    20161096.622    83734892.046                  
                                
  21099715.871   112473368.661    21099712.030    87479281.566                  
                                
  19930148.989   106575470.945    19930144.468    82892024.585                  
                                
  24626268.246   129411930.039                                                  
                                
  26383638.051   138646965.272                                                  
                                
  24545724.500   128988653.648                                                  
                                
  23132476.500   121561989.201                                                  
                                
  27847974.713   146342168.850                                                  
                                
  24267093.290   127524472.217                                                  
                                
  25043587.626   131604957.150                                                  
                                
 21  9  2  7 17 44.0000000  0 19G 1G 7G 8G 9G14G21G27G30R12R13R14R24
                                E 2E 3E 8E11E24E25E36
  22617121.709   118853781.395                    92613344.507    22617122.853  
  22617117.796    88754435.928  
  20316859.198   106765831.939                    83194156.840    20316856.714  
                                
  21144924.768   111117345.591                    86584957.001    21144925.036  
  21144919.586    82977230.805  
  23013070.971   120934511.018                    94234687.429    23013071.043  
  23013067.576    90308229.189  
  23749406.305   124803978.868                    97249852.540    23749405.894  
  23749405.465    93197776.107  
  21596699.717   113491427.053    21596697.233    88434867.807                  
                                
  23460313.604   123284797.516                    96066085.805    23460313.729  
  23460308.940    92063312.127  
  22215194.937   116741636.241                    90967511.080    22215195.616  
  22215190.988    87177182.194  
  23016975.013   122952593.245    23016972.458    95629817.819                  
                                
  20161164.774   107659506.806    20161160.379    83735156.860                  
                                
  21099273.738   112471010.309    21099269.575    87477447.286                  
                                
  19929672.833   106572923.803    19929668.258    82890043.470                  
                                
  24626048.081   129410773.229                                                  
                                
  26384097.284   138649377.333                                                  
                                
  24545838.773   128989254.635                                                  
                                
  23132476.000   121561986.084                                                  
                                
  27848292.996   146343840.896                                                  
                                
  24267175.094   127524902.240                                                  
                                
  25043123.318   131602517.459                                                  
                                
 21  9  2  7 17 45.0000000  0 19G 1G 7G 8G 9G14G21G27G30R12R13R14R24
                                E 2E 3E 8E11E24E25E36
  22616490.522   118850462.293                    92610758.185    22616490.790  
  22616486.305    88751957.374  
  20316645.699   106764709.541                    83193282.261    20316642.768  
                                
  21145356.555   111119615.220                    86586725.549    21145356.698  
  21145351.373    82978925.653  
  23013628.521   120937440.511                    94236970.151    23013628.199  
  23013625.072    90310416.797  
  23748979.307   124801734.079                    97248103.350    23748978.717  
  23748978.199    93196099.800  
  21596453.213   113490131.502    21596450.712    88433858.297                  
                                
  23460968.593   123288239.856                    96068768.166    23460968.557  
  23460964.125    92065882.712  
  22214673.180   116738895.745                    90965375.622    22214673.751  
  22214669.534    87175135.718  
  23017429.012   122955015.765    23017425.920    95631702.003                  
                                
  20161229.442   107659847.665    20161224.278    83735421.975                  
                                
  21098831.283   112468652.085    21098827.191    87475613.116                  
                                
  19929196.302   106570377.419    19929192.013    82888062.951                  
                                
  24625828.060   129409616.455                                                  
                                
  26384556.483   138651789.555                                                  
                                
  24545953.295   128989856.047                                                  
                                
  23132475.571   121561983.485                                                  
                                
  27848611.136   146345513.030                                                  
                                
  24267257.024   127525332.383                                                  
                                
  25042659.063   131600078.084                                                  
                                
 21  9  2  7 17 46.0000000  0 19G 1G 7G 8G 9G14G21G27G30R12R13R14R24
                                E 2E 3E 8E11E24E25E36
  22615858.709   118847143.394                    92608172.013    22615859.424  
  22615854.635    88749478.973  
  20316432.378   106763587.652                    83192408.055    20316429.591  
                                
  21145788.342   111121885.215                    86588494.368    21145788.663  
  21145783.356    82980620.780  
  23014186.141   120940370.223                    94239253.036    23014185.891  
  23014182.586    90312604.565  
  23748551.826   124799489.346                    97246354.194    23748552.237  
  23748551.094    93194423.534  
  21596206.817   113488836.504    21596204.298    88432849.205                  
                                
  23461623.868   123291682.301                    96071450.582    23461623.385  
  23461619.114    92068453.362  
  22214151.529   116736155.493                    90963240.354    22214152.512  
  22214148.027    87173089.430  
  23017881.598   122957438.499    23017879.490    95633586.354                  
                                
  20161293.092   107660188.880    20161288.214    83735687.355                  
                                
  21098389.275   112466293.971    21098384.826    87473779.023                  
                                
  19928720.253   106567831.747    19928715.947    82886082.986                  
                                
  24625607.860   129408459.713                                                  
                                
  26385015.413   138654201.900                                                  
                                
  24546067.871   128990457.900                                                  
                                
  23132475.107   121561981.366                                                  
                                
  27848929.347   146347185.225                                                  
                                
  24267338.989   127525762.594                                                  
                                
  25042195.147   131597638.979                                                  
                                
 21  9  2  7 17 47.0000000  0 19G 1G 7G 8G 9G14G21G27G30R12R13R14R24
                                E 2E 3E 8E11E24E25E36
  22615227.218   118843824.644                    92605585.970    22615227.468  
  22615223.036    88747000.683  
  20316218.986   106762466.161                    83191534.168    20316216.306  
                                
  21146220.486   111124155.484                    86590263.415    21146220.665  
  21146215.465    82982316.117  
  23014743.315   120943300.058                    94241536.021    23014743.369  
  23014740.117    90314792.431  
  23748124.846   124797244.602                    97244605.038    23748124.364  
  23748123.792    93192747.255  
  21595960.082   113487541.975    21595958.081    88431840.486                  
                                
  23462278.982   123295124.782                    96074133.025    23462278.946  
  23462274.193    92071024.050  
  22213630.129   116733415.419                    90961105.240    22213631.022  
  22213626.644    87171043.273  
  23018335.686   122959861.421    23018333.131    95635470.849                  
                                
  20161356.509   107660530.366    20161352.149    83735952.959                  
                                
  21097947.088   112463935.860    21097942.335    87471944.941                  
                                
  19928244.312   106565286.746    19928239.987    82884103.541                  
                                
  24625387.517   129407302.927                                                  
                                
  26385474.468   138656614.316                                                  
                                
  24546182.394   128991060.087                                                  
                                
  23132474.785   121561979.676                                                  
                                
  27849247.309   146348857.406                                                  
                                
  24267420.722   127526192.816                                                  
                                
  25041730.981   131595200.074                                                  
                                
 21  9  2  7 17 48.0000000  0 19G 1G 7G 8G 9G14G21G27G30R12R13R14R24
                                E 2E 3E 8E11E24E25E36
  22614595.673   118840506.167                    92603000.158    22614596.441  
  22614591.599    88744522.607  
  20316005.755   106761345.226                    83190660.712    20316003.075  
                                
  21146652.702   111126426.177                    86592032.782    21146652.309  
  21146647.484    82984011.767  
  23015301.365   120946230.167                    94243819.229    23015300.561  
  23015297.809    90316980.497  
  23747697.330   124794999.942                    97242855.973    23747696.865  
  23747696.722    93191071.059  
  21595713.597   113486248.042    21595711.953    88430832.221                  
                                
  23462933.917   123298567.424                    96076815.626    23462933.381  
  23462929.378    92073594.868  
  22213108.890   116730675.657                    90958970.367    22213109.747  
  22213105.191    87168997.353  
  23018788.523   122962284.639    23018786.861    95637355.570                  
                                
  20161419.748   107660872.305    20161416.120    83736218.912                  
                                
  21097504.526   112461577.895    21097499.934    87470110.973                  
                                
  19927768.710   106562742.542    19927764.153    82882124.722                  
                                
  24625167.675   129406146.217                                                  
                                
  26385933.648   138659026.911                                                  
                                
  24546296.952   128991662.752                                                  
                                
  23132474.588   121561978.522                                                  
                                
  27849565.717   146350529.663                                                  
                                
  24267502.562   127526623.188                                                  
                                
  25041266.923   131592761.515                                                  
                                
 21  9  2  7 17 49.0000000  0 19G 1G 7G 8G 9G14G21G27G30R12R13R14R24
                                E 2E 3E 8E11E24E25E36
  22613964.181   118837187.908                    92600414.501    22613964.914  
  22613960.107    88742044.681  
  20315792.828   106760224.765                    83189787.630    20315789.612  
                                
  21147084.739   111128697.217                    86593802.421    21147084.775  
  21147079.736    82985707.665  
  23015858.861   120949160.477                    94246102.588    23015858.700  
  23015855.376    90319168.716  
  23747270.331   124792755.377                    97241106.954    23747270.010  
  23747269.581    93189394.914  
  21595467.522   113484954.660    21595465.878    88429824.387                  
                                
  23463588.710   123302010.174                    96079498.280    23463588.406  
  23463584.421    92076165.746  
  22212587.364   116727936.164                    90956835.687    22212588.168  
  22212583.987    87166951.611  
  23019241.699   122964708.125    23019240.502    95639240.498                  
                                
  20161484.022   107661214.593    20161480.181    83736485.134                  
                                
  21097061.678   112459220.032    21097057.622    87468277.068                  
                                
  19927292.893   106560199.091    19927288.444    82880146.480                  
                                
  24624947.707   129404989.534                                                  
                                
  26386392.882   138661439.632                                                  
                                
  24546411.600   128992265.840                                                  
                                
  23132474.320   121561977.883                                                  
                                
  27849883.768   146352201.979                                                  
                                
  24267584.545   127527053.634                                                  
                                
  25040802.989   131590323.212                                                  
                                
 21  9  2  7 17 50.0000000  0 19G 1G 7G 8G 9G14G21G27G30R12R13R14R24
                                E 2E 3E 8E11E24E25E36
  22613333.226   118833869.856                    92597829.002    22613333.512  
  22613328.705    88739566.907  
  20315579.579   106759104.780                    83188914.913    20315576.541  
                                
  21147516.812   111130968.607                    86595572.331    21147516.687  
  21147511.988    82987403.834  
  23016416.696   120952090.976                    94248386.096    23016416.571  
  23016413.033    90321357.069  
  23746843.244   124790510.826                    97239357.949    23746842.476  
  23746842.422    93187718.793  
  21595221.931   113483661.813    21595219.804    88428816.980                  
                                
  23464244.110   123305453.034                    96082181.020    23464244.020  
  23464239.625    92078736.699  
  22212066.232   116725196.877                    90954701.184    22212067.125  
  22212062.640    87164906.050  
  23019696.376   122967131.867    23019694.161    95641125.624                  
                                
  20161548.226   107661557.239    20161544.330    83736751.641                  
                                
  21096619.670   112456862.230    21096615.346    87466443.225                  
                                
  19926817.470   106557656.377    19926812.967    82878168.816                  
                                
  24624727.328   129403832.859                                                  
                                
  26386851.812   138663852.491                                                  
                                
  24546526.426   128992869.336                                                  
                                
  23132474.160   121561977.704                                                  
                                
  27850202.212   146353874.327                                                  
                                
  24267666.474   127527484.156                                                  
                                
  25040339.020   131587885.178                                                  
                                
 21  9  2  7 17 51.0000000  0 19G 1G 7G 8G 9G14G21G27G30R12R13R14R24
                                E 2E 3E 8E11E24E25E36
  22612701.360   118830552.090                    92595243.734    22612701.574  
  22612697.500    88737089.360  
  20315366.134   106757985.367                    83188042.631    20315363.400  
                                
  21147949.153   111133240.424                    86597342.576    21147949.153  
  21147944.221    82989100.315  
  23016974.156   120955021.756                    94250669.823    23016973.977  
  23016970.689    90323545.649  
  23746415.906   124788266.410                    97237609.056    23746415.585  
  23746415.281    93186042.770  
  21594976.178   113482369.572    21594974.016    88427810.037                  
                                
  23464899.742   123308896.048                    96084863.896    23464898.706  
  23464894.739    92081307.797  
  22211545.207   116722457.925                    90952566.924    22211545.940  
  22211541.365    87162860.727  
  23020150.089   122969555.944    23020147.962    95643011.008                  
                                
  20161613.037   107661900.338    20161608.641    83737018.493                  
                                
  21096177.179   112454504.599    21096173.034    87464609.514                  
                                
  19926342.136   106555114.484    19926337.723    82876191.789                  
                                
  24624507.378   129402676.270                                                  
                                
  26387311.100   138666265.521                                                  
                                
  24546641.503   128993473.316                                                  
                                
  23132474.481   121561978.082                                                  
                                
  27850520.334   146355546.818                                                  
                                
  24267748.368   127527914.807                                                  
                                
  25039875.212   131585447.479                                                  
                                
 21  9  2  7 17 52.0000000  0 19G 1G 7G 8G 9G14G21G27G30R12R13R14R24
                                E 2E 3E 8E11E24E25E36
  22612070.351   118827234.476                    92592658.580    22612070.565  
  22612066.027    88734611.926  
  20315153.206   106756866.368                    83187170.691    20315150.580  
                                
  21148381.030   111135512.559                    86599113.082    21148381.762  
  21148376.580    82990797.034  
  23017531.741   120957952.695                    94252953.664    23017532.152  
  23017528.417    90325734.333  
  23745988.569   124786021.989                    97235860.158    23745987.997  
  23745988.175    93184366.745  
  21594730.157   113481077.819    21594728.174    88426803.479                  
                                
  23465554.838   123312339.119                    96087546.808    23465554.070  
  23465549.853    92083878.906  
  22211023.807   116719719.157                    90950432.822    22211024.915  
  22211020.251    87160815.534  
  23020604.391   122971980.238    23020601.907    95644896.566                  
                                
  20161677.633   107662243.711    20161672.862    83737285.559                  
                                
  21095735.028   112452146.988    21095730.668    87462775.814                  
                                
  19925866.963   106552573.237    19925862.478    82874215.261                  
                                
  24624287.214   129401519.654                                                  
                                
  26387770.548   138668678.632                                                  
                                
  24546756.436   128994077.650                                                  
                                
  23132474.570   121561978.901                                                  
                                
  27850838.527   146357219.287                                                  
                                
  24267830.333   127528345.493                                                  
                                
  25039411.403   131583010.020                                                  
                                
 21  9  2  7 17 53.0000000  0 19G 1G 7G 8G 9G14G21G27G30R12R13R14R24
                                E 2E 3E 8E11E24E25E36
  22611438.788   118823917.120                    92590073.618    22611439.610  
  22611434.696    88732134.680  
  20314940.547   106755747.903                    83186299.151    20314937.974  
                                
  21148813.835   111137785.049                    86600883.846    21148814.193  
  21148809.136    82992494.032  
  23018089.451   120960883.848                    94255237.680    23018089.915  
  23018086.145    90327923.179  
  23745561.731   124783777.643                    97234111.333    23745561.267  
  23745561.088    93182690.788  
  21594484.565   113479786.647    21594482.618    88425797.373                  
                                
  23466209.899   123315782.345                    96090229.821    23466209.756  
  23466205.074    92086450.153  
  22210502.728   116716980.683                    90948298.950    22210503.425  
  22210499.083    87158770.572  
  23021058.460   122974404.842    23021055.852    95646782.353                  
                                
  20161741.158   107662587.496    20161737.298    83737552.947                  
                                
  21095292.448   112449789.479    21095288.428    87460942.189                  
                                
  19925392.076   106550032.727    19925387.394    82872239.311                  
                                
  24624067.157   129400363.083                                                  
                                
  26388229.514   138671091.916                                                  
                                
  24546871.459   128994682.443                                                  
                                
  23132474.928   121561980.216                                                  
                                
  27851156.596   146358891.793                                                  
                                
  24267912.316   127528776.281                                                  
                                
  25038947.649   131580572.849                                                  
                                
 21  9  2  7 17 54.0000000  0 19G 1G 7G 8G 9G14G21G27G30R12R13R14R24
                                E 2E 3E 8E11E24E25E36
  22610807.744   118820599.920                    92587488.801    22610808.172  
  22610803.509    88729657.547  
  20314727.763   106754629.867                    83185427.955    20314724.975  
                                
  21149246.552   111140057.852                    86602654.853    21149246.373  
  21149241.566    82994191.249  
  23018647.107   120963815.177                    94257521.837    23018647.429  
  23018643.962    90330112.154  
  23745134.787   124781533.330                    97232362.511    23745133.840  
  23745133.929    93181014.831  
  21594238.813   113478495.977    21594236.990    88424791.656                  
                                
  23466865.013   123319225.609                    96092912.895    23466864.763  
  23466860.313    92089021.432  
  22209981.900   116714242.391                    90946165.211    22209982.400  
  22209977.987    87156725.748  
  23021512.959   122976829.593    23021509.868    95648668.266                  
                                
  20161805.540   107662931.585    20161801.680    83737820.565                  
                                
  21094850.530   112447431.990    21094846.134    87459108.593                  
                                
  19924916.689   106547492.877    19924912.382    82870263.867                  
                                
  24623847.029   129399206.490                                                  
                                
  26388688.676   138673505.263                                                  
                                
  24546986.643   128995287.585                                                  
                                
  23132475.267   121561981.970                                                  
                                
  27851474.915   146360564.344                                                  
                                
  24267994.264   127529207.102                                                  
                                
  25038483.769   131578135.919                                                  
                                
 21  9  2  7 17 55.0000000  0 19G 1G 7G 8G 9G14G21G27G30R12R13R14R24
                                E 2E 3E 8E11E24E25E36
  22610176.395   118817283.016                    92584904.198    22610176.699  
  22610172.250    88727180.641  
  20314514.800   106753512.382                    83184557.190    20314512.441  
                                
  21149678.982   111142331.093                    86604426.216    21149679.143  
  21149674.086    82995888.799  
  23019205.336   120966746.785                    94259806.197    23019204.907  
  23019201.815    90332301.331  
  23744707.699   124779289.117                    97230613.780    23744706.841  
  23744706.931    93179338.971  
  21593993.578   113477205.914    21593991.541    88423786.410                  
                                
  23467520.502   123322669.058                    96095596.116    23467519.716  
  23467515.731    92091592.844  
  22209460.482   116711504.442                    90944031.740    22209461.661  
  22209456.979    87154681.173  
  23021965.867   122979254.675    23021963.866    95650554.447                  
                                
  20161871.244   107663276.109    20161866.151    83738088.533                  
                                
  21094408.128   112445074.668    21094403.911    87457275.118                  
                                
  19924442.123   106544953.857    19924437.638    82868289.081                  
                                
  24623627.025   129398050.001                                                  
                                
  26389147.999   138675918.823                                                  
                                
  24547101.898   128995893.235                                                  
                                
  23132475.678   121561984.286                                                  
                                
  27851793.680   146362237.006                                                  
                                
  24268076.479   127529638.085                                                  
                                
  25038019.889   131575699.317                                                  
                                
 21  9  2  7 17 56.0000000  0 19G 1G 7G 8G 9G14G21G27G30R12R13R14R24
                                E 2E 3E 8E11E24E25E36
  22609545.404   118813966.262                    92582319.726    22609545.762  
  22609541.098    88724703.846  
  20314302.266   106752395.340                    83183686.770    20314299.728  
                                
  21150111.662   111144604.648                    86606197.822    21150112.234  
  21150106.838    82997586.590  
  23019762.867   120969678.528                    94262090.682    23019762.974  
  23019759.686    90334490.630  
  23744281.094   124777044.924                    97228865.066    23744279.933  
  23744279.825    93177663.108  
  21593748.040   113475916.356    21593746.074    88422781.558                  
                                
  23468175.599   123326112.545                    96098279.346    23468174.884  
  23468170.881    92094164.277  
  22208939.528   116708766.678                    90941898.417    22208940.583  
  22208936.044    87152636.728  
  23022419.580   122981679.974    23022417.614    95652440.791                  
                                
  20161934.733   107663620.949    20161930.605    83738356.735                  
                                
  21093966.013   112442717.379    21093961.653    87455441.676                  
                                
  19923967.343   106542415.544    19923962.983    82866314.838                  
                                
  24623406.897   129396893.455                                                  
                                
  26389607.519   138678332.448                                                  
                                
  24547217.153   128996499.239                                                  
                                
  23132476.089   121561987.056                                                  
                                
  27852111.874   146363909.659                                                  
                                
  24268158.498   127530069.070                                                  
                                
  25037556.349   131573262.942                                                  
                                
 21  9  2  7 17 57.0000000  0 19G 1G 7G 8G 9G14G21G27G30R12R13R14R24
                                E 2E 3E 8E11E24E25E36
  22608914.395   118810649.754                    92579735.436    22608914.771  
  22608909.857    88722227.233  
  20314089.910   106751278.803                    83182816.746    20314087.140  
                                
  21150544.683   111146878.576                    86607969.716    21150544.557  
  21150539.536    82999284.655  
  23020321.095   120972610.512                    94264375.328    23020320.756  
  23020317.611    90336680.092  
  23743853.774   124774800.808                    97227116.392    23743853.024  
  23743852.774    93175987.309  
  21593502.805   113474627.359    21593500.983    88421777.151                  
                                
  23468831.016   123329556.165                    96100962.683    23468830.856  
  23468826.138    92096735.802  
  22208418.736   116706029.181                    90939765.310    22208419.915  
  22208415.090    87150592.497  
  23022873.167   122984105.581    23022871.737    95654327.379                  
                                
  20161999.151   107663966.172    20161995.416    83738625.246                  
                                
  21093523.773   112440360.205    21093519.377    87453608.314                  
                                
  19923492.670   106539877.988    19923488.346    82864341.187                  
                                
  24623186.929   129395736.972                                                  
                                
  26390066.610   138680746.220                                                  
                                
  24547332.248   128997105.690                                                  
                                
  23132476.733   121561990.325                                                  
                                
  27852429.889   146365582.383                                                  
                                
  24268240.535   127530500.170                                                  
                                
  25037092.880   131570826.859                                                  
                                
 21  9  2  7 17 58.0000000  0 19G 1G 7G 8G 9G14G21G27G30R12R13R14R24
                                E 2E 3E 8E11E24E25E36
  22608282.922   118807333.460                    92577151.288    22608283.637  
  22608278.705    88719750.776  
  20313877.751   106750162.753                    83181947.094    20313875.017  
                                
  21150977.238   111149152.826                    86609741.854    21150977.506  
  21150972.288    83000982.959  
  23020879.502   120975542.671                    94266660.132    23020878.644  
  23020875.571    90338869.689  
  23743426.848   124772556.732                    97225367.769    23743425.525  
  23743425.686    93174311.536  
  21593257.428   113473338.904    21593255.891    88420773.160                  
                                
  23469486.488   123332999.875                    96103646.094    23469485.469  
  23469481.502    92099307.406  
  22207897.800   116703291.924                    90937632.389    22207898.801  
  22207894.226    87148548.449  
  23023328.720   122986531.409    23023325.861    95656214.143                  
                                
  20162064.748   107664311.743    20162060.191    83738894.023                  
                                
  21093081.854   112438003.101    21093077.118    87451775.020                  
                                
  19923018.605   106537341.135    19923014.049    82862368.078                  
                                
  24622966.926   129394580.503                                                  
                                
  26390525.916   138683160.117                                                  
                                
  24547447.896   128997712.517                                                  
                                
  23132477.340   121561994.075                                                  
                                
  27852748.172   146367255.141                                                  
                                
  24268322.625   127530931.331                                                  
                                
  25036629.482   131568391.053                                                  
                                
 21  9  2  7 17 59.0000000  0 19G 1G 7G 8G 9G14G21G27G30R12R13R14R24
                                E 2E 3E 8E11E24E25E36
  22607651.878   118804017.396                    92574567.372    22607652.574  
  22607647.714    88717274.505  
  20313665.521   106749047.222                    83181077.841    20313662.483  
                                
  21151409.936   111151427.455                    86611514.299    21151410.508  
  21151405.112    83002681.548  
  23021436.909   120978475.080                    94268945.119    23021437.355  
  23021433.585    90341059.469  
  23743000.100   124770312.710                    97223619.193    23742999.170  
  23742998.992    93172635.816  
  21593012.765   113472051.004    21593010.764    88419769.602                  
                                
  23470141.316   123336443.711                    96106329.607    23470140.726  
  23470136.902    92101879.108  
  22207376.739   116700554.947                    90935499.673    22207378.133  
  22207373.416    87146504.593  
  23023782.807   122988957.514    23023780.038    95658101.107                  
                                
  20162129.469   107664657.707    20162124.966    83739163.109                  
                                
  21092639.524   112435646.136    21092635.021    87449941.830                  
                                
  19922544.433   106534805.042    19922539.787    82860395.556                  
                                
  24622746.654   129393424.075                                                  
                                
  26390985.453   138685574.150                                                  
                                
  24547563.491   128998319.818                                                  
                                
  23132478.180   121561998.336                                                  
                                
  27853066.830   146368927.965                                                  
                                
  24268404.644   127531362.596                                                  
                                
  25036165.781   131565955.525                                                  
                                
 21  9  2  7 18  0.0000000  0 19G 1G 7G 8G 9G14G21G27G30R12R13R14R24
                                E 2E 3E 8E11E24E25E36
  22607021.030   118800701.537                    92571983.572    22607021.619  
  22607016.795    88714798.380  
  20313453.201   106747932.144                    83180208.955    20313450.360  
                                
  21151842.760   111153702.439                    86613287.005    21151843.510  
  21151838.042    83004380.395  
  23021995.173   120981407.668                    94271230.255    23021995.012  
  23021991.617    90343249.397  
  23742572.655   124768068.766                    97221870.645    23742571.779  
  23742571.779    93170960.142  
  21592767.745   113470763.638    21592765.708    88418766.455                  
                                
  23470796.680   123339887.647                    96109013.192    23470796.966  
  23470792.249    92104450.866  
  22206855.857   116697818.224                    90933367.153    22206857.233  
  22206852.534    87144460.937  
  23024237.074   122991383.869    23024234.233    95659988.274                  
                                
  20162195.370   107665004.009    20162189.831    83739432.457                  
                                
  21092197.837   112433289.252    21092192.834    87448108.693                  
                                
  19922069.885   106532269.665    19922065.579    82858423.603                  
                                
  24622526.901   129392267.658                                                  
                                
  26391444.723   138687988.318                                                  
                                
  24547679.085   128998927.516                                                  
                                
  23132479.199   121562003.075                                                  
                                
  27853385.328   146370600.835                                                  
                                
  24268486.680   127531793.933                                                  
                                
  25035702.634   131563520.277                                                  
                                
 21  9  2  7 18  1.0000000  0 19G 1G 7G 8G 9G14G21G27G30R12R13R14R24
                                E 2E 3E 8E11E24E25E36
  22606390.039   118797385.933                    92569399.989    22606390.789  
  22606385.750    88712322.442  
  20313241.096   106746817.602                    83179340.474    20313238.326  
                                
  21152275.923   111155977.819                    86615060.031    21152276.244  
  21152270.991    83006079.542  
  23022553.454   120984340.506                    94273515.588    23022553.490  
  23022549.684    90345439.503  
  23742145.549   124765824.896                    97220122.198    23742144.817  
  23742144.781    93169284.523  
  21592522.725   113469476.853    21592520.849    88417763.765                  
                                
  23471452.080   123343331.718                    96111696.886    23471452.295  
  23471447.631    92107022.752  
  22206335.279   116695081.769                    90931234.866    22206336.083  
  22206331.920    87142417.478  
  23024690.554   122993810.538    23024688.517    95661875.690                  
                                
  20162259.145   107665350.710    20162254.588    83739702.111                  
                                
  21091755.418   112430932.489    21091750.772    87446275.657                  
                                
  19921595.999   106529735.043    19921591.603    82856452.231                  
                                
  24622306.898   129391111.286                                                  
                                
  26391903.903   138690402.627                                                  
                                
  24547794.591   128999535.666                                                  
                                
  23132480.146   121562008.319                                                  
                                
  27853703.557   146372273.788                                                  
                                
  24268568.771   127532225.376                                                  
                                
  25035239.112   131561085.327                                                  
                                
 21  9  2  7 18  2.0000000  0 19G 1G 7G 8G 9G14G21G27G30R12R13R14R24
                                E 2E 3E 8E11E24E25E36
  22605759.405   118794070.569                    92566816.596    22605759.798  
  22605754.848    88709846.686  
  20313029.116   106745703.553                    83178472.396    20313026.292  
                                
  21152708.782   111158253.557                    86616833.342    21152709.193  
  21152704.190    83007778.955  
  23023111.236   120987273.554                    94275801.075    23023111.361  
  23023107.841    90347629.760  
  23741718.694   124763581.105                    97218373.781    23741718.247  
  23741717.747    93167608.976  
  21592277.634   113468190.643    21592275.990    88416761.524                  
                                
  23472107.641   123346775.922                    96114380.687    23472107.713  
  23472103.067    92109594.716  
  22205815.076   116692345.563                    90929102.760    22205815.701  
  22205811.181    87140374.218  
  23025146.017   122996237.433    23025142.855    95663763.278                  
                                
  20162324.260   107665697.813    20162319.649    83739972.078                  
                                
  21091313.249   112428575.822    21091308.639    87444442.694                  
                                
  19921122.094   106527201.144    19921117.681    82854481.420                  
                                
  24622086.858   129389954.964                                                  
                                
  26392363.530   138692817.091                                                  
                                
  24547910.507   129000144.232                                                  
                                
  23132481.218   121562014.070                                                  
                                
  27854022.233   146373946.784                                                  
                                
  24268650.682   127532656.913                                                  
                                
  25034775.750   131558650.671                                                  
                                
 21  9  2  7 18  3.0000000  0 19G 1G 7G 8G 9G14G21G27G30R12R13R14R24
                                E 2E 3E 8E11E24E25E36
  22605128.539   118790755.408                    92564233.356    22605129.057  
  22605123.911    88707371.088  
  20312817.207   106744589.989                    83177604.667    20312814.491  
                                
  21153142.177   111160529.671                    86618606.926    21153142.034  
  21153137.263    83009478.650  
  23023669.053   120990206.797                    94278086.726    23023669.446  
  23023666.141    90349820.181  
  23741291.910   124761337.356                    97216625.411    23741290.892  
  23741290.910    93165933.437  
  21592033.489   113466904.953    21592031.327    88415759.685                  
                                
  23472763.113   123350220.222                    96117064.546    23472763.274  
  23472758.592    92112166.762  
  22205293.980   116689609.621                    90926970.852    22205295.034  
  22205290.567    87138331.145  
  23025599.551   122998664.618    23025597.067    95665651.086                  
                                
  20162389.142   107666045.278    20162384.639    83740242.331                  
                                
  21090871.706   112426219.223    21090866.488    87442609.782                  
                                
  19920648.976   106524667.995    19920644.116    82852511.193                  
                                
  24621866.837   129388798.656                                                  
                                
  26392823.121   138695231.681                                                  
                                
  24548026.584   129000753.215                                                  
                                
  23132482.612   121562020.321                                                  
                                
  27854340.767   146375619.848                                                  
                                
  24268732.933   127533088.533                                                  
                                
  25034312.603   131556216.288                                                  
                                
 21  9  2  7 18  4.0000000  0 19G 1G 7G 8G 9G14G21G27G30R12R13R14R24
                                E 2E 3E 8E11E24E25E36
  22604497.816   118787440.450                    92561650.264    22604497.781  
  22604492.974    88704895.632  
  20312605.459   106743476.882                    83176737.316    20312602.600  
                                
  21153575.501   111162806.104                    86620380.773    21153575.430  
  21153570.408    83011178.584  
  23024227.514   120993140.221                    94280372.504    23024227.925  
  23024224.280    90352010.725  
  23740865.091   124759093.644                    97214877.053    23740863.840  
  23740864.019    93164257.941  
  21591788.916   113465619.785    21591786.861    88414758.253                  
                                
  23473418.727   123353664.580                    96119748.464    23473418.977  
  23473414.135    92114738.846  
  22204773.258   116686873.908                    90924839.130    22204774.795  
  22204769.953    87136288.236  
  23026053.925   123001092.033    23026051.351    95667539.073                  
                                
  20162454.275   107666393.070    20162449.825    83740512.838                  
                                
  21090428.876   112423862.678    21090424.480    87440776.913                  
                                
  19920175.340   106522135.559    19920170.515    82850541.519                  
                                
  24621646.673   129387642.343                                                  
                                
  26393282.748   138697646.356                                                  
                                
  24548142.179   129001362.606                                                  
                                
  23132483.773   121562027.020                                                  
                                
  27854659.425   146377292.901                                                  
                                
  24268815.167   127533520.199                                                  
                                
  25033849.402   131553782.148                                                  
                                
 21  9  2  7 18  5.0000000  0 19G 1G 7G 8G 9G14G21G27G30R12R13R14R24
                                E 2E 3E 8E11E24E25E36
  22603866.933   118784125.744                    92559067.377    22603867.272  
  22603862.162    88702420.358  
  20312393.729   106742364.309                    83175870.378    20312390.888  
                                
  21154009.057   111165082.931                    86622154.923    21154008.807  
  21154003.714    83012878.808  
  23024786.046   120996073.874                    94282658.479    23024786.028  
  23024782.526    90354201.443  
  23740438.093   124756850.015                    97213128.777    23740436.735  
  23740437.021    93162582.514  
  21591544.361   113464335.180    21591542.377    88413757.278                  
                                
  23474074.306   123357109.103                    96122432.506    23474073.734  
  23474069.642    92117311.050  
  22204252.877   116684138.477                    90922707.621    22204254.020  
  22204249.517    87134245.539  
  23026507.887   123003519.778    23026505.779    95669427.314                  
                                
  20162519.532   107666741.265    20162515.047    83740783.657                  
                                
  21089986.617   112421506.258    21089982.347    87438944.154                  
                                
  19919701.811   106519603.891    19919697.058    82848572.443                  
                                
  24621426.598   129386486.091                                                  
                                
  26393742.232   138700061.220                                                  
                                
  24548258.328   129001972.435                                                  
                                
  23132485.328   121562034.242                                                  
                                
  27854977.422   146378966.061                                                  
                                
  24268897.328   127533951.985                                                  
                                
  25033386.273   131551348.325                                                  
                                
 21  9  2  7 18  6.0000000  0 19G 1G 7G 8G 9G14G21G27G30R12R13R14R24
                                E 2E 3E 8E11E24E25E36
  22603236.245   118780811.238                    92556484.649    22603237.121  
  22603231.457    88699945.244  
  20312182.088   106741252.203                    83175003.809    20312179.211  
                                
  21154442.095   111167360.078                    86623929.326    21154442.095  
  21154437.038    83014579.285  
  23025344.364   120999007.739                    94284944.593    23025344.560  
  23025340.825    90356392.304  
  23740011.005   124754606.432                    97211380.522    23740010.112  
  23740010.165    93160907.101  
  21591300.109   113463051.121    21591298.054    88412756.706                  
                                
  23474729.170   123360553.700                    96125116.600    23474729.563  
  23474725.185    92119883.307  
  22203732.191   116681403.278                    90920576.306    22203733.263  
  22203728.993    87132203.027  
  23026962.743   123005947.753    23026960.224    95671315.737                  
                                
  20162584.790   107667089.803    20162580.358    83741054.744                  
                                
  21089544.824   112419149.930    21089540.321    87437111.454                  
                                
  19919228.460   106517072.913    19919223.671    82846603.909                  
                                
  24621206.452   129385329.842                                                  
                                
  26394201.806   138702476.192                                                  
                                
  24548374.387   129002582.674                                                  
                                
  23132486.704   121562041.948                                                  
                                
  27855295.937   146380639.261                                                  
                                
  24268979.294   127534383.827                                                  
                                
  25032923.215   131548914.767                                                  
                                
 21  9  2  7 18  7.0000000  0 19G 1G 7G 8G 9G14G21G27G30R12R13R14R24
                                E 2E 3E 8E11E24E25E36
  22602605.665   118777496.954                    92553902.088    22602605.951  
  22602600.680    88697470.288  
  20311970.662   106740140.590                    83174137.606    20311967.535  
                                
  21154875.526   111169637.583                    86625703.998    21154875.669  
  21154870.416    83016280.013  
  23025902.449   121001941.782                    94287230.875    23025902.502  
  23025899.179    90358583.318  
  23739584.346   124752362.894                    97209632.324    23739583.578  
  23739583.239    93159231.735  
  21591055.875   113461767.591    21591053.784    88411756.552                  
                                
  23475384.731   123363998.396                    96127800.783    23475384.838  
  23475380.800    92122455.659  
  22203212.078   116678668.322                    90918445.167    22203212.935  
  22203208.504    87130160.692  
  23027418.010   123008375.994    23027414.776    95673204.369                  
                                
  20162650.101   107667438.711    20162645.705    83741326.110                  
                                
  21089102.923   112416793.689    21089098.205    87435278.820                  
                                
  19918755.074   106514542.681    19918750.589    82844635.951                  
                                
  24620986.520   129384173.622                                                  
                                
  26394661.361   138704891.257                                                  
                                
  24548490.786   129003193.321                                                  
                                
  23132488.222   121562050.132                                                  
                                
  27855614.399   146382312.501                                                  
                                
  24269061.545   127534815.764                                                  
                                
  25032460.085   131546481.466                                                  
                                
 21  9  2  7 18  8.0000000  0 19G 1G 7G 8G 9G14G21G27G30R12R13R14R24
                                E 2E 3E 8E11E24E25E36
  22601974.478   118774182.894                    92551319.692    22601975.103  
  22601970.082    88694995.502  
  20311758.682   106739029.464                    83173271.796    20311756.287  
                                
  21155308.850   111171915.430                    86627478.951    21155308.832  
  21155303.847    83017981.001  
  23026460.856   121004876.060                    94289517.325    23026461.213  
  23026457.657    90360774.502  
  23739157.330   124750119.426                    97207884.172    23739156.437  
  23739156.276    93157556.418  
  21590811.927   113460484.632    21590809.658    88410756.837                  
                                
  23476040.327   123367443.224                    96130485.063    23476040.327  
  23476036.325    92125028.097  
  22202691.356   116675933.639                    90916314.245    22202692.768  
  22202688.104    87128118.554  
  23027872.526   123010804.449    23027869.185    95675093.163                  
                                
  20162715.484   107667787.967    20162711.070    83741597.756                  
                                
  21088661.057   112414437.522    21088656.304    87433446.245                  
                                
  19918282.028   106512013.162    19918277.542    82842668.545                  
                                
  24620766.516   129383017.423                                                  
                                
  26395121.078   138707306.499                                                  
                                
  24548606.863   129003804.396                                                  
                                
  23132489.849   121562058.809                                                  
                                
  27855932.861   146383985.776                                                  
                                
  24269143.832   127535247.761                                                  
                                
  25031997.296   131544048.456                                                  
                                
 21  9  2  7 18  9.0000000  0 19G 1G 7G 8G 9G14G21G27G30R12R13R14R24
                                E 2E 3E 8E11E24E25E36
  22601344.184   118770869.030                    92548737.454    22601344.684  
  22601339.466    88692520.875  
  20311547.809   106737918.808                    83172406.363    20311544.772  
                                
  21155742.120   111174193.613                    86629254.156    21155742.531  
  21155737.403    83019682.248  
  23027019.584   121007810.515                    94291803.911    23027019.281  
  23027016.046    90362965.813  
  23738730.207   124747876.005                    97206136.035    23738729.296  
  23738729.582    93155881.132  
  21590567.729   113459202.193    21590565.728    88409757.530                  
                                
  23476696.156   123370888.117                    96133169.411    23476695.978  
  23476691.993    92127600.578  
  22202171.010   116673199.182                    90914183.502    22202172.636  
  22202167.776    87126076.594  
  23028327.132   123013233.138    23028323.791    95676982.140                  
                                
  20162780.617   107668137.576    20162776.542    83741869.671                  
                                
  21088218.888   112412081.438    21088214.171    87431613.738                  
                                
  19917809.088   106509484.393    19917804.603    82840701.725                  
                                
  24620546.531   129381861.224                                                  
                                
  26395580.633   138709721.820                                                  
                                
  24548723.119   129004415.880                                                  
                                
  23132491.707   121562067.959                                                  
                                
  27856251.197   146385659.098                                                  
                                
  24269226.118   127535679.832                                                  
                                
  25031534.220   131541615.699                                                  
                                
 21  9  2  7 18 10.0000000  0 19G 1G 7G 8G 9G14G21G27G30R12R13R14R24
                                E 2E 3E 8E11E24E25E36
  22600713.622   118767555.404                    92546155.425    22600713.943  
  22600708.851    88690046.411  
  20311336.758   106736808.665                    83171541.307    20311333.292  
                                
  21156175.998   111176472.174                    86631029.660    21156176.391  
  21156170.959    83021383.762  
  23027577.795   121010745.186                    94294090.668    23027577.884  
  23027574.543    90365157.288  
  23738303.191   124745632.631                    97204387.959    23738302.530  
  23738302.459    93154205.892  
  21590323.692   113457920.320    21590321.744    88408758.672                  
                                
  23477351.771   123374333.157                    96135853.841    23477351.771  
  23477347.464    92130173.157  
  22201650.790   116670464.983                    90912052.959    22201652.130  
  22201647.394    87124034.824  
  23028780.898   123015662.130    23028778.379    95678871.366                  
                                
  20162847.089   107668487.548    20162842.140    83742141.877                  
                                
  21087777.273   112409725.450    21087772.145    87429781.300                  
                                
  19917335.988   106506956.398    19917331.878    82838735.504                  
                                
  24620326.438   129380705.075                                                  
                                
  26396040.100   138712137.294                                                  
                                
  24548839.821   129005027.771                                                  
                                
  23132493.458   121562077.613                                                  
                                
  27856569.623   146387332.485                                                  
                                
  24269308.334   127536112.003                                                  
                                
  25031071.341   131539183.235                                                  
                                
 21  9  2  7 18 11.0000000  0 19G 1G 7G 8G 9G14G21G27G30R12R13R14R24
                                E 2E 3E 8E11E24E25E36
  22600083.203   118764242.054                    92543573.590    22600083.757  
  22600078.450    88687572.154  
  20311124.957   106735699.065                    83170676.684    20311122.187  
                                
  21156609.715   111178751.134                    86632805.469    21156609.483  
  21156604.658    83023085.587  
  23028136.541   121013680.124                    94296377.626    23028136.327  
  23028133.021    90367348.961  
  23737876.532   124743389.386                    97202639.980    23737875.853  
  23737875.711    93152530.737  
  21590079.869   113456639.043    21590078.011    88407760.270                  
                                
  23478007.189   123377778.328                    96138538.393    23478007.385  
  23478003.043    92132745.859  
  22201130.622   116667731.096                    90909922.657    22201131.480  
  22201127.245    87121993.287  
  23029235.254   123018091.397    23029233.127    95680760.800                  
                                
  20162912.508   107668837.947    20162907.665    83742414.411                  
                                
  21087335.355   112407369.607    21087330.208    87427948.981                  
                                
  19916863.870   106504429.200    19916859.350    82836769.912                  
                                
  24620106.631   129379548.990                                                  
                                
  26396499.816   138714552.955                                                  
                                
  24548956.595   129005640.140                                                  
                                
  23132495.406   121562087.801                                                  
                                
  27856887.960   146389005.960                                                  
                                
  24269390.674   127536544.303                                                  
                                
  25030608.569   131536751.105                                                  
                                
 21  9  2  7 18 12.0000000  0 19G 1G 7G 8G 9G14G21G27G30R12R13R14R24
                                E 2E 3E 8E11E24E25E36
  22599452.855   118760928.894                    92540991.914    22599453.695  
  22599447.905    88685098.050  
  20310914.495   106734589.920                    83169812.417    20310911.279  
                                
  21157043.360   111181030.426                    86634581.547    21157043.450  
  21157038.393    83024787.653  
  23028694.948   121016615.236                    94298664.731    23028694.984  
  23028691.571    90369540.763  
  23737449.642   124741146.156                    97200892.015    23737448.837  
  23737448.730    93150855.602  
  21589836.171   113455358.295    21589834.188    88406762.293                  
                                
  23478662.785   123381223.599                    96141223.004    23478662.535  
  23478658.640    92135318.622  
  22200610.509   116664997.446                    90907792.550    22200611.223  
  22200607.096    87119951.925  
  23029690.128   123020520.944    23029687.894    95682650.448                  
                                
  20162978.141   107669188.700    20162973.316    83742687.213                  
                                
  21086893.078   112405013.815    21086888.361    87426116.703                  
                                
  19916391.020   106501902.700    19916386.928    82834804.855                  
                                
  24619886.610   129378392.914                                                  
                                
  26396959.747   138716968.708                                                  
                                
  24549073.101   129006252.926                                                  
                                
  23132497.300   121562098.474                                                  
                                
  27857206.475   146390679.464                                                  
                                
  24269472.890   127536976.653                                                  
                                
  25030145.868   131534319.228                                                  
                                
 21  9  2  7 18 13.0000000  0 19G 1G 7G 8G 9G14G21G27G30R12R13R14R24
                                E 2E 3E 8E11E24E25E36
  22598822.204   118757615.978                    92538410.421    22598822.918  
  22598817.593    88682624.109  
  20310703.033   106733481.285                    83168948.548    20310700.317  
                                
  21157477.309   111183310.090                    86636357.918    21157476.934  
  21157472.199    83026490.013  
  23029253.766   121019550.565                    94300952.007    23029253.248  
  23029250.192    90371732.753  
  23737022.643   124738903.008                    97199144.112    23737022.107  
  23737021.929    93149180.532  
  21589592.366   113454078.115    21589590.579    88405764.746                  
                                
  23479318.400   123384668.985                    96143907.722    23479318.668  
  23479314.343    92137891.462  
  22200090.556   116662264.063                    90905662.634    22200091.556  
  22200086.928    87117910.762  
  23030146.252   123022950.721    23030142.768    95684540.284                  
                                
  20163043.202   107669539.797    20163039.199    83742960.292                  
                                
  21086451.070   112402658.142    21086446.371    87424284.501                  
                                
  19915918.778   106499376.938    19915914.596    82832840.371                  
                                
  24619666.839   129377236.879                                                  
                                
  26397419.320   138719384.607                                                  
                                
  24549189.733   129006866.123                                                  
                                
  23132499.569   121562109.639                                                  
                                
  27857524.901   146392353.059                                                  
                                
  24269555.230   127537409.112                                                  
                                
  25029682.953   131531887.656                                                  
                                
 21  9  2  7 18 14.0000000  0 19G 1G 7G 8G 9G14G21G27G30R12R13R14R24
                                E 2E 3E 8E11E24E25E36
  22598191.570   118754303.276                    92535829.085    22598191.552  
  22598187.210    88680150.353  
  20310492.465   106732373.143                    83168085.057    20310489.463  
                                
  21157910.991   111185590.124                    86638134.564    21157911.062  
  21157906.059    83028192.636  
  23029811.780   121022486.099                    94303239.424    23029812.370  
  23029808.760    90373924.855  
  23736596.003   124736659.921                    97197396.262    23736595.073  
  23736595.181    93147505.500  
  21589348.776   113452798.467    21589347.007    88404767.613                  
                                
  23479973.889   123388114.465                    96146592.539    23479973.871  
  23479970.154    92140464.405  
  22199570.353   116659530.923                    90903532.915    22199570.764  
  22199566.833    87115869.779  
  23030602.216   123025380.775    23030597.588    95686430.333                  
                                
  20163108.960   107669891.289    20163104.975    83743233.671                  
                                
  21086009.223   112400302.561    21086004.506    87422452.390                  
                                
  19915447.000   106496851.890    19915442.265    82830876.454                  
                                
  24619446.782   129376080.868                                                  
                                
  26397879.215   138721800.635                                                  
                                
  24549306.650   129007479.752                                                  
                                
  23132501.535   121562121.289                                                  
                                
  27857843.667   146394026.681                                                  
                                
  24269637.553   127537841.641                                                  
                                
  25029220.682   131529456.334                                                  
                                
 21  9  2  7 18 15.0000000  0 19G 1G 7G 8G 9G14G21G27G30R12R13R14R24
                                E 2E 3E 8E11E24E25E36
  22597561.222   118750990.757                    92533247.903    22597561.937  
  22597556.952    88677676.718  
  20310281.717   106731265.445                    83167221.917    20310278.769  
                                
  21158344.868   111187870.490                    86639911.456    21158344.654  
  21158339.990    83029895.491  
  23030371.027   121025421.797                    94305526.988    23030370.812  
  23030367.453    90376117.102  
  23736169.272   124734416.849                    97195648.393    23736168.343  
  23736168.075    93145830.484  
  21589105.167   113451519.338    21589103.613    88403770.889                  
                                
  23480629.539   123391560.021                    96149277.374    23480629.718  
  23480625.787    92143037.374  
  22199049.953   116656798.013                    90901403.356    22199051.025  
  22199046.790    87113828.972  
  23031056.197   123027811.092    23031052.516    95688320.568                  
                                
  20163174.932   107670243.110    20163170.840    83743507.307                  
                                
  21085567.286   112397947.052    21085562.640    87420620.318                  
                                
  19914975.007   106494327.562    19914970.379    82828913.080                  
                                
  24619226.832   129374924.836                                                  
                                
  26398338.753   138724216.760                                                  
                                
  24549423.495   129008093.750                                                  
                                
  23132503.929   121562133.400                                                  
                                
  27858162.075   146395700.311                                                  
                                
  24269719.965   127538274.216                                                  
                                
  25028758.106   131527025.275                                                  
                                
 21  9  2  7 18 16.0000000  0 19G 1G 7G 8G 9G14G21G27G30R12R13R14R24
                                E 2E 3E 8E11E24E25E36
  22596931.036   118747678.454                    92530666.900    22596931.375  
  22596926.604    88675203.250  
  20310070.899   106730158.248                    83166359.160    20310068.022  
                                
  21158779.050   111190151.193                    86641688.627    21158778.818  
  21158774.029    83031598.618  
  23030929.398   121028357.701                    94307814.701    23030929.559  
  23030926.146    90378309.504  
  23735742.203   124732173.830                    97193900.591    23735740.880  
  23735741.381    93144155.502  
  21588862.256   113450240.754    21588860.165    88402774.588                  
                                
  23481285.368   123395005.674                    96151962.308    23481285.082  
  23481281.437    92145610.426  
  22198530.161   116654065.352                    90899274.019    22198530.965  
  22198526.802    87111788.344  
  23031510.874   123030241.674    23031507.372    95690211.014                  
                                
  20163240.708   107670595.310    20163236.813    83743781.231                  
                                
  21085125.635   112395591.614    21085120.722    87418788.313                  
                                
  19914502.479   106491803.962    19914498.423    82826950.280                  
                                
  24619006.882   129373768.831                                                  
                                
  26398798.666   138726633.005                                                  
                                
  24549540.216   129008708.153                                                  
                                
  23132506.234   121562145.994                                                  
                                
  27858480.608   146397373.977                                                  
                                
  24269802.359   127538706.863                                                  
                                
  25028295.549   131524594.475                                                  
                                
 21  9  2  7 18 17.0000000  0 19G 1G 7G 8G 9G14G21G27G30R12R13R14R24
                                E 2E 3E 8E11E24E25E36
  22596301.117   118744366.439                    92528086.093    22596301.278  
  22596296.239    88672729.987  
  20309860.259   106729051.577                    83165496.816    20309857.239  
                                
  21159213.214   111192432.328                    86643466.137    21159213.267  
  21159208.067    83033302.067  
  23031487.984   121031293.866                    94310102.624    23031488.359  
  23031484.928    90380502.088  
  23735315.562   124729930.917                    97192152.868    23735314.597  
  23735314.508    93142480.597  
  21588618.951   113448962.755    21588617.004    88401778.749                  
                                
  23481941.447   123398451.491                    96154647.351    23481941.483  
  23481937.212    92148183.593  
  22198010.226   116651332.996                    90897144.908    22198011.281  
  22198006.813    87109747.950  
  23031965.873   123032672.552    23031962.424    95692101.699                  
                                
  20163307.485   107670947.930    20163302.821    83744055.498                  
                                
  21084683.431   112393236.308    21084678.910    87416956.410                  
                                
  19914030.969   106489281.132    19914026.609    82824988.077                  
                                
  24618786.879   129372612.896                                                  
                                
  26399258.668   138729049.427                                                  
                                
  24549657.115   129009323.043                                                  
                                
  23132508.825   121562159.120                                                  
                                
  27858798.909   146399047.777                                                  
                                
  24269884.788   127539139.653                                                  
                                
  25027832.848   131522164.018                                                  
                                
 21  9  2  7 18 18.0000000  0 19G 1G 7G 8G 9G14G21G27G30R12R13R14R24
                                E 2E 3E 8E11E24E25E36
  22595670.698   118741054.606                    92525505.455    22595670.769  
  22595666.087    88670256.870  
  20309649.672   106727945.387                    83164634.852    20309646.742  
                                
  21159646.948   111194713.800                    86645243.905    21159647.163  
  21159642.231    83035005.757  
  23032046.998   121034230.219                    94312390.692    23032047.034  
  23032043.675    90382694.817  
  23734888.850   124727688.030                    97190405.182    23734887.545  
  23734887.706    93140805.736  
  21588376.201   113447685.305    21588373.967    88400783.329                  
                                
  23482596.954   123401897.399                    96157332.467    23482596.704  
  23482592.898    92150756.838  
  22197490.577   116648600.869                    90895015.985    22197491.185  
  22197486.914    87107707.730  
  23032421.033   123035103.650    23032417.441    95693992.553                  
                                
  20163373.672   107671300.893    20163368.901    83744330.022                  
                                
  21084241.798   112390881.072    21084237.098    87415124.553                  
                                
  19913558.977   106486759.013    19913554.938    82823026.432                  
                                
  24618566.858   129371456.981                                                  
                                
  26399718.652   138731465.971                                                  
                                
  24549774.478   129009938.338                                                  
                                
  23132511.577   121562172.751                                                  
                                
  27859117.657   146400721.598                                                  
                                
  24269967.022   127539572.504                                                  
                                
  25027370.505   131519733.811                                                  
                                
 21  9  2  7 18 19.0000000  0 19G 1G 7G 8G 9G14G21G27G30R12R13R14R24
                                E 2E 3E 8E11E24E25E36
  22595040.296   118737743.010                    92522924.968    22595041.261  
  22595036.026    88667783.918  
  20309439.550   106726839.681                    83163773.263    20309436.513  
                                
  21160081.559   111196995.633                    86647021.957    21160081.827  
  21160076.377    83036709.728  
  23032605.995   121037166.786                    94314678.903    23032605.780  
  23032602.600    90384887.691  
  23734461.673   124725445.231                    97188657.529    23734460.511  
  23734460.797    93139130.912  
  21588133.057   113446408.377    21588130.841    88399788.324                  
                                
  23483252.515   123405343.407                    96160017.657    23483252.515  
  23483248.655    92153330.142  
  22196970.607   116645869.000                    90892887.249    22196971.875  
  22196967.068    87105667.689  
  23032875.942   123037534.969    23032872.476    95695883.567                  
                                
  20163439.108   107671654.235    20163435.087    83744604.848                  
                                
  21083800.254   112388525.932    21083795.233    87413292.777                  
                                
  19913088.128   106484237.653    19913083.321    82821065.376                  
                                
  24618346.908   129370301.070                                                  
                                
  26400178.458   138733882.631                                                  
                                
  24549891.449   129010554.038                                                  
                                
  23132514.436   121562186.836                                                  
                                
  27859436.244   146402395.472                                                  
                                
  24270049.451   127540005.432                                                  
                                
  25026908.162   131517303.879                                                  
                                
 21  9  2  7 18 20.0000000  0 19G 1G 7G 8G 9G14G21G27G30R12R13R14R24
                                E 2E 3E 8E11E24E25E36
  22594410.610   118734431.623                    92520344.685    22594411.074  
  22594405.839    88665311.140  
  20309229.393   106725734.465                    83162912.053    20309226.409  
                                
  21160515.794   111199277.821                    86648800.281    21160515.633  
  21160510.755    83038413.957  
  23033164.706   121040103.518                    94316967.283    23033164.563  
  23033161.311    90387080.726  
  23734035.068   124723202.473                    97186909.934    23734034.067  
  23734033.996    93137456.127  
  21587890.127   113445132.018    21587887.858    88398793.761                  
                                
  23483908.326   123408789.509                    96162702.942    23483908.255  
  23483904.413    92155903.543  
  22196450.707   116643137.389                    90890758.715    22196451.922  
  22196447.276    87103627.853  
  23033331.531   123039966.581    23033327.743    95697774.816                  
                                
  20163505.205   107672007.943    20163501.328    83744879.953                  
                                
  21083358.496   112386170.893    21083353.422    87411461.087                  
                                
  19912616.582   106481717.051    19912612.008    82819104.910                  
                                
  24618127.154   129369145.197                                                  
                                
  26400638.460   138736299.433                                                  
                                
  24550008.670   129011170.158                                                  
                                
  23132517.135   121562201.438                                                  
                                
  27859754.562   146404069.393                                                  
                                
  24270131.792   127540438.443                                                  
                                
  25026445.587   131514874.235                                                  
                                
 21  9  2  7 18 21.0000000  0 19G 1G 7G 8G 9G14G21G27G30R12R13R14R24
                                E 2E 3E 8E11E24E25E36
  22593780.423   118731120.503                    92517764.587    22593780.906  
  22593775.759    88662838.555  
  20309019.217   106724629.768                    83162051.255    20309016.233  
                                
  21160950.243   111201560.396                    86650578.915    21160950.315  
  21160945.044    83040118.480  
  23033723.524   121043040.522                    94319255.840    23033723.720  
  23033720.289    90389273.931  
  23733608.302   124720959.780                    97185162.404    23733607.015  
  23733607.033    93135781.415  
  21587647.252   113443856.243    21587644.822    88397799.660                  
                                
  23484564.048   123412235.763                    96165388.326    23484563.869  
  23484560.206    92158477.041  
  22195930.701   116640406.061                    90888630.413    22195931.791  
  22195927.538    87101588.220  
  23033785.994   123042398.550    23033783.170    95699666.343                  
                                
  20163572.018   107672362.051    20163567.711    83745155.368                  
                                
  21082916.345   112383815.970    21082911.610    87409629.479                  
                                
  19912144.947   106479197.222    19912140.712    82817145.046                  
                                
  24617907.133   129367989.382                                                  
                                
  26401098.212   138738716.377                                                  
                                
  24550125.926   129011786.736                                                  
                                
  23132519.886   121562216.536                                                  
                                
  27860073.489   146405743.385                                                  
                                
  24270213.989   127540871.567                                                  
                                
  25025983.279   131512444.896                                                  
                                
 21  9  2  7 18 22.0000000  0 19G 1G 7G 8G 9G14G21G27G30R12R13R14R24
                                E 2E 3E 8E11E24E25E36
  22593150.165   118727809.544                    92515184.626    22593150.754  
  22593145.823    88660366.097  
  20308808.863   106723525.529                    83161190.814    20308805.611  
                                
  21161384.264   111203843.251                    86652357.765    21161384.371  
  21161379.511    83041823.217  
  23034282.699   121045977.661                    94321544.522    23034282.109  
  23034279.286    90391467.260  
  23733181.143   124718717.157                    97183414.883    23733180.232  
  23733180.321    93134106.703  
  21587404.501   113442580.964    21587401.928    88396805.931                  
                                
  23485220.127   123415682.067                    96168073.765    23485219.787  
  23485215.910    92161050.577  
  22195411.070   116637674.937                    90886502.270    22195412.463  
  22195407.818    87099548.746  
  23034241.707   123044830.698    23034238.580    95701558.000                  
                                
  20163638.884   107672716.461    20163634.077    83745431.024                  
                                
  21082475.016   112381461.098    21082469.780    87407797.911                  
                                
  19911673.938   106476678.056    19911669.792    82815185.692                  
                                
  24617687.130   129366833.535                                                  
                                
  26401558.197   138741133.421                                                  
                                
  24550243.272   129012403.674                                                  
                                
  23132523.138   121562232.094                                                  
                                
  27860391.718   146407417.396                                                  
                                
  24270296.419   127541304.730                                                  
                                
  25025521.061   131510015.786                                                  
                                
 21  9  2  7 18 23.0000000  0 19G 1G 7G 8G 9G14G21G27G30R12R13R14R24
                                E 2E 3E 8E11E24E25E36
  22592520.049   118724498.844                    92512604.859    22592521.050  
  22592515.743    88657893.807  
  20308598.795   106722421.792                    83160330.764    20308595.543  
                                
  21161818.857   111206126.501                    86654136.916    21161819.071  
  21161813.996    83043528.235  
  23034841.660   121048915.059                    94323833.408    23034841.338  
  23034838.104    90393660.762  
  23732754.717   124716474.572                    97181667.412    23732753.644  
  23732753.501    93132432.052  
  21587161.822   113441306.266    21587159.249    88395812.663                  
                                
  23485876.099   123419128.506                    96170759.293    23485875.581  
  23485871.792    92163624.221  
  22194891.242   116634944.093                    90884374.336    22194892.350  
  22194888.008    87097509.486  
  23034697.493   123047263.142    23034693.972    95703449.898                  
                                
  20163705.428   107673071.284    20163700.478    83745707.000                  
                                
  21082033.079   112379106.324    21082028.112    87405966.425                  
                                
  19911203.089   106474159.643    19911198.693    82813226.922                  
                                
  24617467.430   129365677.750                                                  
                                
  26402018.181   138743550.602                                                  
                                
  24550360.654   129013021.070                                                  
                                
  23132526.069   121562248.157                                                  
                                
  27860710.144   146409091.467                                                  
                                
  24270379.028   127541737.992                                                  
                                
  25025058.968   131507586.993                                                  
                                
 21  9  2  7 18 24.0000000  0 19G 1G 7G 8G 9G14G21G27G30R12R13R14R24
                                E 2E 3E 8E11E24E25E36
  22591890.006   118721188.393                    92510025.298    22591891.042  
  22591885.949    88655421.719  
  20308389.013   106721318.589                    83159471.118    20308385.868  
                                
  21162253.628   111208410.124                    86655916.365    21162253.628  
  21162248.535    83045233.534  
  23035400.567   121051852.653                    94326122.433    23035400.228  
  23035397.226    90395854.425  
  23732328.129   124714232.078                    97179920.023    23732326.628  
  23732326.825    93130757.467  
  21586919.446   113440032.131    21586916.748    88394819.828                  
                                
  23486531.517   123422575.075                    96173444.928    23486531.463  
  23486527.460    92166197.946  
  22194371.843   116632213.524                    90882246.621    22194372.558  
  22194368.502    87095470.425  
  23035153.224   123049695.797    23035149.454    95705341.964                  
                                
  20163771.615   107673426.490    20163767.040    83745983.262                  
                                
  21081591.286   112376751.672    21081586.336    87404135.024                  
                                
  19910732.419   106471642.009    19910727.862    82811268.764                  
                                
  24617247.516   129364522.000                                                  
                                
  26402478.398   138745967.945                                                  
                                
  24550478.411   129013638.883                                                  
                                
  23132529.232   121562264.725                                                  
                                
  27861028.767   146410765.611                                                  
                                
  24270461.600   127542171.358                                                  
                                
  25024596.893   131505158.487                                                  
                                
 21  9  2  7 18 25.0000000  0 19G 1G 7G 8G 9G14G21G27G30R12R13R14R24
                                E 2E 3E 8E11E24E25E36
  22591260.230   118717878.080                    92507445.824    22591260.944  
  22591256.030    88652949.735  
  20308179.052   106720215.791                    83158611.790    20308176.300  
                                
  21162688.310   111210694.017                    86657696.020    21162688.685  
  21162683.038    83046939.038  
  23035959.796   121054790.379                    94328411.579    23035959.546  
  23035956.151    90398048.175  
  23731901.524   124711989.567                    97178172.605    23731899.648  
  23731900.041    93129082.860  
  21586677.268   113438758.481    21586674.230    88393827.366                  
                                
  23487187.435   123426021.670                    96176130.582    23487187.488  
  23487183.343    92168771.707  
  22193852.301   116629483.140                    90880119.044    22193853.266  
  22193848.817    87093431.497  
  23035608.259   123052128.685    23035604.810    95707234.205                  
                                
  20163838.731   107673782.008    20163833.656    83746259.779                  
                                
  21081149.295   112374397.038    21081144.757    87402303.645                  
                                
  19910262.017   106469125.050    19910257.210    82809311.130                  
                                
  24617027.227   129363366.205                                                  
                                
  26402938.364   138748385.347                                                  
                                
  24550596.132   129014257.063                                                  
                                
  23132532.627   121562281.727                                                  
                                
  27861347.568   146412439.731                                                  
                                
  24270544.102   127542604.729                                                  
                                
  25024134.711   131502730.184                                                  
                                
 21  9  2  7 18 26.0000000  0 19G 1G 7G 8G 9G14G21G27G30R12R13R14R24
                                E 2E 3E 8E11E24E25E36
  22590630.311   118714568.045                    92504866.584    22590630.704  
  22590626.076    88650477.960  
  20307969.359   106719113.536                    83157752.895    20307966.160  
                                
  21163122.849   111212978.326                    86659476.008    21163122.724  
  21163117.792    83048644.858  
  23036518.614   121057728.387                    94330700.934    23036518.114  
  23036515.255    90400242.148  
  23731474.973   124709747.167                    97176425.280    23731472.918  
  23731473.222    93127408.338  
  21586435.446   113437485.420    21586432.051    88392835.371                  
                                
  23487843.210   123429468.420                    96178816.366    23487843.264  
  23487839.333    92171345.574  
  22193332.938   116626753.058                    90877991.712    22193333.814  
  22193329.418    87091392.796  
  23036064.294   123054561.917    23036060.452    95709126.700                  
                                
  20163904.739   107674137.935    20163900.254    83746536.611                  
                                
  21080707.537   112372042.538    21080702.981    87400472.369                  
                                
  19909791.061   106466608.912    19909786.719    82807354.133                  
                                
  24616807.348   129362210.479                                                  
                                
  26403398.384   138750802.904                                                  
                                
  24550713.746   129014875.709                                                  
                                
  23132535.879   121562299.275                                                  
                                
  27861666.065   146414113.960                                                  
                                
  24270626.406   127543038.241                                                  
                                
  25023672.779   131500302.213                                                  
                                
 21  9  2  7 18 27.0000000  0 19G 1G 7G 8G 9G14G21G27G30R12R13R14R24
                                E 2E 3E 8E11E24E25E36
  22590000.642   118711258.234                    92502287.505    22590001.125  
  22589996.300    88648006.350  
  20307759.666   106718011.783                    83156894.395    20307756.235  
                                
  21163557.602   111215263.023                    86661256.282    21163557.620  
  21163552.545    83050350.957  
  23037077.807   121060666.586                    94332990.439    23037077.057  
  23037074.448    90402436.251  
  23731048.028   124707504.832                    97174678.001    23731046.438  
  23731046.563    93125733.865  
  21586193.124   113436212.923    21586189.926    88391843.824                  
                                
  23488498.878   123432915.282                    96181502.216    23488499.754  
  23488495.197    92173919.525  
  22192813.200   116624023.235                    90875864.575    22192814.182  
  22192809.912    87089354.298  
  23036519.454   123056995.404    23036516.112    95711019.415                  
                                
  20163971.373   107674494.226    20163966.780    83746813.726                  
                                
  21080265.940   112369688.148    21080261.419    87398641.174                  
                                
  19909321.088   106464093.467    19909316.406    82805397.681                  
                                
  24616587.577   129361054.793                                                  
                                
  26403858.601   138753220.610                                                  
                                
  24550831.842   129015494.775                                                  
                                
  23132539.256   121562317.307                                                  
                                
  27861984.688   146415788.248                                                  
                                
  24270708.908   127543471.841                                                  
                                
  25023210.847   131497874.535                                                  
                                
 21  9  2  7 18 28.0000000  0 19G 1G 7G 8G 9G14G21G27G30R12R13R14R24
                                E 2E 3E 8E11E24E25E36
  22589370.938   118707948.699                    92499708.647    22589370.795  
  22589366.506    88645534.948  
  20307550.241   106716910.566                    83156036.302    20307546.435  
                                
  21163992.445   111217548.119                    86663036.874    21163992.391  
  21163987.334    83052057.368  
  23037636.697   121063605.049                    94335280.141    23037636.804  
  23037633.677    90404630.558  
  23730621.584   124705262.573                    97172930.807    23730618.975  
  23730619.815    93124059.470  
  21585950.749   113434941.010    21585947.961    88390852.718                  
                                
  23489154.904   123436362.293                    96184188.213    23489155.386  
  23489151.026    92176493.592  
  22192294.069   116621293.719                    90873737.680    22192294.909  
  22192290.584    87087316.021  
  23036974.917   123059429.184    23036971.665    95712912.343                  
                                
  20164037.756   107674850.946    20164033.628    83747091.175                  
                                
  21079824.808   112367333.898    21079819.786    87396810.100                  
                                
  19908850.704   106461578.775    19908846.076    82803441.802                  
                                
  24616367.556   129359899.175                                                  
                                
  26404318.621   138755638.499                                                  
                                
  24550949.510   129016114.302                                                  
                                
  23132542.616   121562335.859                                                  
                                
  27862303.436   146417462.621                                                  
                                
  24270791.623   127543905.561                                                  
                                
  25022748.915   131495447.183                                                  
                                
 21  9  2  7 18 29.0000000  0 19G 1G 7G 8G 9G14G21G27G30R12R13R14R24
                                E 2E 3E 8E11E24E25E36
  22588741.359   118704639.363                    92497129.941    22588741.895  
  22588736.802    88643063.688  
  20307340.798   106715809.825                    83155178.570    20307337.081  
                                
  21164427.448   111219833.538                    86664817.723    21164427.394  
  21164422.248    83053764.010  
  23038195.729   121066543.679                    94337569.974    23038196.086  
  23038193.031    90406824.974  
  23730194.890   124703020.390                    97171183.622    23730192.674  
  23730193.067    93122385.093  
  21585709.356   113433669.604    21585705.872    88389862.015                  
                                
  23489810.947   123439809.387                    96186874.237    23489811.143  
  23489806.998    92179067.720  
  22191774.455   116618564.415                    90871610.949    22191775.385  
  22191771.096    87085277.911  
  23037430.488   123061863.149    23037427.290    95714805.425                  
                                
  20164104.211   107675207.982    20164100.476    83747368.876                  
                                
  21079383.121   112364979.704    21079378.225    87394979.061                  
                                
  19908380.552   106459064.790    19908376.031    82801486.489                  
                                
  24616147.571   129358743.554                                                  
                                
  26404778.856   138758056.467                                                  
                                
  24551067.731   129016734.222                                                  
                                
  23132546.261   121562354.912                                                  
                                
  27862622.237   146419137.023                                                  
                                
  24270874.143   127544339.340                                                  
                                
  25022286.947   131493020.062                                                  
                                
 21  9  2  7 18 30.0000000  0 19G 1G 7G 8G 9G14G21G27G30R12R13R14R24
                                E 2E 3E 8E11E24E25E36
  22588111.368   118701330.212                    92494551.373    22588112.655  
  22588107.223    88640592.569  
  20307131.069   106714709.531                    83154321.202    20307128.174  
                                
  21164862.595   111222119.271                    86666598.813    21164862.237  
  21164857.216    83055470.880  
  23038755.226   121069482.467                    94339859.941    23038754.922  
  23038752.188    90409019.532  
  23729767.784   124700778.193                    97169436.469    23729765.872  
  23729766.373    93120710.736  
  21585466.927   113432398.730    21585463.907    88388871.721                  
                                
  23490467.365   123443256.539                    96189560.339    23490467.401  
  23490462.845    92181641.890  
  22191255.217   116615835.349                    90869484.411    22191256.075  
  22191251.769    87083239.967  
  23037886.541   123064297.379    23037883.200    95716698.713                  
                                
  20164171.327   107675565.370    20164167.431    83747646.847                  
                                
  21078941.613   112362625.561    21078936.396    87393148.061                  
                                
  19907910.722   106456551.548    19907906.022    82799531.744                  
                                
  24615927.549   129357587.916                                                  
                                
  26405238.876   138760474.549                                                  
                                
  24551185.613   129017354.532                                                  
                                
  23132550.085   121562374.382                                                  
                                
  27862940.681   146420811.437                                                  
                                
  24270956.555   127544773.157                                                  
                                
  25021825.122   131490593.197                                                  
                                
 21  9  2  7 18 31.0000000  0 19G 1G 7G 8G 9G14G21G27G30R12R13R14R24
                                E 2E 3E 8E11E24E25E36
  22587481.664   118698021.286                    92491973.010    22587482.897  
  22587477.518    88638121.629  
  20306921.859   106713609.732                    83153464.221    20306918.767  
                                
  21165297.276   111224405.359                    86668380.183    21165297.169  
  21165292.309    83057178.030  
  23039314.544   121072421.458                    94342150.073    23039314.616  
  23039311.399    90411214.242  
  23729340.947   124698536.081                    97167689.355    23729339.571  
  23729339.625    93119036.423  
  21585225.302   113431128.407    21585222.211    88387881.857                  
                                
  23491123.159   123446703.803                    96192246.516    23491123.534  
  23491118.977    92184216.153  
  22190736.122   116613106.547                    90867358.053    22190736.766  
  22190732.531    87081202.223  
  23038341.969   123066731.914    23038338.878    95718592.240                  
                                
  20164240.033   107675923.131    20164234.458    83747925.099                  
                                
  21078499.873   112360271.531    21078494.906    87391317.149                  
                                
  19907440.570   106454039.071    19907436.263    82797577.595                  
                                
  24615707.707   129356432.309                                                  
                                
  26405699.093   138762892.737                                                  
                                
  24551303.781   129017975.267                                                  
                                
  23132553.712   121562394.366                                                  
                                
  27863259.232   146422485.906                                                  
                                
  24271039.127   127545207.074                                                  
                                
  25021363.279   131488166.620                                                  
                                
 21  9  2  7 18 32.0000000  0 19G 1G 7G 8G 9G14G21G27G30R12R13R14R24
                                E 2E 3E 8E11E24E25E36
  22586852.013   118694712.590                    92489394.784    22586853.246  
  22586847.885    88635650.856  
  20306713.023   106712510.431                    83152607.628    20306709.736  
                                
  21165732.709   111226691.820                    86670161.831    21165731.994  
  21165727.330    83058885.443  
  23039874.023   121075360.669                    94344440.370    23039874.023  
  23039870.807    90413409.105  
  23728914.503   124696294.007                    97165942.289    23728913.037  
  23728912.805    93117362.158  
  21584983.266   113429858.636    21584980.497    88386892.425                  
                                
  23491779.077   123450151.178                    96194932.792    23491779.041  
  23491774.860    92186790.480  
  22190216.652   116610378.000                    90865231.915    22190217.831  
  22190213.310    87079164.672  
  23038798.094   123069166.726    23038794.699    95720485.985                  
                                
  20164306.345   107676281.265    20164301.521    83748203.642                  
                                
  21078058.080   112357917.618    21078053.344    87389486.334                  
                                
  19906970.972   106451527.332    19906966.433    82795624.027                  
                                
  24615487.846   129355276.732                                                  
                                
  26406159.417   138765311.075                                                  
                                
  24551421.895   129018596.402                                                  
                                
  23132557.644   121562414.851                                                  
                                
  27863578.337   146424160.429                                                  
                                
  24271121.789   127545641.064                                                  
                                
  25020901.526   131485740.327                                                  
                                
 21  9  2  7 18 33.0000000  0 19G 1G 7G 8G 9G14G21G27G30R12R13R14R24
                                E 2E 3E 8E11E24E25E36
  22586222.684   118691404.170                    92486816.790    22586223.256  
  22586218.342    88633180.278  
  20306503.902   106711411.674                    83151751.453    20306500.311  
                                
  21166167.802   111228978.668                    86671943.804    21166167.283  
  21166162.566    83060593.163  
  23040432.841   121078300.124                    94346730.865    23040433.324  
  23040430.143    90415604.164  
  23728487.737   124694052.053                    97164195.323    23728486.093  
  23728486.057    93115687.967  
  21584741.677   113428589.467    21584738.764    88385903.464                  
                                
  23492435.245   123453598.712                    96197619.173    23492434.834  
  23492430.957    92189364.935  
  22189697.753   116607649.752                    90863106.012    22189698.397  
  22189694.144    87077127.348  
  23039254.093   123071601.830    23039250.609    95722379.955                  
                                
  20164373.676   107676639.825    20164368.726    83748482.532                  
                                
  21077616.590   112355563.847    21077611.801    87387655.623                  
                                
  19906501.267   106449016.357    19906496.799    82793671.042                  
                                
  24615268.236   129354121.234                                                  
                                
  26406619.580   138767729.589                                                  
                                
  24551539.956   129019218.018                                                  
                                
  23132561.789   121562435.862                                                  
                                
  27863896.709   146425835.060                                                  
                                
  24271204.380   127546075.192                                                  
                                
  25020439.844   131483314.351                                                  
                                
 21  9  2  7 18 34.0000000  0 19G 1G 7G 8G 9G14G21G27G30R12R13R14R24
                                E 2E 3E 8E11E24E25E36
  22585592.908   118688095.961                    92484238.972    22585594.177  
  22585588.941    88630709.858  
  20306294.996   106710313.395                    83150895.654    20306291.493  
                                
  21166603.073   111231265.873                    86673726.040    21166602.948  
  21166597.695    83062301.139  
  23040992.732   121081239.787                    94349021.493    23040992.660  
  23040989.461    90417799.342  
  23728061.864   124691810.143                    97162448.367    23728059.720  
  23728059.559    93114013.803  
  21584500.963   113427320.837    21584497.336    88384914.917                  
                                
  23493091.128   123457046.319                    96200305.613    23493091.628  
  23493087.000    92191939.454  
  22189178.712   116604921.748                    90860980.292    22189179.176  
  22189175.049    87075090.198  
  23039709.789   123074037.123    23039706.412    95724274.057                  
                                
  20164440.953   107676998.728    20164436.039    83748761.667                  
                                
  21077175.046   112353210.118    21077170.150    87385824.940                  
                                
  19906031.901   106446506.060    19906027.452    82791718.596                  
                                
  24615048.125   129352965.734                                                  
                                
  26407079.725   138770148.217                                                  
                                
  24551658.570   129019840.033                                                  
                                
  23132565.845   121562457.354                                                  
                                
  27864215.367   146427509.714                                                  
                                
  24271287.006   127546509.382                                                  
                                
  25019978.215   131480888.650                                                  
                                
 21  9  2  7 18 35.0000000  0 19G 1G 7G 8G 9G14G21G27G30R12R13R14R24
                                E 2E 3E 8E11E24E25E36
  22584963.597   118684787.963                    92481661.309    22584964.347  
  22584959.398    88628239.598  
  20306086.125   106709215.586                    83150040.225    20306082.658  
                                
  21167038.291   111233553.408                    86675508.542    21167037.987  
  21167033.091    83064009.367  
  23041552.461   121084179.634                    94351312.273    23041552.175  
  23041548.905    90419994.681  
  23727634.455   124689568.263                    97160701.447    23727632.883  
  23727632.936    93112339.673  
  21584259.642   113426052.721    21584255.872    88383926.786                  
                                
  23493747.296   123460494.020                    96202992.138    23493747.028  
  23493743.097    92194514.038  
  22188659.652   116602193.987                    90858854.760    22188660.421  
  22188655.989    87073053.228  
  23040166.039   123076472.639    23040162.322    95726168.361                  
                                
  20164507.282   107677357.982    20164503.226    83749041.096                  
                                
  21076733.234   112350856.436    21076728.696    87383994.294                  
                                
  19905562.375   106443996.500    19905558.175    82789766.718                  
                                
  24614828.336   129351810.257                                                  
                                
  26407539.709   138772566.945                                                  
                                
  24551776.988   129020462.456                                                  
                                
  23132570.080   121562479.310                                                  
                                
  27864533.954   146429184.416                                                  
                                
  24271369.704   127546943.631                                                  
                                
  25019516.766   131478463.206                                                  
                                
 21  9  2  7 18 36.0000000  0 19G 1G 7G 8G 9G14G21G27G30R12R13R14R24
                                E 2E 3E 8E11E24E25E36
  22584334.232   118681480.194                    92479083.826    22584335.233  
  22584329.961    88625769.521  
  20305876.843   106708118.299                    83149185.198    20305873.537  
                                
  21167473.491   111235841.307                    86677291.327    21167473.527  
  21167468.470    83065717.867  
  23042111.332   121087119.688                    94353603.230    23042111.154  
  23042108.491    90422190.182  
  23727208.386   124687326.461                    97158954.587    23727206.742  
  23727206.385    93110665.614  
  21584018.178   113424785.189    21584014.604    88382939.092                  
                                
  23494403.071   123463941.845                    96205678.766    23494403.572  
  23494399.069    92197088.714  
  22188140.700   116599466.511                    90856729.450    22188141.272  
  22188137.001    87071016.472  
  23040622.199   123078908.489    23040618.340    95728062.907                  
                                
  20164574.631   107677717.640    20164570.682    83749320.825                  
                                
  21076291.619   112348502.879    21076287.295    87382163.757                  
                                
  19905093.402   106441487.723    19905088.988    82787815.445                  
                                
  24614608.619   129350654.815                                                  
                                
  26408000.051   138774985.834                                                  
                                
  24551895.585   129021085.313                                                  
                                
  23132574.369   121562501.787                                                  
                                
  27864852.273   146430859.191                                                  
                                
  24271452.241   127547377.996                                                  
                                
  25019055.245   131476038.066                                                  
                                
 21  9  2  7 18 37.0000000  0 19G 1G 7G 8G 9G14G21G27G30R12R13R14R24
                                E 2E 3E 8E11E24E25E36
  22583704.563   118678172.633                    92476506.511    22583705.493  
  22583700.543    88623299.594  
  20305668.240   106707021.484                    83148330.535    20305664.666  
                                
  21167909.227   111238129.560                    86679074.374    21167908.780  
  21167903.849    83067426.619  
  23042670.937   121090059.920                    94355894.322    23042670.829  
  23042667.899    90424385.808  
  23726781.674   124685084.701                    97157207.765    23726780.298  
  23726779.708    93108991.559  
  21583777.590   113423518.182    21583773.462    88381951.816                  
                                
  23495059.347   123467389.751                    96208365.439    23495059.955  
  23495055.130    92199663.451  
  22187621.480   116596739.247                    90854604.302    22187622.106  
  22187617.996    87068979.885  
  23041076.805   123081344.619    23041074.411    95729957.679                  
                                
  20164642.676   107678077.622    20164638.066    83749600.807                  
                                
  21075850.433   112346149.406    21075845.805    87380333.283                  
                                
  19904624.108   106438979.690    19904619.891    82785864.756                  
                                
  24614388.633   129349499.375                                                  
                                
  26408460.446   138777404.811                                                  
                                
  24552013.967   129021708.569                                                  
                                
  23132578.658   121562524.720                                                  
                                
  27865171.128   146432533.977                                                  
                                
  24271534.903   127547812.412                                                  
                                
  25018593.831   131473613.182                                                  
                                
 21  9  2  7 18 38.0000000  0 19G 1G 7G 8G 9G14G21G27G30R12R13R14R24
                                E 2E 3E 8E11E24E25E36
  22583074.966   118674865.287                    92473929.365    22583075.931  
  22583071.303    88620829.831  
  20305459.565   106705925.156                    83147476.252    20305456.295  
                                
  21168344.660   111240418.157                    86680857.690    21168344.338  
  21168339.299    83069135.632  
  23043230.487   121093000.378                    94358185.577    23043230.308  
  23043227.574    90426581.604  
  23726354.837   124682842.994                    97155460.980    23726353.479  
  23726353.085    93107317.559  
  21583536.340   113422251.712    21583532.266    88380964.961                  
                                
  23495715.551   123470837.751                    96211052.193    23495715.426  
  23495711.406    92202238.255  
  22187102.510   116594012.232                    90852479.373    22187103.475  
  22187099.097    87066943.481  
  23041533.287   123083780.994    23041530.696    95731852.642                  
                                
  20164710.239   107678437.971    20164705.450    83749881.090                  
                                
  21075408.729   112343796.052    21075404.190    87378502.906                  
                                
  19904155.582   106436472.411    19904151.061    82783914.653                  
                                
  24614168.773   129348343.951                                                  
                                
  26408920.467   138779823.924                                                  
                                
  24552132.814   129022332.245                                                  
                                
  23132583.214   121562548.143                                                  
                                
  27865489.679   146434208.817                                                  
                                
  24271617.619   127548246.910                                                  
                                
  25018132.310   131471188.573                                                  
                                
 21  9  2  7 18 39.0000000  0 19G 1G 7G 8G 9G14G21G27G30R12R13R14R24
                                E 2E 3E 8E11E24E25E36
  22582445.780   118671558.205                    92471352.422    22582446.799  
  22582441.938    88618360.255  
  20305251.498   106704829.345                    83146622.382    20305247.907  
                                
  21168780.110   111242707.126                    86682641.298    21168780.181  
  21168774.892    83070844.925  
  23043790.056   121095941.030                    94360477.015    23043789.716  
  23043786.964    90428777.552  
  23725928.428   124680601.375                    97153714.264    23725926.874  
  23725926.606    93105643.618  
  21583295.448   113420985.835    21583291.231    88379978.554                  
                                
  23496371.487   123474285.898                    96213739.051    23496371.862  
  23496367.538    92204813.176  
  22186583.558   116591285.524                    90850354.655    22186584.344  
  22186580.127    87064907.302  
  23041989.483   123086217.647    23041986.928    95733747.807                  
                                
  20164778.266   107678798.735    20164772.905    83750161.677                  
                                
  21074967.900   112341442.826    21074962.664    87376672.623                  
                                
  19903686.770   106433965.853    19903682.321    82781965.110                  
                                
  24613948.769   129347188.603                                                  
                                
  26409380.880   138782243.200                                                  
                                
  24552251.465   129022956.356                                                  
                                
  23132587.664   121562572.100                                                  
                                
  27865808.480   146435883.753                                                  
                                
  24271700.174   127548681.522                                                  
                                
  25017671.074   131468764.273                                                  
                                
 21  9  2  7 18 40.0000000  0 19G 1G 7G 8G 9G14G21G27G30R12R13R14R24
                                E 2E 3E 8E11E24E25E36
  22581816.594   118668251.363                    92468775.658    22581817.005  
  22581812.752    88615890.858  
  20305042.949   106703734.057                    83145768.903    20305039.268  
                                
  21169215.971   111244996.477                    86684425.215    21169215.739  
  21169210.592    83072554.510  
  23044349.803   121098881.914                    94362768.601    23044349.499  
  23044346.658    90430973.671  
  23725501.537   124678359.826                    97151967.602    23725500.286  
  23725500.054    93103969.746  
  21583054.359   113419720.516    21583050.571    88378992.595                  
                                
  23497027.602   123477734.163                    96216426.029    23497027.924  
  23497023.617    92207388.170  
  22186065.017   116588559.073                    90848230.142    22186065.642  
  22186061.425    87062871.306  
  23042446.037   123088654.541    23042443.232    95735643.165                  
                                
  20164845.186   107679159.865    20164840.611    83750442.561                  
                                
  21074526.214   112339089.701    21074521.335    87374842.403                  
                                
  19903218.513   106431460.014    19903213.759    82780016.120                  
                                
  24613728.945   129346033.281                                                  
                                
  26409841.293   138784662.597                                                  
                                
  24552370.294   129023580.909                                                  
                                
  23132592.542   121562596.544                                                  
                                
  27866127.192   146437558.727                                                  
                                
  24271783.015   127549116.223                                                  
                                
  25017209.929   131466340.271                                                  
                                
 21  9  2  7 18 41.0000000  0 19G 1G 7G 8G 9G14G21G27G30R12R13R14R24
                                E 2E 3E 8E11E24E25E36
  22581187.783   118664944.712                    92466199.040    22581188.677  
  22581183.548    88613421.601  
  20304834.578   106702639.208                    83144915.779    20304830.826  
                                
  21169651.546   111247286.140                    86686209.376    21169651.117  
  21169646.257    83074264.329  
  23044909.318   121101822.970                    94365060.336    23044909.318  
  23044906.387    90433169.910  
  23725075.254   124676118.286                    97150220.968    23725073.753  
  23725073.485    93102295.870  
  21582813.681   113418455.701    21582809.982    88378007.021                  
                                
  23497684.092   123481182.480                    96219113.036    23497684.235  
  23497679.786    92209963.223  
  22185546.136   116585832.841                    90846105.808    22185546.565  
  22185542.652    87060835.493  
  23042902.573   123091091.653    23042899.392    95737538.685                  
                                
  20164912.999   107679521.332    20164908.388    83750723.697                  
                                
  21074084.545   112336736.606    21074079.899    87373012.225                  
                                
  19902749.987   106428954.891    19902745.216    82778067.691                  
                                
  24613509.156   129344877.945                                                  
                                
  26410301.831   138787082.088                                                  
                                
  24552489.301   129024205.823                                                  
                                
  23132597.223   121562621.466                                                  
                                
  27866445.850   146439233.713                                                  
                                
  24271865.802   127549550.961                                                  
                                
  25016748.676   131463916.499                                                  
                                
 21  9  2  7 18 42.0000000  0 19G 1G 7G 8G 9G14G21G27G30R12R13R14R24
                                E 2E 3E 8E11E24E25E36
  22580558.257   118661638.308                    92463622.609    22580558.829  
  22580554.469    88610952.533  
  20304626.315   106701544.891                    83144063.055    20304622.955  
                                
  21170087.479   111249576.186                    86687993.826    21170086.997  
  21170082.065    83075974.433  
  23045469.136   121104764.259                    94367352.240    23045468.779  
  23045466.134    90435366.314  
  23724649.078   124673876.845                    97148474.385    23724646.540  
  23724646.915    93100622.052  
  21582573.557   113417191.418    21582569.233    88377021.867                  
                                
  23498340.493   123484630.933                    96221800.135    23498340.993  
  23498336.008    92212538.357  
  22185027.309   116583106.891                    90843981.687    22185028.149  
  22185023.896    87058799.876  
  23043359.073   123093529.084    23043355.570    95739434.460                  
                                
  20164980.329   107679883.169    20164976.058    83751005.121                  
                                
  21073643.448   112334383.606    21073638.623    87371182.114                  
                                
  19902281.622   106426450.543    19902276.904    82776119.862                  
                                
  24613289.313   129343722.658                                                  
                                
  26410762.066   138789501.743                                                  
                                
  24552608.273   129024831.201                                                  
                                
  23132602.084   121562646.884                                                  
                                
  27866764.973   146440908.790                                                  
                                
  24271948.535   127549985.820                                                  
                                
  25016287.422   131461493.047                                                  
                                
 21  9  2  7 18 43.0000000  0 19G 1G 7G 8G 9G14G21G27G30R12R13R14R24
                                E 2E 3E 8E11E24E25E36
  22579929.339   118658332.153                    92461046.403    22579929.911  
  22579925.283    88608483.657  
  20304418.123   106700451.096                    83143210.754    20304414.692  
                                
  21170523.144   111251866.658                    86689778.604    21170522.965  
  21170517.890    83077684.842  
  23046029.098   121107705.777                    94369644.327    23046028.526  
  23046025.721    90437562.904  
  23724222.222   124671635.484                    97146727.863    23724220.882  
  23724220.364    93098948.322  
  21582333.094   113415927.738    21582328.662    88376037.171                  
                                
  23498996.322   123488079.517                    96224487.348    23498996.679  
  23498992.355    92215113.623  
  22184508.500   116580381.246                    90841857.817    22184509.590  
  22184505.176    87056764.490  
  23043814.929   123095966.778    23043811.945    95741330.448                  
                                
  20165048.571   107680245.436    20165043.943    83751286.893                  
                                
  21073202.190   112332030.722    21073197.223    87369352.098                  
                                
  19901813.507   106423947.006    19901808.790    82774172.671                  
                                
  24613069.578   129342567.434                                                  
                                
  26411222.658   138791921.560                                                  
                                
  24552727.299   129025457.025                                                  
                                
  23132606.766   121562672.819                                                  
                                
  27867083.685   146442583.947                                                  
                                
  24272031.090   127550420.796                                                  
                                
  25015826.330   131459069.903                                                  
                                
 21  9  2  7 18 44.0000000  0 19G 1G 7G 8G 9G14G21G27G30R12R13R14R24
                                E 2E 3E 8E11E24E25E36
  22579300.010   118655026.159                    92458470.320    22579300.671  
  22579296.293    88606014.898  
  20304210.306   106699357.726                    83142358.776    20304206.518  
                                
  21170959.076   111254157.391                    86691563.593    21170958.701  
  21170953.823    83079395.461  
  23046588.666   121110647.408                    94371936.512    23046588.773  
  23046585.468    90439759.575  
  23723795.939   124669394.117                    97144981.343    23723794.349  
  23723793.884    93097274.574  
  21582092.487   113414664.538    21582088.270    88375052.863                  
                                
  23499652.615   123491528.160                    96227174.598    23499653.080  
  23499648.505    92217688.887  
  22183989.851   116577655.783                    90839734.064    22183990.352  
  22183986.546    87054729.237  
  23044271.572   123098404.680    23044268.266    95743226.590                  
                                
  20165116.956   107680607.973    20165111.934    83751568.860                  
                                
  21072760.629   112329677.871    21072755.822    87367522.100                  
                                
  19901345.160   106421444.120    19901340.746    82772225.980                  
                                
  24612849.735   129341412.174                                                  
                                
  26411683.035   138794341.426                                                  
                                
  24552846.735   129026083.189                                                  
                                
  23132612.001   121562699.191                                                  
                                
  27867402.611   146444259.071                                                  
                                
  24272113.878   127550855.773                                                  
                                
  25015365.220   131456646.961                                                  
                                
 21  9  2  7 18 45.0000000  0 19G 1G 7G 8G 9G14G21G27G30R12R13R14R24
                                E 2E 3E 8E11E24E25E36
  22578671.038   118651720.427                    92455894.416    22578671.896  
  22578667.214    88603546.327  
  20304002.221   106698264.867                    83141507.208    20303998.469  
                                
  21171394.723   111256448.523                    86693348.882    21171395.063  
  21171389.845    83081106.367  
  23047148.413   121113589.278                    94374228.883    23047148.253  
  23047145.251    90441956.441  
  23723369.298   124667152.839                    97143234.892    23723367.601  
  23723367.261    93095600.883  
  21581851.881   113413401.915    21581848.075    88374068.994                  
                                
  23500309.105   123494976.914                    96229861.935    23500308.712  
  23500304.763    92220264.262  
  22183471.596   116574930.599                    90837610.550    22183471.703  
  22183468.022    87052694.195  
  23044727.822   123100842.889    23044724.713    95745122.984                  
                                
  20165184.643   107680970.941    20165179.908    83751851.173                  
                                
  21072318.817   112327325.163    21072314.422    87365692.216                  
                                
  19900877.081   106418941.993    19900872.828    82770279.884                  
                                
  24612629.946   129340256.943                                                  
                                
  26412143.717   138796761.445                                                  
                                
  24552965.957   129026709.800                                                  
                                
  23132617.112   121562726.067                                                  
                                
  27867721.413   146445934.321                                                  
                                
  24272196.629   127551290.872                                                  
                                
  25014903.949   131454224.348                                                  
                                
 21  9  2  7 18 46.0000000  0 19G 1G 7G 8G 9G14G21G27G30R12R13R14R24
                                E 2E 3E 8E11E24E25E36
  22578041.674   118648414.905                    92453318.671    22578043.371  
  22578038.225    88601077.925  
  20303794.369   106697172.489                    83140656.016    20303790.831  
                                
  21171830.906   111258739.967                    86695134.429    21171830.781  
  21171825.867    83082817.516  
  23047708.303   121116531.344                    94376521.404    23047708.357  
  23047705.159    90444153.432  
  23722942.908   124664911.577                    97141488.480    23722940.406  
  23722940.853    93093927.222  
  21581611.400   113412139.814    21581607.915    88373085.551                  
                                
  23500965.309   123498425.763                    96232549.358    23500965.488  
  23500961.074    92222839.707  
  22182953.091   116572205.650                    90835487.209    22182953.448  
  22182949.481    87050659.335  
  23045183.821   123103281.317    23045181.177    95747019.539                  
                                
  20165252.403   107681334.260    20165247.882    83752133.757                  
                                
  21071877.578   112324972.538    21071873.164    87363862.401                  
                                
  19900409.073   106416440.573    19900405.089    82768334.340                  
                                
  24612410.246   129339101.744                                                  
                                
  26412604.273   138799181.582                                                  
                                
  24553085.197   129027336.818                                                  
                                
  23132622.329   121562753.413                                                  
                                
  27868039.839   146447609.565                                                  
                                
  24272279.327   127551726.039                                                  
                                
  25014443.232   131451801.975                                                  
                                
 21  9  2  7 18 47.0000000  0 19G 1G 7G 8G 9G14G21G27G30R12R13R14R24
                                E 2E 3E 8E11E24E25E36
  22577413.059   118645109.628                    92450743.155    22577413.881  
  22577409.325    88598609.705  
  20303586.141   106696080.637                    83139805.206    20303582.907  
                                
  21172267.160   111261031.803                    86696920.271    21172267.053  
  21172262.050    83084528.950  
  23048267.622   121119473.642                    94378814.104    23048268.301  
  23048265.102    90446350.601  
  23722516.213   124662670.413                    97139742.111    23722513.997  
  23722514.462    93092253.632  
  21581371.847   113410878.298    21581367.952    88372102.544                  
                                
  23501622.121   123501874.734                    96235236.857    23501621.299  
  23501617.475    92225415.236  
  22182434.478   116569480.997                    90833364.102    22182435.157  
  22182430.958    87048624.689  
  23045639.767   123105719.998    23045637.605    95748916.300                  
                                
  20165320.645   107681697.963    20165315.999    83752416.646                  
                                
  21071436.248   112322620.023    21071431.692    87362032.668                  
                                
  19899941.834   106413939.918    19899937.528    82766389.381                  
                                
  24612190.297   129337946.584                                                  
                                
  26413064.954   138801601.865                                                  
                                
  24553204.455   129027964.282                                                  
                                
  23132627.297   121562781.308                                                  
                                
  27868358.586   146449284.898                                                  
                                
  24272362.275   127552161.309                                                  
                                
  25013982.408   131449379.928                                                  
                                
 21  9  2  7 18 48.0000000  0 19G 1G 7G 8G 9G14G21G27G30R12R13R14R24
                                E 2E 3E 8E11E24E25E36
  22576783.944   118641804.550                    92448167.751    22576785.142  
  22576780.317    88596141.629  
  20303378.664   106694989.230                    83138954.764    20303375.179  
                                
  21172703.182   111263323.933                    86698706.351    21172703.200  
  21172698.179    83086240.608  
  23048828.030   121122416.099                    94381106.922    23048828.530  
  23048825.082    90448547.890  
  23722089.715   124660429.304                    97137995.774    23722087.946  
  23722087.928    93090580.057  
  21581131.795   113409617.280    21581127.971    88371119.928                  
                                
  23502278.522   123505323.777                    96237924.415    23502277.825  
  23502273.679    92227990.819  
  22181916.026   116566756.558                    90831241.159    22181916.652  
  22181912.524    87046590.208  
  23046097.161   123108158.941    23046094.105    95750813.254                  
                                
  20165388.726   107682062.031    20165384.223    83752699.801                  
                                
  21070994.991   112320267.577    21070990.541    87360202.980                  
                                
  19899474.184   106411440.006    19899469.788    82764445.005                  
                                
  24611970.383   129336791.418                                                  
                                
  26413525.635   138804022.233                                                  
                                
  24553323.981   129028592.131                                                  
                                
  23132632.658   121562809.637                                                  
                                
  27868677.191   146450960.245                                                  
                                
  24272445.080   127552596.617                                                  
                                
  25013521.423   131446958.108                                                  
                                
 21  9  2  7 18 49.0000000  0 19G 1G 7G 8G 9G14G21G27G30R12R13R14R24
                                E 2E 3E 8E11E24E25E36
  22576155.419   118638499.712                    92445592.563    22576156.081  
  22576151.363    88593673.729  
  20303171.294   106693898.346                    83138104.732    20303167.881  
                                
  21173139.490   111265616.450                    86700492.735    21173139.705  
  21173134.362    83087952.551  
  23049388.367   121125358.790                    94383399.926    23049388.117  
  23049385.007    90450745.354  
  23721663.432   124658188.210                    97136249.492    23721661.574  
  23721661.466    93088906.541  
  21580891.868   113408356.867    21580888.133    88370137.793                  
                                
  23502934.315   123508772.936                    96240612.077    23502934.797  
  23502930.116    92230566.495  
  22181397.556   116564032.404                    90829118.432    22181398.003  
  22181394.143    87044555.926  
  23046553.464   123110598.192    23046550.802    95752710.446                  
                                
  20165456.628   107682426.492    20165452.411    83752983.268                  
                                
  21070553.340   112317915.250    21070549.194    87358373.392                  
                                
  19899006.855   106408940.895    19899002.477    82762501.254                  
                                
  24611750.504   129335636.293                                                  
                                
  26413985.959   138806442.772                                                  
                                
  24553443.400   129029220.411                                                  
                                
  23132638.340   121562838.483                                                  
                                
  27868996.046   146452635.644                                                  
                                
  24272527.921   127553032.042                                                  
                                
  25013060.759   131444536.612                                                  
                                
 21  9  2  7 18 50.0000000  0 19G 1G 7G 8G 9G14G21G27G30R12R13R14R24
                                E 2E 3E 8E11E24E25E36
  22575526.680   118635195.162                    92443017.568    22575526.823  
  22575522.570    88591206.035  
  20302963.763   106692808.005                    83137255.113    20302960.439  
                                
  21173575.691   111267909.367                    86702279.419    21173575.423  
  21173570.670    83089664.791  
  23049948.150   121128301.707                    94385693.113    23049948.328  
  23049944.987    90452942.985  
  23721237.006   124655947.263                    97134503.300    23721234.700  
  23721234.986    93087233.098  
  21580651.833   113407097.035    21580648.402    88369156.108                  
                                
  23503590.608   123512222.242                    96243299.864    23503591.055  
  23503586.498    92233142.280  
  22180879.122   116561308.546                    90826995.957    22180879.784  
  22180875.870    87042521.881  
  23047010.911   123113037.809    23047007.588    95754607.920                  
                                
  20165525.209   107682791.358    20165520.796    83753267.051                  
                                
  21070112.815   112315563.068    21070107.883    87356543.911                  
                                
  19898539.527   106406442.506    19898535.292    82760558.061                  
                                
  24611530.769   129334481.244                                                  
                                
  26414446.676   138808863.460                                                  
                                
  24553563.480   129029849.155                                                  
                                
  23132643.897   121562867.851                                                  
                                
  27869314.865   146454311.182                                                  
                                
  24272610.761   127553467.581                                                  
                                
  25012599.917   131442115.425                                                  
                                
 21  9  2  7 18 51.0000000  0 19G 1G 7G 8G 9G14G21G27G30R12R13R14R24
                                E 2E 3E 8E11E24E25E36
  22574897.941   118631890.736                    92440442.708    22574898.780  
  22574893.741    88588738.450  
  20302756.250   106691718.074                    83136405.816    20302752.980  
                                
  21174011.981   111270202.536                    86704066.315    21174012.267  
  21174007.103    83091377.233  
  23050507.933   121131244.748                    94387986.396    23050508.308  
  23050504.984    90455140.723  
  23720810.615   124653706.274                    97132757.073    23720808.328  
  23720808.631    93085559.641  
  21580412.620   113405837.679    21580408.743    88368174.793                  
                                
  23504246.955   123515671.575                    96245987.639    23504247.134  
  23504242.863    92235718.067  
  22180361.028   116558584.856                    90824873.601    22180361.135  
  22180357.526    87040487.965  
  23047467.501   123115477.516    23047464.356    95756505.483                  
                                
  20165593.826   107683156.502    20165589.127    83753551.059                  
                                
  21069671.450   112313210.869    21069666.679    87354714.427                  
                                
  19898072.949   106403944.754    19898068.142    82758615.364                  
                                
  24611311.034   129333326.131                                                  
                                
  26414907.375   138811284.195                                                  
                                
  24553683.131   129030478.236                                                  
                                
  23132649.562   121562897.639                                                  
                                
  27869633.630   146455986.661                                                  
                                
  24272693.763   127553903.133                                                  
                                
  25012139.111   131439694.444                                                  
                                
 21  9  2  7 18 52.0000000  0 19G 1G 7G 8G 9G14G21G27G30R12R13R14R24
                                E 2E 3E 8E11E24E25E36
  22574268.594   118628586.638                    92437868.078    22574270.130  
  22574265.056    88586271.111  
  20302548.862   106690628.722                    83135556.979    20302545.789  
                                
  21174448.468   111272496.180                    86705853.572    21174448.503  
  21174443.572    83093090.011  
  23051068.091   121134188.088                    94390279.912    23051068.341  
  23051065.053    90457338.671  
  23720384.153   124651465.450                    97131010.983    23720382.312  
  23720382.223    93083886.308  
  21580173.033   113404578.979    21580169.083    88367193.991                  
                                
  23504903.142   123519121.095                    96248675.593    23504903.285  
  23504899.246    92238294.018  
  22179842.987   116555861.523                    90822751.542    22179843.202  
  22179839.199    87038454.310  
  23047924.268   123117917.575    23047921.124    95758403.295                  
                                
  20165662.318   107683522.150    20165657.494    83753835.452                  
                                
  21069229.835   112310858.851    21069225.421    87352885.087                  
                                
  19897605.745   106401447.843    19897601.350    82756673.327                  
                                
  24611091.155   129332171.144                                                  
                                
  26415367.914   138813705.171                                                  
                                
  24553802.960   129031107.828                                                  
                                
  23132655.387   121562928.004                                                  
                                
  27869952.682   146457662.284                                                  
                                
  24272776.675   127554338.857                                                  
                                
  25011678.751   131437273.841                                                  
                                
 21  9  2  7 18 53.0000000  0 19G 1G 7G 8G 9G14G21G27G30R12R13R14R24
                                E 2E 3E 8E11E24E25E36
  22573640.122   118625282.669                    92435293.570    22573640.730  
  22573636.316    88583803.861  
  20302341.742   106689539.783                    83134708.456    20302338.293  
                                
  21174884.954   111274790.073                    86707641.010    21174885.437  
  21174880.058    83094802.990  
  23051628.285   121137131.545                    94392573.513    23051628.195  
  23051625.175    90459536.703  
  23719957.816   124649224.591                    97129264.857    23719955.439  
  23719955.904    93082212.923  
  21579933.570   113403320.735    21579929.656    88366213.545                  
                                
  23505559.810   123522570.660                    96251363.545    23505560.203  
  23505555.754    92240869.983  
  22179324.714   116553138.373                    90820629.592    22179324.643  
  22179321.087    87036420.782  
  23048381.108   123120357.783    23048377.981    95760301.240                  
                                
  20165730.417   107683888.034    20165726.021    83754120.018                  
                                
  21068788.935   112308506.834    21068784.289    87351055.743                  
                                
  19897138.792   106398951.607    19897134.486    82754731.806                  
                                
  24610871.545   129331016.092                                                  
                                
  26415828.541   138816126.152                                                  
                                
  24553922.933   129031737.757                                                  
                                
  23132661.266   121562958.766                                                  
                                
  27870271.483   146459337.869                                                  
                                
  24272859.606   127554774.564                                                  
                                
  25011218.195   131434853.423                                                  
                                
 21  9  2  7 18 54.0000000  0 19G 1G 7G 8G 9G14G21G27G30R12R13R14R24
                                E 2E 3E 8E11E24E25E36
  22573011.740   118621979.011                    92432719.282    22573012.562  
  22573007.720    88581336.835  
  20302134.658   106688451.394                    83133860.362    20302130.959  
                                
  21175321.691   111277084.389                    86709428.785    21175322.227  
  21175316.670    83096516.267  
  23052188.085   121140075.269                    94394867.326    23052188.854  
  23052185.477    90461734.939  
  23719531.336   124646983.838                    97127518.824    23719529.585  
  23719529.424    93080539.651  
  21579694.375   113402063.109    21579690.426    88365233.575                  
                                
  23506216.175   123526020.368                    96254051.632    23506216.461  
  23506212.190    92243446.064  
  22178806.405   116550415.525                    90818507.902    22178806.727  
  22178802.903    87034387.486  
  23048837.787   123122798.361    23048834.874    95762199.460                  
                                
  20165799.034   107684254.376    20165794.746    83754404.956                  
                                
  21068347.731   112306154.980    21068343.067    87349226.525                  
                                
  19896671.946   106396456.222    19896667.908    82752790.949                  
                                
  24610651.738   129329861.122                                                  
                                
  26416289.473   138818547.339                                                  
                                
  24554043.084   129032368.162                                                  
                                
  23132667.181   121562990.112                                                  
                                
  27870590.463   146461013.583                                                  
                                
  24272942.714   127555210.427                                                  
                                
  25010757.514   131432433.345                                                  
                                
 21  9  2  7 18 55.0000000  0 19G 1G 7G 8G 9G14G21G27G30R12R13R14R24
                                E 2E 3E 8E11E24E25E36
  22572382.751   118618675.588                    92430145.200    22572383.662  
  22572379.034    88578870.005  
  20301927.735   106687363.547                    83133012.685    20301924.179  
                                
  21175758.571   111279379.081                    86711216.847    21175758.517  
  21175753.335    83098229.833  
  23052748.351   121143019.213                    94397161.307    23052748.958  
  23052745.563    90463933.337  
  23719105.035   124644743.198                    97125772.860    23719102.604  
  23719103.105    93078866.429  
  21579455.127   113400806.050    21579451.142    88364254.037                  
                                
  23506873.076   123529470.211                    96256739.824    23506872.862  
  23506868.609    92246022.261  
  22178288.543   116547692.979                    90816386.435    22178288.650  
  22178284.898    87032354.416  
  23049295.198   123125239.217    23049291.838    95764097.901                  
                                
  20165868.437   107684621.121    20165863.380    83754690.200                  
                                
  21067906.509   112303803.269    21067901.952    87347397.419                  
                                
  19896206.029   106393961.599    19896201.401    82750850.688                  
                                
  24610432.253   129328706.223                                                  
                                
  26416750.261   138820968.705                                                  
                                
  24554163.236   129032999.006                                                  
                                
  23132673.292   121563021.951                                                  
                                
  27870909.425   146462689.364                                                  
                                
  24273025.662   127555646.406                                                  
                                
  25010297.083   131430013.599                                                  
                                
 21  9  2  7 18 56.0000000  0 19G 1G 7G 8G 9G14G21G27G30R12R13R14R24
                                E 2E 3E 8E11E24E25E36
  22571754.511   118615372.332                    92427571.228    22571754.869  
  22571750.419    88576403.288  
  20301720.722   106686276.107                    83132165.334    20301717.416  
                                
  21176195.129   111281674.040                    86713005.142    21176195.290  
  21176190.036    83099943.619  
  23053308.777   121145963.299                    94399455.399    23053308.973  
  23053305.775    90466131.855  
  23718678.751   124642502.553                    97124026.905    23718676.249  
  23718676.768    93077193.222  
  21579216.039   113399549.484    21579212.233    88363274.899                  
                                
  23507529.334   123532920.090                    96259428.056    23507529.674  
  23507525.099    92248598.460  
  22177770.234   116544970.626                    90814265.126    22177770.717  
  22177766.821    87030321.490  
  23049752.645   123127680.290    23049748.874    95765996.509                  
                                
  20165936.572   107684988.153    20165932.069    83754975.671                  
                                
  21067465.466   112301451.605    21067460.713    87345568.340                  
                                
  19895739.487   106391467.612    19895734.948    82748910.916                  
                                
  24610212.160   129327551.274                                                  
                                
  26417210.889   138823390.092                                                  
                                
  24554283.083   129033630.212                                                  
                                
  23132679.439   121563054.235                                                  
                                
  27871228.476   146464365.154                                                  
                                
  24273108.682   127556082.401                                                  
                                
  25009836.705   131427594.046                                                  
                                
 21  9  2  7 18 57.0000000  0 19G 1G 7G 8G 9G14G21G27G30R12R13R14R24
                                E 2E 3E 8E11E24E25E36
  22571125.772   118612069.303                    92424997.427    22571126.648  
  22571121.966    88573936.742  
  20301513.906   106685189.170                    83131318.370    20301510.261  
                                
  21176631.919   111283969.374                    86714793.710    21176632.009  
  21176626.827    83101657.658  
  23053869.042   121148907.574                    94401749.640    23053869.239  
  23053866.076    90468330.498  
  23718252.539   124640261.932                    97122280.971    23718250.323  
  23718250.395    93075520.028  
  21578976.934   113398293.444    21578973.324    88362296.157                  
                                
  23508185.967   123536370.071                    96262116.356    23508186.021  
  23508181.607    92251174.744  
  22177252.158   116542248.523                    90812144.000    22177252.890  
  22177248.727    87028288.749  
  23050208.144   123130121.569    23050205.803    95767895.279                  
                                
  20166005.904   107685355.545    20166000.900    83755261.418                  
                                
  21067023.815   112299100.025    21067019.544    87343739.336                  
                                
  19895273.373   106388974.323    19895268.745    82746971.694                  
                                
  24609992.568   129326396.340                                                  
                                
  26417671.803   138825811.628                                                  
                                
  24554403.199   129034261.832                                                  
                                
  23132685.711   121563086.990                                                  
                                
  27871547.510   146466040.968                                                  
                                
  24273191.487   127556518.466                                                  
                                
  25009376.167   131425174.787                                                  
                                
 21  9  2  7 18 58.0000000  0 19G 1G 7G 8G 9G14G21G27G30R12R13R14R24
                                E 2E 3E 8E11E24E25E36
  22570497.301   118608766.549                    92422423.870    22570498.176  
  22570493.459    88571470.388  
  20301307.644   106684102.764                    83130471.826    20301303.749  
                                
  21177068.942   111286265.093                    86716582.577    21177068.620  
  21177063.653    83103371.991  
  23054429.325   121151852.097                    94404044.080    23054430.112  
  23054426.341    90470529.330  
  23717826.184   124638021.407                    97120535.114    23717823.915  
  23717824.094    93073846.922  
  21578738.096   113397038.007    21578734.558    88361317.907                  
                                
  23508843.118   123539820.193                    96264804.762    23508842.332  
  23508838.061    92253751.150  
  22176734.170   116539526.705                    90810023.112    22176734.814  
  22176730.900    87026256.229  
  23050665.180   123132563.176    23050663.071    95769794.309                  
                                
  20166073.931   107685723.364    20166069.821    83755547.502                  
                                
  21066582.575   112296748.558    21066578.447    87341910.413                  
                                
  19894806.724   106386481.805    19894802.614    82745033.069                  
                                
  24609772.618   129325241.479                                                  
                                
  26418132.484   138828233.308                                                  
                                
  24554523.422   129034893.906                                                  
                                
  23132692.001   121563120.281                                                  
                                
  27871866.579   146467716.872                                                  
                                
  24273274.435   127556954.651                                                  
                                
  25008915.807   131422755.839                                                  
                                
 21  9  2  7 18 59.0000000  0 19G 1G 7G 8G 9G14G21G27G30R12R13R14R24
                                E 2E 3E 8E11E24E25E36
  22569869.097   118605464.047                    92419850.486    22569869.419  
  22569865.005    88569004.237  
  20301101.042   106683016.883                    83129625.676    20301097.147  
                                
  21177505.715   111288561.187                    86718371.744    21177505.911  
  21177500.622    83105086.607  
  23054990.163   121154796.857                    94406338.689    23054990.609  
  23054986.750    90472728.328  
  23717399.794   124635780.991                    97118789.335    23717397.667  
  23717397.757    93072173.878  
  21578498.902   113395783.155    21578495.846    88360340.104                  
                                
  23509499.251   123543270.467                    96267493.274    23509499.269  
  23509494.516    92256327.638  
  22176216.308   116536805.195                    90807902.450    22176216.826  
  22176212.877    87024223.921  
  23051122.770   123135005.078    23051120.125    95771693.566                  
                                
  20166143.531   107686091.585    20166138.831    83755833.894                  
                                
  21066141.979   112294397.184    21066137.386    87340081.575                  
                                
  19894340.985   106383990.075    19894336.661    82743095.054                  
                                
  24609552.722   129324086.674                                                  
                                
  26418593.630   138830655.152                                                  
                                
  24554643.894   129035526.429                                                  
                                
  23132698.523   121563154.077                                                  
                                
  27872185.452   146469392.847                                                  
                                
  24273357.526   127557390.956                                                  
                                
  25008455.412   131420337.199                                                  
                                
 21  9  2  7 19  0.0000000  0 19G 1G 7G 8G 9G14G21G27G30R12R13R14R24
                                E 2E 3E 8E11E24E25E36
  22569240.465   118602161.680                    92417277.218    22569241.734  
  22569236.677    88566538.195  
  20300894.280   106681931.413                    83128779.862    20300890.402  
                                
  21177942.576   111290857.560                    86720161.128    21177942.719  
  21177937.645    83106801.431  
  23055550.875   121157741.731                    94408633.399    23055550.392  
  23055547.051    90474927.427  
  23716973.492   124633540.545                    97117043.538    23716971.187  
  23716971.598    93070500.822  
  21578260.279   113394528.784    21578257.348    88359362.674                  
                                
  23510155.562   123546720.727                    96270181.791    23510155.866  
  23510151.238    92258904.142  
  22175698.928   116534083.867                    90805781.932    22175699.179  
  22175695.069    87022191.756  
  23051580.521   123137447.175    23051577.358    95773592.996                  
                                
  20166212.648   107686460.078    20166207.859    83756120.501                  
                                
  21065700.918   112292045.827    21065696.236    87338252.746                  
                                
  19893875.176   106381499.068    19893870.780    82741157.604                  
                                
  24609332.879   129322931.816                                                  
                                
  26419054.472   138833077.055                                                  
                                
  24554764.117   129036159.293                                                  
                                
  23132705.063   121563188.305                                                  
                                
  27872504.253   146471068.825                                                  
                                
  24273440.670   127557827.259                                                  
                                
  25007995.410   131417918.768                                                  
                                
 21  9  2  7 19  1.0000000  0 19G 1G 7G 8G 9G14G21G27G30R12R13R14R24
                                E 2E 3E 8E11E24E25E36
  22568612.226   118598859.590                    92414704.164    22568613.298  
  22568608.241    88564072.345  
  20300687.607   106680846.468                    83127934.453    20300684.176  
                                
  21178379.563   111293154.309                    86721950.809    21178379.939  
  21178374.685    83108516.545  
  23056110.961   121160686.850                    94410928.293    23056110.622  
  23056107.602    90477126.688  
  23716546.637   124631300.179                    97115297.796    23716544.904  
  23716545.190    93068827.824  
  21578021.834   113393274.994    21578018.797    88358385.702                  
                                
  23510812.070   123550171.148                    96272870.435    23510812.320  
  23510807.746    92261480.751  
  22175180.798   116531362.814                    90803661.625    22175181.388  
  22175177.314    87020159.806  
  23052037.771   123139889.546    23052034.573    95775492.631                  
                                
  20166281.801   107686828.999    20166276.870    83756407.445                  
                                
  21065259.946   112289694.613    21065255.228    87336424.020                  
                                
  19893409.616   106379008.858    19893405.131    82739220.776                  
                                
  24609113.179   129321777.004                                                  
                                
  26419515.493   138835499.108                                                  
                                
  24554884.697   129036792.579                                                  
                                
  23132711.675   121563223.040                                                  
                                
  27872823.233   146472744.868                                                  
                                
  24273523.458   127558263.679                                                  
                                
  25007535.300   131415500.647                                                  
                                
 21  9  2  7 19  2.0000000  0 19G 1G 7G 8G 9G14G21G27G30R12R13R14R24
                                E 2E 3E 8E11E24E25E36
  22567983.540   118595557.775                    92412131.319    22567984.684  
  22567979.984    88561606.700  
  20300480.969   106679762.063                    83127089.462    20300477.932  
                                
  21178816.800   111295451.483                    86723740.806    21178816.908  
  21178811.797    83110231.956  
  23056671.548   121163632.182                    94413223.371    23056671.977  
  23056668.082    90479326.138  
  23716120.890   124629059.921                    97113552.145    23716117.906  
  23716118.853    93067154.906  
  21577783.676   113392021.800    21577780.245    88357409.176                  
                                
  23511468.989   123553621.699                    96275559.197    23511469.132  
  23511464.379    92264057.460  
  22174663.240   116528642.061                    90801541.569    22174663.651  
  22174659.487    87018128.075  
  23052494.628   123142332.203    23052491.930    95777392.485                  
                                
  20166350.115   107687198.306    20166346.130    83756694.675                  
                                
  21064818.688   112287343.551    21064814.060    87334595.418                  
                                
  19892944.289   106376519.430    19892939.589    82737284.555                  
                                
  24608893.390   129320622.267                                                  
                                
  26419976.049   138837921.322                                                  
                                
  24555005.313   129037426.358                                                  
                                
  23132718.322   121563258.315                                                  
                                
  27873142.356   146474420.989                                                  
                                
  24273606.781   127558700.228                                                  
                                
  25007075.119   131413082.853                                                  
                                
 21  9  2  7 19  3.0000000  0 19G 1G 7G 8G 9G14G21G27G30R12R13R14R24
                                E 2E 3E 8E11E24E25E36
  22567355.694   118592256.118                    92409558.605    22567356.605  
  22567351.656    88559141.177  
  20300274.529   106678678.090                    83126244.803    20300271.634  
                                
  21179254.091   111297748.907                    86725531.004    21179254.341  
  21179249.016    83111947.576  
  23057231.832   121166577.676                    94415518.557    23057232.189  
  23057228.579    90481525.690  
  23715694.499   124626819.667                    97111806.481    23715692.123  
  23715692.694    93065481.991  
  21577544.964   113390769.101    21577541.998    88356433.047                  
                                
  23512125.568   123557072.293                    96278247.949    23512126.176  
  23512121.012    92266634.201  
  22174145.163   116525921.525                    90799421.661    22174145.789  
  22174141.875    87016096.501  
  23052952.326   123144775.069    23052949.163    95779292.513                  
                                
  20166419.429   107687567.935    20166415.390    83756982.166                  
                                
  21064377.502   112284992.521    21064373.053    87332766.835                  
                                
  19892478.962   106374030.651    19892474.227    82735348.835                  
                                
  24608673.709   129319467.488                                                  
                                
  26420436.927   138840343.598                                                  
                                
  24555125.929   129038060.493                                                  
                                
  23132724.987   121563294.024                                                  
                                
  27873461.229   146476097.132                                                  
                                
  24273689.782   127559136.801                                                  
                                
  25006614.992   131410665.281                                                  
                                
 21  9  2  7 19  4.0000000  0 19G 1G 7G 8G 9G14G21G27G30R12R13R14R24
                                E 2E 3E 8E11E24E25E36
  22566727.062   118588954.743                    92406986.105    22566728.045  
  22566723.613    88556675.874  
  20300068.445   106677594.659                    83125400.581    20300065.282  
                                
  21179691.364   111300046.756                    86727321.529    21179691.471  
  21179686.200    83113663.489  
  23057792.097   121169523.407                    94417813.941    23057792.830  
  23057789.131    90483725.451  
  23715267.912   124624579.520                    97110060.921    23715265.178  
  23715266.375    93063809.156  
  21577307.056   113389517.025    21577303.786    88355457.405                  
                                
  23512782.255   123560523.078                    96280936.856    23512782.737  
  23512777.734    92269211.079  
  22173627.516   116523201.283                    90797302.001    22173628.338  
  22173624.281    87014065.154  
  23053409.326   123147218.251    23053406.735    95781192.772                  
                                
  20166489.261   107687937.987    20166484.526    83757269.989                  
                                
  21063936.405   112282641.626    21063932.117    87330938.366                  
                                
  19892013.295   106371542.633    19892008.810    82733413.712                  
                                
  24608454.134   129318312.812                                                  
                                
  26420898.180   138842766.076                                                  
                                
  24555246.795   129038695.094                                                  
                                
  23132731.938   121563330.288                                                  
                                
  27873780.155   146477773.380                                                  
                                
  24273772.748   127559573.508                                                  
                                
  25006155.222   131408248.052                                                  
                                
 21  9  2  7 19  5.0000000  0 19G 1G 7G 8G 9G14G21G27G30R12R13R14R24
                                E 2E 3E 8E11E24E25E36
  22566099.216   118585653.594                    92404413.767    22566099.984  
  22566095.374    88554210.719  
  20299862.755   106676511.727                    83124556.735    20299859.288  
                                
  21180128.494   111302344.937                    86729112.328    21180128.833  
  21180123.526    83115379.665  
  23058352.630   121172469.344                    94420109.469    23058353.095  
  23058349.789    90485925.332  
  23714841.361   124622339.424                    97108315.389    23714839.270  
  23714840.181    93062136.349  
  21577068.719   113388265.477    21577065.645    88354482.168                  
                                
  23513438.888   123563973.913                    96283625.839    23513439.656  
  23513434.421    92271788.006  
  22173110.368   116520481.301                    90795182.540    22173110.547  
  22173106.598    87012033.990  
  23053867.041   123149661.710    23053864.093    95783093.255                  
                                
  20166558.611   107688308.385    20166553.929    83757558.081                  
                                
  21063495.112   112280290.817    21063491.145    87329109.961                  
                                
  19891547.896   106369055.322    19891543.769    82731479.137                  
                                
  24608234.399   129317158.127                                                  
                                
  26421359.004   138845188.662                                                  
                                
  24555367.769   129039330.094                                                  
                                
  23132738.978   121563367.021                                                  
                                
  27874099.135   146479449.642                                                  
                                
  24273855.893   127560010.295                                                  
                                
  25005695.094   131405831.094                                                  
                                
 21  9  2  7 19  6.0000000  0 19G 1G 7G 8G 9G14G21G27G30R12R13R14R24
                                E 2E 3E 8E11E24E25E36
  22565471.352   118582352.631                    92401841.599    22565472.049  
  22565467.188    88551745.718  
  20299656.439   106675429.253                    83123713.245    20299653.401  
                                
  21180565.838   111304643.473                    86730903.386    21180566.106  
  21180560.942    83117096.102  
  23058913.700   121175415.465                    94422405.130    23058913.503  
  23058910.340    90488125.341  
  23714415.274   124620099.351                    97106569.890    23714413.219  
  23714413.773    93060463.576  
  21576831.078   113387014.451    21576827.505    88353507.345                  
                                
  23514095.771   123567424.819                    96286314.863    23514096.182  
  23514091.161    92274364.985  
  22172592.685   116517761.534                    90793063.243    22172592.863  
  22172589.093    87010003.006  
  23054323.773   123152105.420    23054321.665    95784993.934                  
                                
  20166628.085   107688679.117    20166623.296    83757846.423                  
                                
  21063054.658   112277940.094    21063050.119    87327281.621                  
                                
  19891082.944   106366568.764    19891078.692    82729545.150                  
                                
  24608014.538   129316003.448                                                  
                                
  26421820.096   138847611.334                                                  
                                
  24555488.688   129039965.478                                                  
                                
  23132745.822   121563404.204                                                  
                                
  27874418.008   146481125.949                                                  
                                
  24273938.948   127560447.129                                                  
                                
  25005235.271   131403414.373                                                  
                                
 21  9  2  7 19  7.0000000  0 19G 1G 7G 8G 9G14G21G27G30R12R13R14R24
                                E 2E 3E 8E11E24E25E36
  22564842.916   118579051.954                    92399269.641    22564843.703  
  22564839.271    88549280.934  
  20299450.874   106674347.313                    83122870.177    20299447.407  
                                
  21181003.540   111306942.408                    86732694.771    21181003.629  
  21180998.501    83118812.848  
  23059474.054   121178361.813                    94424700.999    23059474.519  
  23059471.070    90490325.546  
  23713989.169   124617859.393                    97104824.461    23713986.792  
  23713987.543    93058790.866  
  21576592.706   113385764.035    21576589.686    88352532.993                  
                                
  23514752.547   123570875.889                    96289003.997    23514752.493  
  23514747.883    92276942.080  
  22172074.823   116515042.090                    90790944.193    22172075.430  
  22172071.624    87007972.252  
  23054781.971   123154549.402    23054779.290    95786894.811                  
                                
  20166697.542   107689050.284    20166692.932    83758135.109                  
                                
  21062613.347   112275589.517    21062609.237    87325453.392                  
                                
  19890618.314   106364083.000    19890613.811    82727611.776                  
                                
  24607794.964   129314848.845                                                  
                                
  26422281.046   138850034.182                                                  
                                
  24555609.876   129040601.341                                                  
                                
  23132753.202   121563441.952                                                  
                                
  27874737.059   146482802.355                                                  
                                
  24274022.164   127560884.089                                                  
                                
  25004775.483   131400997.990                                                  
                                
 21  9  2  7 19  8.0000000  0 19G 1G 7G 8G 9G14G21G27G30R12R13R14R24
                                E 2E 3E 8E11E24E25E36
  22564214.731   118575751.474                    92396697.836    22564215.678  
  22564211.121    88546816.279  
  20299245.166   106673265.840                    83122027.472    20299241.771  
                                
  21181441.009   111309241.668                    86734486.398    21181441.260  
  21181435.988    83120529.815  
  23060034.624   121181308.298                    94426996.966    23060035.374  
  23060031.622    90492525.850  
  23713562.993   124615619.440                    97103079.041    23713560.616  
  23713561.420    93057118.188  
  21576355.083   113384514.128    21576351.778    88351559.037                  
                                
  23515409.162   123574327.023                    96291693.193    23515408.948  
  23515404.677    92279519.226  
  22171557.782   116512322.866                    90788825.317    22171558.318  
  22171554.155    87005941.656  
  23055239.471   123156993.634    23055236.898    95788795.883                  
                                
  20166766.660   107689421.761    20166762.478    83758424.036                  
                                
  21062172.804   112273238.990    21062168.408    87323625.207                  
                                
  19890153.344   106361597.938    19890149.020    82725678.955                  
                                
  24607575.371   129313694.216                                                  
                                
  26422742.281   138852457.121                                                  
                                
  24555730.688   129041237.585                                                  
                                
  23132760.528   121563480.121                                                  
                                
  27875056.128   146484478.756                                                  
                                
  24274105.201   127561321.093                                                  
                                
  25004315.570   131398581.850                                                  
                                
 21  9  2  7 19  9.0000000  0 19G 1G 7G 8G 9G14G21G27G30R12R13R14R24
                                E 2E 3E 8E11E24E25E36
  22563586.402   118572451.282                    92394126.265    22563587.796  
  22563583.114    88544351.854  
  20299039.457   106672184.942                    83121185.219    20299035.812  
                                
  21181878.622   111311541.316                    86736278.343    21181879.015  
  21181873.601    83122247.100  
  23060595.639   121184255.089                    94429293.165    23060596.068  
  23060592.566    90494726.378  
  23713137.335   124613379.629                    97101333.740    23713134.833  
  23713135.173    93055445.597  
  21576117.265   113383264.863    21576114.030    88350585.575                  
                                
  23516065.974   123577778.319                    96294382.530    23516066.010  
  23516061.471    92282096.495  
  22171040.313   116509603.970                    90786706.688    22171041.135  
  22171036.793    87003911.314  
  23055696.579   123159438.191    23055694.738    95790697.198                  
                                
  20166836.688   107689793.716    20166832.221    83758713.336                  
                                
  21061731.671   112270888.625    21061727.401    87321797.147                  
                                
  19889689.232   106359113.701    19889684.497    82723746.763                  
                                
  24607355.600   129312539.695                                                  
                                
  26423203.284   138854880.242                                                  
                                
  24555851.805   129041874.313                                                  
                                
  23132767.622   121563518.879                                                  
                                
  27875374.947   146486155.288                                                  
                                
  24274188.382   127561758.252                                                  
                                
  25003856.015   131396166.063                                                  
                                
 21  9  2  7 19 10.0000000  0 19G 1G 7G 8G 9G14G21G27G30R12R13R14R24
                                E 2E 3E 8E11E24E25E36
  22562958.610   118569151.266                    92391554.826    22562959.861  
  22562955.108    88541887.565  
  20298833.982   106671104.487                    83120343.308    20298830.265  
                                
  21182316.109   111313841.296                    86738070.525    21182316.181  
  21182311.356    83123964.613  
  23061156.762   121187202.041                    94431589.489    23061156.244  
  23061153.278    90496927.013  
  23712710.748   124611139.835                    97099588.437    23712708.264  
  23712708.836    93053773.017  
  21575879.750   113382016.105    21575876.426    88349612.519                  
                                
  23516723.054   123581229.670                    96297071.883    23516722.803  
  23516718.247    92284673.814  
  22170523.023   116506885.289                    90784588.246    22170523.434  
  22170519.467    87001881.130  
  23056154.615   123161882.972    23056152.400    95792598.694                  
                                
  20166906.806   107690165.980    20166901.874    83759002.875                  
                                
  21061290.700   112268538.307    21061286.429    87319969.122                  
                                
  19889224.584   106356630.173    19889220.009    82721815.133                  
                                
  24607135.954   129311385.148                                                  
                                
  26423664.465   138857303.471                                                  
                                
  24555973.171   129042511.414                                                  
                                
  23132775.163   121563558.080                                                  
                                
  27875694.231   146487831.827                                                  
                                
  24274271.473   127562195.458                                                  
                                
  25003396.334   131393750.522                                                  
                                
 21  9  2  7 19 11.0000000  0 19G 1G 7G 8G 9G14G21G27G30R12R13R14R24
                                E 2E 3E 8E11E24E25E36
  22562330.835   118565851.476                    92388983.559    22562332.015  
  22562327.190    88539423.423  
  20298628.095   106670024.498                    83119501.749    20298624.932  
                                
  21182754.150   111316141.578                    86739862.953    21182754.597  
  21182748.915    83125682.351  
  23061717.349   121190149.125                    94433885.920    23061717.832  
  23061714.115    90499127.767  
  23712284.696   124608900.029                    97097843.127    23712282.088  
  23712282.767    93052100.445  
  21575642.377   113380767.861    21575638.911    88348639.861                  
                                
  23517379.633   123584681.092                    96299761.312    23517379.812  
  23517375.005    92287251.179  
  22170005.625   116504166.833                    90782469.958    22170006.162  
  22170002.105    86999851.110  
  23056612.223   123164327.989    23056610.097    95794500.365                  
                                
  20166976.084   107690538.594    20166971.635    83759292.686                  
                                
  21060849.835   112266188.036    21060845.582    87318141.129                  
                                
  19888760.418   106354147.360    19888755.683    82719884.056                  
                                
  24606916.058   129310230.604                                                  
                                
  26424125.468   138859726.771                                                  
                                
  24556094.377   129043148.911                                                  
                                
  23132782.722   121563597.722                                                  
                                
  27876012.979   146489508.397                                                  
                                
  24274354.921   127562632.712                                                  
                                
  25002936.582   131391335.221                                                  
                                
 21  9  2  7 19 12.0000000  0 19G 1G 7G 8G 9G14G21G27G30R12R13R14R24
                                E 2E 3E 8E11E24E25E36
  22561703.115   118562551.944                    92386412.488    22561703.758  
  22561699.291    88536959.487  
  20298422.458   106668945.035                    83118660.614    20298419.545  
                                
  21183191.870   111318442.238                    86741655.675    21183191.941  
  21183186.849    83127400.379  
  23062278.401   121193096.477                    94436182.560    23062278.204  
  23062274.881    90501328.704  
  23711857.788   124606660.358                    97096097.924    23711855.626  
  23711856.358    93050427.959  
  21575404.559   113379520.189    21575401.360    88347667.659                  
                                
  23518036.284   123588132.673                    96302450.844    23518036.212  
  23518031.870    92289828.642  
  22169488.085   116501448.680                    90780351.917    22169488.478  
  22169484.797    86997821.309  
  23057070.063   123166773.312    23057067.955    95796402.276                  
                                
  20167046.149   107690911.610    20167041.467    83759582.814                  
                                
  21060409.167   112263837.912    21060404.700    87316313.246                  
                                
  19888296.217   106351665.323    19888291.624    82717953.587                  
                                
  24606696.376   129309076.107                                                  
                                
  26424586.793   138862150.232                                                  
                                
  24556215.707   129043786.837                                                  
                                
  23132790.298   121563637.888                                                  
                                
  27876331.887   146491185.036                                                  
                                
  24274438.066   127563070.077                                                  
                                
  25002477.009   131388920.249                                                  
                                
 21  9  2  7 19 13.0000000  0 19G 1G 7G 8G 9G14G21G27G30R12R13R14R24
                                E 2E 3E 8E11E24E25E36
  22561074.911   118559252.597                    92383841.582    22561075.965  
  22561071.516    88534495.688  
  20298217.518   106667866.044                    83117819.846    20298214.069  
                                
  21183629.750   111320743.210                    86743448.647    21183629.893  
  21183624.693    83129118.637  
  23062839.131   121196043.977                    94438479.316    23062838.791  
  23062835.897    90503529.760  
  23711431.594   124604420.693                    97094352.735    23711429.735  
  23711430.164    93048755.482  
  21575167.383   113378273.069    21575164.024    88346695.866                  
                                
  23518693.078   123591584.306                    96305140.424    23518693.471  
  23518688.592    92292406.167  
  22168971.098   116498730.744                    90778234.044    22168971.366  
  22168967.650    86995791.695  
  23057528.189   123169218.866    23057525.831    95798304.373                  
                                
  20167116.338   107691284.987    20167111.424    83759873.213                  
                                
  21059968.142   112261487.868    21059963.818    87314485.438                  
                                
  19887832.408   106349183.993    19887827.584    82716023.669                  
                                
  24606476.605   129307921.613                                                  
                                
  26425047.903   138864573.799                                                  
                                
  24556337.324   129044425.165                                                  
                                
  23132798.339   121563678.536                                                  
                                
  27876650.867   146492861.718                                                  
                                
  24274521.246   127563507.494                                                  
                                
  25002017.435   131386505.515                                                  
                                
 21  9  2  7 19 14.0000000  0 19G 1G 7G 8G 9G14G21G27G30R12R13R14R24
                                E 2E 3E 8E11E24E25E36
  22560447.512   118555953.487                    92381270.838    22560448.495  
  22560443.616    88532032.068  
  20298012.078   106666787.546                    83116979.454    20298008.987  
                                
  21184067.488   111323044.536                    86745241.886    21184067.559  
  21184062.645    83130837.169  
  23063400.379   121198991.678                    94440776.237    23063400.040  
  23063396.770    90505730.978  
  23711005.489   124602181.102                    97092607.590    23711003.416  
  23711003.899    93047083.054  
  21574929.904   113377026.478    21574926.812    88345724.491                  
                                
  23519349.818   123595036.062                    96307830.097    23519349.943  
  23519345.386    92294983.771  
  22168453.772   116496013.061                    90776116.376    22168454.380  
  22168450.484    86993762.254  
  23057985.618   123171664.637    23057983.671    95800206.631                  
                                
  20167185.974   107691658.721    20167181.435    83760163.896                  
                                
  21059526.974   112259137.928    21059522.899    87312657.700                  
                                
  19887368.100   106346703.405    19887363.614    82714094.315                  
                                
  24606257.156   129306767.145                                                  
                                
  26425508.924   138866997.489                                                  
                                
  24556458.798   129045063.909                                                  
                                
  23132806.059   121563719.657                                                  
                                
  27876970.204   146494538.429                                                  
                                
  24274604.480   127563945.006                                                  
                                
  25001558.237   131384091.074                                                  
                                
 21  9  2  7 19 15.0000000  0 19G 1G 7G 8G 9G14G21G27G30R12R13R14R24
                                E 2E 3E 8E11E24E25E36
  22559819.380   118552654.581                    92378700.266    22559820.827  
  22559815.949    88529568.596  
  20297807.067   106665709.527                    83116139.445    20297803.797  
                                
  21184505.583   111325346.221                    86747035.406    21184505.779  
  21184500.651    83132555.953  
  23063961.109   121201939.569                    94443073.274    23063960.930  
  23063957.821    90507932.321  
  23710578.848   124599941.519                    97090862.488    23710576.400  
  23710577.776    93045410.651  
  21574692.943   113375780.437    21574689.655    88344753.544                  
                                
  23520006.933   123598487.851                    96310519.830    23520007.112  
  23520002.377    92297561.421  
  22167936.982   116493295.626                    90773998.890    22167937.340  
  22167933.426    86991733.010  
  23058444.334   123174110.686    23058441.761    95802109.111                  
                                
  20167255.860   107692032.811    20167251.571    83760454.854                  
                                
  21059086.145   112256788.041    21059082.017    87310830.013                  
                                
  19886904.255   106344223.547    19886899.860    82712165.539                  
                                
  24606037.349   129305612.672                                                  
                                
  26425970.231   138869421.282                                                  
                                
  24556580.396   129045703.064                                                  
                                
  23132813.975   121563761.253                                                  
                                
  27877289.220   146496215.194                                                  
                                
  24274687.732   127564382.570                                                  
                                
  25001098.753   131381676.883                                                  
                                
 21  9  2  7 19 16.0000000  0 19G 1G 7G 8G 9G14G21G27G30R12R13R14R24
                                E 2E 3E 8E11E24E25E36
  22559191.927   118549355.999                    92376129.925    22559192.553  
  22559188.318    88527105.370  
  20297602.127   106664632.082                    83115299.874    20297598.750  
                                
  21184943.374   111327648.334                    86748829.256    21184944.088  
  21184938.710    83134275.065  
  23064521.732   121204887.724                    94445370.547    23064521.893  
  23064518.891    90510133.874  
  23710152.994   124597702.086                    97089117.473    23710150.635  
  23710151.546    93043738.354  
  21574455.964   113374535.025    21574452.676    88343783.095                  
                                
  23520664.424   123601939.869                    96313209.700    23520663.834  
  23520659.206    92300139.208  
  22167419.728   116490578.527                    90771881.669    22167420.067  
  22167416.261    86989703.998  
  23058901.924   123176557.060    23058899.744    95804011.848                  
                                
  20167326.103   107692407.357    20167321.654    83760746.163                  
                                
  21058645.602   112254438.340    21058641.224    87309002.460                  
                                
  19886441.484   106341744.496    19886436.337    82710237.393                  
                                
  24605817.792   129304458.312                                                  
                                
  26426431.627   138871845.265                                                  
                                
  24556702.013   129046342.689                                                  
                                
  23132821.962   121563803.409                                                  
                                
  27877608.307   146497892.070                                                  
                                
  24274771.180   127564820.290                                                  
                                
  25000639.555   131379263.068                                                  
                                
 21  9  2  7 19 17.0000000  0 19G 1G 7G 8G 9G14G21G27G30R12R13R14R24
                                E 2E 3E 8E11E24E25E36
  22558564.331   118546057.550                    92373559.711    22558565.010  
  22558560.507    88524642.242  
  20297396.758   106663555.043                    83114460.629    20297393.685  
                                
  21185381.272   111329950.731                    86750623.339    21185382.005  
  21185376.876    83135994.379  
  23065083.051   121207835.994                    94447667.905    23065083.176  
  23065079.817    90512335.491  
  23709726.639   124595462.647                    97087372.444    23709724.959  
  23709725.388    93042066.026  
  21574219.360   113373290.065    21574215.786    88342812.996                  
                                
  23521320.574   123605391.883                    96315899.577    23521321.075  
  23521315.946    92302717.018  
  22166902.920   116487861.603                    90769764.591    22166903.581  
  22166899.310    86987675.133  
  23059359.889   123179003.591    23059357.745    95805914.702                  
                                
  20167396.024   107692782.201    20167391.789    83761037.708                  
                                
  21058204.916   112252088.620    21058200.502    87307174.903                  
                                
  19885977.443   106339266.054    19885972.815    82708309.711                  
                                
  24605598.182   129303303.898                                                  
                                
  26426892.772   138874269.302                                                  
                                
  24556823.915   129046982.663                                                  
                                
  23132830.128   121563845.994                                                  
                                
  27877927.448   146499568.916                                                  
                                
  24274854.646   127565258.016                                                  
                                
  25000180.178   131376849.428                                                  
                                
 21  9  2  7 19 18.0000000  0 19G 1G 7G 8G 9G14G21G27G30R12R13R14R24
                                E 2E 3E 8E11E24E25E36
  22557936.539   118542759.403                    92370989.731    22557937.343  
  22557932.858    88522179.345  
  20297192.354   106662478.576                    83113621.812    20297188.477  
                                
  21185819.956   111332253.551                    86752417.737    21185820.278  
  21185815.078    83137714.016  
  23065644.157   121210784.545                    94449965.464    23065644.371  
  23065640.851    90514537.318  
  23709300.873   124593223.296                    97085627.499    23709298.497  
  23709299.140    93040393.796  
  21573982.649   113372045.747    21573978.950    88341843.405                  
                                
  23521977.493   123608844.048                    96318589.580    23521978.047  
  23521972.955    92305294.935  
  22166386.040   116485145.020                    90767647.768    22166386.308  
  22166382.395    86985646.513  
  23059817.443   123181450.499    23059815.817    95807817.848                  
                                
  20167466.661   107693157.486    20167462.122    83761329.594                  
                                
  21057763.891   112249739.064    21057759.674    87305347.477                  
                                
  19885514.403   106336788.457    19885509.596    82706382.687                  
                                
  24605378.554   129302149.565                                                  
                                
  26427354.008   138876693.523                                                  
                                
  24556945.907   129047623.109                                                  
                                
  23132838.366   121563889.133                                                  
                                
  27878246.589   146501245.871                                                  
                                
  24274937.916   127565695.889                                                  
                                
  24999720.962   131374436.164                                                  
                                
 21  9  2  7 19 19.0000000  0 19G 1G 7G 8G 9G14G21G27G30R12R13R14R24
                                E 2E 3E 8E11E24E25E36
  22557309.015   118539461.468                    92368419.914    22557310.033  
  22557305.334    88519716.603  
  20296987.665   106661402.578                    83112783.381    20296984.091  
                                
  21186258.284   111334556.685                    86754212.392    21186258.373  
  21186253.370    83139433.902  
  23066205.065   121213733.258                    94452263.171    23066205.423  
  23066201.956    90516739.292  
  23708874.769   124590984.012                    97083882.601    23708873.035  
  23708873.035    93038721.615  
  21573746.081   113370801.961    21573742.168    88340874.213                  
                                
  23522634.430   123612296.303                    96321279.665    23522634.555  
  23522629.981    92307872.940  
  22165868.982   116482428.677                    90765531.135    22165869.286  
  22165865.444    86983618.076  
  23060275.444   123183897.628    23060273.818    95809721.163                  
                                
  20167537.029   107693533.132    20167532.508    83761621.766                  
                                
  21057323.098   112247389.600    21057318.952    87303520.119                  
                                
  19885051.309   106334311.613    19885046.342    82704456.259                  
                                
  24605158.872   129300995.250                                                  
                                
  26427815.636   138879117.855                                                  
                                
  24557067.720   129048263.963                                                  
                                
  23132846.586   121563932.742                                                  
                                
  27878565.747   146502922.885                                                  
                                
  24275021.311   127566133.837                                                  
                                
  24999261.889   131372023.158                                                  
                                
 21  9  2  7 19 20.0000000  0 19G 1G 7G 8G 9G14G21G27G30R12R13R14R24
                                E 2E 3E 8E11E24E25E36
  22556681.222   118536163.811                    92365850.309    22556682.473  
  22556677.827    88517254.058  
  20296782.761   106660327.126                    83111945.369    20296779.205  
                                
  21186696.754   111336860.225                    86756007.351    21186696.843  
  21186691.679    83141154.068  
  23066766.403   121216682.235                    94454561.066    23066767.350  
  23066763.258    90518941.437  
  23708448.682   124588744.811                    97082137.787    23708446.806  
  23708446.931    93037049.486  
  21573509.156   113369558.767    21573505.582    88339905.480                  
                                
  23523291.295   123615748.717                    96323969.839    23523291.403  
  23523286.917    92310451.028  
  22165351.996   116479712.625                    90763414.738    22165352.514  
  22165348.547    86981589.855  
  23060734.321   123186345.075    23060731.962    95811624.731                  
                                
  20167607.862   107693909.177    20167602.912    83761914.246                  
                                
  21056882.590   112245040.309    21056878.373    87301692.886                  
                                
  19884587.769   106331835.590    19884583.320    82702530.461                  
                                
  24604939.244   129299841.005                                                  
                                
  26428276.978   138881542.364                                                  
                                
  24557189.766   129048905.266                                                  
                                
  23132854.805   121563976.873                                                  
                                
  27878884.978   146504599.984                                                  
                                
  24275104.473   127566571.898                                                  
                                
  24998802.816   131369610.481                                                  
                                
 21  9  2  7 19 21.0000000  0 19G 1G 7G 8G 9G14G21G27G30R12R13R14R24
                                E 2E 3E 8E11E24E25E36
  22556053.877   118532866.351                    92363280.861    22556054.895  
  22556050.303    88514791.676  
  20296578.553   106659252.147                    83111107.723    20296574.998  
                                
  21187135.027   111339164.075                    86757802.561    21187135.260  
  21187130.203    83142874.476  
  23067327.955   121219631.364                    94456859.100    23067327.669  
  23067324.434    90521143.718  
  23708022.434   124586505.674                    97080393.010    23708020.379  
  23708020.862    93035377.388  
  21573272.284   113368316.110    21573269.050    88338937.180                  
                                
  23523948.339   123619201.201                    96326660.105    23523948.786  
  23523943.819    92313029.178  
  22164835.510   116476996.825                    90761298.521    22164835.456  
  22164831.775    86979561.821  
  23061192.983   123188792.729    23061190.195    95813528.457                  
                                
  20167677.086   107694285.587    20167673.370    83762207.009                  
                                
  21056441.762   112242691.066    21056437.527    87299865.696                  
                                
  19884125.104   106329360.280    19884120.423    82700605.221                  
                                
  24604719.419   129298686.757                                                  
                                
  26428738.428   138883966.964                                                  
                                
  24557311.740   129049546.983                                                  
                                
  23132863.329   121564021.465                                                  
                                
  27879203.814   146506277.106                                                  
                                
  24275188.118   127567010.026                                                  
                                
  24998343.528   131367198.059                                                  
                                
 21  9  2  7 19 22.0000000  0 19G 1G 7G 8G 9G14G21G27G30R12R13R14R24
                                E 2E 3E 8E11E24E25E36
  22555426.209   118529569.175                    92360711.624    22555426.942  
  22555422.939    88512329.484  
  20296373.792   106658177.696                    83110270.484    20296370.540  
                                
  21187573.265   111341468.300                    86759598.068    21187573.765  
  21187568.655    83144595.179  
  23067889.167   121222580.726                    94459157.304    23067889.221  
  23067885.754    90523346.163  
  23707596.669   124584266.585                    97078648.271    23707593.935  
  23707594.721    93033705.367  
  21573035.877   113367074.035    21573032.535    88337969.338                  
                                
  23524605.705   123622653.823                    96329350.451    23524605.741  
  23524600.827    92315607.437  
  22164318.666   116474281.307                    90759182.535    22164318.898  
  22164315.003    86977533.999  
  23061650.716   123191240.684    23061648.429    95815432.424                  
                                
  20167748.098   107694662.399    20167743.952    83762500.089                  
                                
  21056001.183   112240341.918    21055996.930    87298038.583                  
                                
  19883661.903   106326885.708    19883657.668    82698680.558                  
                                
  24604499.791   129297532.577                                                  
                                
  26429199.771   138886391.719                                                  
                                
  24557433.910   129050189.134                                                  
                                
  23132871.763   121564066.611                                                  
                                
  27879523.241   146507954.317                                                  
                                
  24275271.262   127567448.274                                                  
                                
  24997884.616   131364785.954                                                  
                                
 21  9  2  7 19 23.0000000  0 19G 1G 7G 8G 9G14G21G27G30R12R13R14R24
                                E 2E 3E 8E11E24E25E36
  22554798.971   118526272.137                    92358142.516    22554799.828  
  22554795.558    88509867.421  
  20296169.496   106657103.673                    83109433.597    20296166.154  
                                
  21188011.842   111343772.817                    86761393.784    21188012.075  
  21188007.161    83146316.073  
  23068450.504   121225530.231                    94461455.622    23068450.451  
  23068447.056    90525548.726  
  23707170.064   124582027.515                    97076903.542    23707168.188  
  23707168.563    93032033.330  
  21572799.791   113365832.431    21572796.360    88337001.848                  
                                
  23525262.785   123626106.475                    96332040.847    23525262.213  
  23525257.889    92318185.724  
  22163801.715   116471565.995                    90757066.705    22163801.894  
  22163798.338    86975506.332  
  23062109.360   123193688.826    23062106.858    95817336.537                  
                                
  20167818.984   107695039.515    20167814.481    83762793.400                  
                                
  21055560.515   112237992.787    21055556.262    87296211.480                  
                                
  19883199.668   106324411.766    19883194.968    82696756.381                  
                                
  24604280.198   129296378.338                                                  
                                
  26429661.435   138888816.542                                                  
                                
  24557556.492   129050831.644                                                  
                                
  23132880.483   121564112.166                                                  
                                
  27879842.453   146509631.518                                                  
                                
  24275354.639   127567886.531                                                  
                                
  24997425.614   131362374.070                                                  
                                
 21  9  2  7 19 24.0000000  0 19G 1G 7G 8G 9G14G21G27G30R12R13R14R24
                                E 2E 3E 8E11E24E25E36
  22554171.571   118522975.370                    92355573.603    22554172.501  
  22554168.123    88507405.545  
  20295965.074   106656030.170                    83108597.107    20295961.536  
                                
  21188450.330   111346077.700                    86763189.803    21188450.688  
  21188445.684    83148037.252  
  23069011.896   121228479.953                    94463754.104    23069012.003  
  23069008.250    90527751.439  
  23706743.888   124579788.519                    97075158.865    23706741.690  
  23706742.565    93030361.344  
  21572563.598   113364591.418    21572560.132    88336034.816                  
                                
  23525919.632   123629559.235                    96334731.293    23525919.650  
  23525914.718    92320764.077  
  22163285.014   116468850.949                    90754951.073    22163285.265  
  22163281.655    86973478.861  
  23062567.718   123196137.252    23062565.181    95819240.864                  
                                
  20167889.352   107695416.995    20167885.260    83763086.997                  
                                
  21055119.793   112235643.785    21055115.505    87294384.478                  
                                
  19882737.164   106321938.583    19882732.464    82694832.792                  
                                
  24604060.499   129295224.149                                                  
                                
  26430122.759   138891241.497                                                  
                                
  24557678.698   129051474.567                                                  
                                
  23132889.418   121564158.231                                                  
                                
  27880161.398   146511308.764                                                  
                                
  24275438.141   127568324.890                                                  
                                
  24996966.863   131359962.481                                                  
                                
