     2.11           OBSERVATION DATA    M (MIXED)           RINEX VERSION / TYPE
CONVBIN 2.4.3                           20210901 190810 UTC PGM / RUN BY / DATE 
log: logs/21_09_01_09_12_17_pass_SNPA.rtcm                  COMMENT             
format: RTCM 3, station ID: 3759                            COMMENT             
3759                                                        MARKER NAME         
                                                            MARKER NUMBER       
                                                            OBSERVER / AGENCY   
1706024             LEICA GR30          4.50                REC # / TYPE / VERS 
                    GPPNULLANTENNA                          ANT # / TYPE        
  1159548.2401 -4706036.6509  4132097.1447                  APPROX POSITION XYZ 
        0.0000        0.0000        0.0000                  ANTENNA: DELTA H/E/N
     1     1                                                WAVELENGTH FACT L1/2
     7    C1    L1    C2    L2    P2    C5    L5            # / TYPES OF OBSERV 
  2021     9     1     9    12   24.0000000     GPS         TIME OF FIRST OBS   
  2021     9     1     9    42   21.0000000     GPS         TIME OF LAST OBS    
                                                            END OF HEADER       
 21  9  1  9 12 24.0000000  0 17G 1G 7G 8G14G17G19G21G22G30R12R13R14
                                R24E13E15E21E27
  20226846.014   106292793.210    20226845.799    82825552.062    20226845.692  
  20226845.031    79374484.505  
  21967481.621   115439894.407    21967478.673    89953151.284    21967478.423  
                                
  23975802.216   125993690.425    23975802.412    98176899.542    23975801.590  
  23975801.162    94086193.096  
  20969145.706   110193604.892    20969143.257    85865135.188    20969142.972  
  20969147.207    82287437.190  
  21671168.763   113882759.791    21671165.761    88739799.432    21671165.385  
                                
  23842812.209   125294823.447                    97632311.671    23842807.760  
                                
  21856172.904   114854963.878                    89497358.328    21856168.955  
                                
  24112390.329   126711466.195                    98736186.873    24112385.272  
                                
  20991258.157   110309806.030    20991257.603    85955687.955    20991256.977  
  20991257.692    82374203.476  
  22490610.349   120140803.369    22490610.939    93442849.540    22490611.242  
                                
  19358520.284   103373418.498    19358519.820    80401545.638    19358519.980  
                                
  20578527.595   109695131.612    20578528.024    85318437.618    20578527.809  
                                
  19948027.357   106671066.992    19948026.356    82966381.061    19948026.428  
                                
  23946149.394   125837864.837                                                  
  23946150.770    93969838.897  
  23692445.381   124504641.057                                                  
  23692447.883    92974254.125  
  24660699.816   129592852.408                                                  
  24660701.335    96773888.339  
  23536473.399   123685002.938                                                  
  23536474.864    92362183.058  
 21  9  1  9 12 25.0000000  0 17G 1G 7G 8G14G17G19G21G22G30R12R13R14
                                R24E13E15E21E27
  20226799.608   106292549.490    20226799.411    82825362.153    20226799.322  
  20226798.661    79374302.506  
  21968066.653   115442968.799    21968063.723    89955546.912    21968063.437  
                                
  23976379.082   125996721.895    23976379.278    98179261.724    23976378.456  
  23976378.027    94088456.856  
  20968811.430   110191848.225    20968808.982    85863766.359    20968808.714  
  20968812.913    82286125.389  
  21670851.427   113881092.227    21670848.442    88738500.031    21670848.067  
                                
  23842233.163   125291780.598                    97629940.635    23842228.714  
                                
  21856551.585   114856953.939                    89498909.027    21856547.671  
                                
  24111969.496   126709254.613                    98734463.564    24111964.439  
                                
  20991494.636   110311048.733    20991494.099    85956656.297    20991493.456  
  20991494.153    82375131.472  
  22491313.977   120144562.011    22491314.567    93445772.931    22491314.889  
                                
  19358721.704   103374494.044    19358721.239    80402382.176    19358721.400  
                                
  20577973.727   109692179.222    20577974.155    85316141.312    20577973.959  
                                
  19947629.503   106668939.513    19947628.503    82964726.355    19947628.574  
                                
  23945793.497   125835994.601                                                  
  23945794.855    93968442.297  
  23692635.276   124505638.987                                                  
  23692637.777    92974999.332  
  24660364.361   129591089.515                                                  
  24660365.879    96772571.899  
  23536595.194   123685643.082                                                  
  23536596.677    92362661.088  
 21  9  1  9 12 26.0000000  0 17G 1G 7G 8G14G17G19G21G22G30R12R13R14
                                R24E13E15E21E27
  20226753.398   106292306.555    20226753.184    82825172.853    20226753.077  
  20226752.416    79374121.096  
  21968651.757   115446043.608    21968648.826    89957942.863    21968648.558  
                                
  23976955.965   125999753.418    23976956.162    98181623.947    23976955.340  
  23976954.911    94090720.649  
  20968477.190   110190091.879    20968474.759    85862397.775    20968474.474  
  20968478.691    82284813.834  
  21670534.180   113879425.005    21670531.178    88737200.899    21670530.785  
                                
  23841654.153   125288737.903                    97627569.700    23841649.722  
                                
  21856930.390   114858944.490                    89500460.105    21856926.459  
                                
  24111548.680   126707043.350                    98732740.507    24111543.623  
                                
  20991731.239   110312292.100    20991730.703    85957625.157    20991730.060  
  20991730.775    82376059.960  
  22492017.677   120148321.041    22492018.267    93448696.626    22492018.589  
                                
  19358923.266   103375570.374    19358922.802    80403219.324    19358922.963  
                                
  20577419.948   109689227.304    20577420.394    85313845.373    20577420.180  
                                
  19947231.775   106666812.706    19947230.774    82963072.176    19947230.845  
                                
  23945437.689   125834124.780                                                  
  23945439.029    93967046.000  
  23692825.259   124506637.371                                                  
  23692827.761    92975744.879  
  24660028.923   129589326.827                                                  
  24660030.442    96771255.599  
  23536717.079   123686283.561                                                  
  23536718.580    92363139.367  
 21  9  1  9 12 27.0000000  0 17G 1G 7G 8G14G17G19G21G22G30R12R13R14
                                R24E13E15E21E27
  20226707.279   106292064.281    20226707.082    82824984.073    20226706.975  
  20226706.314    79373940.182  
  21969236.931   115449118.702    21969233.983    89960339.042    21969233.733  
                                
  23977532.831   126002784.835    23977533.009    98183986.093    23977532.187  
  23977531.759    94092984.389  
  20968143.003   110188335.717    20968140.573    85861029.340    20968140.287  
  20968144.504    82283502.423  
  21670216.933   113877757.995    21670213.949    88735901.930    21670213.574  
                                
  23841075.161   125285695.326                    97625198.863    23841070.730  
                                
  21857309.249   114860935.428                    89502011.488    21857305.300  
                                
  24111127.954   126704832.293                    98731017.606    24111122.879  
                                
  20991967.950   110313536.028    20991967.414    85958594.446    20991966.789  
  20991967.486    82376988.856  
  22492721.413   120152080.313    22492722.021    93451620.504    22492722.324  
                                
  19359124.954   103376647.371    19359124.489    80404056.989    19359124.650  
                                
  20576866.240   109686275.711    20576866.687    85311549.692    20576866.473  
                                
  19946834.153   106664686.481    19946833.152    82961418.445    19946833.242  
                                
  23945081.935   125832255.245                                                  
  23945083.275    93965649.919  
  23693015.314   124507636.070                                                  
  23693017.816    92976490.667  
  24659693.522   129587564.212                                                  
  24659695.041    96769939.363  
  23536838.999   123686924.253                                                  
  23536840.482    92363617.805  
 21  9  1  9 12 28.0000000  0 17G 1G 7G 8G14G17G19G21G22G30R12R13R14
                                R24E13E15E21E27
  20226661.319   106291822.753    20226661.123    82824795.864    20226661.016  
  20226660.372    79373759.811  
  21969822.178   115452194.159    21969819.229    89962735.500    21969818.979  
                                
  23978109.696   126005816.278    23978109.893    98186348.257    23978109.053  
  23978108.642    94095248.112  
  20967808.888   110186579.843    20967806.458    85859661.124    20967806.172  
  20967810.371    82282191.203  
  21669899.776   113876091.269    21669896.792    88734603.179    21669896.399  
                                
  23840496.223   125282652.908                    97622828.147    23840491.773  
                                
  21857688.180   114862926.797                    89503563.204    21857684.266  
                                
  24110707.246   126702621.483                    98729294.896    24110702.189  
                                
  20992204.786   110314780.527    20992204.232    85959564.184    20992203.607  
  20992204.304    82377918.194  
  22493425.220   120155839.889    22493425.810    93454544.614    22493426.114  
                                
  19359326.767   103377725.079    19359326.302    80404895.206    19359326.463  
                                
  20576312.604   109683324.490    20576313.033    85309254.296    20576312.837  
                                
  19946436.657   106662560.895    19946435.656    82959765.214    19946435.727  
                                
  23944726.234   125830386.058                                                  
  23944727.592    93964254.097  
  23693205.422   124508635.159                                                  
  23693207.924    92977236.735  
  24659358.138   129585801.739                                                  
  24659359.639    96768623.226  
  23536960.973   123687565.207                                                  
  23536962.456    92364096.441  
 21  9  1  9 12 29.0000000  0 17G 1G 7G 8G14G17G19G21G22G30R12R13R14
                                R24E13E15E21E27
  20226615.468   106291581.750    20226615.253    82824608.069    20226615.164  
  20226614.503    79373579.845  
  21970407.442   115455269.764    21970404.511    89965132.081    21970404.243  
                                
  23978686.508   126008847.487    23978686.705    98188710.242    23978685.865  
  23978685.436    94097511.695  
  20967474.755   110184824.024    20967472.325    85858292.954    20967472.039  
  20967476.256    82280880.046  
  21669582.637   113874424.629    21669579.653    88733304.498    21669579.242  
                                
  23839917.266   125279610.445                    97620457.383    23839912.835  
                                
  21858067.199   114864918.425                    89505115.120    21858063.250  
                                
  24110286.538   126700410.705                    98727572.223    24110281.463  
                                
  20992441.694   110316025.446    20992441.122    85960534.253    20992440.514  
  20992441.211    82378847.846  
  22494129.045   120159599.561    22494129.635    93457468.803    22494129.957  
                                
  19359528.687   103378803.344    19359528.240    80405733.854    19359528.401  
                                
  20575758.986   109680373.454    20575759.451    85306959.046    20575759.236  
                                
  19946039.250   106660435.733    19946038.249    82958112.310    19946038.320  
                                
  23944370.569   125828517.022                                                  
  23944371.927    93962858.393  
  23693395.585   124509634.435                                                  
  23693398.086    92977982.957  
  24659022.737   129584039.206                                                  
  24659024.255    96767307.056  
  23537082.947   123688206.246                                                  
  23537084.448    92364575.139  
 21  9  1  9 12 30.0000000  0 17G 1G 7G 8G14G17G19G21G22G30R12R13R14
                                R24E13E15E21E27
  20226569.776   106291341.559    20226569.544    82824420.906    20226569.455  
  20226568.794    79373400.482  
  21970992.795   115458345.837    21970989.865    89967529.026    21970989.597  
                                
  23979263.374   126011878.817    23979263.553    98191072.317    23979262.731  
  23979262.284    94099775.345  
  20967140.712   110183068.567    20967138.264    85856925.065    20967138.014  
  20967142.213    82279569.149  
  21669265.551   113872758.355    21669262.549    88732006.103    21669262.174  
                                
  23839338.346   125276568.194                    97618086.800    23839333.896  
                                
  21858446.273   114866910.569                    89506667.438    21858442.342  
                                
  24109865.901   126698200.296                    98725849.838    24109860.844  
                                
  20992678.708   110317271.058    20992678.154    85961504.858    20992677.529  
  20992678.226    82379778.015  
  22494832.942   120163359.638    22494833.532    93460393.305    22494833.853  
                                
  19359730.750   103379882.402    19359730.321    80406573.124    19359730.482  
                                
  20575205.475   109677422.927    20575205.940    85304664.191    20575205.726  
                                
  19945641.968   106658311.297    19945640.967    82956459.969    19945641.038  
                                
  23944014.993   125826648.442                                                  
  23944016.351    93961463.029  
  23693585.836   124510634.199                                                  
  23693588.338    92978729.525  
  24658687.389   129582276.914                                                  
  24658688.890    96765991.061  
  23537205.010   123688847.658                                                  
  23537206.493    92365054.120  
 21  9  1  9 12 31.0000000  0 17G 1G 7G 8G14G17G19G21G22G30R12R13R14
                                R24E13E15E21E27
  20226524.193   106291102.055    20226523.978    82824234.279    20226523.871  
  20226523.210    79373221.634  
  21971578.220   115461422.210    21971575.290    89969926.205    21971575.022  
                                
  23979840.186   126014910.081    23979840.383    98193434.344    23979839.543  
  23979839.132    94102038.948  
  20966806.704   110181313.300    20966804.256    85855557.322    20966803.970  
  20966808.169    82278258.404  
  21668948.501   113871092.287    21668945.517    88730707.868    21668945.141  
                                
  23838759.443   125273526.081                    97615716.322    23838755.012  
                                
  21858825.454   114868903.110                    89508220.067    21858821.504  
                                
  24109445.318   126695990.075                    98724127.593    24109440.243  
                                
  20992915.866   110318517.233    20992915.294    85962475.908    20992914.687  
  20992915.384    82380708.596  
  22495536.892   120167119.989    22495537.482    93463318.020    22495537.786  
                                
  19359932.955   103380962.150    19359932.509    80407412.925    19359932.670  
                                
  20574652.054   109674472.778    20574652.501    85302369.626    20574652.304  
                                
  19945244.793   106656187.452    19945243.792    82954808.089    19945243.864  
                                
  23943659.453   125824780.161                                                  
  23943660.829    93960067.886  
  23693776.123   124511634.285                                                  
  23693778.625    92979476.349  
  24658352.041   129580514.708                                                  
  24658353.559    96764675.118  
  23537327.109   123689489.299                                                  
  23537328.592    92365533.265  
 21  9  1  9 12 32.0000000  0 17G 1G 7G 8G14G17G19G21G22G30R12R13R14
                                R24E13E15E21E27
  20226478.752   106290863.341    20226478.555    82824048.270    20226478.448  
  20226477.787    79373043.373  
  21972163.716   115464498.991    21972160.768    89972323.701    21972160.518  
                                
  23980417.034   126017941.378    23980417.213    98195796.396    23980416.391  
  23980415.962    94104302.581  
  20966472.768   110179558.391    20966470.320    85854189.861    20966470.052  
  20966474.251    82276947.907  
  21668631.522   113869426.562    21668628.538    88729409.900    21668628.163  
                                
  23838180.594   125270484.152                    97613345.998    23838176.127  
                                
  21859204.706   114870896.143                    89509773.077    21859200.775  
                                
  24109024.770   126693780.175                    98722405.597    24109019.713  
                                
  20993153.113   110319764.051    20993152.559    85963447.456    20993151.916  
  20993152.613    82381639.677  
  22496240.896   120170880.696    22496241.486    93466243.007    22496241.807  
                                
  19360135.304   103382042.666    19360134.858    80408253.324    19360135.018  
                                
  20574098.704   109671523.090    20574099.151    85300075.426    20574098.954  
                                
  19944847.761   106654064.338    19944846.760    82953156.779    19944846.850  
                                
  23943304.020   125822912.290                                                  
  23943305.378    93958673.048  
  23693966.536   124512634.832                                                  
  23693969.037    92980223.511  
  24658016.728   129578752.698                                                  
  24658018.247    96763359.343  
  23537449.280   123690131.265                                                  
  23537450.763    92366012.658  
 21  9  1  9 12 33.0000000  0 17G 1G 7G 8G14G17G19G21G22G30R12R13R14
                                R24E13E15E21E27
  20226433.472   106290625.360    20226433.275    82823862.826    20226433.168  
  20226432.524    79372865.658  
  21972749.284   115467576.127    21972746.336    89974721.467    21972746.086  
                                
  23980993.864   126020972.663    23980994.061    98198158.436    23980993.221  
  23980992.792    94106566.200  
  20966138.849   110177803.715    20966136.401    85852822.582    20966136.133  
  20966140.332    82275637.607  
  21668314.615   113867761.118    21668311.613    88728112.157    21668311.220  
                                
  23837601.763   125267442.429                    97610975.824    23837597.331  
                                
  21859584.065   114872889.625                    89511326.440    21859580.116  
                                
  24108604.294   126691570.523                    98720683.782    24108599.237  
                                
  20993390.485   110321011.509    20993389.949    85964419.499    20993389.306  
  20993390.003    82382571.209  
  22496944.971   120174641.700    22496945.561    93469168.231    22496945.882  
                                
  19360337.778   103383123.907    19360337.349    80409094.287    19360337.510  
                                
  20573545.425   109668573.801    20573545.890    85297781.530    20573545.658  
                                
  19944450.854   106651941.863    19944449.854    82951505.967    19944449.925  
                                
  23942948.659   125821044.775                                                  
  23942949.999    93957278.475  
  23694157.002   124513635.761                                                  
  23694159.521    92980970.955  
  24657681.470   129576990.823                                                  
  24657682.989    96762043.654  
  23537571.486   123690773.513                                                  
  23537572.969    92366492.258  
 21  9  1  9 12 34.0000000  0 17G 1G 7G 8G14G17G19G21G22G30R12R13R14
                                R24E13E15E21E27
  20226388.334   106290388.125    20226388.120    82823677.967    20226388.013  
  20226387.369    79372688.502  
  21973334.906   115470653.659    21973331.957    89977119.539    21973331.707  
                                
  23981570.676   126024003.934    23981570.890    98200520.470    23981570.051  
  23981569.622    94108829.818  
  20965805.002   110176049.328    20965802.554    85851455.528    20965802.286  
  20965806.485    82274327.514  
  21667997.726   113866095.989    21667994.760    88726814.651    21667994.349  
                                
  23837022.967   125264400.847                    97608605.760    23837018.536  
                                
  21859963.496   114874883.554                    89512880.151    21859959.565  
                                
  24108183.872   126689361.183                    98718962.204    24108178.815  
                                
  20993627.982   110322259.576    20993627.446    85965392.019    20993626.821  
  20993627.500    82383503.201  
  22497649.100   120178403.004    22497649.672    93472093.687    22497649.993  
                                
  19360540.413   103384205.873    19360539.966    80409935.816    19360540.127  
                                
  20572992.218   109665624.907    20572992.665    85295487.951    20572992.451  
                                
  19944054.055   106649820.010    19944053.054    82949855.635    19944053.143  
                                
  23942593.351   125819177.641                                                  
  23942594.692    93955884.182  
  23694347.557   124514637.097                                                  
  23694350.058    92981718.709  
  24657346.247   129575229.135                                                  
  24657347.766    96760728.100  
  23537693.764   123691416.055                                                  
  23537695.229    92366972.078  
 21  9  1  9 12 35.0000000  0 17G 1G 7G 8G14G17G19G21G22G30R12R13R14
                                R24E13E15E21E27
  20226343.358   106290151.778    20226343.161    82823493.801    20226343.054  
  20226342.393    79372512.007  
  21973920.635   115473731.681    21973917.686    89979517.996    21973917.436  
                                
  23982147.542   126027035.360    23982147.720    98202882.625    23982146.881  
  23982146.470    94111093.556  
  20965471.227   110174295.376    20965468.779    85850088.812    20965468.529  
  20965472.728    82273017.735  
  21667680.962   113864431.294    21667677.960    88725517.484    21667677.584  
                                
  23836444.243   125261359.573                    97606235.934    23836439.794  
                                
  21860343.034   114876878.081                    89514434.330    21860339.085  
                                
  24107763.539   126687152.203                    98717240.910    24107758.464  
                                
  20993865.623   110323508.381    20993865.086    85966365.114    20993864.443  
  20993865.140    82384435.765  
  22498353.318   120182164.754    22498353.890    93475019.488    22498354.212  
                                
  19360743.191   103385288.706    19360742.744    80410778.020    19360742.905  
                                
  20572439.100   109662676.538    20572439.565    85293194.775    20572439.369  
                                
  19943657.398   106647698.906    19943656.398    82948205.887    19943656.487  
                                
  23942238.133   125817310.998                                                  
  23942239.491    93954490.262  
  23694538.201   124515638.977                                                  
  23694540.703    92982466.859  
  24657011.060   129573467.718                                                  
  24657012.561    96759412.760  
  23537816.113   123692059.028                                                  
  23537817.596    92367452.216  
 21  9  1  9 12 36.0000000  0 17G 1G 7G 8G14G17G19G21G22G30R12R13R14
                                R24E13E15E21E27
  20226298.543   106289916.239    20226298.328    82823310.267    20226298.239  
  20226297.578    79372336.124  
  21974506.453   115476810.158    21974503.522    89981916.805    21974503.254  
                                
  23982724.425   126030066.886    23982724.604    98205244.857    23982723.764  
  23982723.353    94113357.354  
  20965137.541   110172541.753    20965135.075    85848722.352    20965134.807  
  20965139.024    82271708.220  
  21667364.233   113862766.969    21667361.267    88724220.607    21667360.874  
                                
  23835865.555   125258318.572                    97603866.320    23835861.105  
                                
  21860722.679   114878873.148                    89515988.930    21860718.748  
                                
  24107343.242   126684943.597                    98715519.918    24107338.185  
                                
  20994103.424   110324757.916    20994102.870    85967338.775    20994102.244  
  20994102.923    82385368.848  
  22499057.590   120185926.937    22499058.198    93477945.630    22499058.519  
                                
  19360946.129   103386372.366    19360945.682    80411620.861    19360945.843  
                                
  20571886.090   109659728.663    20571886.555    85290901.986    20571886.340  
                                
  19943260.885   106645578.528    19943259.866    82946556.709    19943259.955  
                                
  23941883.004   125815444.806                                                  
  23941884.344    93953096.677  
  23694728.935   124516641.320                                                  
  23694731.437    92983215.369  
  24656675.908   129571706.535                                                  
  24656677.427    96758097.591  
  23537938.534   123692702.361                                                  
  23537940.017    92367932.636  
 21  9  1  9 12 37.0000000  0 17G 1G 7G 8G14G17G19G21G22G30R12R13R14
                                R24E13E15E21E27
  20226253.852   106289681.427    20226253.638    82823127.299    20226253.548  
  20226252.887    79372160.775  
  21975092.324   115479888.938    21975089.376    89984315.851    21975089.126  
                                
  23983301.291   126033098.382    23983301.505    98207607.069    23983300.665  
  23983300.237    94115621.136  
  20964803.890   110170788.387    20964801.424    85847356.098    20964801.156  
  20964805.356    82270398.889  
  21667047.594   113861102.931    21667044.610    88722923.952    21667044.235  
                                
  23835286.902   125255277.685                    97601496.796    23835282.453  
                                
  21861102.414   114880868.625                    89517543.852    21861098.465  
                                
  24106923.016   126682735.222                    98713799.106    24106917.941  
                                
  20994341.296   110326008.035    20994340.760    85968312.889    20994340.134  
  20994340.813    82386302.372  
  22499761.951   120189689.445    22499762.523    93480872.023    22499762.845  
                                
  19361149.193   103387456.714    19361148.746    80412464.246    19361148.907  
                                
  20571333.151   109656781.181    20571333.615    85288609.504    20571333.383  
                                
  19942864.478   106643458.806    19942863.477    82944908.039    19942863.549  
                                
  23941527.947   125813578.951                                                  
  23941529.287    93951703.349  
  23694919.759   124517644.053                                                  
  23694922.260    92983964.161  
  24656340.775   129569945.488                                                  
  24656342.294    96756782.526  
  23538061.008   123693345.971                                                  
  23538062.491    92368413.247  
 21  9  1  9 12 38.0000000  0 17G 1G 7G 8G14G17G19G21G22G30R12R13R14
                                R24E13E15E21E27
  20226209.322   106289447.490    20226209.126    82822945.010    20226209.019  
  20226208.375    79371986.080  
  21975678.285   115482968.236    21975675.337    89986715.307    21975675.087  
                                
  23983878.228   126036130.034    23983878.425    98209969.393    23983877.567  
  23983877.138    94117885.014  
  20964470.294   110169035.436    20964467.845    85845990.164    20964467.577  
  20964471.795    82269089.873  
  21666731.009   113859439.304    21666728.024    88721627.622    21666727.631  
                                
  23834708.285   125252237.109                    97599127.514    23834703.872  
                                
  21861482.256   114882864.716                    89519099.245    21861478.307  
                                
  24106502.844   126680527.249                    98712078.601    24106497.787  
                                
  20994579.329   110327258.888    20994578.793    85969287.582    20994578.150  
  20994578.847    82387236.455  
  22500466.384   120193452.395    22500466.973    93483798.762    22500467.295  
                                
  19361352.417   103388541.936    19361351.970    80413308.307    19361352.131  
                                
  20570780.319   109653834.267    20570780.766    85286317.465    20570780.569  
                                
  19942468.250   106641339.903    19942467.232    82943260.003    19942467.321  
                                
  23941172.979   125811713.611                                                  
  23941174.337    93950310.395  
  23695110.671   124518647.318                                                  
  23695113.173    92984713.349  
  24656005.731   129568184.731                                                  
  24656007.250    96755467.666  
  23538183.554   123693989.997                                                  
  23538185.037    92368894.178  
 21  9  1  9 12 39.0000000  0 17G 1G 7G 8G14G17G19G21G22G30R12R13R14
                                R24E13E15E21E27
  20226164.972   106289214.333    20226164.775    82822763.327    20226164.668  
  20226164.007    79371811.974  
  21976264.353   115486047.946    21976261.405    89989115.078    21976261.155  
                                
  23984455.129   126039161.716    23984455.326    98212331.735    23984454.486  
  23984454.057    94120148.926  
  20964136.804   110167282.831    20964134.356    85844624.493    20964134.070  
  20964138.269    82267781.092  
  21666414.495   113857776.024    21666411.510    88720331.554    21666411.135  
                                
  23834129.722   125249196.745                    97596758.403    23834125.291  
                                
  21861862.169   114884861.274                    89520655.000    21861858.256  
                                
  24106082.743   126678319.619                    98710358.377    24106077.704  
                                
  20994817.488   110328510.412    20994816.951    85970262.794    20994816.308  
  20994817.005    82388171.035  
  22501170.888   120197215.703    22501171.460    93486725.779    22501171.781  
                                
  19361555.784   103389627.936    19361555.356    80414152.969    19361555.516  
                                
  20570227.577   109650887.821    20570228.005    85284025.782    20570227.809  
                                
  19942072.112   106639221.678    19942071.111    82941612.497    19942071.201  
                                
  23940818.100   125809848.666                                                  
  23940819.440    93948917.746  
  23695301.655   124519651.016                                                  
  23695304.157    92985462.871  
  24655670.704   129566424.164                                                  
  24655672.223    96754152.959  
  23538306.189   123694634.364                                                  
  23538307.672    92369375.355  
 21  9  1  9 12 40.0000000  0 17G 1G 7G 8G14G17G19G21G22G30R12R13R14
                                R24E13E15E21E27
  20226120.710   106288981.817    20226120.513    82822582.150    20226120.406  
  20226119.745    79371638.339  
  21976850.440   115489127.908    21976847.509    89991515.046    21976847.241  
                                
  23985032.013   126042193.259    23985032.210    98214693.975    23985031.370  
  23985030.959    94122412.732  
  20963803.297   110165530.355    20963800.866    85843258.928    20963800.580  
  20963804.780    82266472.434  
  21666098.016   113856112.908    21666095.032    88719035.622    21666094.639  
                                
  23833551.159   125246156.416                    97594389.315    23833546.745  
                                
  21862242.189   114886858.190                    89522211.036    21862238.240  
                                
  24105662.678   126676112.136                    98708638.258    24105657.621  
                                
  20995055.753   110329762.439    20995055.181    85971238.401    20995054.574  
  20995055.271    82389105.992  
  22501875.428   120200979.177    22501876.000    93489652.923    22501876.321  
                                
  19361759.259   103390714.538    19361758.848    80414998.104    19361759.009  
                                
  20569674.888   109647941.663    20569675.334    85281734.326    20569675.120  
                                
  19941676.081   106637103.954    19941675.080    82939965.378    19941675.187  
                                
  23940463.257   125807983.974                                                  
  23940464.597    93947525.281  
  23695492.711   124520655.006                                                  
  23695495.213    92986212.608  
  24655335.678   129564663.636                                                  
  24655337.197    96752838.288  
  23538428.824   123695278.898                                                  
  23538430.325    92369856.669  
 21  9  1  9 12 41.0000000  0 17G 1G 7G 8G14G17G19G21G22G30R12R13R14
                                R24E13E15E21E27
  20226076.574   106288749.810    20226076.377    82822401.363    20226076.270  
  20226075.609    79371465.092  
  21977436.561   115492208.010    21977433.613    89993915.122    21977433.363  
                                
  23985608.861   126045224.568    23985609.057    98217056.026    23985608.200  
  23985607.789    94124676.378  
  20963469.825   110163777.949    20963467.395    85841893.419    20963467.109  
  20963471.308    82265163.817  
  21665781.556   113854449.879    21665778.554    88717739.753    21665778.179  
                                
  23832972.596   125243116.060                    97592020.212    23832968.182  
                                
  21862622.228   114888855.319                    89523767.241    21862618.297  
                                
  24105242.631   126673904.686                    98706918.167    24105237.556  
                                
  20995294.072   110331014.867    20995293.518    85972214.321    20995292.911  
  20995293.590    82390041.247  
  22502579.968   120204742.753    22502580.557    93492580.152    22502580.879  
                                
  19361962.841   103391801.657    19361962.430    80415843.641    19361962.591  
                                
  20569122.217   109644995.675    20569122.663    85279443.002    20569122.449  
                                
  19941280.139   106634986.624    19941279.138    82938318.566    19941279.210  
                                
  23940108.449   125806119.437                                                  
  23940109.790    93946132.934  
  23695683.802   124521659.183                                                  
  23695686.304    92986962.476  
  24655000.652   129562903.055                                                  
  24655002.171    96751523.564  
  23538551.495   123695923.511                                                  
  23538552.978    92370338.032  
 21  9  1  9 12 42.0000000  0 17G 1G 7G 8G14G17G19G21G22G30R12R13R14
                                R24E13E15E21E27
  20226032.562   106288518.549    20226032.348    82822221.160    20226032.258  
  20226031.597    79371292.392  
  21978022.773   115495288.486    21978019.824    89996315.494    21978019.574  
                                
  23986185.691   126048255.891    23986185.905    98219418.087    23986185.065  
  23986184.636    94126940.013  
  20963136.425   110162025.822    20963133.977    85840528.125    20963133.691  
  20963137.926    82263855.400  
  21665465.149   113852787.136    21665462.165    88716444.111    21665461.772  
                                
  23832394.068   125240075.860                    97589651.234    23832389.637  
                                
  21863002.356   114890852.916                    89525323.812    21862998.406  
                                
  24104822.601   126671697.491                    98705198.281    24104817.545  
                                
  20995532.516   110332267.891    20995531.963    85973190.704    20995531.337  
  20995532.016    82390976.949  
  22503284.579   120208506.645    22503285.169    93495507.623    22503285.508  
                                
  19362166.565   103392889.473    19362166.137    80416689.718    19362166.297  
                                
  20568569.635   109642050.095    20568570.082    85277151.995    20568569.867  
                                
  19940884.304   106632869.967    19940883.304    82936672.277    19940883.393  
                                
  23939753.714   125804255.252                                                  
  23939755.054    93944740.846  
  23695874.965   124522663.741                                                  
  23695877.485    92987712.638  
  24654665.661   129561142.615                                                  
  24654667.180    96750208.950  
  23538674.219   123696568.391                                                  
  23538675.702    92370819.600  
 21  9  1  9 12 43.0000000  0 17G 1G 7G 8G14G17G19G21G22G30R12R13R14
                                R24E13E15E21E27
  20225988.712   106288288.139    20225988.515    82822041.620    20225988.426  
  20225987.764    79371120.337  
  21978609.055   115498369.434    21978606.107    89998716.233    21978605.857  
                                
  23986762.556   126051287.320    23986762.771    98221780.235    23986761.931  
  23986761.502    94129203.740  
  20962803.060   110160274.074    20962800.630    85839163.124    20962800.344  
  20962804.561    82262547.285  
  21665148.832   113851124.806    21665145.830    88715148.789    21665145.454  
                                
  23831815.594   125237035.945                    97587282.462    23831811.181  
                                
  21863382.608   114892851.067                    89526880.813    21863378.659  
                                
  24104402.644   126669490.686                    98703478.700    24104397.587  
                                
  20995771.104   110333521.667    20995770.550    85974167.672    20995769.924  
  20995770.621    82391913.212  
  22503989.280   120212270.949    22503989.851    93498435.411    22503990.173  
                                
  19362370.433   103393978.162    19362370.022    80417536.476    19362370.165  
                                
  20568017.161   109639105.063    20568017.607    85274861.415    20568017.393  
                                
  19940488.631   106630754.100    19940487.612    82935026.601    19940487.719  
                                
  23939399.067   125802391.549                                                  
  23939400.407    93943349.120  
  23696066.235   124523668.831                                                  
  23696068.737    92988463.185  
  24654330.706   129559382.445                                                  
  24654332.225    96748894.537  
  23538797.015   123697213.683                                                  
  23538798.498    92371301.476  
 21  9  1  9 12 44.0000000  0 17G 1G 7G 8G14G17G19G21G22G30R12R13R14
                                R24E13E15E21E27
  20225944.986   106288058.343    20225944.772    82821862.558    20225944.682  
  20225944.021    79370948.734  
  21979195.374   115501450.619    21979192.443    90001117.161    21979192.175  
                                
  23987339.404   126054318.591    23987339.583    98224142.271    23987338.743  
  23987338.332    94131467.358  
  20962469.749   110158522.469    20962467.319    85837798.238    20962467.033  
  20962471.250    82261239.264  
  21664832.514   113849462.623    21664829.512    88713853.582    21664829.137  
                                
  23831237.121   125233996.073                    97584913.731    23831232.707  
                                
  21863762.879   114894849.538                    89528438.065    21863758.948  
                                
  24103982.722   126667284.007                    98701759.217    24103977.665  
                                
  20996009.780   110334775.915    20996009.226    85975145.008    20996008.619  
  20996009.298    82392849.821  
  22504693.998   120216035.465    22504694.588    93501363.365    22504694.927  
                                
  19362574.444   103395067.437    19362573.997    80418383.694    19362574.158  
                                
  20567464.740   109636160.301    20567465.169    85272571.042    20567464.972  
                                
  19940093.064   106628638.766    19940092.046    82933381.340    19940092.135  
                                
  23939044.438   125800528.077                                                  
  23939045.779    93941957.569  
  23696257.523   124524674.170                                                  
  23696260.043    92989213.930  
  24653995.769   129557622.292                                                  
  24653997.288    96747580.135  
  23538919.829   123697859.129                                                  
  23538921.312    92371783.465  
 21  9  1  9 12 45.0000000  0 17G 1G 7G 8G14G17G19G21G22G30R12R13R14
                                R24E13E15E21E27
  20225901.386   106287829.153    20225901.153    82821683.969    20225901.082  
  20225900.421    79370777.586  
  21979781.763   115504532.034    21979778.833    90003518.266    21979778.547  
                                
  23987916.198   126057349.718    23987916.377    98226504.188    23987915.537  
  23987915.126    94133730.879  
  20962136.456   110156770.994    20962134.026    85836433.449    20962133.740  
  20962137.939    82259931.350  
  21664516.233   113847800.584    21664513.231    88712558.488    21664512.855  
                                
  23830658.647   125230956.208                    97582545.004    23830654.233  
                                
  21864143.257   114896848.328                    89529995.564    21864139.308  
                                
  24103562.817   126665077.457                    98700039.832    24103557.778  
                                
  20996248.546   110336030.644    20996248.010    85976122.716    20996247.367  
  20996248.064    82393786.788  
  22505398.752   120219800.148    22505399.342    93504291.449    22505399.682  
                                
  19362778.526   103396157.301    19362778.097    80419231.362    19362778.258  
                                
  20566912.337   109633215.789    20566912.783    85270280.867    20566912.587  
                                
  19939697.587   106626523.923    19939696.551    82931736.468    19939696.658  
                                
  23938689.881   125798664.829                                                  
  23938691.221    93940566.186  
  23696448.900   124525679.773                                                  
  23696451.402    92989964.863  
  24653660.832   129555862.151                                                  
  24653662.351    96746265.742  
  23539042.696   123698504.734                                                  
  23539044.179    92372265.568  
 21  9  1  9 12 46.0000000  0 17G 1G 7G 8G14G17G19G21G22G30R12R13R14
                                R24E13E15E21E27
  20225857.946   106287600.927    20225857.749    82821506.130    20225857.642  
  20225856.981    79370607.157  
  21980368.243   115507614.050    21980365.312    90005919.834    21980365.026  
                                
  23988493.064   126060381.100    23988493.243    98228866.304    23988492.403  
  23988491.974    94135994.565  
  20961803.270   110155020.032    20961800.822    85835069.066    20961800.536  
  20961804.736    82258623.814  
  21664200.058   113846139.081    21664197.056    88711263.809    21664196.681  
                                
  23830080.280   125227916.738                    97580176.587    23830075.831  
                                
  21864523.742   114898847.800                    89531553.589    21864519.793  
                                
  24103143.020   126662871.424                    98698320.852    24103137.981  
                                
  20996487.491   110337286.221    20996486.955    85977101.088    20996486.311  
  20996486.990    82394724.390  
  22506103.614   120223565.379    22506104.221    93507219.956    22506104.543  
                                
  19362982.805   103397248.135    19362982.394    80420079.788    19362982.537  
                                
  20566360.077   109630271.912    20566360.523    85267991.179    20566360.309  
                                
  19939302.253   106624409.959    19939301.252    82930092.271    19939301.323  
                                
  23938335.431   125796802.179                                                  
  23938336.772    93939175.242  
  23696640.385   124526685.998                                                  
  23696642.869    92990716.271  
  24653325.931   129554102.398                                                  
  24653327.486    96744951.642  
  23539165.653   123699150.844                                                  
  23539167.136    92372748.055  
 21  9  1  9 12 47.0000000  0 17G 1G 7G 8G14G17G19G21G22G30R12R13R14
                                R24E13E15E21E27
  20225814.649   106287373.451    20225814.453    82821328.876    20225814.363  
  20225813.684    79370437.287  
  21980954.793   115510696.424    21980951.863    90008321.691    21980951.595  
                                
  23989069.894   126063412.461    23989070.073    98231228.406    23989069.233  
  23989068.822    94138258.246  
  20961470.138   110153269.358    20961467.690    85833704.899    20961467.404  
  20961471.603    82257316.481  
  21663883.937   113844477.855    21663880.935    88709969.347    21663880.560  
                                
  23829501.913   125224877.460                    97577808.315    23829497.482  
                                
  21864904.299   114900847.709                    89533111.964    21864900.367  
                                
  24102723.277   126660665.631                    98696602.050    24102718.220  
                                
  20996726.525   110338542.402    20996725.989    85978079.929    20996725.345  
  20996726.042    82395662.449  
  22506808.529   120227330.921    22506809.136    93510148.706    22506809.458  
                                
  19363187.226   103398339.681    19363186.815    80420928.764    19363186.976  
                                
  20565807.888   109627328.454    20565808.353    85265701.823    20565808.120  
                                
  19938907.044   106622296.583    19938906.025    82928448.534    19938906.114  
                                
  23937981.053   125794939.893                                                  
  23937982.393    93937784.571  
  23696831.923   124527692.632                                                  
  23696834.442    92991467.974  
  24652991.101   129552342.794                                                  
  24652992.638    96743637.648  
  23539288.645   123699797.238                                                  
  23539290.129    92373230.752  
 21  9  1  9 12 48.0000000  0 17G 1G 7G 8G14G17G19G21G22G30R12R13R14
                                R24E13E15E21E27
  20225771.514   106287146.692    20225771.299    82821152.178    20225771.210  
  20225770.549    79370267.960  
  21981541.415   115513779.164    21981538.485    90010723.824    21981538.199  
                                
  23989646.742   126066443.808    23989646.920    98233590.502    23989646.063  
  23989645.670    94140521.930  
  20961137.042   110151518.953    20961134.594    85832340.948    20961134.308  
  20961138.525    82256009.357  
  21663567.888   113842816.936    21663564.886    88708675.125    21663564.511  
                                
  23828923.582   125221838.313                    97575440.149    23828919.169  
                                
  21865284.962   114902848.075                    89534670.692    21865281.031  
                                
  24102303.587   126658460.123                    98694883.472    24102298.548  
                                
  20996965.684   110339799.188    20996965.148    85979059.245    20996964.504  
  20996965.183    82396600.969  
  22507513.515   120231096.782    22507514.123    93513077.706    22507514.445  
                                
  19363391.773   103399431.964    19363391.362    80421778.318    19363391.541  
                                
  20565255.807   109624385.428    20565256.236    85263412.801    20565256.021  
                                
  19938511.942   106620183.876    19938510.941    82926805.317    19938511.030  
                                
  23937626.728   125793077.965                                                  
  23937628.068    93936394.175  
  23697023.568   124528699.652                                                  
  23697026.088    92992219.969  
  24652656.290   129550583.334                                                  
  24652657.826    96742323.772  
  23539411.709   123700443.932                                                  
  23539413.193    92373713.675  
 21  9  1  9 12 49.0000000  0 17G 1G 7G 8G14G17G19G21G22G30R12R13R14
                                R24E13E15E21E27
  20225728.503   106286920.727    20225728.306    82820976.102    20225728.217  
  20225727.556    79370099.223  
  21982128.127   115516862.331    21982125.161    90013126.289    21982124.911  
                                
  23990223.590   126069475.234    23990223.768    98235952.652    23990222.928  
  23990222.517    94142785.657  
  20960803.999   110149768.860    20960801.569    85830977.237    20960801.283  
  20960805.482    82254702.469  
  21663251.892   113841156.356    21663248.890    88707381.161    21663248.515  
                                
  23828345.305   125218799.404                    97573072.163    23828340.874  
                                
  21865665.716   114904848.952                    89536229.817    21865661.766  
                                
  24101883.969   126656254.932                    98693165.139    24101878.894  
                                
  20997204.950   110341056.655    20997204.414    85980039.087    20997203.806  
  20997204.485    82397539.983  
  22508218.574   120234863.010    22508219.181    93516006.985    22508219.503  
                                
  19363596.480   103400525.046    19363596.052    80422628.493    19363596.230  
                                
  20564703.761   109621442.869    20564704.226    85261124.139    20564704.011  
                                
  19938117.000   106618071.894    19938115.982    82925162.658    19938116.071  
                                
  23937272.510   125791216.453                                                  
  23937273.851    93935004.087  
  23697215.285   124529707.116                                                  
  23697217.769    92992972.296  
  24652321.513   129548824.085                                                  
  24652323.032    96741010.045  
  23539534.827   123701090.949                                                  
  23539536.310    92374196.835  
 21  9  1  9 12 50.0000000  0 17G 1G 7G 8G14G17G19G21G22G30R12R13R14
                                R24E13E15E21E27
  20225685.671   106286695.602    20225685.474    82820800.680    20225685.367  
  20225684.706    79369931.103  
  21982714.910   115519945.934    21982711.962    90015529.095    21982711.694  
                                
  23990800.473   126072506.719    23990800.652    98238314.850    23990799.794  
  23990799.401    94145049.426  
  20960471.045   110148019.131    20960468.615    85829613.813    20960468.329  
  20960472.529    82253395.855  
  21662935.950   113839496.147    21662932.966    88706087.495    21662932.573  
                                
  23827767.046   125215760.736                    97570704.370    23827762.650  
                                
  21866046.558   114906850.340                    89537789.344    21866042.609  
                                
  24101464.387   126654050.079                    98691447.076    24101459.330  
                                
  20997444.377   110342314.806    20997443.841    85981019.466    20997443.215  
  20997443.894    82398479.513  
  22508923.703   120238629.623    22508924.293    93518936.564    22508924.632  
                                
  19363801.349   103401618.916    19363800.920    80423479.278    19363801.081  
                                
  20564151.841   109618500.792    20564152.305    85258835.860    20564152.073  
                                
  19937722.184   106615960.614    19937721.166    82923520.556    19937721.255  
                                
  23936918.364   125789355.394                                                  
  23936919.704    93933614.333  
  23697407.073   124530715.072                                                  
  23697409.593    92993724.991  
  24651986.791   129547065.065                                                  
  24651988.310    96739696.491  
  23539658.034   123701738.338                                                  
  23539659.499    92374680.277  
 21  9  1  9 12 51.0000000  0 17G 1G 7G 8G14G17G19G21G22G30R12R13R14
                                R24E13E15E21E27
  20225642.946   106286471.123    20225642.749    82820625.768    20225642.660  
  20225641.999    79369763.477  
  21983301.747   115523029.808    21983298.798    90017932.113    21983298.548  
                                
  23991377.321   126075538.124    23991377.500    98240676.982    23991376.660  
  23991376.231    94147313.138  
  20960138.110   110146269.589    20960135.680    85828250.534    20960135.394  
  20960139.593    82252089.377  
  21662620.079   113837836.145    21662617.077    88704793.988    21662616.666  
                                
  23827188.840   125212722.144                    97568336.631    23827184.426  
                                
  21866427.490   114908852.115                    89539349.171    21866423.541  
                                
  24101044.840   126651845.398                    98689729.150    24101039.783  
                                
  20997683.911   110343573.488    20997683.375    85982000.257    20997682.732  
  20997683.411    82399419.435  
  22509628.850   120242396.453    22509629.458    93521866.321    22509629.797  
                                
  19364006.289   103402713.411    19364005.895    80424330.549    19364006.038  
                                
  20563599.992   109615559.034    20563600.438    85256547.825    20563600.206  
                                
  19937327.458   106613849.860    19937326.439    82921878.858    19937326.546  
                                
  23936564.272   125787494.613                                                  
  23936565.612    93932224.785  
  23697598.933   124531723.331                                                  
  23697601.470    92994477.903  
  24651652.068   129545306.110                                                  
  24651653.587    96738382.986  
  23539781.277   123702385.933                                                  
  23539782.742    92375163.868  
 21  9  1  9 12 52.0000000  0 17G 1G 7G 8G14G17G19G21G22G30R12R13R14
                                R24E13E15E21E27
  20225600.382   106286247.418    20225600.167    82820451.450    20225600.078  
  20225599.417    79369596.427  
  21983888.672   115526114.098    21983885.724    90020335.454    21983885.474  
                                
  23991954.204   126078569.580    23991954.383    98243039.155    23991953.525  
  23991953.114    94149576.883  
  20959805.246   110144520.361    20959802.798    85826887.500    20959802.512  
  20959806.729    82250783.142  
  21662304.262   113836176.497    21662301.260    88703500.759    21662300.849  
                                
  23826610.670   125209683.766                    97565969.055    23826606.238  
                                
  21866808.511   114910854.380                    89540909.378    21866804.562  
                                
  24100625.364   126649641.073                    98688011.499    24100620.308  
                                
  20997923.553   110344832.844    20997923.017    85982981.574    20997922.391  
  20997923.070    82400359.857  
  22510334.069   120246163.656    22510334.677    93524796.365    22510335.016  
                                
  19364211.407   103403808.709    19364210.996    80425182.450    19364211.157  
                                
  20563048.196   109612617.725    20563048.643    85254260.136    20563048.446  
                                
  19936932.874   106611739.787    19936931.855    82920237.690    19936931.945  
                                
  23936210.251   125785634.228                                                  
  23936211.591    93930835.541  
  23697790.900   124532732.030                                                  
  23697793.419    92995231.159  
  24651317.399   129543547.357                                                  
  24651318.918    96737069.634  
  23539904.555   123703033.850                                                  
  23539906.038    92375647.709  
 21  9  1  9 12 53.0000000  0 17G 1G 7G 8G14G17G19G21G22G30R12R13R14
                                R24E13E15E21E27
  20225557.943   106286024.430    20225557.729    82820277.692    20225557.639  
  20225556.978    79369429.907  
  21984475.652   115529198.693    21984472.721    90022739.039    21984472.453  
                                
  23992531.052   126081600.991    23992531.231    98245401.289    23992530.391  
  23992529.980    94151840.597  
  20959472.399   110142771.360    20959469.969    85825524.641    20959469.683  
  20959473.900    82249477.080  
  21661988.481   113834517.093    21661985.479    88702207.716    21661985.085  
                                
  23826032.500   125206645.514                    97563601.589    23826028.086  
                                
  21867189.586   114912857.042                    89542469.895    21867185.655  
                                
  24100205.943   126647436.962                    98686294.010    24100200.886  
                                
  20998163.301   110346092.741    20998162.765    85983963.314    20998162.122  
  20998162.801    82401300.700  
  22511039.360   120249931.155    22511039.949    93527726.647    22511040.271  
                                
  19364416.633   103404904.668    19364416.222    80426034.865    19364416.401  
                                
  20562496.490   109609676.786    20562496.937    85251972.739    20562496.740  
                                
  19936538.397   106609630.367    19936537.379    82918597.026    19936537.468  
                                
  23935856.283   125783774.173                                                  
  23935857.623    93929446.536  
  23697982.902   124533741.078                                                  
  23697985.422    92995984.671  
  24650982.730   129541788.713                                                  
  24650984.249    96735756.358  
  23540027.905   123703682.023                                                  
  23540029.370    92376131.732  
 21  9  1  9 12 54.0000000  0 17G 1G 7G 8G14G17G19G21G22G30R12R13R14
                                R24E13E15E21E27
  20225515.665   106285802.204    20225515.450    82820104.529    20225515.361  
  20225514.700    79369263.961  
  21985062.721   115532283.705    21985059.773    90025142.943    21985059.504  
                                
  23993107.936   126084632.461    23993108.114    98247763.469    23993107.257  
  23993106.846    94154104.352  
  20959139.660   110141022.684    20959137.212    85824162.039    20959136.926  
  20959141.125    82248171.244  
  21661672.753   113832858.023    21661669.769    88700914.933    21661669.376  
                                
  23825454.383   125203607.459                    97561234.268    23825449.969  
                                
  21867570.768   114914860.199                    89544030.797    21867566.837  
                                
  24099786.557   126645233.147                    98684576.749    24099781.500  
                                
  20998403.175   110347353.318    20998402.639    85984945.580    20998402.031  
  20998402.710    82402242.032  
  22511744.704   120253698.985    22511745.293    93530657.179    22511745.615  
                                
  19364622.019   103406001.418    19364621.608    80426887.893    19364621.787  
                                
  20561944.856   109606736.325    20561945.320    85249685.712    20561945.106  
                                
  19936144.064   106607521.670    19936143.045    82916956.935    19936143.152  
                                
  23935502.423   125781914.522                                                  
  23935503.763    93928057.833  
  23698175.012   124534750.573                                                  
  23698177.532    92996738.508  
  24650648.097   129540030.253                                                  
  24650649.634    96734443.223  
  23540151.308   123704330.512                                                  
  23540152.791    92376615.989  
 21  9  1  9 12 55.0000000  0 17G 1G 7G 8G14G17G19G21G22G30R12R13R14
                                R24E13E15E21E27
  20225473.512   106285580.808    20225473.315    82819932.016    20225473.226  
  20225472.565    79369098.634  
  21985649.861   115535369.154    21985646.931    90027547.186    21985646.645  
                                
  23993684.801   126087663.967    23993684.980    98250125.672    23993684.122  
  23993683.729    94156368.141  
  20958806.957   110139274.360    20958804.509    85822799.706    20958804.241  
  20958808.440    82246865.673  
  21661357.114   113831199.317    21661354.130    88699622.437    21661353.719  
                                
  23824876.284   125200569.639                    97558867.138    23824871.889  
                                
  21867952.057   114916863.867                    89545592.096    21867948.126  
                                
  24099367.242   126643029.678                    98682859.765    24099362.203  
                                
  20998643.174   110348614.565    20998642.656    85985928.369    20998642.012  
  20998642.709    82403183.874  
  22512450.119   120257467.193    22512450.691    93533588.010    22512451.030  
                                
  19364827.567   103407098.961    19364827.138    80427741.540    19364827.299  
                                
  20561393.328   109603796.332    20561393.793    85247399.048    20561393.578  
                                
  19935749.855   106605413.696    19935748.837    82915317.400    19935748.944  
                                
  23935148.616   125780055.296                                                  
  23935149.956    93926669.453  
  23698367.194   124535760.531                                                  
  23698369.713    92997492.699  
  24650313.518   129538272.026                                                  
  24650315.054    96733130.258  
  23540274.783   123704979.366                                                  
  23540276.248    92377100.525  
 21  9  1  9 12 56.0000000  0 17G 1G 7G 8G14G17G19G21G22G30R12R13R14
                                R24E13E15E21E27
  20225431.520   106285360.100    20225431.323    82819760.037    20225431.234  
  20225430.555    79368933.814  
  21986237.073   115538454.918    21986234.107    90029951.680    21986233.857  
                                
  23994261.685   126090695.451    23994261.864    98252487.865    23994261.006  
  23994260.613    94158631.901  
  20958474.307   110137526.265    20958471.859    85821437.557    20958471.591  
  20958475.808    82245560.280  
  21661041.530   113829540.867    21661038.528    88698330.131    21661038.152  
                                
  23824298.239   125197531.948                    97556500.111    23824293.844  
                                
  21868333.418   114918867.960                    89547153.730    21868329.487  
                                
  24098947.999   126640826.448                    98681142.953    24098942.942  
                                
  20998883.298   110349876.387    20998882.762    85986911.609    20998882.136  
  20998882.815    82404126.148  
  22513155.570   120261235.664    22513156.178    93536519.047    22513156.499  
                                
  19365033.203   103408197.198    19365032.793    80428595.724    19365032.971  
                                
  20560841.890   109600856.714    20560842.319    85245112.679    20560842.122  
                                
  19935355.772   106603306.271    19935354.753    82913678.292    19935354.843  
                                
  23934794.863   125778196.399                                                  
  23934796.203    93925281.320  
  23698559.446   124536770.841                                                  
  23698561.966    92998247.154  
  24649978.956   129536513.910                                                  
  24649980.475    96731817.377  
  23540398.312   123705628.466                                                  
  23540399.795    92377585.240  
 21  9  1  9 12 57.0000000  0 17G 1G 7G 8G14G17G19G21G22G30R12R13R14
                                R24E13E15E21E27
  20225389.706   106285140.289    20225389.510    82819588.754    20225389.402  
  20225388.741    79368769.677  
  21986824.356   115541541.206    21986821.426    90032356.577    21986821.158  
                                
  23994838.586   126093727.086    23994838.765    98254850.173    23994837.907  
  23994837.496    94160895.777  
  20958141.747   110135778.616    20958139.317    85820075.755    20958139.031  
  20958143.230    82244255.211  
  21660726.034   113827882.862    21660723.032    88697038.182    21660722.621  
                                
  23823720.248   125194494.586                    97554133.342    23823715.852  
                                
  21868714.903   114920872.652                    89548715.828    21868710.972  
                                
  24098528.810   126638623.619                    98679426.465    24098523.771  
                                
  20999123.583   110351138.983    20999123.029    85987895.455    20999122.403  
  20999123.082    82405068.998  
  22513861.146   120265004.624    22513861.718    93539450.456    22513862.058  
                                
  19365239.055   103409296.346    19365238.644    80429450.614    19365238.804  
                                
  20560290.524   109597917.659    20560290.970    85242826.744    20560290.756  
                                
  19934961.813   106601199.617    19934960.795    82912039.785    19934960.866  
                                
  23934441.235   125776338.031                                                  
  23934442.575    93923893.575  
  23698751.824   124537781.711                                                  
  23698754.344    92999002.024  
  24649644.448   129534756.102                                                  
  24649646.002    96730504.733  
  23540521.894   123706278.009                                                  
  23540523.377    92378070.289  
 21  9  1  9 12 58.0000000  0 17G 1G 7G 8G14G17G19G21G22G30R12R13R14
                                R24E13E15E21E27
  20225347.982   106284921.095    20225347.785    82819417.955    20225347.696  
  20225347.017    79368605.986  
  21987411.711   115544627.735    21987408.763    90034761.665    21987408.513  
                                
  23995415.452   126096758.574    23995415.631    98257212.369    23995414.773  
  23995414.398    94163159.560  
  20957809.204   110134031.096    20957806.774    85818714.051    20957806.488  
  20957810.687    82242950.247  
  21660410.557   113826225.028    21660407.555    88695746.365    21660407.144  
                                
  23823142.257   125191457.247                    97551766.584    23823137.861  
                                
  21869096.461   114922877.655                    89550278.167    21869092.512  
                                
  24098109.674   126636420.954                    98677710.099    24098104.617  
                                
  20999363.939   110352402.063    20999363.385    85988879.674    20999362.759  
  20999363.438    82406012.207  
  22514566.740   120268773.775    22514567.312    93542382.016    22514567.652  
                                
  19365444.995   103410396.071    19365444.584    80430305.956    19365444.745  
                                
  20559739.211   109594978.883    20559739.675    85240541.025    20559739.461  
                                
  19934567.944   106599093.485    19934566.926    82910401.682    19934567.015  
                                
  23934087.643   125774479.888                                                  
  23934088.983    93922506.008  
  23698944.220   124538792.846                                                  
  23698946.757    92999757.090  
  24649309.975   129532998.311                                                  
  24649311.494    96729192.097  
  23540645.530   123706927.707                                                  
  23540647.013    92378555.453  
 21  9  1  9 12 59.0000000  0 17G 1G 7G 8G14G17G19G21G22G30R12R13R14
                                R24E13E15E21E27
  20225306.383   106284702.484    20225306.186    82819247.605    20225306.097  
  20225305.454    79368442.746  
  21987999.120   115547714.493    21987996.153    90037166.933    21987995.885  
                                
  23995992.318   126099789.941    23995992.479    98259574.474    23995991.621  
  23995991.228    94165423.245  
  20957476.680   110132283.708    20957474.232    85817352.452    20957473.963  
  20957478.163    82241645.391  
  21660095.115   113824567.349    21660092.113    88694454.667    21660091.702  
                                
  23822564.283   125188419.952                    97549399.870    23822559.869  
                                
  21869478.054   114924882.975                    89551840.752    21869474.123  
                                
  24097690.538   126634218.401                    98675993.819    24097685.481  
                                
  20999604.366   110353665.628    20999603.830    85989864.272    20999603.205  
  20999603.884    82406955.778  
  22515272.352   120272543.112    22515272.960    93545313.717    22515273.282  
                                
  19365651.043   103411496.369    19365650.632    80431161.742    19365650.793  
                                
  20559187.951   109592040.382    20559188.416    85238255.531    20559188.201  
                                
  19934174.200   106596987.900    19934173.182    82908764.012    19934173.253  
                                
  23933734.104   125772621.983                                                  
  23933735.444    93921118.604  
  23699136.687   124539804.236                                                  
  23699139.207    93000512.347  
  24648975.485   129531240.547                                                  
  24648977.004    96727879.477  
  23540769.201   123707577.565                                                  
  23540770.684    92379040.736  
 21  9  1  9 13  0.0000000  0 17G 1G 7G 8G14G17G19G21G22G30R12R13R14
                                R24E13E15E21E27
  20225264.945   106284484.748    20225264.766    82819077.943    20225264.659  
  20225264.015    79368280.149  
  21988586.582   115550801.721    21988583.633    90039572.565    21988583.365  
                                
  23996569.183   126102821.408    23996569.362    98261936.658    23996568.504  
  23996568.093    94167687.005  
  20957144.244   110130536.723    20957141.796    85815991.162    20957141.528  
  20957145.727    82240340.817  
  21659779.726   113822910.070    21659776.724    88693163.281    21659776.331  
                                
  23821986.345   125185382.932                    97547033.364    23821981.949  
                                
  21869859.754   114926888.846                    89553403.771    21869855.823  
                                
  24097271.474   126632016.253                    98674277.859    24097266.435  
                                
  20999844.973   110354929.912    20999844.419    85990849.426    20999843.811  
  20999844.473    82407899.880  
  22515978.054   120276312.832    22515978.661    93548245.715    22515979.001  
                                
  19365857.251   103412597.493    19365856.840    80432018.169    19365857.019  
                                
  20558636.799   109589102.413    20558637.246    85235970.446    20558637.049  
                                
  19933780.582   106594883.102    19933779.563    82907126.947    19933779.635  
                                
  23933380.637   125770764.542                                                  
  23933381.977    93919731.556  
  23699329.244   124540816.130                                                  
  23699331.781    93001267.987  
  24648641.031   129529483.039                                                  
  24648642.550    96726567.052  
  23540892.944   123708227.815                                                  
  23540894.409    92379526.310  
 21  9  1  9 13  1.0000000  0 17G 1G 7G 8G14G17G19G21G22G30R12R13R14
                                R24E13E15E21E27
  20225223.649   106284267.652    20225223.453    82818908.777    20225223.346  
  20225222.684    79368118.027  
  21989174.115   115553889.224    21989171.167    90041978.412    21989170.916  
                                
  23997146.031   126105852.755    23997146.210    98264298.744    23997145.334  
  23997144.941    94169950.673  
  20956811.845   110128789.910    20956809.415    85814630.012    20956809.129  
  20956813.328    82239036.372  
  21659464.392   113821252.984    21659461.390    88691872.045    21659461.014  
                                
  23821408.443   125182345.951                    97544666.878    23821404.030  
                                
  21870241.526   114928895.067                    89554967.058    21870237.577  
                                
  24096852.428   126629814.214                    98672561.985    24096847.388  
                                
  21000085.651   110356194.703    21000085.097    85991834.977    21000084.489  
  21000085.150    82408844.373  
  22516683.809   120280082.747    22516684.398    93551177.874    22516684.720  
                                
  19366063.585   103413699.247    19366063.156    80432875.088    19366063.317  
                                
  20558085.718   109586164.768    20558086.165    85233685.609    20558085.951  
                                
  19933387.070   106592778.843    19933386.051    82905490.301    19933386.123  
                                
  23933027.242   125768907.368                                                  
  23933028.582    93918344.701  
  23699521.872   124541828.327                                                  
  23699524.391    93002023.844  
  24648306.612   129527725.580                                                  
  24648308.131    96725254.668  
  23541016.705   123708878.247                                                  
  23541018.188    92380012.023  
 21  9  1  9 13  2.0000000  0 17G 1G 7G 8G14G17G19G21G22G30R12R13R14
                                R24E13E15E21E27
  20225182.443   106284051.171    20225182.247    82818740.093    20225182.157  
  20225181.496    79367956.374  
  21989761.702   115556976.962    21989758.754    90044384.437    21989758.468  
                                
  23997722.843   126108883.999    23997723.022    98266660.760    23997722.164  
  23997721.771    94172214.265  
  20956479.481   110127043.256    20956477.033    85813268.985    20956476.747  
  20956480.928    82237732.057  
  21659149.093   113819596.065    21659146.091    88690580.937    21659145.698  
                                
  23820830.523   125179309.056                    97542300.473    23820826.127  
                                
  21870623.369   114930901.628                    89556530.614    21870619.420  
                                
  24096433.453   126627612.377                    98670846.267    24096428.396  
                                
  21000326.418   110357460.014    21000325.882    85992820.929    21000325.256  
  21000325.936    82409789.241  
  22517389.582   120283852.889    22517390.189    93554110.206    22517390.511  
                                
  19366270.026   103414801.626    19366269.597    80433732.492    19366269.758  
                                
  20557534.674   109583227.418    20557535.102    85231401.004    20557534.906  
                                
  19932993.666   106590675.091    19932992.647    82903854.047    19932992.719  
                                
  23932673.882   125767050.449                                                  
  23932675.186    93916958.047  
  23699714.536   124542840.812                                                  
  23699717.055    93002779.920  
  24647972.175   129525968.174                                                  
  24647973.694    96723942.315  
  23541140.519   123709528.855                                                  
  23541142.003    92380497.871  
 21  9  1  9 13  3.0000000  0 17G 1G 7G 8G14G17G19G21G22G30R12R13R14
                                R24E13E15E21E27
  20225141.416   106283835.522    20225141.220    82818572.052    20225141.112  
  20225140.451    79367795.333  
  21990349.361   115560065.161    21990346.430    90046790.826    21990346.144  
                                
  23998299.691   126111915.328    23998299.870    98269022.834    23998299.012  
  23998298.619    94174477.918  
  20956147.153   110125296.966    20956144.723    85811908.237    20956144.437  
  20956148.636    82236428.005  
  21658833.883   113817939.525    21658830.863    88689290.129    21658830.470  
                                
  23820252.675   125176272.392                    97539934.245    23820248.243  
                                
  21871005.283   114932908.712                    89558094.578    21871001.352  
                                
  24096014.513   126625410.863                    98669130.804    24096009.456  
                                
  21000567.346   110358725.996    21000566.792    85993807.411    21000566.185  
  21000566.846    82410734.623  
  22518095.426   120287623.430    22518096.033    93557042.847    22518096.373  
                                
  19366476.610   103415904.817    19366476.199    80434590.529    19366476.377  
                                
  20556983.718   109580290.566    20556984.165    85229116.788    20556983.950  
                                
  19932600.386   106588572.038    19932599.368    82902218.339    19932599.457  
                                
  23932320.593   125765193.979                                                  
  23932321.933    93915571.718  
  23699907.289   124543853.769                                                  
  23699909.808    93003536.351  
  24647637.792   129524210.994                                                  
  24647639.329    96722630.131  
  23541264.405   123710179.842                                                  
  23541265.871    92380983.991  
 21  9  1  9 13  4.0000000  0 17G 1G 7G 8G14G17G19G21G22G30R12R13R14
                                R24E13E15E21E27
  20225100.514   106283620.670    20225100.335    82818404.638    20225100.228  
  20225099.567    79367634.896  
  21990937.109   115563153.777    21990934.178    90049197.542    21990933.892  
                                
  23998876.557   126114946.716    23998876.735    98271384.953    23998875.860  
  23998875.467    94176741.608  
  20955814.914   110123551.013    20955812.484    85810547.755    20955812.198  
  20955816.379    82235124.211  
  21658518.709   113816283.349    21658515.690    88687999.604    21658515.314  
                                
  23819674.862   125173235.980                    97537568.210    23819670.466  
                                
  21871387.341   114934916.320                    89559658.946    21871383.392  
                                
  24095595.646   126623209.695                    98667415.608    24095590.606  
                                
  21000808.363   110359992.666    21000807.827    85994794.426    21000807.202  
  21000807.881    82411680.519  
  22518801.342   120291394.341    22518801.949    93559975.775    22518802.289  
                                
  19366683.354   103417008.777    19366682.943    80435449.158    19366683.104  
                                
  20556432.870   109577354.183    20556433.316    85226832.932    20556433.102  
                                
  19932207.232   106586469.698    19932206.213    82900583.186    19932206.303  
                                
  23931967.412   125763337.931                                                  
  23931968.734    93914185.713  
  23700100.131   124544867.192                                                  
  23700102.651    93004293.126  
  24647303.463   129522454.037                                                  
  24647304.982    96721318.120  
  23541388.345   123710831.175                                                  
  23541389.828    92381470.383  
 21  9  1  9 13  5.0000000  0 17G 1G 7G 8G14G17G19G21G22G30R12R13R14
                                R24E13E15E21E27
  20225059.826   106283406.855    20225059.630    82818238.030    20225059.558  
  20225058.879    79367475.227  
  21991524.982   115566243.053    21991522.033    90051604.767    21991521.765  
                                
  23999453.458   126117978.418    23999453.637    98273747.318    23999452.779  
  23999452.386    94179005.543  
  20955482.783   110121805.627    20955480.352    85809187.709    20955480.066  
  20955484.248    82233820.838  
  21658203.661   113814627.750    21658200.659    88686709.528    21658200.266  
                                
  23819097.121   125170200.008                    97535202.514    23819092.725  
                                
  21871769.524   114936924.666                    89561223.890    21871765.557  
                                
  24095176.885   126621009.093                    98665700.861    24095171.828  
                                
  21001049.595   110361260.248    21001049.059    85995782.153    21001048.434  
  21001049.095    82412627.079  
  22519507.382   120295165.860    22519507.990    93562909.172    22519508.329  
                                
  19366890.277   103418113.789    19366889.884    80436308.612    19366890.045  
                                
  20555882.146   109574418.492    20555882.575    85224549.616    20555882.379  
                                
  19931814.274   106584368.296    19931813.256    82898948.760    19931813.327  
                                
  23931614.320   125761482.550                                                  
  23931615.660    93912800.201  
  23700293.117   124545881.299                                                  
  23700295.636    93005050.418  
  24646969.187   129520697.523                                                  
  24646970.724    96720006.442  
  23541512.392   123711483.098                                                  
  23541513.875    92381957.204  
 21  9  1  9 13  6.0000000  0 17G 1G 7G 8G14G17G19G21G22G30R12R13R14
                                R24E13E15E21E27
  20225019.281   106283193.755    20225019.103    82818071.974    20225018.995  
  20225018.334    79367316.103  
  21992112.908   115569332.677    21992109.960    90054012.267    21992109.710  
                                
  24000030.360   126121010.082    24000030.520    98276109.648    24000029.663  
  24000029.287    94181269.461  
  20955150.687   110120060.510    20955148.257    85807827.878    20955147.989  
  20955152.170    82232517.660  
  21657888.666   113812972.446    21657885.664    88685419.677    21657885.253  
                                
  23818519.433   125167164.207                    97532836.952    23818515.037  
                                
  21872151.760   114938933.434                    89562789.162    21872147.829  
                                
  24094758.160   126618808.741                    98663986.308    24094753.103  
                                
  21001290.916   110362528.425    21001290.362    85996770.341    21001289.755  
  21001290.416    82413574.101  
  22520213.495   120298937.675    22520214.084    93565842.806    22520214.406  
                                
  19367097.344   103419219.505    19367096.951    80437168.616    19367097.111  
                                
  20555331.494   109571483.178    20555331.923    85222266.597    20555331.709  
                                
  19931421.424   106582267.530    19931420.387    82897314.831    19931420.477  
                                
  23931261.335   125759627.512                                                  
  23931262.658    93911414.947  
  23700486.156   124546895.791                                                  
  23700488.675    93005807.989  
  24646634.983   129518941.150                                                  
  24646636.502    96718694.862  
  23541636.510   123712135.288                                                  
  23541637.993    92382444.229  
 21  9  1  9 13  7.0000000  0 17G 1G 7G 8G14G17G19G21G22G30R12R13R14
                                R24E13E15E21E27
  20224978.879   106282981.439    20224978.683    82817906.535    20224978.594  
  20224977.915    79367157.550  
  21992700.924   115572422.699    21992697.976    90056420.071    21992697.708  
                                
  24000607.315   126124041.822    24000607.493    98278472.041    24000606.636  
  24000606.225    94183533.392  
  20954818.680   110118315.693    20954816.232    85806468.282    20954815.964  
  20954820.163    82231214.714  
  21657573.724   113811317.458    21657570.722    88684130.081    21657570.311  
                                
  23817941.781   125164128.579                    97530471.525    23817937.385  
                                
  21872534.121   114940942.697                    89564354.824    21872530.172  
                                
  24094339.507   126616608.709                    98662272.001    24094334.450  
                                
  21001532.345   110363797.248    21001531.827    85997759.034    21001531.201  
  21001531.862    82414521.597  
  22520919.625   120302709.827    22520920.232    93568776.704    22520920.572  
                                
  19367304.553   103420325.973    19367304.160    80438029.202    19367304.321  
                                
  20554780.896   109568548.322    20554781.361    85219983.934    20554781.129  
                                
  19931028.681   106580167.481    19931027.662    82895681.457    19931027.751  
                                
  23930908.404   125757772.870                                                  
  23930909.744    93910029.983  
  23700679.302   124547910.711                                                  
  23700681.822    93006565.886  
  24646300.778   129517184.959                                                  
  24646302.315    96717383.419  
  23541760.682   123712787.786                                                  
  23541762.165    92382931.486  
 21  9  1  9 13  8.0000000  0 17G 1G 7G 8G14G17G19G21G22G30R12R13R14
                                R24E13E15E21E27
  20224938.656   106282770.053    20224938.460    82817741.819    20224938.352  
  20224937.691    79366999.695  
  21993289.047   115575513.277    21993286.099    90058828.314    21993285.813  
                                
  24001184.252   126127073.697    24001184.413    98280834.543    24001183.555  
  24001183.180    94185797.465  
  20954486.745   110116571.345    20954484.279    85805109.046    20954484.011  
  20954488.193    82229912.117  
  21657258.872   113809662.951    21657255.888    88682840.855    21657255.477  
                                
  23817364.183   125161093.314                    97528106.382    23817359.787  
                                
  21872916.590   114942952.595                    89565920.978    21872912.641  
                                
  24093920.925   126614409.134                    98660558.045    24093915.886  
                                
  21001773.970   110365066.876    21001773.434    85998748.354    21001772.808  
  21001773.469    82415469.690  
  22521625.880   120306482.492    22521626.488    93571711.004    22521626.809  
                                
  19367511.941   103421433.374    19367511.530    80438890.518    19367511.691  
                                
  20554230.441   109565614.095    20554230.906    85217701.759    20554230.691  
                                
  19930636.134   106578068.280    19930635.115    82894048.749    19930635.187  
                                
  23930555.580   125755918.786                                                  
  23930556.921    93908645.442  
  23700872.538   124548926.224                                                  
  23700875.057    93007324.219  
  24645966.646   129515429.111                                                  
  24645968.182    96716072.234  
  23541884.961   123713440.777                                                  
  23541886.408    92383419.107  
 21  9  1  9 13  9.0000000  0 17G 1G 7G 8G14G17G19G21G22G30R12R13R14
                                R24E13E15E21E27
  20224898.540   106282559.286    20224898.362    82817577.585    20224898.254  
  20224897.575    79366842.302  
  21993877.206   115578604.085    21993874.240    90061236.736    21993873.990  
                                
  24001761.153   126130105.431    24001761.332    98283196.929    24001760.474  
  24001760.099    94188061.416  
  20954154.828   110114827.150    20954152.380    85803749.937    20954152.112  
  20954156.311    82228609.629  
  21656944.073   113808008.618    21656941.053    88681551.764    21656940.678  
                                
  23816786.620   125158058.109                    97525741.295    23816782.189  
                                
  21873299.130   114944962.812                    89567487.381    21873295.181  
                                
  24093502.397   126612209.695                    98658844.198    24093497.358  
                                
  21002015.666   110366336.996    21002015.130    85999738.056    21002014.505  
  21002015.166    82416418.152  
  22522332.153   120310255.318    22522332.761    93574645.424    22522333.100  
                                
  19367719.436   103422541.362    19367719.007    80439752.289    19367719.168  
                                
  20553680.057   109562680.165    20553680.504    85215419.814    20553680.290  
                                
  19930243.659   106575969.568    19930242.622    82892416.421    19930242.730  
                                
  23930202.810   125754064.939                                                  
  23930204.132    93907261.076  
  23701065.845   124549941.989                                                  
  23701068.364    93008082.747  
  24645632.548   129513673.284                                                  
  24645634.067    96714761.062  
  23542009.222   123714093.918                                                  
  23542010.705    92383906.840  
 21  9  1  9 13 10.0000000  0 17G 1G 7G 8G14G17G19G21G22G30R12R13R14
                                R24E13E15E21E27
  20224858.567   106282349.229    20224858.389    82817413.905    20224858.281  
  20224857.620    79366685.446  
  21994465.419   115581695.236    21994462.470    90063645.425    21994462.202  
                                
  24002338.072   126133137.154    24002338.233    98285559.310    24002337.375  
  24002337.000    94190325.371  
  20953822.965   110113083.208    20953820.535    85802391.016    20953820.249  
  20953824.430    82227307.337  
  21656629.328   113806354.557    21656626.308    88680262.888    21656625.915  
                                
  23816209.040   125155023.023                    97523376.298    23816204.644  
                                
  21873681.741   114946973.455                    89569054.114    21873677.792  
                                
  24093083.886   126610010.490                    98657130.537    24093078.829  
                                
  21002257.470   110367607.703    21002256.934    86000728.220    21002256.326  
  21002256.987    82417367.059  
  22523038.498   120314028.457    22523039.105    93577580.088    22523039.445  
                                
  19367927.038   103423650.081    19367926.627    80440614.629    19367926.788  
                                
  20553129.727   109559746.644    20553130.192    85213138.184    20553129.959  
                                
  19929851.309   106573871.484    19929850.272    82890784.579    19929850.362  
                                
  23929850.111   125752211.439                                                  
  23929851.434    93905876.966  
  23701259.206   124550958.145                                                  
  23701261.725    93008841.565  
  24645298.433   129511917.598                                                  
  24645299.970    96713450.002  
  23542133.573   123714747.335                                                  
  23542135.038    92384394.781  
 21  9  1  9 13 11.0000000  0 17G 1G 7G 8G14G17G19G21G22G30R12R13R14
                                R24E13E15E21E27
  20224818.755   106282140.080    20224818.576    82817250.931    20224818.487  
  20224817.826    79366529.265  
  21995053.738   115584786.900    21995050.790    90066054.516    21995050.522  
                                
  24002915.027   126136169.035    24002915.206    98287921.815    24002914.331  
  24002913.937    94192589.440  
  20953491.191   110111339.699    20953488.760    85801032.438    20953488.474  
  20953492.656    82226005.368  
  21656314.637   113804700.955    21656311.635    88678974.364    21656311.242  
                                
  23815631.549   125151988.252                    97521011.544    23815627.153  
                                
  21874064.460   114948984.718                    89570621.331    21874060.511  
                                
  24092665.465   126607811.749                    98655417.239    24092660.426  
                                
  21002499.416   110368879.188    21002498.898    86001718.985    21002498.273  
  21002498.934    82418316.545  
  22523744.950   120317802.107    22523745.539    93580515.146    22523745.879  
                                
  19368134.819   103424759.677    19368134.426    80441477.650    19368134.587  
                                
  20552579.522   109556813.696    20552579.969    85210856.998    20552579.754  
                                
  19929459.119   106571774.241    19929458.083    82889153.391    19929458.172  
                                
  23929497.484   125750358.470                                                  
  23929498.824    93904493.262  
  23701452.673   124551974.858                                                  
  23701455.193    93009600.798  
  24644964.408   129510162.222                                                  
  24644965.927    96712139.169  
  23542257.995   123715401.191                                                  
  23542259.478    92384883.055  
 21  9  1  9 13 12.0000000  0 17G 1G 7G 8G14G17G19G21G22G30R12R13R14
                                R24E13E15E21E27
  20224779.086   106281931.543    20224778.907    82817088.435    20224778.800  
  20224778.139    79366373.535  
  21995642.112   115587878.802    21995639.145    90068463.795    21995638.877  
                                
  24003491.947   126139200.789    24003492.125    98290284.223    24003491.268  
  24003490.875    94194853.407  
  20953159.434   110109596.340    20953157.004    85799673.977    20953156.718  
  20953160.917    82224703.507  
  21655999.999   113803047.510    21655996.997    88677685.966    21655996.604  
                                
  23815054.076   125148953.560                    97518646.844    23815049.680  
                                
  21874447.268   114950996.282                    89572188.784    21874443.319  
                                
  24092247.098   126605613.146                    98653704.048    24092242.041  
                                
  21002741.470   110370151.151    21002740.934    86002710.122    21002740.309  
  21002740.970    82419266.385  
  22524451.402   120321575.929    22524452.009    93583450.339    22524452.349  
                                
  19368342.725   103425869.875    19368342.314    80442341.139    19368342.475  
                                
  20552029.370   109553881.011    20552029.799    85208576.020    20552029.585  
                                
  19929067.001   106569677.504    19929065.983    82887522.593    19929066.072  
                                
  23929144.928   125748505.727                                                  
  23929146.268    93903109.716  
  23701646.195   124552991.826                                                  
  23701648.732    93010360.220  
  24644630.382   129508406.871                                                  
  24644631.901    96710828.357  
  23542382.470   123716055.212                                                  
  23542383.918    92385371.445  
 21  9  1  9 13 13.0000000  0 17G 1G 7G 8G14G17G19G21G22G30R12R13R14
                                R24E13E15E21E27
  20224739.560   106281723.828    20224739.363    82816926.577    20224739.292  
  20224738.595    79366218.421  
  21996230.556   115590971.159    21996227.590    90070873.426    21996227.340  
                                
  24004068.902   126142232.620    24004069.080    98292646.689    24004068.187  
  24004067.812    94197117.441  
  20952827.767   110107853.351    20952825.319    85798315.804    20952825.033  
  20952829.215    82223401.925  
  21655685.433   113801394.450    21655682.449    88676397.867    21655682.038  
                                
  23814476.620   125145919.088                    97516282.320    23814472.225  
                                
  21874830.148   114953008.392                    89573756.662    21874826.199  
                                
  24091828.784   126603414.898                    98651991.125    24091823.745  
                                
  21002983.649   110371423.824    21002983.113    86003701.816    21002982.487  
  21002983.149    82420216.758  
  22525157.943   120325350.115    22525158.550    93586385.813    22525158.890  
                                
  19368550.774   103426980.881    19368550.381    80443205.255    19368550.542  
                                
  20551479.290   109550948.825    20551479.737    85206295.429    20551479.523  
                                
  19928675.062   106567581.497    19928674.008    82885892.366    19928674.115  
                                
  23928792.444   125746653.444                                                  
  23928793.784    93901726.518  
  23701839.824   124554009.287                                                  
  23701842.343    93011120.011  
  24644296.392   129506651.768                                                  
  24644297.911    96709517.722  
  23542506.982   123716709.612                                                  
  23542508.465    92385860.120  
 21  9  1  9 13 14.0000000  0 17G 1G 7G 8G14G17G19G21G22G30R12R13R14
                                R24E13E15E21E27
  20224700.158   106281516.806    20224699.980    82816765.261    20224699.890  
  20224699.211    79366063.824  
  21996819.091   115594063.821    21996816.124    90073283.300    21996815.838  
                                
  24004645.803   126145264.349    24004645.964    98295009.079    24004645.106  
  24004644.713    94199381.413  
  20952496.118   110106110.577    20952493.688    85796957.795    20952493.402  
  20952497.584    82222100.502  
  21655370.920   113799741.611    21655367.900    88675109.943    21655367.507  
                                
  23813899.201   125142884.748                    97513917.904    23813894.805  
                                
  21875213.099   114955020.901                    89575324.851    21875209.168  
                                
  24091410.524   126601216.873                    98650278.369    24091405.467  
                                
  21003225.953   110372697.052    21003225.417    86004693.937    21003224.791  
  21003225.453    82421167.538  
  22525864.520   120329124.534    22525865.127    93589321.479    22525865.449  
                                
  19368758.966   103428092.552    19368758.555    80444069.886    19368758.716  
                                
  20550929.282   109548016.985    20550929.729    85204015.112    20550929.532  
                                
  19928283.177   106565486.050    19928282.158    82884262.578    19928282.248  
                                
  23928440.049   125744801.461                                                  
  23928441.353    93900343.546  
  23702033.488   124555027.074                                                  
  23702036.008    93011880.055  
  24643962.420   129504896.760                                                  
  24643963.939    96708207.164  
  23542631.547   123717364.235                                                  
  23542633.030    92386348.962  
 21  9  1  9 13 15.0000000  0 17G 1G 7G 8G14G17G19G21G22G30R12R13R14
                                R24E13E15E21E27
  20224660.900   106281310.482    20224660.721    82816604.489    20224660.632  
  20224659.953    79365909.758  
  21997407.660   115597156.821    21997404.694    90075693.429    21997404.426  
                                
  24005222.740   126148296.103    24005222.901    98297371.488    24005222.043  
  24005221.668    94201645.366  
  20952164.523   110104368.054    20952162.093    85795599.985    20952161.807  
  20952166.006    82220799.263  
  21655056.443   113798089.044    21655053.423    88673822.230    21655053.048  
                                
  23813321.817   125139850.517                    97511553.575    23813317.385  
                                
  21875596.157   114957033.816                    89576893.356    21875592.208  
                                
  24090992.281   126599019.062                    98648565.792    24090987.224  
                                
  21003468.328   110373970.855    21003467.810    86005686.511    21003467.185  
  21003467.846    82422118.757  
  22526571.150   120332899.272    22526571.758    93592257.389    22526572.097  
                                
  19368967.283   103429204.953    19368966.872    80444935.089    19368967.033  
                                
  20550379.345   109545085.538    20550379.792    85201735.099    20550379.595  
                                
  19927891.452   106563391.190    19927890.416    82882633.240    19927890.487  
                                
  23928087.672   125742949.815                                                  
  23928088.994    93898960.823  
  23702227.242   124556045.234                                                  
  23702229.762    93012640.369  
  24643628.466   129503141.871                                                  
  24643629.985    96706896.693  
  23542756.183   123718019.124                                                  
  23542757.648    92386838.000  
 21  9  1  9 13 16.0000000  0 17G 1G 7G 8G14G17G19G21G22G30R12R13R14
                                R24E13E15E21E27
  20224621.767   106281104.815    20224621.588    82816444.229    20224621.481  
  20224620.802    79365756.175  
  21997996.284   115600250.085    21997993.336    90078103.762    21997993.068  
                                
  24005799.624   126151327.735    24005799.802    98299733.803    24005798.927  
  24005798.552    94203909.258  
  20951832.963   110102625.714    20951830.533    85794242.320    20951830.247  
  20951834.446    82219498.165  
  21654742.002   113796436.676    21654739.000    88672534.671    21654738.607  
                                
  23812744.415   125136816.382                    97509189.317    23812740.019  
                                
  21875979.269   114959047.088                    89578462.141    21875975.338  
                                
  24090574.093   126596821.430                    98646853.347    24090569.054  
                                
  21003710.829   110375245.169    21003710.293    86006679.487    21003709.667  
  21003710.328    82423070.368  
  22527277.834   120336674.255    22527278.442    93595193.493    22527278.781  
                                
  19369175.725   103430317.972    19369175.314    80445800.766    19369175.475  
                                
  20549829.479   109542154.416    20549829.926    85199455.340    20549829.729  
                                
  19927499.799   106561296.883    19927498.762    82881004.337    19927498.852  
                                
  23927735.384   125741098.442                                                  
  23927736.688    93897578.304  
  23702421.032   124557063.702                                                  
  23702423.569    93013400.916  
  24643294.548   129501387.039                                                  
  24643296.066    96705586.273  
  23542880.837   123718674.202                                                  
  23542882.303    92387327.184  
 21  9  1  9 13 17.0000000  0 17G 1G 7G 8G14G17G19G21G22G30R12R13R14
                                R24E13E15E21E27
  20224582.759   106280899.885    20224582.580    82816284.548    20224582.491  
  20224581.830    79365603.150  
  21998584.997   115603343.712    21998582.048    90080514.381    21998581.763  
                                
  24006376.525   126154359.375    24006376.686    98302096.120    24006375.828  
  24006375.453    94206173.143  
  20951501.475   110100883.643    20951499.027    85792884.862    20951498.759  
  20951502.940    82218197.272  
  21654427.614   113794784.614    21654424.612    88671247.350    21654424.219  
                                
  23812167.085   125133782.400                    97506825.168    23812162.689  
                                
  21876362.470   114961060.806                    89580031.272    21876358.539  
                                
  24090155.958   126594624.074                    98645141.121    24090150.901  
                                
  21003953.437   110376520.131    21003952.918    86007672.959    21003952.311  
  21003952.972    82424022.437  
  22527984.590   120340449.539    22527985.179    93598129.830    22527985.519  
                                
  19369384.293   103431431.736    19369383.882    80446667.025    19369384.043  
                                
  20549279.685   109539223.718    20549280.132    85197175.913    20549279.935  
                                
  19927108.271   106559203.257    19927107.252    82879375.968    19927107.324  
                                
  23927383.132   125739247.442                                                  
  23927384.472    93896196.064  
  23702614.928   124558082.566                                                  
  23702617.466    93014161.758  
  24642960.629   129499632.371                                                  
  24642962.148    96704275.969  
  23543005.545   123719329.573                                                  
  23543007.010    92387816.591  
 21  9  1  9 13 18.0000000  0 17G 1G 7G 8G14G17G19G21G22G30R12R13R14
                                R24E13E15E21E27
  20224543.912   106280695.706    20224543.733    82816125.445    20224543.626  
  20224542.965    79365450.668  
  21999173.781   115606437.704    21999170.815    90082925.281    21999170.565  
                                
  24006953.427   126157391.018    24006953.623    98304458.439    24006952.730  
  24006952.354    94208437.019  
  20951170.022   110099141.857    20951167.574    85791527.624    20951167.288  
  20951171.470    82216896.586  
  21654113.298   113793132.828    21654110.296    88669960.246    21654109.903  
                                
  23811589.772   125130748.594                    97504461.161    23811585.377  
                                
  21876745.761   114963074.968                    89581600.751    21876741.812  
                                
  24089737.858   126592426.993                    98643429.104    24089732.819  
                                
  21004196.187   110377795.680    21004195.669    86008666.893    21004195.044  
  21004195.687    82424974.955  
  22528691.363   120344225.121    22528691.989    93601066.396    22528692.328  
                                
  19369593.021   103432546.231    19369592.592    80447533.854    19369592.753  
                                
  20548729.980   109536293.447    20548730.427    85194896.813    20548730.213  
                                
  19926716.868   106557110.284    19926715.849    82877748.100    19926715.938  
                                
  23927030.969   125737396.785                                                  
  23927032.292    93894814.080  
  23702808.879   124559101.820                                                  
  23702811.416    93014922.887  
  24642626.764   129497877.847                                                  
  24642628.283    96702965.772  
  23543130.325   123719985.225                                                  
  23543131.790    92388306.195  
 21  9  1  9 13 19.0000000  0 17G 1G 7G 8G14G17G19G21G22G30R12R13R14
                                R24E13E15E21E27
  20224505.207   106280492.284    20224505.011    82815966.934    20224504.921  
  20224504.242    79365298.759  
  21999762.601   115609532.068    21999759.671    90085336.470    21999759.385  
                                
  24007530.346   126160422.682    24007530.525    98306820.772    24007529.631  
  24007529.256    94210700.922  
  20950838.623   110097400.371    20950836.175    85790170.624    20950835.907  
  20950840.107    82215596.123  
  21653799.036   113791481.370    21653796.016    88668673.394    21653795.623  
                                
  23811012.496   125127714.985                    97502097.312    23811008.100  
                                
  21877129.123   114965089.610                    89583170.600    21877125.174  
                                
  24089319.830   126590230.189                    98641717.306    24089314.773  
                                
  21004439.027   110379071.874    21004438.509    86009661.331    21004437.884  
  21004438.545    82425927.960  
  22529398.226   120348001.017    22529398.834    93604003.199    22529399.173  
                                
  19369801.856   103433661.477    19369801.445    80448401.265    19369801.624  
                                
  20548180.347   109533363.622    20548180.794    85192618.058    20548180.597  
                                
  19926325.607   106555017.984    19926324.589    82876120.756    19926324.660  
                                
  23926678.878   125735546.536                                                  
  23926680.200    93893432.407  
  23703002.918   124560121.509                                                  
  23703005.456    93015684.339  
  24642292.917   129496123.507                                                  
  24642294.454    96701655.709  
  23543255.158   123720641.198                                                  
  23543256.623    92388796.042  
 21  9  1  9 13 20.0000000  0 17G 1G 7G 8G14G17G19G21G22G30R12R13R14
                                R24E13E15E21E27
  20224466.646   106280289.748    20224466.467    82815809.112    20224466.396  
  20224465.717    79365147.518  
  22000351.546   115612626.951    22000348.598    90087748.063    22000348.330  
                                
  24008107.283   126163454.493    24008107.444    98309183.222    24008106.586  
  24008106.211    94212964.940  
  20950507.296   110095659.307    20950504.866    85788813.946    20950504.580  
  20950508.779    82214295.980  
  21653484.863   113789830.353    21653481.843    88667386.887    21653481.432  
                                
  23810435.273   125124681.678                    97499733.696    23810430.859  
                                
  21877512.592   114967104.840                    89584740.914    21877508.661  
                                
  24088901.874   126588033.798                    98640005.828    24088896.817  
                                
  21004682.010   110380348.829    21004681.492    86010656.360    21004680.884  
  21004681.546    82426881.530  
  22530105.178   120351777.375    22530105.768    93606940.371    22530106.107  
                                
  19370010.870   103434777.606    19370010.477    80449269.366    19370010.638  
                                
  20547630.821   109530434.363    20547631.286    85190339.745    20547631.053  
                                
  19925934.490   106552926.472    19925933.454    82874494.024    19925933.543  
                                
  23926326.876   125733696.792                                                  
  23926328.198    93892051.105  
  23703197.047   124561141.725                                                  
  23703199.603    93016446.193  
  24641959.142   129494369.461                                                  
  24641960.661    96700345.871  
  23543380.062   123721297.602                                                  
  23543381.527    92389286.214  
 21  9  1  9 13 21.0000000  0 17G 1G 7G 8G14G17G19G21G22G30R12R13R14
                                R24E13E15E21E27
  20224428.281   106280088.099    20224428.103    82815651.987    20224428.013  
  20224427.334    79364996.937  
  22000940.581   115615722.337    22000937.650    90090160.049    22000937.364  
                                
  24008684.256   126166486.462    24008684.435    98311545.788    24008683.541  
  24008683.166    94215229.062  
  20950176.094   110093918.665    20950173.646    85787457.602    20950173.360  
  20950177.541    82212996.146  
  21653170.761   113788179.761    21653167.741    88666100.713    21653167.348  
                                
  23809858.121   125121648.696                    97497370.334    23809853.707  
                                
  21877896.204   114969120.671                    89586311.691    21877892.255  
                                
  24088483.989   126585837.848                    98638294.700    24088478.950  
                                
  21004925.172   110381626.535    21004924.636    86011651.975    21004924.010  
  21004924.672    82427835.661  
  22530812.202   120355554.195    22530812.792    93609877.900    22530813.131  
                                
  19370220.063   103435894.597    19370219.652    80450138.131    19370219.812  
                                
  20547081.402   109527505.657    20547081.849    85188061.863    20547081.652  
                                
  19925543.516   106550835.742    19925542.480    82872867.898    19925542.551  
                                
  23925974.981   125731847.555                                                  
  23925976.322    93890670.181  
  23703391.302   124562162.491                                                  
  23703393.839    93017208.451  
  24641625.420   129492615.720                                                  
  24641626.939    96699036.262  
  23543505.038   123721954.431                                                  
  23543506.521    92389776.706  
 21  9  1  9 13 22.0000000  0 17G 1G 7G 8G14G17G19G21G22G30R12R13R14
                                R24E13E15E21E27
  20224390.059   106279887.189    20224389.863    82815495.429    20224389.791  
  20224389.112    79364846.905  
  22001529.687   115618818.083    22001526.738    90092572.314    22001526.470  
                                
  24009261.211   126169518.442    24009261.390    98313908.366    24009260.532  
  24009260.139    94217493.193  
  20949844.909   110092178.303    20949842.461    85786101.478    20949842.193  
  20949846.374    82211696.522  
  21652856.713   113786529.462    21652853.693    88664814.766    21652853.300  
                                
  23809281.005   125118615.882                    97495007.107    23809276.574  
                                
  21878279.888   114971136.942                    89587882.814    21878275.939  
                                
  24088066.175   126583642.165                    98636583.778    24088061.136  
                                
  21005168.423   110382904.854    21005167.887    86012648.070    21005167.279  
  21005167.940    82428790.250  
  22531519.279   120359331.340    22531519.887    93612815.682    22531520.226  
                                
  19370429.363   103437012.324    19370428.969    80451007.475    19370429.130  
                                
  20546532.073   109524577.347    20546532.520    85185784.289    20546532.287  
                                
  19925152.667   106548745.660    19925151.630    82871242.282    19925151.702  
                                
  23925623.158   125729998.689                                                  
  23925624.481    93889289.532  
  23703585.627   124563183.647                                                  
  23703588.183    93017970.996  
  24641291.698   129490862.129                                                  
  24641293.253    96697726.758  
  23543630.085   123722611.557                                                  
  23543631.551    92390267.412  
 21  9  1  9 13 23.0000000  0 17G 1G 7G 8G14G17G19G21G22G30R12R13R14
                                R24E13E15E21E27
  20224351.927   106279686.869    20224351.748    82815339.338    20224351.659  
  20224350.998    79364697.317  
  22002118.828   115621914.043    22002115.880    90094984.753    22002115.594  
                                
  24009838.148   126172550.238    24009838.345    98316270.802    24009837.451  
  24009837.076    94219757.192  
  20949513.760   110090438.066    20949511.312    85784745.449    20949511.027  
  20949515.208    82210396.995  
  21652542.718   113784879.313    21652539.699    88663528.938    21652539.288  
                                
  23808703.872   125115583.086                    97492643.880    23808699.458  
                                
  21878663.625   114973153.519                    89589454.170    21878659.694  
                                
  24087648.380   126581446.593                    98634872.945    24087643.305  
                                
  21005411.781   110384183.642    21005411.245    86013644.529    21005410.637  
  21005411.281    82429745.185  
  22532226.410   120363108.665    22532227.000    93615753.606    22532227.339  
                                
  19370638.787   103438130.630    19370638.394    80451877.270    19370638.555  
                                
  20545982.761   109521649.294    20545983.226    85183506.914    20545983.011  
                                
  19924761.889   106546656.113    19924760.853    82869617.080    19924760.960  
                                
  23925271.371   125728150.051                                                  
  23925272.693    93887909.055  
  23703779.989   124564205.052                                                  
  23703782.526    93018733.738  
  24640958.012   129489108.541                                                  
  24640959.531    96696417.262  
  23543755.169   123723268.820                                                  
  23543756.652    92390758.226  
 21  9  1  9 13 24.0000000  0 17G 1G 7G 8G14G17G19G21G22G30R12R13R14
                                R24E13E15E21E27
  20224313.937   106279487.236    20224313.759    82815183.780    20224313.669  
  20224312.990    79364548.243  
  22002708.024   115625010.312    22002705.075    90097397.435    22002704.789  
                                
  24010415.085   126175581.981    24010415.264    98318633.197    24010414.388  
  24010413.995    94222021.160  
  20949182.630   110088698.050    20949180.199    85783389.592    20949179.914  
  20949184.095    82209097.636  
  21652228.724   113783229.387    21652225.704    88662243.284    21652225.311  
                                
  23808126.774   125112550.380                    97490280.726    23808122.378  
                                
  21879047.452   114975170.473                    89591025.823    21879043.503  
                                
  24087230.602   126579251.244                    98633162.286    24087225.563  
                                
  21005655.211   110385462.980    21005654.693    86014641.415    21005654.067  
  21005654.728    82430700.543  
  22532933.577   120366886.236    22532934.166    93618691.715    22532934.506  
                                
  19370848.338   103439249.612    19370847.944    80452747.592    19370848.105  
                                
  20545433.557   109518721.585    20545433.986    85181229.803    20545433.771  
                                
  19924371.254   106544567.184    19924370.218    82867992.355    19924370.307  
                                
  23924919.655   125726301.709                                                  
  23924920.977    93886528.802  
  23703974.421   124565226.794                                                  
  23703976.959    93019496.732  
  24640624.344   129487355.067                                                  
  24640625.863    96695107.852  
  23543880.287   123723926.316                                                  
  23543881.753    92391249.215  
 21  9  1  9 13 25.0000000  0 17G 1G 7G 8G14G17G19G21G22G30R12R13R14
                                R24E13E15E21E27
  20224276.144   106279288.626    20224275.966    82815029.021    20224275.876  
  20224275.197    79364399.933  
  22003297.344   115628107.217    22003294.396    90099810.605    22003294.110  
                                
  24010992.040   126178613.991    24010992.219    98320995.793    24010991.343  
  24010990.968    94224285.325  
  20948851.642   110086958.603    20948849.194    85782034.177    20948848.890  
  20948853.071    82207798.694  
  21651914.872   113781580.057    21651911.853    88660958.092    21651911.459  
                                
  23807549.765   125109518.136                    97487917.940    23807545.351  
                                
  21879431.403   114977188.162                    89592598.048    21879427.454  
                                
  24086812.949   126577056.441                    98631452.047    24086807.910  
                                
  21005898.855   110386743.224    21005898.301    86015639.008    21005897.711  
  21005898.355    82431656.567  
  22533640.850   120370664.402    22533641.458    93621630.288    22533641.797  
                                
  19371058.066   103440369.591    19371057.673    80453618.684    19371057.834  
                                
  20544884.442   109515794.588    20544884.906    85178953.249    20544884.674  
                                
  19923980.781   106542479.186    19923979.744    82866368.355    19923979.834  
                                
  23924568.046   125724454.022                                                  
  23924569.368    93885149.036  
  23704168.979   124566249.215                                                  
  23704171.517    93020260.228  
  24640290.747   129485602.019                                                  
  24640292.266    96693798.751  
  23544005.514   123724584.380                                                  
  23544006.979    92391740.625  
 21  9  1  9 13 26.0000000  0 17G 1G 7G 8G14G17G19G21G22G30R12R13R14
                                R24E13E15E21E27
  20224238.476   106279090.706    20224238.316    82814874.800    20224238.208  
  20224237.529    79364252.138  
  22003886.718   115631204.457    22003883.770    90102224.039    22003883.502  
                                
  24011568.995   126181645.942    24011569.174    98323358.353    24011568.280  
  24011567.905    94226549.456  
  20948520.672   110085219.393    20948518.241    85780678.948    20948517.956  
  20948522.137    82206499.927  
  21651601.075   113779930.967    21651598.055    88659673.092    21651597.644  
                                
  23806972.756   125106486.020                    97485555.248    23806968.361  
                                
  21879815.426   114979206.241                    89594170.581    21879811.495  
                                
  24086395.350   126574861.869                    98629741.987    24086390.311  
                                
  21006142.571   110388024.031    21006142.052    86016637.040    21006141.427  
  21006142.070    82432613.014  
  22534348.178   120374442.791    22534348.785    93624569.042    22534349.125  
                                
  19371267.938   103441490.273    19371267.545    80454490.326    19371267.723  
                                
  20544335.434   109512867.990    20544335.863    85176677.009    20544335.666  
                                
  19923590.414   106540391.753    19923589.378    82864744.793    19923589.485  
                                
  23924216.509   125722606.657                                                  
  23924217.831    93883769.509  
  23704363.609   124567271.991                                                  
  23704366.146    93021023.986  
  24639957.168   129483849.079                                                  
  24639958.687    96692489.744  
  23544130.793   123725242.698                                                  
  23544132.259    92392232.223  
 21  9  1  9 13 27.0000000  0 17G 1G 7G 8G14G17G19G21G22G30R12R13R14
                                R24E13E15E21E27
  20224200.934   106278893.368    20224200.755    82814721.028    20224200.648  
  20224199.987    79364104.779  
  22004476.128   115634301.870    22004473.197    90104637.608    22004472.911  
                                
  24012145.932   126184677.741    24012146.111    98325720.793    24012145.235  
  24012144.860    94228813.448  
  20948189.719   110083480.283    20948187.289    85779323.796    20948187.003  
  20948191.185    82205201.242  
  21651287.277   113778282.004    21651284.257    88658388.185    21651283.846  
                                
  23806395.766   125103453.922                    97483192.576    23806391.370  
                                
  21880199.503   114981224.631                    89595743.348    21880195.572  
                                
  24085977.751   126572667.421                    98628032.032    24085972.712  
                                
  21006386.393   110389305.299    21006385.857    86017635.428    21006385.250  
  21006385.911    82433569.801  
  22535055.523   120378221.344    22535056.131    93627507.921    22535056.470  
                                
  19371477.899   103442611.501    19371477.524    80455362.392    19371477.684  
                                
  20543786.462   109509941.662    20543786.891    85174400.974    20543786.694  
                                
  19923200.137   106538304.759    19923199.100    82863121.578    19923199.190  
                                
  23923865.007   125720759.496                                                  
  23923866.330    93882390.137  
  23704558.256   124568294.992                                                  
  23704560.811    93021787.925  
  24639623.607   129482096.139                                                  
  24639625.126    96691180.726  
  23544256.091   123725901.138                                                  
  23544257.556    92392723.913  
 21  9  1  9 13 28.0000000  0 17G 1G 7G 8G14G17G19G21G22G30R12R13R14
                                R24E13E15E21E27
  20224163.534   106278696.821    20224163.355    82814567.875    20224163.248  
  20224162.569    79363958.001  
  22005065.645   115637399.694    22005062.678    90107051.499    22005062.410  
                                
  24012722.870   126187709.578    24012723.048    98328083.266    24012722.173  
  24012721.797    94231077.480  
  20947858.839   110081741.485    20947856.409    85777968.890    20947856.123  
  20947860.304    82203902.797  
  21650973.550   113776633.366    21650970.530    88657103.532    21650970.119  
                                
  23805818.811   125100422.020                    97480830.058    23805814.415  
                                
  21880583.687   114983243.479                    89597316.476    21880579.756  
                                
  24085560.224   126570473.255                    98626322.295    24085555.149  
                                
  21006630.323   110390587.210    21006629.805    86018634.322    21006629.198  
  21006629.841    82434527.070  
  22535762.958   120382000.270    22535763.529    93630447.086    22535763.887  
                                
  19371688.039   103443733.489    19371687.628    80456235.047    19371687.788  
                                
  20543237.561   109507015.796    20543238.026    85172125.303    20543237.811  
                                
  19922809.984   106536218.433    19922808.948    82861498.878    19922809.037  
                                
  23923513.559   125718912.730                                                  
  23923514.899    93881011.058  
  23704753.028   124569318.443                                                  
  23704755.566    93022552.179  
  24639290.046   129480343.388                                                  
  24639291.601    96689871.853  
  23544381.460   123726559.892                                                  
  23544382.907    92393215.840  
 21  9  1  9 13 29.0000000  0 17G 1G 7G 8G14G17G19G21G22G30R12R13R14
                                R24E13E15E21E27
  20224126.223   106278500.788    20224126.062    82814415.122    20224125.955  
  20224125.276    79363811.608  
  22005655.180   115640497.659    22005652.213    90109465.502    22005651.927  
                                
  24013299.753   126190741.180    24013299.950    98330445.560    24013299.056  
  24013298.681    94233341.352  
  20947527.994   110080002.766    20947525.546    85776614.044    20947525.260  
  20947529.441    82202604.394  
  21650659.842   113774984.811    21650656.804    88655818.948    21650656.411  
                                
  23805241.856   125097390.072                    97478467.505    23805237.460  
                                
  21880967.907   114985262.567                    89598889.792    21880963.976  
                                
  24085142.678   126568279.174                    98624612.630    24085137.639  
                                
  21006874.343   110391869.520    21006873.825    86019633.520    21006873.199  
  21006873.860    82435484.641  
  22536470.392   120385779.292    22536470.982    93633386.321    22536471.339  
                                
  19371898.250   103444856.020    19371897.839    80457108.125    19371898.000  
                                
  20542688.714   109504090.097    20542689.161    85169849.752    20542688.946  
                                
  19922419.921   106534132.544    19922418.885    82859876.520    19922418.956  
                                
  23923162.183   125717066.114                                                  
  23923163.505    93879632.094  
  23704947.819   124570342.055                                                  
  23704950.356    93023316.569  
  24638956.503   129478590.565                                                  
  24638958.022    96688562.930  
  23544506.829   123727218.732                                                  
  23544508.294    92393707.830  
 21  9  1  9 13 30.0000000  0 17G 1G 7G 8G14G17G19G21G22G30R12R13R14
                                R24E13E15E21E27
  20224089.074   106278305.609    20224088.913    82814263.037    20224088.823  
  20224088.144    79363665.857  
  22006244.786   115643596.099    22006241.820    90111879.866    22006241.534  
                                
  24013876.672   126193772.876    24013876.851    98332807.925    24013875.958  
  24013875.582    94235605.288  
  20947197.185   110078264.422    20947194.754    85775259.492    20947194.469  
  20947198.632    82201306.287  
  21650346.205   113773336.666    21650343.185    88654534.677    21650342.774  
                                
  23804664.972   125094358.417                    97476105.172    23804660.558  
                                
  21881352.234   114987282.210                    89600463.540    21881348.303  
                                
  24084725.222   126566085.445                    98622903.229    24084720.183  
                                
  21007118.505   110393152.546    21007117.987    86020633.281    21007117.361  
  21007118.005    82436442.743  
  22537177.898   120389558.713    22537178.506    93636325.863    22537178.863  
                                
  19372108.622   103445979.362    19372108.211    80457981.833    19372108.372  
                                
  20542139.956   109501164.904    20542140.403    85167574.606    20542140.206  
                                
  19922030.001   106532047.461    19922028.965    82858254.791    19922029.037  
                                
  23922810.860   125715219.976                                                  
  23922812.200    93878253.484  
  23705142.716   124571366.180                                                  
  23705145.253    93024081.333  
  24638623.013   129476838.016                                                  
  24638624.532    96687254.205  
  23544632.287   123727877.961                                                  
  23544633.735    92394200.112  
 21  9  1  9 13 31.0000000  0 17G 1G 7G 8G14G17G19G21G22G30R12R13R14
                                R24E13E15E21E27
  20224052.085   106278111.141    20224051.888    82814111.500    20224051.817  
  20224051.138    79363520.642  
  22006834.446   115646694.882    22006831.515    90114294.505    22006831.229  
                                
  24014453.574   126196804.558    24014453.752    98335170.279    24014452.877  
  24014452.484    94237869.212  
  20946866.429   110076526.336    20946863.999    85773905.138    20946863.713  
  20946867.894    82200008.366  
  21650032.621   113771688.780    21650029.601    88653250.617    21650029.208  
                                
  23804088.071   125091326.868                    97473742.919    23804083.675  
                                
  21881736.632   114989302.278                    89602037.621    21881732.701  
                                
  24084307.837   126563891.968                    98621194.024    24084302.780  
                                
  21007362.757   110394436.177    21007362.239    86021633.512    21007361.631  
  21007362.274    82437401.298  
  22537885.494   120393338.427    22537886.083    93639265.636    22537886.441  
                                
  19372319.119   103447103.440    19372318.726    80458856.118    19372318.887  
                                
  20541591.270   109498240.101    20541591.717    85165299.761    20541591.502  
                                
  19921640.189   106529963.034    19921639.170    82856633.570    19921639.260  
                                
  23922459.626   125713374.181                                                  
  23922460.949    93876875.129  
  23705337.667   124572390.684                                                  
  23705340.204    93024846.387  
  24638289.524   129475085.593                                                  
  24638291.060    96685945.578  
  23544757.782   123728537.467                                                  
  23544759.229    92394692.598  
 21  9  1  9 13 32.0000000  0 17G 1G 7G 8G14G17G19G21G22G30R12R13R14
                                R24E13E15E21E27
  20224015.239   106277917.552    20224015.060    82813960.654    20224014.971  
  20224014.292    79363376.079  
  22007424.213   115649794.147    22007421.282    90116709.516    22007420.996  
                                
  24015030.511   126199836.386    24015030.690    98337532.745    24015029.814  
  24015029.439    94240133.233  
  20946535.781   110074788.664    20946533.333    85772551.112    20946533.047  
  20946537.210    82198710.753  
  21649719.109   113770041.330    21649716.089    88651966.888    21649715.696  
                                
  23803511.259   125088295.641                    97471380.924    23803506.863  
                                
  21882121.156   114991322.939                    89603612.165    21882117.225  
                                
  24083890.488   126561698.929                    98619485.164    24083885.449  
                                
  21007607.169   110395720.546    21007606.651    86022634.322    21007606.043  
  21007606.669    82438360.403  
  22538593.125   120397118.573    22538593.750    93642205.747    22538594.090  
                                
  19372529.777   103448228.363    19372529.384    80459731.053    19372529.545  
                                
  20541042.691   109495315.896    20541043.138    85163025.380    20541042.941  
                                
  19921250.555   106527879.379    19921249.518    82855012.951    19921249.608  
                                
  23922108.464   125711528.880                                                  
  23922109.787    93875497.147  
  23705532.707   124573415.710                                                  
  23705535.245    93025611.831  
  24637956.105   129473333.466                                                  
  24637957.642    96684637.173  
  23544883.347   123729197.380                                                  
  23544884.812    92395185.395  
 21  9  1  9 13 33.0000000  0 17G 1G 7G 8G14G17G19G21G22G30R12R13R14
                                R24E13E15E21E27
  20223978.518   106277724.533    20223978.339    82813810.250    20223978.232  
  20223977.553    79363231.943  
  22008014.034   115652893.602    22008011.067    90119124.681    22008010.781  
                                
  24015607.412   126202868.026    24015607.591    98339895.062    24015606.715  
  24015606.340    94242397.118  
  20946205.114   110073051.084    20946202.666    85771197.151    20946202.398  
  20946206.580    82197413.214  
  21649405.633   113768393.993    21649402.613    88650683.248    21649402.220  
                                
  23802934.447   125085264.418                    97469018.936    23802930.015  
                                
  21882505.733   114993343.871                    89605186.912    21882501.784  
                                
  24083473.193   126559505.948                    98617776.341    24083468.154  
                                
  21007851.653   110397005.354    21007851.135    86023635.468    21007850.527  
  21007851.171    82439319.839  
  22539300.828   120400898.865    22539301.417    93645145.972    22539301.757  
                                
  19372740.542   103449353.831    19372740.149    80460606.415    19372740.310  
                                
  20540494.166   109492391.949    20540494.612    85160751.204    20540494.398  
                                
  19920860.992   106525796.177    19920859.938    82853392.683    19920860.027  
                                
  23921757.374   125709683.775                                                  
  23921758.678    93874119.306  
  23705727.819   124574440.957                                                  
  23705730.357    93026377.437  
  24637622.705   129471581.315                                                  
  24637624.224    96683328.745  
  23545008.949   123729857.411                                                  
  23545010.396    92395678.271  
 21  9  1  9 13 34.0000000  0 17G 1G 7G 8G14G17G19G21G22G30R12R13R14
                                R24E13E15E21E27
  20223941.922   106277532.288    20223941.761    82813660.444    20223941.654  
  20223940.975    79363088.384  
  22008603.926   115655993.469    22008600.942    90121540.161    22008600.656  
                                
  24016184.314   126205899.678    24016184.510    98342257.381    24016183.617  
  24016183.242    94244661.014  
  20945874.537   110071313.840    20945872.089    85769843.457    20945871.821  
  20945876.003    82196115.908  
  21649092.228   113766746.998    21649089.208    88649399.869    21649088.815  
                                
  23802357.652   125082233.391                    97466657.097    23802353.257  
                                
  21882890.399   114995365.280                    89606762.036    21882886.432  
                                
  24083055.951   126557313.272                    98616067.765    24083050.912  
                                
  21008096.298   110398290.818    21008095.780    86024637.129    21008095.154  
  21008095.798    82440279.760  
  22540008.566   120404679.539    22540009.174    93648086.506    22540009.513  
                                
  19372951.450   103450480.071    19372951.057    80461482.382    19372951.218  
                                
  20539945.730   109489468.456    20539946.176    85158477.373    20539945.944  
                                
  19920471.537   106523713.635    19920470.500    82851772.928    19920470.590  
                                
  23921406.319   125707839.063                                                  
  23921407.641    93872741.768  
  23705922.985   124575466.634                                                  
  23705925.522    93027143.363  
  24637289.323   129469829.362                                                  
  24637290.842    96682020.464  
  23545134.621   123730517.774                                                  
  23545136.069    92396171.401  
 21  9  1  9 13 35.0000000  0 17G 1G 7G 8G14G17G19G21G22G30R12R13R14
                                R24E13E15E21E27
  20223905.523   106277340.980    20223905.362    82813511.375    20223905.255  
  20223904.576    79362945.524  
  22009193.889   115659093.883    22009190.923    90123956.071    22009190.655  
                                
  24016761.287   126208931.568    24016761.483    98344619.893    24016760.608  
  24016760.232    94246925.059  
  20945544.032   110069577.061    20945541.602    85768490.122    20945541.316  
  20945545.479    82194818.969  
  21648778.913   113765100.465    21648775.893    88648116.860    21648775.464  
                                
  23801780.930   125079202.719                    97464295.537    23801776.534  
                                
  21883275.173   114997387.332                    89608337.661    21883271.242  
                                
  24082638.781   126555121.092                    98614359.577    24082633.724  
                                
  21008341.050   110399577.084    21008340.532    86025639.414    21008339.924  
  21008340.550    82441240.287  
  22540716.394   120408460.718    22540716.983    93651027.427    22540717.323  
                                
  19373162.519   103451607.227    19373162.144    80462359.061    19373162.305  
                                
  20539397.401   109486545.555    20539397.847    85156204.008    20539397.615  
                                
  19920082.260   106521631.950    19920081.224    82850153.842    19920081.295  
                                
  23921055.407   125705994.933                                                  
  23921056.729    93871364.656  
  23706118.275   124576492.905                                                  
  23706120.813    93027909.741  
  24636955.994   129468077.748                                                  
  24636957.513    96680712.449  
  23545260.366   123731178.611                                                  
  23545261.831    92396664.886  
 21  9  1  9 13 36.0000000  0 17G 1G 7G 8G14G17G19G21G22G30R12R13R14
                                R24E13E15E21E27
  20223869.231   106277150.338    20223869.052    82813362.825    20223868.981  
  20223868.302    79362803.165  
  22009783.942   115662194.574    22009780.976    90126372.194    22009780.690  
                                
  24017338.206   126211963.319    24017338.367    98346982.294    24017337.509  
  24017337.134    94249189.049  
  20945213.580   110067840.477    20945211.114    85767136.941    20945210.846  
  20945215.028    82193522.177  
  21648465.633   113763454.166    21648462.613    88646834.028    21648462.202  
                                
  23801204.225   125076172.135                    97461934.059    23801199.811  
                                
  21883660.036   114999409.766                    89609913.585    21883656.105  
                                
  24082221.647   126552929.106                    98612651.534    24082216.608  
                                
  21008585.927   110400863.892    21008585.409    86026642.124    21008584.783  
  21008585.427    82442201.216  
  22541424.257   120412242.096    22541424.865    93653968.501    22541425.204  
                                
  19373373.731   103452735.027    19373373.338    80463236.241    19373373.498  
                                
  20538849.126   109483622.972    20538849.572    85153930.890    20538849.376  
                                
  19919693.073   106519550.826    19919692.019    82848535.191    19919692.126  
                                
  23920704.513   125704151.087                                                  
  23920705.835    93869987.760  
  23706313.655   124577519.504                                                  
  23706316.193    93028676.353  
  24636622.683   129466326.226                                                  
  24636624.220    96679404.488  
  23545386.164   123731839.672                                                  
  23545387.629    92397158.537  
 21  9  1  9 13 37.0000000  0 17G 1G 7G 8G14G17G19G21G22G30R12R13R14
                                R24E13E15E21E27
  20223833.118   106276960.570    20223832.957    82813214.956    20223832.850  
  20223832.171    79362661.458  
  22010374.067   115665295.776    22010371.101    90128788.714    22010370.833  
                                
  24017915.179   126214995.241    24017915.357    98349344.829    24017914.482  
  24017914.089    94251453.136  
  20944883.182   110066104.314    20944880.734    85765784.088    20944880.466  
  20944884.647    82192225.689  
  21648152.425   113761808.286    21648149.405    88645551.526    21648149.012  
                                
  23800627.574   125073141.859                    97459572.810    23800623.160  
                                
  21884045.006   115001432.769                    89611489.949    21884041.057  
                                
  24081804.620   126550737.520                    98610943.809    24081799.563  
                                
  21008830.929   110402151.443    21008830.411    86027645.406    21008829.804  
  21008830.447    82443162.701  
  22542132.228   120416023.891    22542132.800    93656909.895    22542133.139  
                                
  19373585.086   103453863.721    19373584.692    80464114.117    19373584.853  
                                
  20538300.958   109480700.961    20538301.422    85151658.213    20538301.190  
                                
  19919304.028   106517470.464    19919302.992    82846917.133    19919303.081  
                                
  23920353.762   125702307.740                                                  
  23920355.084    93868611.232  
  23706509.089   124578546.626                                                  
  23706511.644    93029443.363  
  24636289.426   129464574.982                                                  
  24636290.945    96678096.748  
  23545512.033   123732501.161                                                  
  23545513.498    92397652.493  
 21  9  1  9 13 38.0000000  0 17G 1G 7G 8G14G17G19G21G22G30R12R13R14
                                R24E13E15E21E27
  20223797.201   106276771.773    20223797.022    82813067.844    20223796.933  
  20223796.254    79362520.473  
  22010964.316   115668397.558    22010961.332    90131205.690    22010961.064  
                                
  24018492.152   126218027.369    24018492.330    98351707.516    24018491.455  
  24018491.079    94253717.391  
  20944552.909   110064368.649    20944550.461    85764431.625    20944550.175  
  20944554.338    82190929.582  
  21647839.324   113760162.926    21647836.304    88644269.423    21647835.893  
                                
  23800051.012   125070111.977                    97457211.865    23800046.598  
                                
  21884430.102   115003456.449                    89613066.845    21884426.135  
                                
  24081387.664   126548546.440                    98609236.481    24081382.607  
                                
  21009076.110   110403439.839    21009075.592    86028649.353    21009074.984  
  21009075.628    82444124.808  
  22542840.288   120419806.278    22542840.896    93659851.749    22542841.235  
                                
  19373796.637   103454993.349    19373796.226    80464992.719    19373796.387  
                                
  20537752.915   109477779.607    20537753.361    85149386.049    20537753.165  
                                
  19918915.163   106515390.982    19918914.126    82845299.757    19918914.198  
                                
  23920003.100   125700464.985                                                  
  23920004.405    93867235.152  
  23706704.665   124579574.375                                                  
  23706707.203    93030210.834  
  24635956.258   129462824.129                                                  
  24635957.777    96676789.286  
  23545638.010   123733163.144                                                  
  23545639.475    92398146.839  
 21  9  1  9 13 39.0000000  0 17G 1G 7G 8G14G17G19G21G22G30R12R13R14
                                R24E13E15E21E27
  20223761.374   106276583.549    20223761.195    82812921.174    20223761.123  
  20223760.444    79362379.910  
  22011554.602   115671499.522    22011551.635    90133622.807    22011551.350  
                                
  24019069.124   126221059.341    24019069.303    98354070.094    24019068.428  
  24019068.034    94255981.526  
  20944222.636   110062633.102    20944220.205    85763079.250    20944219.902  
  20944224.083    82189633.554  
  21647526.240   113758517.675    21647523.221    88642987.416    21647522.810  
                                
  23799474.432   125067082.120                    97454850.940    23799470.018  
                                
  21884815.251   115005480.400                    89614643.950    21884811.302  
                                
  24080970.726   126546355.452                    98607529.210    24080965.687  
                                
  21009321.362   110404728.663    21009320.844    86029653.629    21009320.237  
  21009320.862    82445087.242  
  22543548.402   120423588.816    22543548.973    93662793.721    22543549.313  
                                
  19374008.278   103456123.555    19374007.885    80465871.770    19374008.063  
                                
  20537204.925   109474858.495    20537205.372    85147114.075    20537205.175  
                                
  19918526.386   106513311.991    19918525.350    82843682.765    19918525.421  
                                
  23919652.457   125698622.425                                                  
  23919653.779    93865859.216  
  23706900.277   124580602.342                                                  
  23706902.833    93030978.474  
  24635623.072   129461073.261                                                  
  24635624.609    96675481.819  
  23545764.004   123733825.261                                                  
  23545765.469    92398641.275  
 21  9  1  9 13 40.0000000  0 17G 1G 7G 8G14G17G19G21G22G30R12R13R14
                                R24E13E15E21E27
  20223725.707   106276396.082    20223725.546    82812775.095    20223725.439  
  20223724.760    79362239.920  
  22012144.958   115674601.880    22012141.992    90136040.226    22012141.688  
                                
  24019646.079   126224091.316    24019646.258    98356432.669    24019645.383  
  24019645.007    94258245.670  
  20943892.452   110060897.851    20943889.986    85761727.102    20943889.700  
  20943893.881    82188337.741  
  21647213.211   113756872.744    21647210.191    88641705.651    21647209.798  
                                
  23798897.906   125064052.431                    97452490.141    23798893.492  
                                
  21885200.489   115007504.814                    89616221.416    21885196.522  
                                
  24080553.859   126544164.766                    98605822.180    24080548.820  
                                
  21009566.740   110406018.116    21009566.222    86030658.398    21009565.614  
  21009566.240    82446050.147  
  22544256.569   120427371.683    22544257.159    93665735.951    22544257.498  
                                
  19374220.079   103457254.465    19374219.668    80466751.371    19374219.829  
                                
  20536657.025   109471937.811    20536657.454    85144842.437    20536657.258  
                                
  19918137.735   106511233.686    19918136.699    82842066.308    19918136.770  
                                
  23919301.902   125696780.257                                                  
  23919303.224    93864483.562  
  23707095.979   124581630.719                                                  
  23707098.516    93031746.418  
  24635289.922   129459322.554                                                  
  24635291.459    96674174.480  
  23545890.052   123734487.680                                                  
  23545891.517    92399135.941  
 21  9  1  9 13 41.0000000  0 17G 1G 7G 8G14G17G19G21G22G30R12R13R14
                                R24E13E15E21E27
  20223690.112   106276209.134    20223689.951    82812629.424    20223689.880  
  20223689.183    79362100.316  
  22012735.351   115677704.370    22012732.385    90138457.748    22012732.081  
                                
  24020223.017   126227123.088    24020223.195    98358795.089    24020222.320  
  24020221.927    94260509.655  
  20943562.250   110059162.647    20943559.784    85760375.000    20943559.498  
  20943563.680    82187041.977  
  21646900.217   113755227.891    21646897.197    88640423.953    21646896.786  
                                
  23798321.362   125061022.678                    97450129.292    23798316.948  
                                
  21885585.745   115009529.461                    89617799.062    21885581.796  
                                
  24080136.975   126541974.115                    98604115.182    24080131.936  
                                
  21009812.207   110407307.973    21009811.688    86031663.481    21009811.063  
  21009811.706    82447013.352  
  22544964.736   120431154.618    22544965.326    93668678.234    22544965.665  
                                
  19374431.934   103458385.885    19374431.541    80467631.365    19374431.702  
                                
  20536109.143   109469017.339    20536109.590    85142570.961    20536109.375  
                                
  19917749.155   106509155.820    19917748.119    82840450.188    19917748.190  
                                
  23918951.383   125694938.230                                                  
  23918952.706    93863108.030  
  23707291.716   124582659.279                                                  
  23707294.254    93032514.494  
  24634956.772   129457571.789                                                  
  24634958.291    96672867.090  
  23546016.136   123735150.170                                                  
  23546017.583    92399630.658  
 21  9  1  9 13 42.0000000  0 17G 1G 7G 8G14G17G19G21G22G30R12R13R14
                                R24E13E15E21E27
  20223654.678   106276022.887    20223654.517    82812484.294    20223654.427  
  20223653.731    79361961.234  
  22013325.797   115680807.170    22013322.831    90140875.515    22013322.545  
                                
  24020799.936   126230154.805    24020800.097    98361157.473    24020799.239  
  24020798.864    94262773.602  
  20943232.084   110057427.690    20943229.654    85759023.080    20943229.368  
  20943233.532    82185746.387  
  21646587.241   113753583.277    21646584.221    88639142.435    21646583.828  
                                
  23797744.853   125057993.077                    97447768.560    23797740.458  
                                
  21885971.108   115011554.500                    89619377.017    21885967.159  
                                
  24079720.162   126539783.722                    98602408.387    24079715.123  
                                
  21010057.763   110408598.394    21010057.245    86032669.006    21010056.637  
  21010057.262    82447976.973  
  22545672.957   120434937.797    22545673.565    93671620.709    22545673.904  
                                
  19374643.950   103459518.005    19374643.575    80468511.903    19374643.718  
                                
  20535561.333   109466097.236    20535561.779    85140299.771    20535561.565  
                                
  19917360.683   106507078.548    19917359.646    82838834.533    19917359.754  
                                
  23918600.918   125693096.515                                                  
  23918602.240    93861732.720  
  23707487.507   124583688.181                                                  
  23707490.045    93033282.832  
  24634623.640   129455821.141                                                  
  24634625.159    96671559.782  
  23546142.238   123735812.907                                                  
  23546143.703    92400125.554  
 21  9  1  9 13 43.0000000  0 17G 1G 7G 8G14G17G19G21G22G30R12R13R14
                                R24E13E15E21E27
  20223619.440   106275837.615    20223619.261    82812339.929    20223619.172  
  20223618.475    79361822.886  
  22013916.368   115683910.575    22013913.384    90143293.751    22013913.098  
                                
  24021376.873   126233186.759    24021377.052    98363520.035    24021376.194  
  24021375.801    94265037.721  
  20942902.025   110055693.249    20942899.595    85757671.568    20942899.309  
  20942903.473    82184451.188  
  21646274.390   113751939.193    21646271.370    88637861.333    21646270.959  
                                
  23797168.417   125054963.855                    97445408.129    23797164.003  
                                
  21886356.579   115013580.229                    89620955.505    21886352.648  
                                
  24079303.457   126537593.852                    98600701.994    24079298.400  
                                
  21010303.480   110409889.672    21010302.962    86033675.196    21010302.354  
  21010302.979    82448941.243  
  22546381.285   120438721.526    22546381.893    93674563.604    22546382.232  
                                
  19374856.145   103460651.113    19374855.770    80469393.204    19374855.913  
                                
  20535013.665   109463177.805    20535014.094    85138029.106    20535013.879  
                                
  19916972.407   106505002.190    19916971.370    82837219.587    19916971.460  
                                
  23918250.560   125691255.418                                                  
  23918251.882    93860357.876  
  23707683.405   124584717.730                                                  
  23707685.960    93034051.655  
  24634290.561   129454070.881                                                  
  24634292.080    96670252.775  
  23546268.464   123736476.171                                                  
  23546269.912    92400620.851  
 21  9  1  9 13 44.0000000  0 17G 1G 7G 8G14G17G19G21G22G30R12R13R14
                                R24E13E15E21E27
  20223584.345   106275653.250    20223584.184    82812196.269    20223584.095  
  20223583.398    79361685.212  
  22014507.011   115687014.520    22014504.063    90145712.407    22014503.777  
                                
  24021953.882   126236218.860    24021954.043    98365882.715    24021953.185  
  24021952.810    94267301.953  
  20942572.074   110053959.254    20942569.626    85756320.401    20942569.340  
  20942573.503    82183156.319  
  21645961.629   113750295.571    21645958.573    88636580.591    21645958.180  
                                
  23796592.033   125051934.967                    97443047.954    23796587.620  
                                
  21886742.175   115015606.565                    89622534.468    21886738.243  
                                
  24078886.805   126535404.390                    98598995.920    24078881.766  
                                
  21010549.340   110411181.730    21010548.839    86034681.993    21010548.214  
  21010548.857    82449906.088  
  22547089.685   120442505.741    22547090.292    93677506.885    22547090.632  
                                
  19375068.518   103461785.106    19375068.125    80470275.199    19375068.286  
                                
  20534466.086   109460258.955    20534466.533    85135758.887    20534466.319  
                                
  19916584.256   106502926.633    19916583.237    82835605.260    19916583.309  
                                
  23917900.309   125689414.841                                                  
  23917901.632    93858983.423  
  23707879.428   124585747.841                                                  
  23707882.002    93034820.881  
  24633957.554   129452320.946                                                  
  24633959.073    96668945.999  
  23546394.781   123737139.890                                                  
  23546396.228    92401116.486  
 21  9  1  9 13 45.0000000  0 17G 1G 7G 8G14G17G19G21G22G30R12R13R14
                                R24E13E15E21E27
  20223549.393   106275469.600    20223549.233    82812053.166    20223549.143  
  20223548.464    79361548.069  
  22015097.743   115690118.780    22015094.795    90148131.312    22015094.491  
                                
  24022530.872   126239250.937    24022531.033    98368245.380    24022530.176  
  24022529.765    94269566.171  
  20942242.158   110052225.509    20942239.710    85754969.430    20942239.406  
  20942243.588    82181861.641  
  21645648.903   113748652.203    21645645.865    88635300.042    21645645.454  
                                
  23796015.686   125048906.232                    97440687.899    23796011.290  
                                
  21887127.860   115017633.327                    89624113.761    21887123.928  
                                
  24078470.224   126533215.189                    98597290.042    24078465.185  
                                
  21010795.325   110412474.357    21010794.824    86035689.237    21010794.199  
  21010794.824    82450871.370  
  22547798.173   120446290.272    22547798.763    93680450.411    22547799.121  
                                
  19375280.999   103462919.812    19375280.624    80471157.743    19375280.784  
                                
  20533918.598   109457340.501    20533919.026    85133488.978    20533918.830  
                                
  19916196.248   106500851.666    19916195.212    82833991.397    19916195.283  
                                
  23917550.130   125687574.617                                                  
  23917551.453    93857609.227  
  23708075.523   124586778.308                                                  
  23708078.078    93035590.390  
  24633624.583   129450571.134                                                  
  24633626.102    96667639.324  
  23546521.115   123737803.862                                                  
  23546522.562    92401612.313  
 21  9  1  9 13 46.0000000  0 17G 1G 7G 8G14G17G19G21G22G30R12R13R14
                                R24E13E15E21E27
  20223514.584   106275286.637    20223514.424    82811910.595    20223514.316  
  20223513.637    79361411.432  
  22015688.529   115693223.353    22015685.562    90150550.458    22015685.277  
                                
  24023107.827   126242282.965    24023108.006    98370608.001    24023107.148  
  24023106.755    94271830.343  
  20941912.278   110050491.983    20941909.830    85753618.636    20941909.544  
  20941913.708    82180567.128  
  21645336.213   113747009.085    21645333.193    88634019.688    21645332.800  
                                
  23795439.356   125045877.608                    97438327.939    23795434.943  
                                
  21887513.616   115019660.471                    89625693.353    21887509.685  
                                
  24078053.679   126531026.196                    98595584.322    24078048.640  
                                
  21011041.417   110413767.569    21011040.899    86036696.932    21011040.291  
  21011040.916    82451837.073  
  22548506.680   120450075.059    22548507.288    93683394.135    22548507.627  
                                
  19375493.640   103464055.192    19375493.229    80472040.819    19375493.390  
                                
  20533371.180   109454422.431    20533371.627    85131219.368    20533371.394  
                                
  19915808.311   106498777.258    19915807.275    82832377.971    19915807.347  
                                
  23917200.005   125685734.700                                                  
  23917201.327    93856235.263  
  23708271.689   124587809.127                                                  
  23708274.227    93036360.155  
  24633291.611   129448821.422                                                  
  24633293.130    96666332.728  
  23546647.520   123738468.081                                                  
  23546648.985    92402108.312  
 21  9  1  9 13 47.0000000  0 17G 1G 7G 8G14G17G19G21G22G30R12R13R14
                                R24E13E15E21E27
  20223479.901   106275104.384    20223479.740    82811768.580    20223479.633  
  20223478.954    79361275.343  
  22016279.368   115696328.251    22016276.402    90152969.853    22016276.116  
                                
  24023684.818   126245314.972    24023684.997    98372970.606    24023684.121  
  24023683.728    94274094.502  
  20941582.434   110048758.713    20941579.986    85752268.031    20941579.718  
  20941583.863    82179272.798  
  21645023.594   113745366.223    21645020.575    88632739.536    21645020.164  
                                
  23794863.062   125042849.131                    97435968.082    23794858.649  
                                
  21887899.462   115021688.037                    89627273.277    21887895.495  
                                
  24077637.188   126528837.464                    98593878.807    24077632.149  
                                
  21011287.616   110415061.358    21011287.116    86037705.080    21011286.490  
  21011287.116    82452803.215  
  22549215.258   120453860.112    22549215.848    93686338.063    22549216.188  
                                
  19375706.371   103465191.257    19375705.978    80472924.425    19375706.139  
                                
  20532823.834   109451504.747    20532824.263    85128950.056    20532824.066  
                                
  19915420.500   106496703.441    19915419.464    82830765.005    19915419.535  
                                
  23916849.950   125683895.118                                                  
  23916851.273    93854861.551  
  23708467.891   124588840.301                                                  
  23708470.464    93037130.196  
  24632958.694   129447071.845                                                  
  24632960.213    96665026.221  
  23546773.961   123739132.548                                                  
  23546775.409    92402604.509  
 21  9  1  9 13 48.0000000  0 17G 1G 7G 8G14G17G19G21G22G30R12R13R14
                                R24E13E15E21E27
  20223445.378   106274922.974    20223445.217    82811627.224    20223445.110  
  20223444.431    79361139.877  
  22016870.297   115699433.614    22016867.330    90155389.613    22016867.044  
                                
  24024261.791   126248347.058    24024261.988    98375333.276    24024261.094  
  24024260.719    94276358.722  
  20941252.679   110047025.819    20941250.231    85750917.731    20941249.945  
  20941254.108    82177978.765  
  21644711.047   113743723.759    21644708.027    88631459.696    21644707.599  
                                
  23794286.822   125039820.939                    97433608.447    23794282.409  
                                
  21888285.397   115023716.172                    89628853.642    21888281.448  
                                
  24077220.768   126526649.120                    98592173.597    24077215.729  
                                
  21011533.959   110416355.858    21011533.440    86038713.779    21011532.833  
  21011533.458    82453769.887  
  22549923.908   120457645.547    22549924.480    93689282.295    22549924.837  
                                
  19375919.280   103466328.167    19375918.887    80473808.693    19375919.048  
                                
  20532276.577   109448587.582    20532277.006    85126681.150    20532276.810  
                                
  19915032.849   106494630.425    19915031.795    82829152.661    19915031.885  
                                
  23916499.986   125682056.022                                                  
  23916501.308    93853488.199  
  23708664.236   124589871.988                                                  
  23708666.791    93037900.606  
  24632625.794   129445322.524                                                  
  24632627.313    96663719.912  
  23546900.492   123739797.421                                                  
  23546901.921    92403101.003  
 21  9  1  9 13 49.0000000  0 17G 1G 7G 8G14G17G19G21G22G30R12R13R14
                                R24E13E15E21E27
  20223410.998   106274742.335    20223410.837    82811486.464    20223410.730  
  20223410.051    79361004.986  
  22017461.314   115702539.370    22017458.330    90157809.685    22017458.044  
                                
  24024838.782   126251379.189    24024838.961    98377695.970    24024838.103  
  24024837.710    94278622.969  
  20940922.995   110045293.250    20940920.529    85749567.672    20940920.244  
  20940924.407    82176684.955  
  21644398.554   113742081.624    21644395.516    88630180.111    21644395.123  
                                
  23793710.600   125036792.929                    97431248.959    23793706.204  
                                
  21888671.421   115025744.762                    89630434.362    21888667.472  
                                
  24076804.367   126524461.063                    98590468.620    24076799.363  
                                
  21011780.408   110417651.000    21011779.890    86039722.980    21011779.300  
  21011779.908    82454737.034  
  22550632.594   120461431.316    22550633.183    93692226.781    22550633.523  
                                
  19376132.333   103467465.831    19376131.922    80474693.545    19376132.083  
                                
  20531729.392   109445670.851    20531729.839    85124412.579    20531729.642  
                                
  19914645.306   106492558.134    19914644.270    82827540.884    19914644.341  
                                
  23916150.074   125680217.303                                                  
  23916151.397    93852115.131  
  23708860.634   124590904.090                                                  
  23708863.190    93038671.335  
  24632292.948   129443573.393                                                  
  24632294.466    96662413.743  
  23547027.058   123740462.602                                                  
  23547028.523    92403597.733  
 21  9  1  9 13 50.0000000  0 17G 1G 7G 8G14G17G19G21G22G30R12R13R14
                                R24E13E15E21E27
  20223376.779   106274562.477    20223376.600    82811346.317    20223376.511  
  20223375.814    79360870.676  
  22018052.386   115705645.504    22018049.420    90160230.051    22018049.116  
                                
  24025415.790   126254411.348    24025415.987    98380058.692    24025415.111  
  24025414.700    94280887.237  
  20940593.348   110043560.980    20940590.900    85748217.850    20940590.614  
  20940594.777    82175391.375  
  21644086.132   113740439.815    21644083.094    88628900.779    21644082.701  
                                
  23793134.449   125033765.124                    97428889.628    23793130.035  
                                
  21889057.535   115027773.842                    89632015.461    21889053.604  
                                
  24076388.090   126522273.320                    98588763.885    24076383.051  
                                
  21012026.983   110418946.782    21012026.465    86040732.683    21012025.875  
  21012026.482    82455704.670  
  22551341.386   120465217.470    22551341.958    93695171.570    22551342.315  
                                
  19376345.510   103468604.273    19376345.135    80475579.000    19376345.278  
                                
  20531182.296   109442754.561    20531182.761    85122144.353    20531182.546  
                                
  19914257.906   106490486.548    19914256.869    82825929.650    19914256.959  
                                
  23915800.253   125678378.994                                                  
  23915801.575    93850742.371  
  23709057.122   124591936.625                                                  
  23709059.659    93039442.382  
  24631960.137   129441824.453                                                  
  24631961.656    96661107.709  
  23547153.696   123741128.111                                                  
  23547155.161    92404094.703  
 21  9  1  9 13 51.0000000  0 17G 1G 7G 8G14G17G19G21G22G30R12R13R14
                                R24E13E15E21E27
  20223342.684   106274383.302    20223342.524    82811206.700    20223342.416  
  20223341.737    79360736.879  
  22018643.529   115708751.943    22018640.545    90162650.649    22018640.277  
                                
  24025992.799   126257443.426    24025992.978    98382421.345    24025992.084  
  24025991.709    94283151.451  
  20940263.754   110041828.940    20940261.288    85746868.210    20940261.020  
  20940265.165    82174097.968  
  21643773.746   113738798.237    21643770.708    88627621.630    21643770.315  
                                
  23792558.298   125030737.445                    97426530.393    23792553.902  
                                
  21889443.738   115029803.309                    89633596.864    21889439.789  
                                
  24075971.813   126520085.803                    98587059.327    24075966.774  
                                
  21012273.665   110420243.127    21012273.164    86041742.822    21012272.557  
  21012273.182    82456672.718  
  22552050.215   120469003.892    22552050.804    93698116.567    22552051.144  
                                
  19376558.831   103469743.383    19376558.455    80476464.972    19376558.616  
                                
  20530635.290   109439838.625    20530635.736    85119876.403    20530635.540  
                                
  19913870.612   106488415.550    19913869.576    82824318.874    19913869.665  
                                
  23915450.502   125676540.994                                                  
  23915451.824    93849369.835  
  23709253.663   124592969.489                                                  
  23709256.219    93040213.679  
  24631627.344   129440075.601                                                  
  24631628.863    96659801.757  
  23547280.387   123741793.855                                                  
  23547281.853    92404591.851  
 21  9  1  9 13 52.0000000  0 17G 1G 7G 8G14G17G19G21G22G30R12R13R14
                                R24E13E15E21E27
  20223308.680   106274204.671    20223308.519    82811067.509    20223308.412  
  20223307.733    79360603.486  
  22019234.708   115711858.544    22019231.724    90165071.379    22019231.438  
                                
  24026569.736   126260475.295    24026569.915    98384783.838    24026569.039  
  24026568.628    94285415.511  
  20939934.177   110040096.981    20939931.711    85745518.630    20939931.425  
  20939935.589    82172804.624  
  21643461.395   113737156.766    21643458.339    88626342.563    21643457.946  
                                
  23791982.129   125027709.707                    97424171.115    23791977.733  
                                
  21889829.977   115031833.038                    89635178.471    21889826.028  
                                
  24075555.554   126517898.383                    98585354.832    24075550.515  
                                
  21012520.436   110421539.887    21012519.935    86042753.284    21012519.328  
  21012519.953    82457641.079  
  22552759.061   120472790.410    22552759.651    93701061.634    22552759.990  
                                
  19376772.258   103470883.030    19376771.865    80477351.362    19376772.026  
                                
  20530088.319   109436922.930    20530088.766    85117608.640    20530088.551  
                                
  19913483.409   106486344.973    19913482.372    82822708.428    19913482.444  
                                
  23915100.770   125674703.163                                                  
  23915102.092    93847997.432  
  23709450.258   124594002.565                                                  
  23709452.796    93040985.132  
  24631294.534   129438326.711                                                  
  24631296.053    96658495.768  
  23547407.079   123742459.685                                                  
  23547408.544    92405089.059  
 21  9  1  9 13 53.0000000  0 17G 1G 7G 8G14G17G19G21G22G30R12R13R14
                                R24E13E15E21E27
  20223274.818   106274026.729    20223274.657    82810928.853    20223274.550  
  20223273.853    79360470.603  
  22019825.904   115714965.418    22019822.938    90167492.322    22019822.652  
                                
  24027146.655   126263507.111    24027146.852    98387146.290    24027145.976  
  24027145.583    94287679.523  
  20939604.637   110038365.240    20939602.171    85744169.223    20939601.885  
  20939606.048    82171511.443  
  21643149.062   113735515.520    21643146.043    88625063.670    21643145.614  
                                
  23791405.996   125024682.108                    97421811.942    23791401.600  
                                
  21890216.288   115033863.128                    89636760.359    21890212.357  
                                
  24075139.349   126515711.122                    98583650.468    24075134.310  
                                
  21012767.314   110422837.203    21012766.814    86043764.182    21012766.188  
  21012766.814    82458609.855  
  22553467.943   120476577.154    22553468.551    93704006.875    22553468.890  
                                
  19376985.793   103472023.324    19376985.418    80478238.255    19376985.561  
                                
  20529541.402   109434007.599    20529541.866    85115341.158    20529541.652  
                                
  19913096.294   106484274.927    19913095.258    82821098.392    19913095.329  
                                
  23914751.109   125672865.644                                                  
  23914752.431    93846625.252  
  23709646.907   124595035.966                                                  
  23709649.444    93041756.827  
  24630961.759   129436577.923                                                  
  24630963.278    96657189.853  
  23547533.841   123743125.754                                                  
  23547535.307    92405586.447  
 21  9  1  9 13 54.0000000  0 17G 1G 7G 8G14G17G19G21G22G30R12R13R14
                                R24E13E15E21E27
  20223241.081   106273849.482    20223240.920    82810790.743    20223240.831  
  20223240.134    79360338.245  
  22020417.208   115718072.629    22020414.224    90169913.530    22020413.920  
                                
  24027723.611   126266538.884    24027723.789    98389508.713    24027722.931  
  24027722.520    94289943.496  
  20939275.132   110036633.739    20939272.684    85742820.004    20939272.416  
  20939276.544    82170218.439  
  21642836.801   113733874.532    21642833.781    88623784.974    21642833.353  
                                
  23790829.899   125021654.608                    97419452.849    23790825.485  
                                
  21890602.688   115035893.637                    89638342.576    21890598.756  
                                
  24074723.179   126513524.121                    98581946.323    24074718.122  
                                
  21013014.282   110424135.086    21013013.782    86044775.520    21013013.192  
  21013013.800    82459579.047  
  22554176.879   120480364.158    22554177.468    93706952.320    22554177.808  
                                
  19377199.471   103473164.321    19377199.078    80479125.699    19377199.221  
                                
  20528994.574   109431092.645    20528995.038    85113073.976    20528994.806  
                                
  19912709.287   106482205.467    19912708.250    82819488.812    19912708.322  
                                
  23914401.501   125671028.450                                                  
  23914402.823    93845253.321  
  23709843.609   124596069.734                                                  
  23709846.165    93042528.793  
  24630628.984   129434829.244                                                  
  24630630.521    96655884.023  
  23547660.640   123743792.068                                                  
  23547662.087    92406084.019  
 21  9  1  9 13 55.0000000  0 17G 1G 7G 8G14G17G19G21G22G30R12R13R14
                                R24E13E15E21E27
  20223207.523   106273673.140    20223207.362    82810653.333    20223207.273  
  20223206.576    79360206.559  
  22021008.566   115721180.350    22021005.599    90172335.131    22021005.314  
                                
  24028300.548   126269570.794    24028300.744    98391871.235    24028299.869  
  24028299.476    94292207.589  
  20938945.734   110034902.682    20938943.268    85741471.126    20938942.983  
  20938947.146    82168925.764  
  21642524.612   113732233.970    21642521.574    88622506.616    21642521.181  
                                
  23790253.855   125018627.437                    97417094.007    23790249.459  
                                
  21890989.195   115037924.745                    89639925.257    21890985.245  
                                
  24074307.081   126511337.581                    98580242.522    24074302.042  
                                
  21013261.411   110425433.741    21013260.910    86045787.459    21013260.303  
  21013260.928    82460548.821  
  22554885.904   120484151.639    22554886.511    93709898.132    22554886.851  
                                
  19377413.291   103474306.222    19377412.916    80480013.847    19377413.077  
                                
  20528447.835   109428178.269    20528448.300    85110807.242    20528448.068  
                                
  19912322.440   106480136.846    19912321.404    82817879.885    19912321.475  
                                
  23914052.001   125669191.779                                                  
  23914053.323    93843881.779  
  23710040.437   124597104.051                                                  
  23710042.992    93043301.170  
  24630296.299   129433080.894                                                  
  24630297.817    96654578.437  
  23547787.510   123744458.827                                                  
  23547788.975    92406581.926  
 21  9  1  9 13 56.0000000  0 17G 1G 7G 8G14G17G19G21G22G30R12R13R14
                                R24E13E15E21E27
  20223174.144   106273497.633    20223173.983    82810516.575    20223173.876  
  20223173.179    79360075.507  
  22021600.048   115724288.512    22021597.064    90174757.076    22021596.760  
                                
  24028877.538   126272602.842    24028877.717    98394233.866    24028876.859  
  24028876.448    94294471.779  
  20938616.390   110033172.003    20938613.925    85740122.545    20938613.656  
  20938617.802    82167633.379  
  21642212.493   113730593.807    21642209.473    88621228.569    21642209.062  
                                
  23789677.847   125015600.553                    97414735.399    23789673.451  
                                
  21891375.809   115039956.407                    89641508.371    21891371.878  
                                
  24073891.073   126509151.397                    98578538.990    24073886.051  
                                
  21013508.682   110426733.121    21013508.164    86046799.962    21013507.556  
  21013508.182    82461519.139  
  22555595.018   120487939.547    22555595.608    93712844.275    22555595.947  
                                
  19377627.291   103475448.943    19377626.916    80480902.630    19377627.076  
                                
  20527901.204   109425264.416    20527901.669    85108540.910    20527901.436  
                                
  19911935.755   106478069.040    19911934.700    82816271.589    19911934.790  
                                
  23913702.590   125667355.580                                                  
  23913703.894    93842510.598  
  23710237.371   124598138.858                                                  
  23710239.926    93044073.920  
  24629963.649   129431332.802                                                  
  24629965.168    96653273.039  
  23547914.470   123745125.980                                                  
  23547915.917    92407080.126  
 21  9  1  9 13 57.0000000  0 17G 1G 7G 8G14G17G19G21G22G30R12R13R14
                                R24E13E15E21E27
  20223140.872   106273322.872    20223140.711    82810380.398    20223140.622  
  20223139.943    79359945.000  
  22022191.566   115727397.053    22022188.600    90177179.315    22022188.314  
                                
  24029454.511   126275634.896    24029454.708    98396596.508    24029453.832  
  24029453.439    94296735.966  
  20938287.118   110031441.609    20938284.652    85738774.188    20938284.366  
  20938288.530    82166341.197  
  21641900.447   113728953.923    21641897.409    88619950.735    21641896.998  
                                
  23789101.893   125012573.834                    97412376.919    23789097.479  
                                
  21891762.512   115041988.513                    89643091.827    21891758.563  
                                
  24073475.117   126506965.512                    98576835.696    24073470.078  
                                
  21013756.061   110428033.105    21013755.561    86047812.935    21013754.935  
  21013755.561    82462489.905  
  22556304.186   120491727.779    22556304.775    93715790.676    22556305.115  
                                
  19377841.415   103476592.392    19377841.040    80481791.979    19377841.201  
                                
  20527354.644   109422351.010    20527355.109    85106274.927    20527354.912  
                                
  19911549.194   106476001.906    19911548.158    82814663.818    19911548.211  
                                
  23913353.233   125665519.742                                                  
  23913354.537    93841139.680  
  23710434.359   124599174.073                                                  
  23710436.914    93044846.970  
  24629631.017   129429584.857                                                  
  24629632.536    96651967.756  
  23548041.483   123745793.423                                                  
  23548042.930    92407578.540  
 21  9  1  9 13 58.0000000  0 17G 1G 7G 8G14G17G19G21G22G30R12R13R14
                                R24E13E15E21E27
  20223107.760   106273148.868    20223107.600    82810244.810    20223107.510  
  20223106.813    79359815.059  
  22022783.156   115730505.960    22022780.190    90179601.840    22022779.904  
                                
  24030031.484   126278666.912    24030031.663    98398959.117    24030030.805  
  24030030.394    94299000.156  
  20937957.863   110029711.496    20937955.433    85737426.046    20937955.147  
  20937959.293    82165049.229  
  21641588.436   113727314.359    21641585.416    88618673.153    21641585.005  
                                
  23788525.956   125009547.294                    97410018.580    23788521.543  
                                
  21892149.287   115044021.079                    89644675.645    21892145.356  
                                
  24073059.198   126504779.864                    98575132.593    24073054.159  
                                
  21014003.565   110429333.708    21014003.064    86048826.392    21014002.439  
  21014003.064    82463461.132  
  22557013.389   120495516.290    22557013.997    93718737.295    22557014.336  
                                
  19378055.701   103477736.589    19378055.308    80482681.908    19378055.468  
                                
  20526808.192   109419438.030    20526808.638    85104009.281    20526808.442  
                                
  19911162.741   106473935.402    19911161.704    82813056.539    19911161.776  
                                
  23913003.947   125663684.286                                                  
  23913005.269    93839769.047  
  23710631.419   124600209.678                                                  
  23710633.974    93045620.311  
  24629298.421   129427837.088                                                  
  24629299.958    96650662.597  
  23548168.549   123746461.169                                                  
  23548170.014    92408077.179  
 21  9  1  9 13 59.0000000  0 17G 1G 7G 8G14G17G19G21G22G30R12R13R14
                                R24E13E15E21E27
  20223074.756   106272975.375    20223074.596    82810109.621    20223074.488  
  20223073.791    79359685.505  
  22023374.800   115733615.014    22023371.815    90182024.482    22023371.530  
                                
  24030608.421   126281698.758    24030608.618    98401321.592    24030607.760  
  24030607.367    94301264.175  
  20937628.662   110027981.454    20937626.214    85736077.964    20937625.928  
  20937630.092    82163757.315  
  21641276.442   113725674.865    21641273.423    88617395.625    21641273.012  
                                
  23787950.002   125006520.710                    97407660.214    23787945.588  
                                
  21892536.134   115046053.862                    89646259.635    21892532.167  
                                
  24072643.297   126502594.298                    98573429.562    24072638.275  
                                
  21014251.122   110430634.702    21014250.622    86049840.151    21014250.014  
  21014250.640    82464432.660  
  22557722.611   120499304.886    22557723.219    93721683.986    22557723.576  
                                
  19378270.058   103478881.284    19378269.682    80483572.226    19378269.843  
                                
  20526261.757   109416525.250    20526262.204    85101743.780    20526262.007  
                                
  19910776.359   106471869.308    19910775.322    82811449.577    19910775.394  
                                
  23912654.715   125661848.982                                                  
  23912656.037    93838398.524  
  23710828.532   124601245.467                                                  
  23710831.087    93046393.790  
  24628965.825   129426089.236                                                  
  24628967.344    96649357.394  
  23548295.634   123747128.982                                                  
  23548297.081    92408575.874  
 21  9  1  9 14  0.0000000  0 17G 1G 7G 8G14G17G19G21G22G30R12R13R14
                                R24E13E15E21E27
  20223041.913   106272802.794    20223041.752    82809975.142    20223041.663  
  20223040.948    79359556.630  
  22023966.532   115736724.579    22023963.548    90184447.526    22023963.262  
                                
  24031185.394   126284730.733    24031185.591    98403684.172    24031184.715  
  24031184.304    94303528.320  
  20937299.533   110026251.852    20937297.067    85734730.219    20937296.781  
  20937300.944    82162465.731  
  21640964.539   113724035.834    21640961.519    88616118.459    21640961.126  
                                
  23787374.137   125003494.457                    97405302.096    23787369.706  
                                
  21892923.070   115048087.268                    89647844.106    21892919.121  
                                
  24072227.484   126500409.153                    98571726.863    24072222.445  
                                
  21014498.840   110431936.491    21014498.340    86050854.534    21014497.733  
  21014498.358    82465404.773  
  22558431.958   120503093.945    22558432.547    93724631.035    22558432.887  
                                
  19378484.593   103480026.874    19378484.218    80484463.238    19378484.379  
                                
  20525715.429   109413613.022    20525715.894    85099478.715    20525715.662  
                                
  19910390.138   106469803.989    19910389.101    82809843.218    19910389.173  
                                
  23912305.572   125660014.207                                                  
  23912306.894    93837028.399  
  23711025.734   124602281.815                                                  
  23711028.290    93047167.691  
  24628633.282   129424341.725                                                  
  24628634.801    96648052.430  
  23548422.808   123747797.250                                                  
  23548424.237    92409074.901  
 21  9  1  9 14  1.0000000  0 17G 1G 7G 8G14G17G19G21G22G30R12R13R14
                                R24E13E15E21E27
  20223009.195   106272630.894    20223009.034    82809841.196    20223008.945  
  20223008.248    79359428.267  
  22024558.319   115739834.466    22024555.334    90186870.815    22024555.066  
                                
  24031762.349   126287762.652    24031762.528    98406046.709    24031761.670  
  24031761.277    94305792.409  
  20936970.421   110024522.473    20936967.991    85733382.651    20936967.705  
  20936971.851    82161174.312  
  21640652.706   113722397.027    21640649.686    88614841.461    21640649.258  
                                
  23786798.272   125000468.298                    97402944.050    23786793.858  
                                
  21893310.077   115050121.052                    89649428.873    21893306.146  
                                
  24071811.690   126498224.236                    98570024.341    24071806.651  
                                
  21014746.684   110433238.816    21014746.183    86051869.331    21014745.558  
  21014746.183    82466377.284  
  22559141.322   120506883.288    22559141.912    93727578.301    22559142.287  
                                
  19378699.271   103481173.146    19378698.896    80485354.781    19378699.057  
                                
  20525169.173   109410701.159    20525169.638    85097213.929    20525169.406  
                                
  19910004.024   106467739.241    19910002.988    82808237.307    19910003.059  
                                
  23911956.465   125658179.730                                                  
  23911957.787    93835658.505  
  23711223.008   124603318.491                                                  
  23711225.564    93047941.832  
  24628300.758   129422594.308                                                  
  24628302.276    96646747.543  
  23548549.999   123748465.749                                                  
  23548551.464    92409574.110  
 21  9  1  9 14  2.0000000  0 17G 1G 7G 8G14G17G19G21G22G30R12R13R14
                                R24E13E15E21E27
  20222976.638   106272459.777    20222976.477    82809707.856    20222976.387  
  20222975.690    79359300.474  
  22025150.194   115742944.735    22025147.210    90189294.401    22025146.906  
                                
  24032339.322   126290794.612    24032339.519    98408409.275    24032338.661  
  24032338.250    94308056.529  
  20936641.399   110022793.408    20936638.969    85732035.328    20936638.665  
  20936642.828    82159883.129  
  21640340.910   113720758.551    21640337.872    88613564.732    21640337.479  
                                
  23786222.461   124997442.371                    97400586.185    23786218.047  
                                
  21893697.174   115052155.314                    89651014.010    21893693.242  
                                
  24071395.967   126496039.642                    98568322.065    24071390.928  
                                
  21014994.616   110434541.797    21014994.116    86052884.638    21014993.526  
  21014994.134    82467350.291  
  22559850.776   120510673.003    22559851.366    93730525.860    22559851.705  
                                
  19378914.057   103482320.197    19378913.700    80486246.929    19378913.843  
                                
  20524622.989   109407789.765    20524623.453    85094949.510    20524623.257  
                                
  19909618.035   106465675.197    19909616.999    82806631.938    19909617.070  
                                
  23911607.465   125656345.662                                                  
  23911608.787    93834288.908  
  23711420.372   124604355.607                                                  
  23711422.927    93048716.302  
  24627968.287   129420847.076                                                  
  24627969.805    96645442.792  
  23548677.298   123749134.569                                                  
  23548678.728    92410073.553  
 21  9  1  9 14  3.0000000  0 17G 1G 7G 8G14G17G19G21G22G30R12R13R14
                                R24E13E15E21E27
  20222944.241   106272289.506    20222944.080    82809575.175    20222943.991  
  20222943.294    79359173.332  
  22025742.141   115746055.479    22025739.157    90191718.353    22025738.889  
                                
  24032916.295   126293826.663    24032916.474    98410771.913    24032915.616  
  24032915.223    94310320.725  
  20936312.448   110021064.733    20936310.000    85730688.309    20936309.732  
  20936313.860    82158592.235  
  21640029.185   113719120.492    21640026.165    88612288.322    21640025.772  
                                
  23785646.703   124994416.703                    97398228.516    23785642.289  
                                
  21894084.395   115054190.137                    89652599.587    21894080.464  
                                
  24070980.316   126493855.444                    98566620.104    24070975.259  
                                
  21015242.692   110435845.490    21015242.192    86053900.505    21015241.602  
  21015242.210    82468323.831  
  22560560.283   120514463.115    22560560.873    93733473.727    22560561.212  
                                
  19379129.039   103483468.065    19379128.646    80487139.715    19379128.807  
                                
  20524076.947   109404878.937    20524077.394    85092685.530    20524077.179  
                                
  19909232.207   106463611.948    19909231.153    82805027.186    19909231.242  
                                
  23911258.537   125654512.092                                                  
  23911259.859    93832919.684  
  23711617.807   124605393.237                                                  
  23711620.380    93049491.155  
  24627635.833   129419100.120                                                  
  24627637.352    96644138.248  
  23548804.633   123749803.796                                                  
  23548806.080    92410573.301  
 21  9  1  9 14  4.0000000  0 17G 1G 7G 8G14G17G19G21G22G30R12R13R14
                                R24E13E15E21E27
  20222912.005   106272120.162    20222911.844    82809443.221    20222911.773  
  20222911.076    79359046.874  
  22026334.214   115749166.781    22026331.229    90194142.737    22026330.961  
                                
  24033493.304   126296858.884    24033493.482    98413134.685    24033492.642  
  24033492.231    94312585.051  
  20935983.586   110019336.536    20935981.138    85729341.662    20935980.853  
  20935984.998    82157301.697  
  21639717.585   113717482.912    21639714.547    88611012.283    21639714.136  
                                
  23785070.999   124991391.404                    97395871.140    23785066.585  
                                
  21894471.742   115056225.594                    89654185.659    21894467.793  
                                
  24070564.754   126491671.697                    98564918.484    24070559.715  
                                
  21015490.946   110437149.990    21015490.446    86054916.999    21015489.839  
  21015490.464    82469297.975  
  22561269.862   120518253.681    22561270.470    93736421.947    22561270.827  
                                
  19379344.164   103484616.863    19379343.789    80488033.225    19379343.950  
                                
  20523531.013   109401968.734    20523531.442    85090422.036    20523531.245  
                                
  19908846.522   106461549.565    19908845.486    82803423.113    19908845.557  
                                
  23910909.733   125652679.060                                                  
  23910911.038    93831550.861  
  23711815.384   124606431.430                                                  
  23711817.940    93050266.436  
  24627303.487   129417353.513                                                  
  24627304.988    96642833.960  
  23548932.075   123750473.505                                                  
  23548933.522    92411073.403  
 21  9  1  9 14  5.0000000  0 17G 1G 7G 8G14G17G19G21G22G30R12R13R14
                                R24E13E15E21E27
  20222879.930   106271951.563    20222879.770    82809311.845    20222879.698  
  20222878.983    79358920.975  
  22026926.339   115752278.435    22026923.373    90196567.396    22026923.087  
                                
  24034070.330   126299891.111    24034070.509    98415497.457    24034069.651  
  24034069.240    94314849.376  
  20935654.761   110017608.607    20935652.331    85727995.226    20935652.045  
  20935656.190    82156011.364  
  21639406.020   113715845.625    21639402.983    88609736.475    21639402.572  
                                
  23784495.348   124988366.272                    97393513.895    23784490.917  
                                
  21894859.160   115058261.487                    89655772.072    21894855.211  
                                
  24070149.281   126489488.242                    98563217.076    24070144.224  
                                
  21015739.290   110438455.104    21015738.790    86055933.973    21015738.182  
  21015738.790    82470272.570  
  22561979.530   120522044.580    22561980.138    93739370.424    22561980.477  
                                
  19379559.415   103485766.368    19379559.057    80488927.284    19379559.200  
                                
  20522985.132   109399058.968    20522985.597    85088158.885    20522985.400  
                                
  19908460.998   106459487.860    19908459.944    82801819.564    19908460.015  
                                
  23910560.984   125650846.388                                                  
  23910562.288    93830182.312  
  23712013.016   124607470.031                                                  
  23712015.571    93051042.012  
  24626971.124   129415607.067                                                  
  24626972.642    96641529.791  
  23549059.570   123751143.495                                                  
  23549061.018    92411573.725  
 21  9  1  9 14  6.0000000  0 17G 1G 7G 8G14G17G19G21G22G30R12R13R14
                                R24E13E15E21E27
  20222847.963   106271783.660    20222847.802    82809181.014    20222847.730  
  20222847.034    79358795.595  
  22027518.537   115755390.405    22027515.553    90198992.303    22027515.284  
                                
  24034647.339   126302923.300    24034647.535    98417860.206    24034646.678  
  24034646.249    94317113.669  
  20935326.006   110015880.924    20935323.540    85726648.977    20935323.255  
  20935327.418    82154721.211  
  21639094.492   113714208.584    21639091.472    88608460.858    21639091.061  
                                
  23783919.698   124985341.252                    97391156.736    23783915.266  
                                
  21895246.650   115060297.783                    89657358.796    21895242.701  
                                
  24069733.826   126487305.027                    98561515.863    24069728.787  
                                
  21015987.759   110439760.781    21015987.259    86056951.385    21015986.633  
  21015987.259    82471247.595  
  22562689.252   120525835.763    22562689.842    93742319.122    22562690.217  
                                
  19379774.808   103486916.565    19379774.451    80489821.879    19379774.593  
                                
  20522439.341   109396149.557    20522439.805    85085896.010    20522439.591  
                                
  19908075.528   106457426.731    19908074.491    82800216.459    19908074.580  
                                
  23910212.287   125649014.051                                                  
  23910213.610    93828814.008  
  23712210.719   124608508.984                                                  
  23712213.292    93051817.850  
  24626638.813   129413860.715                                                  
  24626640.332    96640225.699  
  23549187.119   123751813.732                                                  
  23549188.549    92412074.229  
 21  9  1  9 14  7.0000000  0 17G 1G 7G 8G14G17G19G21G22G30R12R13R14
                                R24E13E15E21E27
  20222816.174   106271616.493    20222816.013    82809050.756    20222815.924  
  20222815.227    79358670.760  
  22028110.788   115758502.722    22028107.803    90201417.483    22028107.535  
                                
  24035224.329   126305955.478    24035224.544    98420222.944    24035223.668  
  24035223.275    94319377.950  
  20934997.288   110014153.511    20934994.840    85725302.943    20934994.554  
  20934998.700    82153431.258  
  21638783.017   113712571.837    21638779.997    88607185.473    21638779.604  
                                
  23783344.101   124982316.405                    97388799.720    23783339.651  
                                
  21895634.229   115062334.508                    89658945.857    21895630.262  
                                
  24069318.425   126485122.053                    98559814.837    24069313.386  
                                
  21016236.335   110441067.068    21016235.835    86057969.272    21016235.227  
  21016235.852    82472223.065  
  22563399.046   120529627.259    22563399.635    93745268.059    22563399.975  
                                
  19379990.344   103488067.474    19379989.969    80490717.033    19379990.130  
                                
  20521893.603   109393240.530    20521894.067    85083633.433    20521893.871  
                                
  19907690.218   106455366.190    19907689.181    82798613.814    19907689.253  
                                
  23909863.699   125647182.075                                                  
  23909865.003    93827445.972  
  23712408.493   124609548.325                                                  
  23712411.066    93052593.983  
  24626306.521   129412114.519                                                  
  24626308.040    96638921.724  
  23549314.704   123752484.259                                                  
  23549316.169    92412574.936  
 21  9  1  9 14  8.0000000  0 17G 1G 7G 8G14G17G19G21G22G30R12R13R14
                                R24E13E15E21E27
  20222784.492   106271450.125    20222784.349    82808921.121    20222784.242  
  20222783.545    79358546.526  
  22028703.128   115761615.439    22028700.144    90203842.981    22028699.858  
                                
  24035801.356   126308987.687    24035801.535    98422585.705    24035800.695  
  24035800.284    94321642.256  
  20934668.641   110012426.433    20934666.175    85723957.168    20934665.907  
  20934670.035    82152141.559  
  21638471.631   113710935.430    21638468.594    88605910.349    21638468.200  
                                
  23782768.522   124979291.801                    97386442.890    23782764.090  
                                
  21896021.898   115064371.743                    89660533.312    21896017.949  
                                
  24068903.078   126482939.427                    98558114.097    24068898.021  
                                
  21016485.036   110442374.021    21016484.536    86058987.677    21016483.928  
  21016484.553    82473199.037  
  22564108.875   120533419.119    22564109.464    93748217.281    22564109.804  
                                
  19380206.023   103489219.146    19380205.648    80491612.779    19380205.809  
                                
  20521347.972   109390331.961    20521348.437    85081371.218    20521348.222  
                                
  19907305.015   106453306.354    19907303.979    82797011.717    19907304.068  
                                
  23909515.163   125645350.521                                                  
  23909516.468    93826078.256  
  23712606.375   124610588.114                                                  
  23712608.930    93053370.447  
  24625974.282   129410368.530                                                  
  24625975.801    96637617.906  
  23549442.378   123753155.133                                                  
  23549443.826    92413075.916  
 21  9  1  9 14  9.0000000  0 17G 1G 7G 8G14G17G19G21G22G30R12R13R14
                                R24E13E15E21E27
  20222752.935   106271284.270    20222752.792    82808791.883    20222752.685  
  20222751.988    79358422.675  
  22029295.468   115764728.299    22029292.484    90206268.591    22029292.216  
                                
  24036378.329   126312019.662    24036378.508    98424948.285    24036377.650  
  24036377.239    94323906.402  
  20934339.994   110010699.419    20934337.528    85722611.445    20934337.260  
  20934341.388    82150851.910  
  21638160.246   113709299.099    21638157.226    88604635.283    21638156.815  
                                
  23782192.942   124976267.101                    97384085.981    23782188.511  
                                
  21896409.602   115066409.207                    89662120.944    21896405.671  
                                
  24068487.730   126480756.849                    98556413.398    24068482.691  
                                
  21016733.826   110443681.374    21016733.326    86060006.389    21016732.718  
  21016733.326    82474175.300  
  22564818.739   120537211.042    22564819.347    93751166.549    22564819.687  
                                
  19380421.774   103490371.350    19380421.416    80492508.937    19380421.559  
                                
  20520802.377   109387423.586    20520802.806    85079109.150    20520802.610  
                                
  19906919.902   106451246.957    19906918.866    82795409.968    19906918.955  
                                
  23909166.646   125643519.109                                                  
  23909167.968    93824710.647  
  23712804.256   124611628.062                                                  
  23712806.811    93054147.038  
  24625642.026   129408622.498                                                  
  24625643.545    96636314.046  
  23549570.035   123753826.068                                                  
  23549571.500    92413576.939  
 21  9  1  9 14 10.0000000  0 17G 1G 7G 8G14G17G19G21G22G30R12R13R14
                                R24E13E15E21E27
  20222721.521   106271119.195    20222721.361    82808663.254    20222721.289  
  20222720.592    79358299.406  
  22029887.898   115767841.552    22029884.931    90208694.502    22029884.645  
                                
  24036955.284   126315051.702    24036955.480    98427310.911    24036954.623  
  24036954.230    94326170.576  
  20934011.418   110008972.713    20934008.952    85721265.960    20934008.666  
  20934012.812    82149562.485  
  21637848.949   113707663.097    21637845.894    88603360.477    21637845.501  
                                
  23781617.417   124973242.618                    97381729.236    23781612.968  
                                
  21896797.431   115068447.128                    89663708.933    21896793.482  
                                
  24068072.472   126478574.568                    98554712.925    24068067.397  
                                
  21016982.706   110444989.349    21016982.206    86061025.592    21016981.616  
  21016982.241    82475152.043  
  22565528.676   120541003.313    22565529.265    93754116.085    22565529.605  
                                
  19380637.685   103491524.290    19380637.310    80493405.673    19380637.471  
                                
  20520256.854   109384515.696    20520257.301    85076847.460    20520257.104  
                                
  19906534.914   106449188.273    19906533.878    82793808.770    19906533.949  
                                
  23908818.218   125641688.098                                                  
  23908819.540    93823343.327  
  23713002.245   124612668.451                                                  
  23713004.800    93054923.951  
  24625309.787   129406876.634                                                  
  24625311.306    96635010.318  
  23549697.780   123754497.320                                                  
  23549699.228    92414078.201  
 21  9  1  9 14 11.0000000  0 17G 1G 7G 8G14G17G19G21G22G30R12R13R14
                                R24E13E15E21E27
  20222690.251   106270954.810    20222690.090    82808535.164    20222690.001  
  20222689.286    79358176.648  
  22030480.399   115770955.113    22030477.415    90211120.656    22030477.129  
                                
  24037532.257   126318083.653    24037532.453    98429673.472    24037531.596  
  24037531.185    94328434.702  
  20933682.878   110007246.239    20933680.430    85719920.653    20933680.144  
  20933684.290    82148273.232  
  21637537.653   113706027.336    21637534.633    88602085.858    21637534.222  
                                
  23781041.891   124970218.264                    97379372.597    23781037.460  
                                
  21897185.296   115070485.466                    89665297.246    21897181.365  
                                
  24067657.232   126476392.526                    98553012.634    24067652.175  
                                
  21017231.729   110446297.910    21017231.228    86062045.250    21017230.639  
  21017231.246    82476129.209  
  22566238.648   120544795.886    22566239.255    93757065.852    22566239.613  
                                
  19380853.722   103492677.916    19380853.364    80494302.935    19380853.507  
                                
  20519711.420   109381608.204    20519711.884    85074586.078    20519711.670  
                                
  19906150.051   106447130.205    19906149.015    82792208.050    19906149.104  
                                
  23908469.861   125639857.404                                                  
  23908471.166    93821976.255  
  23713200.269   124613709.176                                                  
  23713202.843    93055701.119  
  24624977.584   129405130.889                                                  
  24624979.103    96633706.674  
  23549825.562   123755168.813                                                  
  23549827.009    92414579.640  
 21  9  1  9 14 12.0000000  0 17G 1G 7G 8G14G17G19G21G22G30R12R13R14
                                R24E13E15E21E27
  20222659.141   106270791.444    20222658.998    82808407.865    20222658.908  
  20222658.212    79358054.660  
  22031073.007   115774069.317    22031070.023    90213547.309    22031069.755  
                                
  24038109.283   126321115.912    24038109.480    98432036.272    24038108.640  
  24038108.211    94330699.036  
  20933354.446   110005520.332    20933351.998    85718575.788    20933351.712  
  20933355.857    82146984.408  
  21637226.482   113704392.155    21637223.462    88600811.693    21637223.051  
                                
  23780466.455   124967194.359                    97377016.305    23780462.006  
                                
  21897573.322   115072524.515                    89666886.110    21897569.373  
                                
  24067242.098   126474211.069                    98551312.797    24067237.059  
                                
  21017480.912   110447607.352    21017480.412    86063065.590    21017479.804  
  21017480.430    82477107.042  
  22566948.763   120548589.047    22566949.352    93760016.079    22566949.710  
                                
  19381069.955   103493832.579    19381069.579    80495201.007    19381069.740  
                                
  20519166.111   109378701.454    20519166.575    85072325.270    20519166.361  
                                
  19905765.349   106445073.062    19905764.330    82790608.050    19905764.384  
                                
  23908121.612   125638027.371                                                  
  23908122.916    93820609.667  
  23713398.455   124614750.577                                                  
  23713401.010    93056478.788  
  24624645.452   129403385.570                                                  
  24624646.971    96632403.360  
  23549953.468   123755840.890                                                  
  23549954.898    92415081.513  
 21  9  1  9 14 13.0000000  0 17G 1G 7G 8G14G17G19G21G22G30R12R13R14
                                R24E13E15E21E27
  20222628.192   106270628.711    20222628.031    82808281.061    20222627.941  
  20222627.245    79357933.139  
  22031665.687   115777183.770    22031662.703    90215974.153    22031662.399  
                                
  24038686.274   126324148.049    24038686.488    98434398.975    24038685.613  
  24038685.220    94332963.287  
  20933026.049   110003794.594    20933023.601    85717231.058    20933023.315  
  20933027.443    82145695.703  
  21636915.364   113702757.151    21636912.345    88599537.660    21636911.916  
                                
  23779891.055   124964170.510                    97374660.056    23779886.623  
                                
  21897961.419   115074563.901                    89668475.247    21897957.452  
                                
  24066827.037   126472029.770                    98549613.081    24066821.980  
                                
  21017730.185   110448917.299    21017729.685    86064086.328    21017729.077  
  21017729.685    82478085.248  
  22567658.878   120552382.389    22567659.503    93762966.449    22567659.843  
                                
  19381286.313   103494987.863    19381285.938    80496099.558    19381286.081  
                                
  20518620.873   109375795.014    20518621.338    85070064.703    20518621.141  
                                
  19905380.754   106443016.445    19905379.717    82789008.461    19905379.789  
                                
  23907773.416   125636197.581                                                  
  23907774.720    93819243.267  
  23713596.676   124615792.279                                                  
  23713599.231    93057256.681  
  24624313.357   129401640.316                                                  
  24624314.875    96631100.081  
  23550081.374   123756513.137                                                  
  23550082.840    92415583.522  
 21  9  1  9 14 14.0000000  0 17G 1G 7G 8G14G17G19G21G22G30R12R13R14
                                R24E13E15E21E27
  20222597.296   106270466.486    20222597.171    82808154.651    20222597.064  
  20222596.367    79357811.999  
  22032258.349   115780298.329    22032255.364    90218401.078    22032255.096  
                                
  24039263.229   126327179.912    24039263.426    98436761.462    24039262.568  
  24039262.157    94335227.352  
  20932697.670   110002068.895    20932695.204    85715886.359    20932694.918  
  20932699.063    82144407.040  
  21636604.229   113701122.197    21636601.209    88598263.669    21636600.816  
                                
  23779315.601   124961146.599                    97372303.773    23779311.169  
                                
  21898349.534   115076603.495                    89670064.543    21898345.568  
                                
  24066411.939   126469848.486                    98547913.382    24066406.882  
                                
  21017979.530   110450227.621    21017979.029    86065107.356    21017978.440  
  21017979.047    82479063.734  
  22568369.011   120556175.744    22568369.636    93765916.839    22568369.976  
                                
  19381502.742   103496143.635    19381502.385    80496998.490    19381502.528  
                                
  20518075.654   109372888.734    20518076.118    85067804.263    20518075.922  
                                
  19904996.230   106440960.219    19904995.194    82787409.175    19904995.265  
                                
  23907425.238   125634367.923                                                  
  23907426.542    93817876.969  
  23713794.915   124616834.129                                                  
  23713797.506    93058034.685  
  24623981.225   129399894.968                                                  
  24623982.744    96629796.741  
  23550209.317   123757185.442                                                  
  23550210.746    92416085.569  
 21  9  1  9 14 15.0000000  0 17G 1G 7G 8G14G17G19G21G22G30R12R13R14
                                R24E13E15E21E27
  20222566.579   106270305.027    20222566.436    82808028.841    20222566.347  
  20222565.650    79357691.429  
  22032851.118   115783413.282    22032848.116    90220828.315    22032847.848  
                                
  24039840.166   126330211.807    24039840.363    98439123.980    24039839.505  
  24039839.112    94337491.430  
  20932369.344   110000343.513    20932366.878    85714541.908    20932366.610  
  20932370.738    82143118.599  
  21636293.183   113699487.571    21636290.145    88596989.935    21636289.752  
                                
  23778740.200   124958122.890                    97369947.648    23778735.769  
                                
  21898737.721   115078643.565                    89671654.213    21898733.790  
                                
  24065996.913   126467667.543                    98546213.950    24065991.856  
                                
  21018229.017   110451538.577    21018228.516    86066128.880    21018227.891  
  21018228.516    82480042.692  
  22569079.215   120559969.438    22569079.822    93768867.487    22569080.198  
                                
  19381719.315   103497300.145    19381718.958    80497897.997    19381719.101  
                                
  20517530.523   109369982.862    20517531.006    85065544.141    20517530.774  
                                
  19904611.814   106438904.647    19904610.795    82785810.399    19904610.849  
                                
  23907077.149   125632538.664                                                  
  23907078.454    93816510.959  
  23713993.261   124617876.392                                                  
  23713995.852    93058812.998  
  24623649.129   129398149.813                                                  
  24623650.648    96628493.535  
  23550337.312   123757858.053                                                  
  23550338.760    92416587.839  
 21  9  1  9 14 16.0000000  0 17G 1G 7G 8G14G17G19G21G22G30R12R13R14
                                R24E13E15E21E27
  20222536.041   106270144.465    20222535.880    82807903.729    20222535.809  
  20222535.076    79357571.527  
  22033443.976   115786528.753    22033440.974    90223255.956    22033440.688  
                                
  24040417.157   126333243.844    24040417.336    98441486.606    24040416.496  
  24040416.067    94339755.620  
  20932041.090   109998618.556    20932038.624    85713197.786    20932038.338  
  20932042.484    82141830.486  
  21635982.226   113697853.394    21635979.171    88595716.550    21635978.777  
                                
  23778164.889   124955099.499                    97367591.750    23778160.440  
                                
  21899126.069   115080684.230                    89673244.344    21899122.102  
                                
  24065581.959   126465487.007                    98544514.833    24065576.920  
                                
  21018478.611   110452850.302    21018478.111    86067151.003    21018477.503  
  21018478.129    82481022.227  
  22569789.473   120563763.622    22569790.116    93771818.517    22569790.456  
                                
  19381936.066   103498457.587    19381935.709    80498798.228    19381935.852  
                                
  20516985.500   109367077.564    20516985.965    85063284.460    20516985.768  
                                
  19904227.576   106436849.872    19904226.540    82784212.243    19904226.594  
                                
  23906729.150   125630709.927                                                  
  23906730.437    93815145.349  
  23714191.714   124618919.213                                                  
  23714194.270    93059591.728  
  24623317.105   129396404.964                                                  
  24623318.606    96627190.560  
  23550465.380   123758531.116                                                  
  23550466.845    92417090.453  
 21  9  1  9 14 17.0000000  0 17G 1G 7G 8G14G17G19G21G22G30R12R13R14
                                R24E13E15E21E27
  20222505.628   106269984.617    20222505.467    82807779.172    20222505.378  
  20222504.663    79357452.153  
  22034036.888   115789644.533    22034033.904    90225683.843    22034033.600  
                                
  24040994.112   126336275.857    24040994.308    98443849.220    24040993.469  
  24040993.058    94342019.774  
  20931712.872   109996893.851    20931710.442    85711853.860    20931710.138  
  20931714.284    82140542.556  
  21635671.287   113696219.464    21635668.250    88594443.360    21635667.856  
                                
  23777589.578   124952076.236                    97365235.961    23777585.129  
                                
  21899514.470   115082725.306                    89674834.793    21899510.521  
                                
  24065167.076   126463306.715                    98542815.899    24065162.019  
                                
  21018728.331   110454162.593    21018727.831    86068173.568    21018727.223  
  21018727.848    82482002.187  
  22570499.820   120567558.074    22570500.428    93774769.755    22570500.785  
                                
  19382152.943   103499615.689    19382152.585    80499698.974    19382152.728  
                                
  20516440.549   109364172.669    20516441.013    85061025.094    20516440.817  
                                
  19903843.428   106434795.686    19903842.374    82782614.540    19903842.463  
                                
  23906381.222   125628881.522                                                  
  23906382.527    93813779.979  
  23714390.221   124619962.386                                                  
  23714392.777    93060370.723  
  24622985.099   129394660.234                                                  
  24622986.617    96625887.683  
  23550593.519   123759204.431                                                  
  23550594.966    92417593.253  
 21  9  1  9 14 18.0000000  0 17G 1G 7G 8G14G17G19G21G22G30R12R13R14
                                R24E13E15E21E27
  20222475.322   106269825.450    20222475.179    82807655.143    20222475.072  
  20222474.375    79357333.292  
  22034629.854   115792760.624    22034626.870    90228111.970    22034626.584  
                                
  24041571.085   126339307.802    24041571.281    98446211.777    24041570.424  
  24041570.013    94344283.900  
  20931384.725   109995169.370    20931382.277    85710510.108    20931381.974  
  20931386.119    82139254.796  
  21635360.402   113694585.786    21635357.382    88593170.365    21635356.953  
                                
  23777014.285   124949053.106                    97362880.275    23777009.854  
                                
  21899902.942   115084766.772                    89676425.548    21899898.993  
                                
  24064752.229   126461126.637                    98541117.142    24064747.154  
                                
  21018978.176   110455475.459    21018977.675    86069196.578    21018977.050  
  21018977.675    82482982.574  
  22571210.185   120571352.774    22571210.829    93777721.186    22571211.168  
                                
  19382369.962   103500774.503    19382369.604    80500600.271    19382369.747  
                                
  20515895.669   109361268.154    20515896.133    85058766.032    20515895.937  
                                
  19903459.387   106432742.108    19903458.369    82781017.311    19903458.422  
                                
  23906033.330   125627053.428                                                  
  23906034.635    93812414.844  
  23714588.782   124621005.908                                                  
  23714591.355    93061149.977  
  24622653.092   129392915.614                                                  
  24622654.629    96624584.877  
  23550721.693   123759877.981                                                  
  23550723.140    92418096.228  
 21  9  1  9 14 19.0000000  0 17G 1G 7G 8G14G17G19G21G22G30R12R13R14
                                R24E13E15E21E27
  20222445.195   106269667.136    20222445.052    82807531.784    20222444.963  
  20222444.266    79357215.080  
  22035222.909   115795877.196    22035219.925    90230540.468    22035219.639  
                                
  24042148.058   126342339.892    24042148.272    98448574.449    24042147.397  
  24042147.003    94346548.114  
  20931056.650   109993445.299    20931054.202    85709166.672    20931053.916  
  20931058.026    82137967.336  
  21635049.588   113692952.516    21635046.568    88591897.682    21635046.175  
                                
  23776439.081   124946030.254                    97360524.797    23776434.614  
                                
  21900291.540   115086808.794                    89678016.731    21900287.573  
                                
  24064337.435   126458946.987                    98539418.714    24064332.396  
                                
  21019228.128   110456789.044    21019227.627    86070220.156    21019227.038  
  21019227.645    82483963.500  
  22571920.640   120575147.882    22571921.283    93780672.939    22571921.640  
                                
  19382587.142   103501934.134    19382586.749    80501502.212    19382586.910  
                                
  20515350.896   109358364.199    20515351.360    85056507.396    20515351.164  
                                
  19903075.507   106430689.334    19903074.488    82779420.706    19903074.542  
                                
  23905685.564   125625225.825                                                  
  23905686.850    93811050.080  
  23714787.468   124622049.935                                                  
  23714790.023    93061929.605  
  24622321.175   129391171.266                                                  
  24622322.676    96623282.282  
  23550849.939   123760551.944                                                  
  23550851.386    92418599.515  
 21  9  1  9 14 20.0000000  0 17G 1G 7G 8G14G17G19G21G22G30R12R13R14
                                R24E13E15E21E27
  20222415.211   106269509.603    20222415.068    82807409.031    20222414.978  
  20222414.282    79357097.442  
  22035816.053   115798994.167    22035813.069    90232969.279    22035812.765  
                                
  24042725.048   126345371.990    24042725.245    98450937.127    24042724.405  
  24042723.994    94348812.350  
  20930728.628   109991721.537    20930726.180    85707823.485    20930725.894  
  20930730.004    82136680.115  
  21634738.864   113691319.575    21634735.826    88590625.265    21634735.433  
                                
  23775863.877   124943007.608                    97358169.493    23775859.446  
                                
  21900680.209   115088851.299                    89679608.293    21900676.260  
                                
  24063922.731   126456767.613                    98537720.503    24063917.656  
                                
  21019478.222   110458103.284    21019477.722    86071244.238    21019477.114  
  21019477.722    82484944.913  
  22572631.166   120578943.370    22572631.791    93783624.985    22572632.148  
                                
  19382804.429   103503094.559    19382804.072    80502404.766    19382804.233  
                                
  20514806.212   109355460.684    20514806.659    85054249.111    20514806.462  
                                
  19902691.770   106428637.271    19902690.733    82777824.657    19902690.805  
                                
  23905337.850   125623398.632                                                  
  23905339.155    93809685.615  
  23714986.207   124623094.393                                                  
  23714988.798    93062709.560  
  24621989.258   129389427.115                                                  
  24621990.777    96621979.832  
  23550978.239   123761226.233                                                  
  23550979.704    92419103.041  
 21  9  1  9 14 21.0000000  0 17G 1G 7G 8G14G17G19G21G22G30R12R13R14
                                R24E13E15E21E27
  20222385.387   106269352.839    20222385.226    82807286.877    20222385.155  
  20222384.440    79356980.378  
  22036409.251   115802111.522    22036406.285    90235398.385    22036405.981  
                                
  24043302.057   126348404.123    24043302.236    98453299.826    24043301.396  
  24043300.985    94351076.603  
  20930400.660   109989998.088    20930398.212    85706480.536    20930397.926  
  20930402.054    82135393.122  
  21634428.193   113689686.959    21634425.155    88589353.095    21634424.762  
                                
  23775288.727   124939985.144                    97355814.323    23775284.278  
                                
  21901068.967   115090894.268                    89681200.219    21901065.001  
                                
  24063508.062   126454588.565                    98536022.552    24063502.987  
                                
  21019728.424   110459418.161    21019727.924    86072268.820    21019727.334  
  21019727.942    82485926.801  
  22573341.763   120582739.212    22573342.389    93786577.309    22573342.746  
                                
  19383021.877   103504255.740    19383021.520    80503307.908    19383021.681  
                                
  20514261.582   109352557.596    20514262.065    85051991.151    20514261.868  
                                
  19902308.157   106426585.873    19902307.121    82776229.126    19902307.192  
                                
  23904990.226   125621571.820                                                  
  23904991.531    93808321.438  
  23715185.053   124624139.271                                                  
  23715187.626    93063489.828  
  24621657.412   129387683.149                                                  
  24621658.913    96620677.517  
  23551106.628   123761900.840                                                  
  23551108.075    92419606.807  
 21  9  1  9 14 22.0000000  0 17G 1G 7G 8G14G17G19G21G22G30R12R13R14
                                R24E13E15E21E27
  20222355.689   106269196.829    20222355.546    82807165.309    20222355.457  
  20222354.760    79356863.872  
  22037002.556   115805229.230    22036999.554    90237827.765    22036999.251  
                                
  24043879.048   126351436.280    24043879.244    98455662.548    24043878.404  
  24043877.994    94353340.876  
  20930072.764   109988274.936    20930070.298    85705137.818    20930070.030  
  20930074.158    82134106.344  
  21634117.576   113688054.643    21634114.556    88588081.160    21634114.127  
                                
  23774713.613   124936962.876                    97353459.300    23774709.163  
                                
  21901457.833   115092937.700                    89682792.500    21901453.866  
                                
  24063093.447   126452409.790                    98534324.799    24063088.390  
                                
  21019978.769   110460733.647    21019978.269    86073293.872    21019977.644  
  21019978.269    82486909.150  
  22574052.396   120586535.349    22574053.040    93789529.851    22574053.397  
                                
  19383239.486   103505417.656    19383239.111    80504211.622    19383239.254  
                                
  20513717.077   109349654.950    20513717.524    85049733.538    20513717.328  
                                
  19901924.635   106424535.103    19901923.616    82774634.082    19901923.687  
                                
  23904642.674   125619745.384                                                  
  23904643.960    93806957.545  
  23715383.971   124625184.554                                                  
  23715386.544    93064270.394  
  24621325.549   129385939.341                                                  
  24621327.068    96619375.325  
  23551235.052   123762575.745                                                  
  23551236.517    92420110.786  
 21  9  1  9 14 23.0000000  0 17G 1G 7G 8G14G17G19G21G22G30R12R13R14
                                R24E13E15E21E27
  20222326.151   106269041.538    20222325.991    82807044.303    20222325.919  
  20222325.187    79356747.911  
  22037595.879   115808347.287    22037592.913    90240257.422    22037592.609  
                                
  24044456.056   126354468.413    24044456.253    98458025.245    24044455.395  
  24044455.002    94355605.118  
  20929744.903   109986552.031    20929742.437    85703795.296    20929742.169  
  20929746.297    82132819.765  
  21633806.994   113686422.600    21633803.974    88586809.438    21633803.563  
                                
  23774138.534   124933940.758                    97351104.408    23774134.067  
                                
  21901846.752   115094981.541                    89684385.103    21901842.803  
                                
  24062678.886   126450231.317                    98532627.287    24062673.829  
                                
  21020229.204   110462049.736    21020228.703    86074319.398    21020228.114  
  21020228.739    82487891.936  
  22574763.101   120590331.770    22574763.726    93792482.616    22574764.084  
                                
  19383457.203   103506580.293    19383456.827    80505115.893    19383456.988  
                                
  20513172.608   109346752.737    20513173.091    85047476.258    20513172.894  
                                
  19901541.255   106422484.963    19901540.218    82773039.533    19901540.308  
                                
  23904295.175   125617919.318                                                  
  23904296.479    93805593.913  
  23715582.943   124626230.215                                                  
  23715585.516    93065051.245  
  24620993.757   129384195.680                                                  
  24620995.258    96618073.236  
  23551363.530   123763250.924                                                  
  23551364.996    92420614.978  
 21  9  1  9 14 24.0000000  0 17G 1G 7G 8G14G17G19G21G22G30R12R13R14
                                R24E13E15E21E27
  20222296.793   106268887.254    20222296.632    82806924.083    20222296.543  
  20222295.846    79356632.707  
  22038189.345   115811465.957    22038186.361    90242687.554    22038186.057  
                                
  24045033.101   126357500.804    24045033.297    98460388.140    24045032.457  
  24045032.046    94357869.557  
  20929417.132   109984829.682    20929414.701    85702453.204    20929414.398  
  20929418.543    82131533.598  
  21633496.538   113684791.117    21633493.518    88585538.155    21633493.107  
                                
  23773563.509   124930919.080                    97348749.854    23773559.077  
                                
  21902235.815   115097026.103                    89685978.264    21902231.883  
                                
  24062264.450   126448053.364                    98530930.181    24062259.393  
                                
  21020479.835   110463366.707    21020479.334    86075345.607    21020478.709  
  21020479.334    82488875.387  
  22575473.895   120594128.761    22575474.538    93795435.824    22575474.896  
                                
  19383675.115   103507743.935    19383674.758    80506020.950    19383674.883  
                                
  20512628.318   109343851.225    20512628.782    85045219.527    20512628.586  
                                
  19901158.053   106420435.784    19901157.017    82771445.730    19901157.089  
                                
  23903947.801   125616093.874                                                  
  23903949.123    93804230.764  
  23715782.057   124627276.543                                                  
  23715784.631    93065832.589  
  24620662.036   129382452.454                                                  
  24620663.555    96616771.474  
  23551492.134   123763926.660                                                  
  23551493.581    92421119.586  
 21  9  1  9 14 25.0000000  0 17G 1G 7G 8G14G17G19G21G22G30R12R13R14
                                R24E13E15E21E27
  20222267.577   106268733.747    20222267.434    82806804.470    20222267.327  
  20222266.630    79356518.069  
  22038782.883   115814585.029    22038779.899    90245118.003    22038779.613  
                                
  24045610.145   126360533.187    24045610.324    98462751.029    24045609.484  
  24045609.091    94360134.006  
  20929089.449   109983107.640    20929087.001    85701111.353    20929086.715  
  20929090.861    82130247.655  
  21633186.135   113683159.951    21633183.097    88584267.114    21633182.704  
                                
  23772988.555   124927897.587                    97346395.448    23772984.088  
                                
  21902624.966   115099071.117                    89687571.779    21902621.035  
                                
  24061850.049   126445875.683                    98529233.284    24061844.992  
                                
  21020730.555   110464684.304    21020730.055    86076372.301    21020729.447  
  21020730.072    82489859.307  
  22576184.778   120597926.071    22576185.422    93798389.280    22576185.779  
                                
  19383893.171   103508908.307    19383892.778    80506926.573    19383892.939  
                                
  20512084.081   109340950.172    20512084.546    85042963.151    20512084.349  
                                
  19900774.977   106418387.298    19900773.923    82769852.465    19900774.012  
                                
  23903600.517   125614268.820                                                  
  23903601.821    93802867.901  
  23715981.243   124628323.287                                                  
  23715983.817    93066614.249  
  24620330.334   129380709.400                                                  
  24620331.852    96615469.843  
  23551620.773   123764602.698                                                  
  23551622.220    92421624.426  
 21  9  1  9 14 26.0000000  0 17G 1G 7G 8G14G17G19G21G22G30R12R13R14
                                R24E13E15E21E27
  20222238.486   106268580.950    20222238.343    82806685.407    20222238.272  
  20222237.539    79356403.963  
  22039376.492   115817704.409    22039373.508    90247548.684    22039373.204  
                                
  24046187.189   126363565.555    24046187.368    98465113.911    24046186.528  
  24046186.135    94362398.432  
  20928761.821   109981385.861    20928759.355    85699769.707    20928759.069  
  20928763.215    82128961.907  
  21632875.804   113681529.058    21632872.748    88582996.293    21632872.355  
                                
  23772413.601   124924876.247                    97344041.168    23772409.134  
                                
  21903014.207   115101116.554                    89689165.623    21903010.276  
                                
  24061435.702   126443698.299                    98527536.621    24061430.645  
                                
  21020981.382   110466002.497    21020980.918    86077399.464    21020980.292  
  21020980.918    82490843.669  
  22576895.715   120601723.676    22576896.341    93801342.964    22576896.716  
                                
  19384111.334   103510073.404    19384110.977    80507832.757    19384111.119  
                                
  20511539.933   109338049.507    20511540.380    85040707.075    20511540.202  
                                
  19900391.991   106416339.421    19900390.972    82768259.672    19900391.026  
                                
  23903253.268   125612444.101                                                  
  23903254.572    93801505.292  
  23716180.501   124629370.383                                                  
  23716183.056    93067396.176  
  24619998.667   129378966.476                                                  
  24620000.185    96614168.311  
  23551749.484   123765279.012                                                  
  23551750.913    92422129.464  
 21  9  1  9 14 27.0000000  0 17G 1G 7G 8G14G17G19G21G22G30R12R13R14
                                R24E13E15E21E27
  20222209.574   106268428.981    20222209.431    82806566.988    20222209.342  
  20222208.627    79356290.473  
  22039970.172   115820824.227    22039967.188    90249979.704    22039966.902  
                                
  24046764.234   126366597.999    24046764.430    98467476.855    24046763.591  
  24046763.197    94364662.917  
  20928434.228   109979664.428    20928431.798    85698428.329    20928431.494  
  20928435.622    82127676.423  
  21632565.508   113679898.523    21632562.488    88581725.744    21632562.059  
                                
  23771838.701   124921855.162                    97341687.088    23771834.234  
                                
  21903403.537   115103162.504                    89690759.873    21903399.588  
                                
  24061021.427   126441521.234                    98525840.208    24061016.352  
                                
  21021232.371   110467321.367    21021231.870    86078427.153    21021231.263  
  21021231.888    82491828.539  
  22577606.706   120605521.669    22577607.367    93804296.949    22577607.706  
                                
  19384329.675   103511239.285    19384329.318    80508739.554    19384329.461  
                                
  20510995.857   109335149.302    20510996.340    85038451.360    20510996.125  
                                
  19900009.147   106414292.237    19900008.128    82766667.417    19900008.200  
                                
  23902906.126   125610619.842                                                  
  23902907.431    93800143.015  
  23716379.848   124630417.961                                                  
  23716382.421    93068178.455  
  24619667.053   129377223.783                                                  
  24619668.554    96612866.949  
  23551878.230   123765955.687                                                  
  23551879.695    92422634.769  
 21  9  1  9 14 28.0000000  0 17G 1G 7G 8G14G17G19G21G22G30R12R13R14
                                R24E13E15E21E27
  20222180.769   106268277.555    20222180.626    82806448.995    20222180.519  
  20222179.804    79356177.408  
  22040563.906   115823944.229    22040560.904    90252410.872    22040560.636  
                                
  24047341.260   126369630.256    24047341.457    98469839.652    24047340.599  
  24047340.206    94366927.265  
  20928106.689   109977943.113    20928104.223    85697087.049    20928103.955  
  20928108.065    82126391.024  
  21632255.248   113678268.120    21632252.211    88580455.302    21632251.817  
                                
  23771263.801   124918834.085                    97339333.004    23771259.334  
                                
  21903792.921   115105208.736                    89692354.337    21903788.972  
                                
  24060607.169   126439344.305                    98524143.908    24060602.112  
                                
  21021483.431   110468640.686    21021482.930    86079455.194    21021482.323  
  21021482.948    82492813.743  
  22578317.714   120609319.772    22578318.375    93807251.029    22578318.733  
                                
  19384548.106   103512405.715    19384547.749    80509646.777    19384547.892  
                                
  20510451.835   109332249.351    20510452.300    85036195.840    20510452.103  
                                
  19899626.410   106412245.503    19899625.374    82765075.516    19899625.463  
                                
  23902559.021   125608795.775                                                  
  23902560.325    93798780.886  
  23716579.230   124631465.761                                                  
  23716581.803    93068960.900  
  24619335.422   129375481.079                                                  
  24619336.941    96611565.577  
  23552007.030   123766632.479                                                  
  23552008.477    92423140.166  
 21  9  1  9 14 29.0000000  0 17G 1G 7G 8G14G17G19G21G22G30R12R13R14
                                R24E13E15E21E27
  20222152.089   106268126.865    20222151.946    82806331.575    20222151.839  
  20222151.142    79356064.871  
  22041157.676   115827064.575    22041154.710    90254842.306    22041154.406  
                                
  24047918.269   126372662.474    24047918.466    98472202.424    24047917.626  
  24047917.215    94369191.592  
  20927779.185   109976222.047    20927776.719    85695745.954    20927776.451  
  20927780.561    82125105.812  
  21631945.042   113676637.978    21631942.022    88579185.062    21631941.611  
                                
  23770688.937   124915813.150                    97336979.027    23770684.488  
                                
  21904182.395   115107255.376                    89693949.128    21904178.428  
                                
  24060192.965   126437167.625                    98522447.792    24060187.908  
                                
  21021734.615   110469960.574    21021734.115    86080483.679    21021733.490  
  21021734.115    82493799.376  
  22579028.794   120613118.146    22579029.420    93810205.334    22579029.795  
                                
  19384766.662   103513572.846    19384766.305    80510554.545    19384766.448  
                                
  20509907.902   109329349.819    20509908.367    85033940.651    20509908.152  
                                
  19899243.781   106410199.403    19899242.744    82763484.102    19899242.816  
                                
  23902211.968   125606972.050                                                  
  23902213.291    93797419.021  
  23716778.702   124632513.917                                                  
  23716781.257    93069743.622  
  24619003.827   129373738.506                                                  
  24619005.345    96610264.310  
  23552135.865   123767309.542                                                  
  23552137.331    92423645.766  
 21  9  1  9 14 30.0000000  0 17G 1G 7G 8G14G17G19G21G22G30R12R13R14
                                R24E13E15E21E27
  20222123.553   106267976.932    20222123.410    82806214.744    20222123.320  
  20222122.605    79355952.917  
  22041751.553   115830185.308    22041748.551    90257274.048    22041748.283  
                                
  24048495.313   126375694.760    24048495.492    98474565.247    24048494.652  
  24048494.241    94371455.951  
  20927451.718   109974501.301    20927449.287    85694405.111    20927448.984  
  20927453.111    82123820.844  
  21631634.925   113675008.179    21631631.887    88577915.086    21631631.476  
                                
  23770114.126   124912792.411                    97334625.200    23770109.641  
                                
  21904571.957   115109302.506                    89695544.296    21904567.990  
                                
  24059778.797   126434991.221                    98520751.890    24059773.740  
                                
  21021985.890   110471281.120    21021985.389    86081512.673    21021984.800  
  21021985.407    82494785.498  
  22579739.928   120616916.906    22579740.553    93813159.923    22579740.928  
                                
  19384985.379   103514740.734    19384985.022    80511462.902    19384985.165  
                                
  20509364.040   109326450.766    20509364.505    85031685.835    20509364.308  
                                
  19898861.276   106408154.010    19898860.240    82761893.239    19898860.329  
                                
  23901865.006   125605148.728                                                  
  23901866.328    93796057.447  
  23716978.246   124633562.521                                                  
  23716980.819    93070526.664  
  24618672.249   129371996.136                                                  
  24618673.768    96608963.187  
  23552264.790   123767986.936                                                  
  23552266.220    92424151.610  
 21  9  1  9 14 31.0000000  0 17G 1G 7G 8G14G17G19G21G22G30R12R13R14
                                R24E13E15E21E27
  20222095.123   106267827.554    20222094.980    82806098.343    20222094.908  
  20222094.176    79355841.364  
  22042345.430   115833306.191    22042342.446    90259705.902    22042342.142  
                                
  24049072.286   126378726.811    24049072.483    98476927.879    24049071.625  
  24049071.232    94373720.138  
  20927124.304   109972780.635    20927121.838    85693064.332    20927121.552  
  20927125.697    82122535.928  
  21631324.790   113673378.451    21631321.753    88576645.171    21631321.342  
                                
  23769539.262   124909771.628                    97332271.345    23769534.812  
                                
  21904961.538   115111349.867                    89697139.639    21904957.606  
                                
  24059364.665   126432814.931                    98519056.075    24059359.608  
                                
  21022237.271   110472602.068    21022236.771    86082541.983    21022236.145  
  21022236.771    82495771.916  
  22580451.061   120620715.749    22580451.722    93816114.581    22580452.080  
                                
  19385204.203   103515909.153    19385203.810    80512371.675    19385203.971  
                                
  20508820.197   109323551.925    20508820.679    85029431.183    20508820.483  
                                
  19898478.862   106406109.078    19898477.843    82760302.736    19898477.914  
                                
  23901518.079   125603325.569                                                  
  23901519.383    93794695.995  
  23717177.807   124634611.302                                                  
  23717180.380    93071309.842  
  24618340.689   129370253.711                                                  
  24618342.208    96607662.021  
  23552393.698   123768664.400                                                  
  23552395.145    92424657.507  
 21  9  1  9 14 32.0000000  0 17G 1G 7G 8G14G17G19G21G22G30R12R13R14
                                R24E13E15E21E27
  20222066.836   106267678.912    20222066.693    82805982.521    20222066.622  
  20222065.907    79355730.368  
  22042939.378   115836427.423    22042936.394    90262138.029    22042936.126  
                                
  24049649.259   126381758.868    24049649.456    98479290.523    24049648.616  
  24049648.223    94375984.339  
  20926796.907   109971060.256    20926794.459    85691723.776    20926794.173  
  20926798.319    82121251.232  
  21631014.727   113671749.025    21631011.672    88575375.486    21631011.278  
                                
  23768964.469   124906751.022                    97329917.628    23768960.002  
                                
  21905351.243   115113397.678                    89698735.333    21905347.276  
                                
  24058950.568   126430638.909                    98517360.478    24058945.511  
                                
  21022488.760   110473923.632    21022488.259    86083571.771    21022487.634  
  21022488.277    82496758.803  
  22581162.266   120624514.902    22581162.927    93819069.480    22581163.285  
                                
  19385423.135   103517078.278    19385422.777    80513280.990    19385422.920  
                                
  20508276.460   109320653.506    20508276.943    85027176.855    20508276.746  
                                
  19898096.589   106404064.808    19898095.553    82758712.751    19898095.607  
                                
  23901171.223   125601502.784                                                  
  23901172.510    93793334.824  
  23717377.457   124635660.485                                                  
  23717380.031    93072093.332  
  24618009.147   129368511.444                                                  
  24618010.648    96606360.980  
  23552522.676   123769342.167                                                  
  23552524.124    92425163.633  
 21  9  1  9 14 33.0000000  0 17G 1G 7G 8G14G17G19G21G22G30R12R13R14
                                R24E13E15E21E27
  20222038.693   106267531.043    20222038.550    82805867.298    20222038.478  
  20222037.763    79355619.945  
  22043533.416   115839549.039    22043530.432    90264570.455    22043530.128  
                                
  24050226.268   126384790.987    24050226.482    98481653.211    24050225.642  
  24050225.213    94378248.564  
  20926469.600   109969340.173    20926467.135    85690383.452    20926466.849  
  20926470.994    82119966.761  
  21630704.717   113670119.919    21630701.662    88574106.053    21630701.269  
                                
  23768389.712   124903730.614                    97327564.064    23768385.245  
                                
  21905741.020   115115445.955                    89700331.393    21905737.053  
                                
  24058536.561   126428463.221                    98515665.139    24058531.486  
                                
  21022740.355   110475245.839    21022739.855    86084602.057    21022739.248  
  21022739.873    82497746.160  
  22581873.543   120628314.404    22581874.204    93822024.646    22581874.561  
                                
  19385642.209   103518248.176    19385641.851    80514190.913    19385641.994  
                                
  20507732.831   109317755.546    20507733.296    85024922.886    20507733.099  
                                
  19897714.407   106402021.216    19897713.388    82757123.295    19897713.460  
                                
  23900824.421   125599680.395                                                  
  23900825.725    93791973.951  
  23717577.197   124636710.081                                                  
  23717579.770    93072877.117  
  24617677.641   129366769.373                                                  
  24617679.160    96605060.081  
  23552651.708   123770020.256                                                  
  23552653.156    92425669.995  
 21  9  1  9 14 34.0000000  0 17G 1G 7G 8G14G17G19G21G22G30R12R13R14
                                R24E13E15E21E27
  20222010.710   106267383.939    20222010.567    82805752.671    20222010.477  
  20222009.780    79355510.102  
  22044127.508   115842671.055    22044124.523    90267003.194    22044124.255  
                                
  24050803.258   126387823.094    24050803.455    98484015.891    24050802.615  
  24050802.222    94380512.799  
  20926142.347   109967620.422    20926139.881    85689043.389    20926139.595  
  20926143.723    82118682.529  
  21630394.761   113668491.157    21630391.742    88572836.887    21630391.313  
                                
  23767814.973   124900710.395                    97325210.648    23767810.505  
                                
  21906130.869   115117494.711                    89701927.822    21906126.937  
                                
  24058122.607   126426287.832                    98513970.033    24058117.532  
                                
  21022992.094   110476568.688    21022991.594    86085632.851    21022990.986  
  21022991.612    82498734.000  
  22582584.873   120632114.226    22582585.534    93824980.058    22582585.891  
                                
  19385861.444   103519418.834    19385861.086    80515101.425    19385861.229  
                                
  20507189.255   109314858.053    20507189.738    85022669.276    20507189.523  
                                
  19897332.367   106399978.299    19897331.349    82755534.357    19897331.420  
                                
  23900477.708   125597858.404                                                  
  23900479.013    93790613.370  
  23717776.991   124637760.118                                                  
  23717779.582    93073661.235  
  24617346.171   129365027.491                                                  
  24617347.690    96603759.320  
  23552780.812   123770698.662                                                  
  23552782.242    92426176.597  
 21  9  1  9 14 35.0000000  0 17G 1G 7G 8G14G17G19G21G22G30R12R13R14
                                R24E13E15E21E27
  20221982.852   106267237.580    20221982.709    82805638.628    20221982.637  
  20221981.905    79355400.803  
  22044721.688   115845793.405    22044718.686    90269436.197    22044718.400  
                                
  24051380.249   126390855.171    24051380.446    98486378.549    24051379.588  
  24051379.195    94382777.024  
  20925815.147   109965900.941    20925812.682    85687703.531    20925812.378  
  20925816.523    82117398.503  
  21630084.877   113666862.655    21630081.857    88571567.927    21630081.428  
                                
  23767240.287   124897690.349                    97322857.361    23767235.820  
                                
  21906520.824   115119543.895                    89703524.588    21906516.857  
                                
  24057708.671   126424112.710                    98512275.135    24057703.614  
                                
  21023243.940   110477892.130    21023243.440    86086664.100    21023242.815  
  21023243.458    82499722.289  
  22583296.274   120635914.325    22583296.935    93827935.686    22583297.293  
                                
  19386080.804   103520590.217    19386080.447    80516012.505    19386080.590  
                                
  20506645.787   109311960.971    20506646.233    85020415.990    20506646.037  
                                
  19896950.452   106397936.015    19896949.434    82753945.914    19896949.505  
                                
  23900131.067   125596036.772                                                  
  23900132.372    93789253.062  
  23717976.874   124638810.527                                                  
  23717979.465    93074445.630  
  24617014.736   129363285.755                                                  
  24617016.255    96602458.679  
  23552909.969   123771377.347                                                  
  23552911.399    92426683.407  
 21  9  1  9 14 36.0000000  0 17G 1G 7G 8G14G17G19G21G22G30R12R13R14
                                R24E13E15E21E27
  20221955.191   106267092.155    20221955.048    82805525.309    20221954.958  
  20221954.226    79355292.209  
  22045315.941   115848916.309    22045312.956    90271869.633    22045312.671  
                                
  24051957.276   126393887.478    24051957.472    98488741.381    24051956.632  
  24051956.239    94385041.398  
  20925488.019   109964181.932    20925485.553    85686364.046    20925485.267  
  20925489.395    82116114.824  
  21629775.082   113665234.653    21629772.044    88570299.349    21629771.633  
                                
  23766665.655   124894670.660                    97320504.362    23766661.170  
                                
  21906910.905   115121593.716                    89705121.854    21906906.938  
                                
  24057294.860   126421938.061                    98510580.605    24057289.785  
                                
  21023495.929   110479216.385    21023495.429    86087695.987    21023494.839  
  21023495.447    82500711.179  
  22584007.747   120639714.928    22584008.426    93830891.703    22584008.784  
                                
  19386300.343   103521762.533    19386299.985    80516924.306    19386300.128  
                                
  20506102.408   109309064.526    20506102.872    85018163.201    20506102.676  
                                
  19896568.699   106395894.570    19896567.680    82752358.123    19896567.734  
                                
  23899784.533   125594215.703                                                  
  23899785.820    93787893.175  
  23718176.882   124639861.523                                                  
  23718179.473    93075230.469  
  24616683.355   129361544.368                                                  
  24616684.856    96601158.291  
  23553039.198   123772056.523                                                  
  23553040.646    92427190.583  
 21  9  1  9 14 37.0000000  0 17G 1G 7G 8G14G17G19G21G22G30R12R13R14
                                R24E13E15E21E27
  20221927.654   106266947.492    20221927.511    82805412.585    20221927.422  
  20221926.707    79355184.179  
  22045910.264   115852039.583    22045907.298    90274303.354    22045907.012  
                                
  24052534.302   126396919.769    24052534.481    98491104.203    24052533.641  
  24052533.230    94387305.789  
  20925160.945   109962463.229    20925158.497    85685024.797    20925158.211  
  20925162.356    82114831.378  
  21629465.322   113663606.952    21629462.302    88569031.018    21629461.891  
                                
  23766091.059   124891651.163                    97318151.516    23766086.573  
                                
  21907301.039   115123643.997                    89706719.480    21907297.090  
                                
  24056881.103   126419763.702                    98508886.302    24056876.010  
                                
  21023748.025   110480541.268    21023747.561    86088728.366    21023746.935  
  21023747.561    82501700.542  
  22584719.310   120643515.873    22584719.971    93833847.997    22584720.346  
                                
  19386520.025   103522935.615    19386519.685    80517836.706    19386519.810  
                                
  20505559.118   109306168.510    20505559.582    85015910.742    20505559.386  
                                
  19896187.088   106393853.809    19896186.051    82750770.862    19896186.123  
                                
  23899438.071   125592395.028                                                  
  23899439.357    93786533.578  
  23718376.961   124640912.942                                                  
  23718379.552    93076015.615  
  24616352.010   129359803.166                                                  
  24616353.529    96599858.043  
  23553168.498   123772736.003                                                  
  23553169.946    92427697.990  
 21  9  1  9 14 38.0000000  0 17G 1G 7G 8G14G17G19G21G22G30R12R13R14
                                R24E13E15E21E27
  20221900.279   106266803.728    20221900.154    82805300.563    20221900.065  
  20221899.350    79355076.816  
  22046504.713   115855163.348    22046501.729    90276737.451    22046501.425  
                                
  24053111.347   126399952.226    24053111.543    98493467.152    24053110.703  
  24053110.292    94389570.276  
  20924833.995   109960744.962    20924831.529    85683685.888    20924831.243  
  20924835.371    82113548.255  
  21629155.688   113661979.698    21629152.632    88567763.025    21629152.239  
                                
  23765516.516   124888631.994                    97315798.923    23765512.031  
                                
  21907691.317   115125694.869                    89708317.571    21907687.350  
                                
  24056467.399   126417589.778                    98507192.326    24056462.342  
                                
  21024000.318   110481866.920    21023999.818    86089761.341    21023999.210  
  21023999.836    82502690.470  
  22585430.943   120647317.297    22585431.605    93836804.660    22585431.980  
                                
  19386739.867   103524109.580    19386739.510    80518749.788    19386739.671  
                                
  20505015.953   109303273.065    20505016.436    85013658.729    20505016.221  
                                
  19895805.602   106391813.871    19895804.566    82749184.247    19895804.637  
                                
  23899091.698   125590574.866                                                  
  23899093.002    93785174.368  
  23718577.148   124641964.901                                                  
  23718579.739    93076801.166  
  24616020.736   129358062.266                                                  
  24616022.237    96598558.022  
  23553297.870   123773415.929                                                  
  23553299.335    92428205.722  
 21  9  1  9 14 39.0000000  0 17G 1G 7G 8G14G17G19G21G22G30R12R13R14
                                R24E13E15E21E27
  20221873.065   106266660.632    20221872.922    82805189.060    20221872.832  
  20221872.100    79354969.968  
  22047099.198   115858287.423    22047096.213    90279171.793    22047095.928  
                                
  24053688.409   126402984.646    24053688.605    98495830.079    24053687.765  
  24053687.354    94391834.744  
  20924507.064   109959026.919    20924504.580    85682347.153    20924504.294  
  20924508.439    82112265.303  
  21628846.071   113660352.684    21628843.033    88566495.222    21628842.622  
                                
  23764942.027   124885612.931                    97313446.404    23764937.542  
                                
  21908081.648   115127746.136                    89709915.961    21908077.681  
                                
  24056053.785   126415416.103                    98505498.553    24056048.692  
                                
  21024252.682   110483193.123    21024252.182    86090794.744    21024251.574  
  21024252.200    82503680.819  
  22586142.613   120651118.979    22586143.274    93839761.529    22586143.649  
                                
  19386959.853   103525284.198    19386959.495    80519663.375    19386959.656  
                                
  20504472.842   109300378.007    20504473.307    85011407.013    20504473.110  
                                
  19895424.224   106389774.541    19895423.205    82747598.101    19895423.259  
                                
  23898745.396   125588755.015                                                  
  23898746.700    93783815.384  
  23718777.388   124643017.200                                                  
  23718779.979    93077586.978  
  24615689.480   129356321.478                                                  
  24615690.981    96597258.081  
  23553427.313   123774096.093                                                  
  23553428.779    92428713.637  
 21  9  1  9 14 40.0000000  0 17G 1G 7G 8G14G17G19G21G22G30R12R13R14
                                R24E13E15E21E27
  20221845.975   106266518.320    20221845.850    82805078.166    20221845.743  
  20221845.028    79354863.692  
  22047693.754   115861411.880    22047690.769    90281606.437    22047690.501  
                                
  24054265.453   126406017.038    24054265.632    98498192.979    24054264.792  
  24054264.399    94394099.204  
  20924180.185   109957309.190    20924177.720    85681008.660    20924177.434  
  20924181.561    82110982.581  
  21628536.526   113658726.005    21628533.470    88565227.678    21628533.077  
                                
  23764367.556   124882594.073                    97311094.041    23764363.088  
                                
  21908472.086   115129797.879                    89711514.724    21908468.119  
                                
  24055640.189   126413242.706                    98503804.995    24055635.132  
                                
  21024505.172   110484519.958    21024504.671    86091828.639    21024504.046  
  21024504.671    82504671.634  
  22586854.354   120654920.972    22586855.033    93842718.641    22586855.390  
                                
  19387179.963   103526459.592    19387179.606    80520577.567    19387179.749  
                                
  20503929.838   109297483.423    20503930.321    85009155.667    20503930.106  
                                
  19895042.988   106387735.882    19895041.951    82746012.477    19895042.023  
                                
  23898399.166   125586935.563                                                  
  23898400.470    93782456.704  
  23718977.718   124644069.910                                                  
  23718980.291    93078373.093  
  24615358.242   129354580.872                                                  
  24615359.761    96595958.282  
  23553556.810   123774776.574                                                  
  23553558.275    92429221.786  
 21  9  1  9 14 41.0000000  0 17G 1G 7G 8G14G17G19G21G22G30R12R13R14
                                R24E13E15E21E27
  20221819.046   106266376.713    20221818.904    82804967.815    20221818.796  
  20221818.082    79354757.941  
  22048288.381   115864536.677    22048285.379    90284041.344    22048285.111  
                                
  24054842.462   126409049.400    24054842.676    98500555.859    24054841.836  
  24054841.425    94396363.628  
  20923853.361   109955591.710    20923850.895    85679670.369    20923850.609  
  20923854.737    82109700.047  
  21628227.017   113657099.563    21628223.997    88563960.323    21628223.586  
                                
  23763793.102   124879575.338                    97308741.778    23763788.617  
                                
  21908862.595   115131850.036                    89713113.809    21908858.629  
                                
  24055226.664   126411069.583                    98502111.655    24055221.589  
                                
  21024757.768   110485847.382    21024757.268    86092862.995    21024756.660  
  21024757.268    82505662.895  
  22587566.149   120658723.261    22587566.810    93845675.979    22587567.185  
                                
  19387400.199   103527635.677    19387399.842    80521492.298    19387400.002  
                                
  20503386.888   109294589.219    20503387.353    85006904.617    20503387.156  
                                
  19894661.877   106385697.835    19894660.823    82744427.332    19894660.895  
                                
  23898052.989   125585116.460                                                  
  23898054.311    93781098.284  
  23719178.101   124645122.998                                                  
  23719180.710    93079159.488  
  24615027.040   129352840.389                                                  
  24615028.559    96594658.573  
  23553686.343   123775457.311                                                  
  23553687.790    92429730.133  
 21  9  1  9 14 42.0000000  0 17G 1G 7G 8G14G17G19G21G22G30R12R13R14
                                R24E13E15E21E27
  20221792.207   106266235.710    20221792.064    82804857.947    20221791.975  
  20221791.260    79354652.653  
  22048883.044   115867661.677    22048880.060    90286476.414    22048879.756  
                                
  24055419.488   126412081.615    24055419.685    98502918.624    24055418.845  
  24055418.452    94398627.938  
  20923526.572   109953874.386    20923524.089    85678332.194    20923523.803  
  20923527.948    82108417.632  
  21627917.561   113655473.307    21627914.523    88562693.108    21627914.112  
                                
  23763218.685   124876556.671                    97306389.567    23763214.200  
                                
  21909253.177   115133902.503                    89714713.133    21909249.210  
                                
  24054813.157   126408896.618                    98500418.438    24054808.100  
                                
  21025010.454   110487175.287    21025009.954    86093897.727    21025009.364  
  21025009.972    82506654.515  
  22588277.961   120662525.713    22588278.640    93848633.439    22588278.998  
                                
  19387620.560   103528812.353    19387620.202    80522407.492    19387620.345  
                                
  20502843.991   109291695.298    20502844.474    85004653.792    20502844.277  
                                
  19894280.838   106383660.290    19894279.802    82742842.572    19894279.873  
                                
  23897706.884   125583297.589                                                  
  23897708.188    93779740.036  
  23719378.574   124646176.342                                                  
  23719381.147    93079946.076  
  24614695.837   129351099.944                                                  
  24614697.356    96593358.883  
  23553815.929   123776138.214                                                  
  23553817.376    92430238.597  
 21  9  1  9 14 43.0000000  0 17G 1G 7G 8G14G17G19G21G22G30R12R13R14
                                R24E13E15E21E27
  20221765.511   106266095.472    20221765.386    82804748.671    20221765.279  
  20221764.564    79354547.924  
  22049477.779   115870787.041    22049474.795    90288911.766    22049474.491  
                                
  24055996.497   126415113.831    24055996.693    98505281.387    24055995.854  
  24055995.460    94400892.261  
  20923199.819   109952157.346    20923197.371    85676994.239    20923197.068  
  20923201.195    82107135.425  
  21627608.141   113653847.329    21627605.103    88561426.107    21627604.710  
                                
  23762644.285   124873538.145                    97304037.462    23762639.800  
                                
  21909643.829   115135955.408                    89716312.794    21909639.862  
                                
  24054399.703   126406723.923                    98498725.429    24054394.628  
                                
  21025263.283   110488503.809    21025262.782    86094932.941    21025262.157  
  21025262.800    82507646.588  
  22588989.845   120666328.461    22588990.506    93851591.134    22588990.882  
                                
  19387841.046   103529989.786    19387840.706    80523323.271    19387840.831  
                                
  20502301.202   109288801.785    20502301.666    85002403.282    20502301.452  
                                
  19893899.907   106381623.377    19893898.870    82741258.309    19893898.959  
                                
  23897360.832   125581479.088                                                  
  23897362.119    93778382.066  
  23719579.064   124647230.085                                                  
  23719581.655    93080732.964  
  24614364.689   129349359.663                                                  
  24614366.190    96592059.323  
  23553945.551   123776819.408                                                  
  23553946.998    92430747.279  
 21  9  1  9 14 44.0000000  0 17G 1G 7G 8G14G17G19G21G22G30R12R13R14
                                R24E13E15E21E27
  20221738.975   106265955.960    20221738.832    82804639.960    20221738.743  
  20221738.010    79354443.745  
  22050072.585   115873912.762    22050069.583    90291347.396    22050069.297  
                                
  24056573.505   126418146.026    24056573.684    98507644.130    24056572.844  
  24056572.469    94403156.573  
  20922873.138   109950440.594    20922870.672    85675656.505    20922870.386  
  20922874.514    82105853.432  
  21627298.774   113652221.647    21627295.755    88560159.345    21627295.361  
                                
  23762069.903   124870519.801                    97301685.498    23762065.436  
                                
  21910034.553   115138008.753                    89717912.803    21910030.604  
                                
  24053986.303   126404551.501                    98497032.621    24053981.246  
                                
  21025516.201   110489832.923    21025515.701    86095968.614    21025515.075  
  21025515.718    82508639.113  
  22589701.783   120670131.533    22589702.444    93854549.075    22589702.837  
                                
  19388061.675   103531167.937    19388061.317    80524239.609    19388061.460  
                                
  20501758.466   109285908.712    20501758.931    85000153.119    20501758.734  
                                
  19893519.118   106379587.104    19893518.081    82739674.546    19893518.153  
                                
  23897014.870   125579660.963                                                  
  23897016.157    93777024.375  
  23719779.679   124648284.218                                                  
  23719782.253    93081520.141  
  24614033.540   129347619.527                                                  
  24614035.059    96590759.879  
  23554075.244   123777500.896                                                  
  23554076.674    92431256.182  
 21  9  1  9 14 45.0000000  0 17G 1G 7G 8G14G17G19G21G22G30R12R13R14
                                R24E13E15E21E27
  20221712.619   106265817.463    20221712.476    82804532.038    20221712.386  
  20221711.672    79354340.320  
  22050667.499   115877039.106    22050664.497    90293783.517    22050664.211  
                                
  24057150.586   126421178.549    24057150.800    98510007.133    24057149.960  
  24057149.567    94405421.087  
  20922546.546   109948724.376    20922544.080    85674319.190    20922543.794  
  20922547.940    82104571.845  
  21626989.533   113650596.521    21626986.513    88558893.010    21626986.102  
                                
  23761495.628   124867501.897                    97299333.883    23761491.143  
                                
  21910425.438   115140062.808                    89719513.364    21910421.471  
                                
  24053573.011   126402379.636                    98495340.256    24053567.954  
                                
  21025769.280   110491162.918    21025768.780    86097004.971    21025768.154  
  21025768.797    82509632.295  
  22590413.828   120673935.179    22590414.507    93857507.473    22590414.864  
                                
  19388282.500   103532347.091    19388282.143    80525156.728    19388282.268  
                                
  20501215.873   109283016.345    20501216.320    84997903.498    20501216.123  
                                
  19893138.507   106377551.760    19893137.453    82738091.498    19893137.525  
                                
  23896668.998   125577843.468                                                  
  23896670.302    93775667.155  
  23719980.402   124649338.999                                                  
  23719982.975    93082307.807  
  24613702.481   129345879.818                                                  
  24613703.999    96589460.742  
  23554205.009   123778182.926                                                  
  23554206.474    92431765.493  
 21  9  1  9 14 46.0000000  0 17G 1G 7G 8G14G17G19G21G22G30R12R13R14
                                R24E13E15E21E27
  20221686.369   106265679.538    20221686.226    82804424.564    20221686.155  
  20221685.440    79354237.324  
  22051262.466   115880165.644    22051259.464    90296219.780    22051259.160  
                                
  24057727.612   126424210.847    24057727.809    98512369.957    24057726.969  
  24057726.576    94407685.479  
  20922219.989   109947008.290    20922217.523    85672981.980    20922217.220  
  20922221.365    82103290.350  
  21626680.310   113648971.520    21626677.272    88557626.776    21626676.879  
                                
  23760921.354   124864484.007                    97296982.283    23760916.869  
                                
  21910816.359   115142117.148                    89721114.148    21910812.410  
                                
  24053159.754   126400207.901                    98493647.995    24053154.697  
                                
  21026022.466   110492493.376    21026021.966    86098041.692    21026021.358  
  21026021.984    82510625.811  
  22591125.908   120677738.947    22591126.569    93860465.966    22591126.927  
                                
  19388503.415   103533526.840    19388503.057    80526074.312    19388503.200  
                                
  20500673.298   109280124.270    20500673.781    84995654.106    20500673.584  
                                
  19892757.969   106375516.938    19892756.932    82736508.859    19892757.004  
                                
  23896323.178   125576026.173                                                  
  23896324.483    93774310.082  
  23720181.161   124650394.033                                                  
  23720183.734    93083095.655  
  24613371.421   129344140.116                                                  
  24613372.940    96588161.614  
  23554334.827   123778865.097                                                  
  23554336.275    92432274.906  
 21  9  1  9 14 47.0000000  0 17G 1G 7G 8G14G17G19G21G22G30R12R13R14
                                R24E13E15E21E27
  20221660.316   106265542.546    20221660.173    82804317.813    20221660.066  
  20221659.351    79354135.025  
  22051857.522   115883292.709    22051854.520    90298656.452    22051854.216  
                                
  24058304.674   126427243.341    24058304.871    98514732.938    24058304.031  
  24058303.638    94409950.001  
  20921893.522   109945292.673    20921891.039    85671645.139    20921890.771  
  20921894.880    82102009.210  
  21626371.158   113647346.992    21626368.138    88556360.912    21626367.727  
                                
  23760347.133   124861466.446                    97294630.934    23760342.630  
                                
  21911207.422   115144172.104                    89722715.410    21911203.455  
                                
  24052746.568   126398036.632                    98491956.097    24052741.511  
                                
  21026275.777   110493824.618    21026275.295    86099079.021    21026274.687  
  21026275.295    82511619.920  
  22591838.060   120681543.204    22591838.721    93863424.844    22591839.079  
                                
  19388724.508   103534707.479    19388724.151    80526992.586    19388724.294  
                                
  20500130.866   109277232.799    20500131.349    84993405.189    20500131.152  
                                
  19892377.609   106373482.970    19892376.554    82734926.886    19892376.644  
                                
  23895977.448   125574209.435                                                  
  23895978.771    93772953.432  
  23720382.026   124651449.631                                                  
  23720384.600    93083883.923  
  24613040.433   129342400.745                                                  
  24613041.952    96586862.739  
  23554464.717   123779547.738                                                  
  23554466.183    92432784.671  
 21  9  1  9 14 48.0000000  0 17G 1G 7G 8G14G17G19G21G22G30R12R13R14
                                R24E13E15E21E27
  20221634.442   106265406.669    20221634.299    82804211.937    20221634.227  
  20221633.512    79354033.560  
  22052452.703   115886420.491    22052449.701    90301093.680    22052449.433  
                                
  24058881.844   126430276.267    24058882.040    98517096.256    24058881.200  
  24058880.789    94412214.833  
  20921567.163   109943577.714    20921564.697    85670308.809    20921564.411  
  20921568.538    82100728.561  
  21626062.149   113645723.150    21626059.129    88555095.578    21626058.736  
                                
  23759773.019   124858449.455                    97292280.025    23759768.534  
                                
  21911598.611   115146227.891                    89724317.319    21911594.644  
                                
  24052333.508   126395866.009                    98490264.700    24052328.451  
                                
  21026529.303   110495156.849    21026528.803    86100117.125    21026528.195  
  21026528.821    82512614.770  
  22592550.337   120685348.159    22592551.016    93866384.261    22592551.374  
                                
  19388945.816   103535889.242    19388945.476    80527911.737    19388945.602  
                                
  20499588.595   109274342.149    20499589.077    84991156.906    20499588.863  
                                
  19891997.445   106371450.050    19891996.409    82733345.726    19891996.462  
                                
  23895631.897   125572393.443                                                  
  23895633.184    93771597.329  
  23720583.035   124652506.003                                                  
  23720585.626    93084672.773  
  24612709.553   129340661.923                                                  
  24612711.054    96585564.266  
  23554594.768   123780231.054                                                  
  23554596.215    92433294.936  
