     2.11           OBSERVATION DATA    M (MIXED)           RINEX VERSION / TYPE
CONVBIN 2.4.3                           20210901 004845 UTC PGM / RUN BY / DATE 
log: logs/21_08_31_18_18_22_okdt_SNOK.rtcm                  COMMENT             
format: RTCM 3, station ID: 5                               COMMENT             
0005                                                        MARKER NAME         
                                                            MARKER NUMBER       
                                                            OBSERVER / AGENCY   
1705700             LEICA GR30          4.50                REC # / TYPE / VERS 
                    GPPNULLANTENNA                          ANT # / TYPE        
  -679303.2208 -5154477.6564  3682276.0515                  APPROX POSITION XYZ 
        0.0000        0.0000        0.0000                  ANTENNA: DELTA H/E/N
     1     1                                                WAVELENGTH FACT L1/2
     7    C1    L1    C2    L2    P2    C5    L5            # / TYPES OF OBSERV 
  2021     8    31    18    18   49.0000000     GPS         TIME OF FIRST OBS   
  2021     8    31    18    48   26.0000000     GPS         TIME OF LAST OBS    
                                                            END OF HEADER       
 21  8 31 18 18 49.0000000  0 16G 5G13G15G18G23G29R 3R 4R 5R18R19R20
                                E 5E 9E11E36
  22542781.535   118463115.644    22542780.016    92308912.073    22542779.390  
                                
  21722123.926   114150531.526                    88948454.193    21722121.227  
                                
  20299525.316   106674724.927    20299523.315    83123151.401    20299522.654  
                                
  20983131.843   110267102.478    20983129.949    85922408.026    20983129.574  
  20983134.274    82342325.349  
  21634400.210   113689539.806    21634398.798    88589244.608    21634398.423  
  21634403.016    84898043.762  
  20968358.504   110189466.962    20968356.788    85861912.757    20968356.145  
                                
  22852303.676   122330170.572    22852302.925    95145684.959    22852302.854  
                                
  19429235.013   104042670.773    19429233.387    80922070.784    19429233.351  
                                
  20157968.346   107755893.349    20157968.310    83810138.254    20157968.346  
                                
  21801197.033   116376269.430    21801198.784    90514883.563    21801198.766  
                                
  19449461.371   104041502.889    19449460.745    80921166.156    19449460.424  
                                
  21441003.149   114654679.068    21441004.990    89175868.864    21441004.096  
                                
  24195127.604   127146254.752                                                  
  24195130.839    94946889.604  
  22279430.036   117079195.600                                                  
  22279432.413    87429277.863  
  24824330.355   130452737.309                                                  
  24824330.748    97416006.017  
  23624016.333   124145044.672                                                  
  23624019.514    92705726.274  
 21  8 31 18 18 50.0000000  0 16G 5G13G15G18G23G29R 3R 4R 5R18R19R20
                                E 5E 9E11E36
  22543296.699   118465822.911    22543295.180    92311021.641    22543294.554  
                                
  21722364.228   114151794.448                    88949438.301    21722361.548  
                                
  20299489.006   106674534.197    20299486.987    83123002.796    20299486.326  
                                
  20982818.063   110265453.488    20982816.169    85921123.119    20982815.776  
  20982820.458    82341093.961  
  21634075.262   113687832.253    21634073.868    88587914.070    21634073.493  
  21634078.067    84896768.650  
  20968755.303   110191552.263    20968753.588    85863537.685    20968752.944  
                                
  22853039.236   122334108.169    22853038.468    95148747.548    22853038.414  
                                
  19429522.257   104044209.083    19429520.631    80923267.261    19429520.613  
                                
  20157523.747   107753516.771    20157523.711    83808289.826    20157523.729  
                                
  21801769.592   116379325.957    21801771.361    90517260.871    21801771.361  
                                
  19449509.760   104041761.912    19449509.153    80921367.632    19449508.831  
                                
  21440375.267   114651321.547    21440377.108    89173257.473    21440376.197  
                                
  24194766.060   127144354.814                                                  
  24194769.277    94945470.819  
  22279584.389   117080006.714                                                  
  22279586.748    87429883.558  
  24824708.177   130454722.628                                                  
  24824708.552    97417488.551  
  23624057.378   124145260.342                                                  
  23624060.559    92705887.324  
 21  8 31 18 18 51.0000000  0 16G 5G13G15G18G23G29R 3R 4R 5R18R19R20
                                E 5E 9E11E36
  22543811.845   118468530.057    22543810.326    92313131.114    22543809.700  
                                
  21722604.638   114153057.804                    88950422.749    21722601.940  
                                
  20299452.804   106674343.959    20299450.784    83122854.568    20299450.123  
                                
  20982504.283   110263804.492    20982502.371    85919838.197    20982501.996  
  20982506.678    82339862.559  
  21633750.349   113686124.789    21633748.956    88586583.590    21633748.598  
  21633753.155    84895493.589  
  20969152.192   110193637.907    20969150.459    85865162.874    20969149.815  
                                
  22853774.779   122338045.619    22853774.028    95151810.011    22853773.939  
                                
  19429809.609   104045747.844    19429807.983    80924464.087    19429807.965  
                                
  20157079.237   107751140.614    20157079.183    83806441.713    20157079.219  
                                
  21802342.222   116382382.683    21802343.974    90519638.328    21802343.974  
                                
  19449558.274   104042021.384    19449557.649    80921569.455    19449557.327  
                                
  21439747.368   114647964.005    21439749.208    89170646.063    21439748.315  
                                
  24194404.534   127142455.002                                                  
  24194407.751    94944052.126  
  22279738.759   117080818.010                                                  
  22279741.154    87430489.394  
  24825085.946   130456707.879                                                  
  24825086.339    97418971.046  
  23624098.406   124145476.015                                                  
  23624101.604    92706048.383  
 21  8 31 18 18 52.0000000  0 16G 5G13G15G18G23G29R 3R 4R 5R18R19R20
                                E 5E 9E11E36
  22544327.026   118471237.314    22544325.508    92315240.679    22544324.864  
                                
  21722845.173   114154321.856                    88951407.738    21722842.493  
                                
  20299416.726   106674154.470    20299414.707    83122706.931    20299414.046  
                                
  20982190.521   110262155.749    20982188.627    85918553.475    20982188.252  
  20982192.933    82338631.361  
  21633425.491   113684417.682    21633424.097    88585253.393    21633423.739  
  21633428.296    84894218.804  
  20969549.188   110195724.171    20969547.455    85866788.548    20969546.811  
                                
  22854510.357   122341983.242    22854509.607    95154872.616    22854509.517  
                                
  19430097.086   104047287.309    19430095.460    80925661.464    19430095.424  
                                
  20156634.834   107748765.156    20156634.781    83804594.149    20156634.816  
                                
  21802914.925   116385439.905    21802916.694    90522016.178    21802916.694  
                                
  19449606.896   104042281.560    19449606.253    80921771.831    19449605.967  
                                
  21439119.540   114644606.705    21439121.380    89168034.846    21439120.469  
                                
  24194043.116   127140555.604                                                  
  24194046.314    94942633.747  
  22279893.255   117081629.790                                                  
  22279895.632    87431095.589  
  24825463.787   130458693.377                                                  
  24825464.180    97420453.716  
  23624139.522   124145692.011                                                  
  23624142.721    92706209.679  
 21  8 31 18 18 53.0000000  0 16G 5G13G15G18G23G29R 3R 4R 5R18R19R20
                                E 5E 9E11E36
  22544842.244   118473944.810    22544840.689    92317350.418    22544840.082  
                                
  21723085.851   114155586.694                    88952393.333    21723083.153  
                                
  20299380.827   106673965.835    20299378.808    83122559.949    20299378.147  
                                
  20981876.848   110260507.346    20981874.972    85917269.017    20981874.579  
  20981879.261    82337400.404  
  21633100.721   113682711.007    21633099.327    88583923.525    21633098.970  
  21633103.527    84892944.336  
  20969946.309   110197811.118    20969944.576    85868414.750    20969943.915  
                                
  22855245.971   122345921.096    22855245.221    95157935.398    22855245.149  
                                
  19430384.706   104048827.556    19430383.080    80926859.442    19430383.044  
                                
  20156190.592   107746390.456    20156190.539    83802747.169    20156190.575  
                                
  21803487.752   116388497.711    21803489.521    90524394.483    21803489.485  
                                
  19449655.679   104042542.522    19449655.035    80921974.808    19449654.714  
                                
  21438491.765   114641249.751    21438493.588    89165423.893    21438492.694  
                                
  24193681.732   127138656.661                                                  
  24193684.967    94941215.711  
  22280047.822   117082442.092                                                  
  22280050.181    87431702.185  
  24825841.663   130460679.177                                                  
  24825842.074    97421936.617  
  23624180.675   124145908.359                                                  
  23624183.873    92706371.235  
 21  8 31 18 18 54.0000000  0 16G 5G13G15G18G23G29R 3R 4R 5R18R19R20
                                E 5E 9E11E36
  22545357.479   118476652.361    22545355.960    92319460.191    22545355.335  
                                
  21723326.672   114156852.155                    88953379.399    21723323.991  
                                
  20299345.071   106673777.890    20299343.034    83122413.493    20299342.373  
                                
  20981563.193   110258859.140    20981561.317    85915984.691    20981560.924  
  20981565.624    82336169.603  
  21632776.005   113681004.610    21632774.611    88582593.861    21632774.236  
  21632778.811    84891670.088  
  20970343.555   110199898.620    20970341.822    85870041.363    20970341.179  
                                
  22855981.621   122349859.051    22855980.870    95160998.245    22855980.799  
                                
  19430672.468   104050368.480    19430670.824    80928057.931    19430670.807  
                                
  20155746.494   107744016.398    20155746.440    83800900.675    20155746.458  
                                
  21804060.686   116391555.952    21804062.420    90526773.108    21804062.420  
                                
  19449704.586   104042804.123    19449703.961    80922178.267    19449703.639  
                                
  21437864.026   114637892.962    21437865.867    89162813.050    21437864.956  
                                
  24193320.457   127136758.079                                                  
  24193323.673    94939797.934  
  22280202.478   117083254.817                                                  
  22280204.855    87432309.090  
  24826219.575   130462665.126                                                  
  24826219.968    97423419.642  
  23624221.898   124146124.954                                                  
  23624225.079    92706532.973  
 21  8 31 18 18 55.0000000  0 16G 5G13G15G18G23G29R 3R 4R 5R18R19R20
                                E 5E 9E11E36
  22545872.751   118479360.088    22545871.232    92321570.095    22545870.606  
                                
  21723567.635   114158118.343                    88954366.028    21723564.955  
                                
  20299309.476   106673590.731    20299307.457    83122267.639    20299306.796  
                                
  20981249.610   110257211.221    20981247.716    85914700.583    20981247.341  
  20981252.022    82334939.014  
  21632451.361   113679298.598    21632449.967    88581264.487    21632449.592  
  21632454.166    84890396.118  
  20970740.927   110201986.751    20970739.194    85871668.464    20970738.550  
                                
  22856717.324   122353797.182    22856716.556    95164061.220    22856716.484  
                                
  19430960.374   104051910.157    19430958.748    80929257.002    19430958.712  
                                
  20155302.520   107741643.062    20155302.448    83799054.730    20155302.502  
                                
  21804633.692   116394614.708    21804635.444    90529152.125    21804635.444  
                                
  19449753.636   104043066.489    19449753.011    80922382.315    19449752.707  
                                
  21437236.359   114634536.459    21437238.200    89160202.425    21437237.288  
                                
  24192959.252   127134859.913                                                  
  24192962.469    94938380.480  
  22280357.224   117084068.017                                                  
  22280359.619    87432916.349  
  24826597.540   130464651.349                                                  
  24826597.934    97424902.871  
  23624263.176   124146341.856                                                  
  23624266.374    92706694.948  
 21  8 31 18 18 56.0000000  0 16G 5G13G15G18G23G29R 3R 4R 5R18R19R20
                                E 5E 9E11E36
  22546388.022   118482067.829    22546386.503    92323680.012    22546385.895  
                                
  21723808.706   114159385.129                    88955353.121    21723806.026  
                                
  20299273.988   106673404.223    20299271.969    83122122.297    20299271.308  
                                
  20980936.044   110255563.452    20980934.150    85913416.598    20980933.775  
  20980938.474    82333708.544  
  21632126.770   113677592.847    21632125.376    88579935.317    21632125.001  
  21632129.575    84889122.339  
  20971138.387   110204075.388    20971136.654    85873295.958    20971136.029  
                                
  22857452.992   122357735.323    22857452.259    95167124.204    22857452.170  
                                
  19431248.405   104053452.441    19431246.779    80930456.542    19431246.743  
                                
  20154858.653   107739270.341    20154858.618    83797209.269    20154858.635  
                                
  21805206.788   116397673.864    21805208.557    90531531.454    21805208.557  
                                
  19449802.794   104043329.444    19449802.187    80922586.824    19449801.865  
                                
  21436608.710   114631180.076    21436610.550    89157591.896    21436609.639  
                                
  24192598.101   127132962.041                                                  
  24192601.300    94936963.240  
  22280512.041   117084881.587                                                  
  22280514.418    87433523.885  
  24826975.542   130466637.718                                                  
  24826975.935    97426386.175  
  23624304.507   124146558.967                                                  
  23624307.688    92706857.074  
 21  8 31 18 18 57.0000000  0 16G 5G13G15G18G23G29R 3R 4R 5R18R19R20
                                E 5E 9E11E36
  22546903.329   118484775.768    22546901.828    92325790.080    22546901.202  
                                
  21724049.920   114160652.653                    88956340.787    21724047.240  
                                
  20299238.661   106673218.516    20299236.642    83121977.572    20299235.981  
                                
  20980622.550   110253915.994    20980620.638    85912132.846    20980620.263  
  20980624.962    82332478.297  
  21631802.251   113675887.484    21631800.839    88578606.449    21631800.482  
  21631805.038    84887848.857  
  20971535.973   110206164.692    20971534.258    85874923.966    20971533.615  
                                
  22858188.731   122361673.663    22858187.981    95170187.342    22858187.909  
                                
  19431536.543   104054995.449    19431534.935    80931656.643    19431534.899  
                                
  20154414.948   107736898.366    20154414.894    83795364.388    20154414.930  
                                
  21805779.972   116400733.536    21805781.759    90533911.176    21805781.741  
                                
  19449852.113   104043593.187    19449851.505    80922791.946    19449851.183  
                                
  21435981.114   114627823.997    21435982.954    89154981.598    21435982.061  
                                
  24192237.022   127131064.630                                                  
  24192240.220    94935546.333  
  22280666.948   117085695.665                                                  
  22280669.325    87434131.796  
  24827353.579   130468624.349                                                  
  24827353.990    97427869.704  
  23624345.874   124146776.401                                                  
  23624349.054    92707019.448  
 21  8 31 18 18 58.0000000  0 16G 5G13G15G18G23G29R 3R 4R 5R18R19R20
                                E 5E 9E11E36
  22547418.653   118487483.797    22547417.134    92327900.221    22547416.527  
                                
  21724291.259   114161920.848                    88957328.978    21724288.597  
                                
  20299203.459   106673033.535    20299201.440    83121833.419    20299200.815  
                                
  20980309.092   110252268.765    20980307.198    85910849.282    20980306.804  
  20980311.504    82331248.221  
  21631477.785   113674182.440    21631476.373    88577277.827    21631476.016  
  21631480.590    84886575.606  
  20971933.684   110208254.565    20971931.969    85876552.432    20971931.308  
                                
  22858924.452   122365612.130    22858923.720    95173250.589    22858923.666  
                                
  19431824.824   104056539.124    19431823.216    80932857.272    19431823.180  
                                
  20153971.349   107734527.048    20153971.313    83793520.023    20153971.331  
                                
  21806353.246   116403793.655    21806355.033    90536291.257    21806355.015  
                                
  19449901.556   104043857.587    19449900.931    80922997.581    19449900.627  
                                
  21435353.536   114624468.130    21435355.412    89152371.473    21435354.483  
                                
  24191876.014   127129167.573                                                  
  24191879.248    94934129.700  
  22280821.962   117086510.171                                                  
  22280824.320    87434740.033  
  24827731.669   130470611.170                                                  
  24827732.063    97429353.358  
  23624387.294   124146994.108                                                  
  23624390.475    92707182.017  
 21  8 31 18 18 59.0000000  0 16G 5G13G15G18G23G29R 3R 4R 5R18R19R20
                                E 5E 9E11E36
  22547933.996   118490192.011    22547932.477    92330010.541    22547931.852  
                                
  21724532.723   114163189.791                    88958317.783    21724530.061  
                                
  20299168.400   106672849.357    20299166.381    83121689.925    20299165.720  
                                
  20979995.687   110250621.844    20979993.793    85909565.983    20979993.418  
  20979998.117    82330018.373  
  21631153.409   113672477.799    21631151.997    88575949.558    21631151.640  
  21631156.214    84885302.657  
  20972331.484   110210345.087    20972329.769    85878181.423    20972329.126  
                                
  22859660.227   122369550.826    22859659.495    95176314.038    22859659.405  
                                
  19432113.230   104058083.594    19432111.604    80934058.547    19432111.586  
                                
  20153527.858   107732156.464    20153527.822    83791676.254    20153527.840  
                                
  21806926.610   116406854.307    21806928.379    90538671.780    21806928.361  
                                
  19449951.125   104044122.779    19449950.500    80923203.860    19449950.178  
                                
  21434726.012   114621112.538    21434727.852    89149761.584    21434726.959  
                                
  24191515.113   127127270.954                                                  
  24191518.330    94932713.398  
  22280977.047   117087325.190                                                  
  22280979.441    87435348.650  
  24828109.814   130472598.270                                                  
  24828110.207    97430837.249  
  23624428.786   124147212.149                                                  
  23624431.985    92707344.840  
 21  8 31 18 19  0.0000000  0 16G 5G13G15G18G23G29R 3R 4R 5R18R19R20
                                E 5E 9E11E36
  22548449.321   118492900.120    22548447.820    92332120.767    22548447.176  
                                
  21724774.277   114164459.196                    88959306.936    21724771.614  
                                
  20299133.448   106672665.701    20299131.429    83121546.826    20299130.786  
                                
  20979682.282   110248974.926    20979680.388    85908282.683    20979680.013  
  20979684.712    82328788.538  
  21630829.050   113670773.266    21630827.656    88574621.362    21630827.281  
  21630831.856    84884029.791  
  20972729.356   110212435.981    20972727.641    85879810.701    20972726.997  
                                
  22860396.002   122373489.442    22860395.252    95179377.411    22860395.180  
                                
  19432401.725   104059628.542    19432400.117    80935260.178    19432400.081  
                                
  20153084.492   107729786.331    20153084.420    83789832.827    20153084.456  
                                
  21807500.027   116409915.228    21807501.778    90541052.497    21807501.760  
                                
  19450000.783   104044388.431    19450000.140    80923410.487    19449999.818  
                                
  21434098.505   114617756.979    21434100.346    89147151.714    21434099.452  
                                
  24191154.231   127125374.502                                                  
  24191157.447    94931297.216  
  22281132.186   117088140.430                                                  
  22281134.545    87435957.435  
  24828487.940   130474585.343                                                  
  24828488.315    97432321.098  
  23624470.296   124147430.252                                                  
  23624473.494    92707507.707  
 21  8 31 18 19  1.0000000  0 16G 5G13G15G18G23G29R 3R 4R 5R18R19R20
                                E 5E 9E11E36
  22548964.681   118495608.305    22548963.127    92334231.054    22548962.519  
                                
  21725015.938   114165729.207                    88960296.569    21725013.275  
                                
  20299098.622   106672482.736    20299096.603    83121404.269    20299095.941  
                                
  20979368.949   110247328.219    20979367.037    85906999.547    20979366.662  
  20979371.343    82327558.855  
  21630504.745   113669069.020    21630503.334    88573293.390    21630502.976  
  21630507.533    84882757.147  
  20973127.335   110214527.418    20973125.619    85881440.403    20973124.976  
                                
  22861131.777   122377428.150    22861131.027    95182440.860    22861130.955  
                                
  19432690.364   104061174.178    19432688.737    80936462.351    19432688.720  
                                
  20152641.197   107727416.813    20152641.143    83787989.882    20152641.179  
                                
  21808073.515   116412976.581    21808075.266    90543433.563    21808075.248  
                                
  19450050.548   104044654.719    19450049.923    80923617.614    19450049.601  
                                
  21433471.016   114614401.542    21433472.857    89144541.944    21433471.964  
                                
  24190793.401   127123478.379                                                  
  24190796.618    94929881.287  
  22281287.396   117088956.072                                                  
  22281289.773    87436566.520  
  24828866.084   130476572.572                                                  
  24828866.477    97433805.079  
  23624511.841   124147648.584                                                  
  23624515.040    92707670.745  
 21  8 31 18 19  2.0000000  0 16G 5G13G15G18G23G29R 3R 4R 5R18R19R20
                                E 5E 9E11E36
  22549480.006   118498316.530    22549478.487    92336341.367    22549477.862  
                                
  21725257.723   114166999.856                    88961286.696    21725255.061  
                                
  20299063.938   106672300.451    20299061.919    83121262.231    20299061.258  
                                
  20979055.615   110245681.685    20979053.721    85905716.540    20979053.346  
  20979058.028    82326329.303  
  21630180.476   113667365.053    21630179.082    88571965.628    21630178.725  
  21630183.282    84881484.698  
  20973525.421   110216619.378    20973523.705    85883070.506    20973523.044  
                                
  22861867.570   122381366.904    22861866.819    95185504.337    22861866.748  
                                
  19432979.109   104062720.433    19432977.501    80937665.001    19432977.447  
                                
  20152198.027   107725047.892    20152197.974    83786147.393    20152198.009  
                                
  21808647.075   116416038.348    21808648.844    90545814.940    21808648.808  
                                
  19450100.438   104044921.649    19450099.795    80923825.229    19450099.509  
                                
  21432843.564   114611046.294    21432845.404    89141932.313    21432844.511  
                                
  24190432.644   127121582.582                                                  
  24190435.842    94928465.589  
  22281442.696   117089772.098                                                  
  22281445.055    87437175.884  
  24829244.282   130478559.980                                                  
  24829244.657    97435289.169  
  23624553.422   124147867.118                                                  
  23624556.603    92707833.942  
 21  8 31 18 19  3.0000000  0 16G 5G13G15G18G23G29R 3R 4R 5R18R19R20
                                E 5E 9E11E36
  22549995.384   118501024.836    22549993.848    92338451.744    22549993.222  
                                
  21725499.634   114168271.120                    88962277.299    21725496.972  
                                
  20299029.379   106672118.855    20299027.360    83121120.737    20299026.699  
                                
  20978742.318   110244035.331    20978740.442    85904433.673    20978740.031  
  20978744.730    82325099.884  
  21629856.278   113665661.345    21629854.867    88570638.070    21629854.509  
  21629859.066    84880212.457  
  20973923.596   110218711.886    20973921.881    85884701.039    20973921.238  
                                
  22862603.363   122385305.714    22862602.612    95188567.860    22862602.541  
                                
  19433267.980   104064267.298    19433266.336    80938868.123    19433266.318  
                                
  20151755.001   107722679.592    20151754.929    83784305.391    20151754.965  
                                
  21809220.724   116419100.554    21809222.475    90548196.655    21809222.475  
                                
  19450150.436   104045189.198    19450149.828    80924033.329    19450149.507  
                                
  21432216.146   114607691.183    21432217.969    89139322.791    21432217.058  
                                
  24190071.940   127119687.104                                                  
  24190075.156    94927050.137  
  22281598.031   117090588.508                                                  
  22281600.426    87437785.552  
  24829622.498   130480547.552                                                  
  24829622.909    97436773.395  
  23624595.057   124148085.881                                                  
  23624598.256    92707997.307  
 21  8 31 18 19  4.0000000  0 16G 5G13G15G18G23G29R 3R 4R 5R18R19R20
                                E 5E 9E11E36
  22550510.745   118503733.188    22550509.226    92340562.157    22550508.600  
                                
  21725741.652   114169543.007                    88963268.387    21725739.008  
                                
  20298994.928   106671937.935    20298992.909    83120979.769    20298992.247  
                                
  20978429.074   110242389.178    20978427.198    85903150.967    20978426.787  
  20978431.486    82323870.608  
  21629532.116   113663957.924    21629530.723    88569310.740    21629530.365  
  21629534.940    84878940.417  
  20974321.897   110220804.908    20974320.146    85886331.972    20974319.520  
                                
  22863339.173   122389244.589    22863338.423    95191631.435    22863338.369  
                                
  19433556.940   104065814.783    19433555.314    80940071.729    19433555.296  
                                
  20151312.063   107720311.919    20151312.010    83782463.871    20151312.045  
                                
  21809794.445   116422163.147    21809796.214    90550578.679    21809796.214  
                                
  19450200.576   104045457.383    19450199.951    80924241.922    19450199.629  
                                
  21431588.747   114604336.233    21431590.570    89136713.388    21431589.676  
                                
  24189711.307   127117791.955                                                  
  24189714.523    94925634.929  
  22281753.474   117091405.312                                                  
  22281755.850    87438395.496  
  24830000.749   130482535.263                                                  
  24830001.143    97438257.724  
  23624636.728   124148304.858                                                  
  23624639.926    92708160.818  
 21  8 31 18 19  5.0000000  0 16G 5G13G15G18G23G29R 3R 4R 5R18R19R20
                                E 5E 9E11E36
  22551026.159   118506441.681    22551024.622    92342672.681    22551023.997  
                                
  21725983.813   114170815.584                    88964260.007    21725981.169  
                                
  20298960.637   106671757.760    20298958.618    83120839.378    20298957.957  
                                
  20978115.866   110240743.267    20978113.972    85901868.440    20978113.578  
  20978118.260    82322641.520  
  21629208.044   113662254.846    21629206.650    88567983.669    21629206.293  
  21629210.849    84877668.643  
  20974720.287   110222898.531    20974718.571    85887963.371    20974717.928  
                                
  22864075.020   122393183.612    22864074.269    95194695.119    22864074.198  
                                
  19433846.060   104067362.978    19433844.434    80941275.881    19433844.399  
                                
  20150869.287   107717944.941    20150869.197    83780622.891    20150869.251  
                                
  21810368.273   116425226.222    21810370.042    90552961.071    21810370.024  
                                
  19450250.842   104045726.297    19450250.217    80924451.080    19450249.913  
                                
  21430961.384   114600981.483    21430963.224    89134104.145    21430962.313  
                                
  24189350.746   127115897.191                                                  
  24189353.962    94924220.009  
  22281909.006   117092222.565                                                  
  22281911.365    87439005.782  
  24830379.055   130484523.187                                                  
  24830379.430    97439742.200  
  23624678.452   124148524.123                                                  
  23624681.633    92708324.559  
 21  8 31 18 19  6.0000000  0 16G 5G13G15G18G23G29R 3R 4R 5R18R19R20
                                E 5E 9E11E36
  22551541.555   118509150.118    22551540.018    92344783.149    22551539.393  
                                
  21726226.099   114172088.668                    88965252.004    21726223.437  
                                
  20298926.489   106671578.168    20298924.435    83120699.427    20298923.773  
                                
  20977802.657   110239097.426    20977800.781    85900585.958    20977800.388  
  20977805.088    82321412.481  
  21628883.989   113660551.939    21628882.595    88566656.721    21628882.238  
  21628886.795    84876396.987  
  20975118.784   110224992.583    20975117.051    85889595.091    20975116.425  
                                
  22864810.866   122397122.607    22864810.115    95197758.773    22864810.044  
                                
  19434135.288   104068911.736    19434133.662    80942480.461    19434133.644  
                                
  20150426.582   107715578.479    20150426.528    83778782.303    20150426.564  
                                
  21810942.154   116428289.596    21810943.906    90555343.686    21810943.906  
                                
  19450301.233   104045995.685    19450300.589    80924660.592    19450300.268  
                                
  21430334.056   114597626.834    21430335.896    89131494.965    21430334.967  
                                
  24188990.238   127114002.646                                                  
  24188993.455    94922805.250  
  22282064.574   117093040.099                                                  
  22282066.932    87439616.279  
  24830757.342   130486511.156                                                  
  24830757.735    97441226.722  
  23624720.194   124148743.497                                                  
  23624723.393    92708488.381  
 21  8 31 18 19  7.0000000  0 16G 5G13G15G18G23G29R 3R 4R 5R18R19R20
                                E 5E 9E11E36
  22552057.023   118511858.761    22552055.504    92346893.761    22552054.861  
                                
  21726468.510   114173362.521                    88966244.594    21726465.866  
                                
  20298892.485   106671399.414    20298890.466    83120560.115    20298889.804  
                                
  20977489.539   110237451.925    20977487.644    85899303.726    20977487.251  
  20977491.951    82320183.698  
  21628560.024   113658849.451    21628558.594    88565330.085    21628558.237  
  21628562.829    84875125.653  
  20975517.406   110227087.324    20975515.691    85891227.338    20975515.047  
                                
  22865546.766   122401061.839    22865546.015    95200822.599    22865545.962  
                                
  19434424.659   104070461.278    19434423.051    80943685.639    19434423.033  
                                
  20149984.037   107713212.776    20149983.984    83776942.293    20149984.020  
                                
  21811516.125   116431353.546    21811517.912    90557726.739    21811517.912  
                                
  19450351.748   104046265.895    19450351.123    80924870.737    19450350.801  
                                
  21429706.782   114594272.437    21429708.622    89128885.968    21429707.711  
                                
  24188629.802   127112108.574                                                  
  24188633.001    94921390.850  
  22282220.249   117093858.179                                                  
  22282222.625    87440227.183  
  24831135.700   130488499.429                                                  
  24831136.076    97442711.463  
  23624762.025   124148963.252                                                  
  23624765.206    92708652.477  
 21  8 31 18 19  8.0000000  0 16G 5G13G15G18G23G29R 3R 4R 5R18R19R20
                                E 5E 9E11E36
  22552572.455   118514567.474    22552570.936    92349004.444    22552570.310  
                                
  21726711.029   114174637.013                    88967237.714    21726708.384  
                                
  20298858.587   106671221.351    20298856.568    83120421.372    20298855.907  
                                
  20977176.455   110235806.612    20977174.543    85898021.669    20977174.150  
  20977178.850    82318955.060  
  21628236.094   113657147.254    21628234.682    88564003.702    21628234.325  
  21628238.917    84873854.532  
  20975916.135   110229182.599    20975914.402    85892860.021    20975913.759  
                                
  22866282.666   122405001.160    22866281.915    95203886.522    22866281.844  
                                
  19434714.155   104072011.453    19434712.529    80944891.336    19434712.494  
                                
  20149541.618   107710847.697    20149541.547    83775102.794    20149541.565  
                                
  21812090.203   116434417.939    21812091.955    90560110.161    21812091.955  
                                
  19450402.389   104046536.766    19450401.746    80925081.417    19450401.424  
                                
  21429079.507   114590918.236    21429081.348    89126277.150    21429080.455  
                                
  24188269.438   127110214.834                                                  
  24188272.636    94919976.693  
  22282375.995   117094676.644                                                  
  22282378.354    87440838.376  
  24831514.095   130490487.856                                                  
  24831514.488    97444196.336  
  23624803.875   124149183.218                                                  
  23624807.055    92708816.742  
 21  8 31 18 19  9.0000000  0 16G 5G13G15G18G23G29R 3R 4R 5R18R19R20
                                E 5E 9E11E36
  22553087.940   118517276.201    22553086.439    92351115.105    22553085.796  
                                
  21726953.690   114175912.081                    88968231.248    21726951.063  
                                
  20298824.850   106671043.929    20298822.831    83120283.086    20298822.170  
                                
  20976863.390   110234161.449    20976861.496    85896739.696    20976861.085  
  20976865.785    82317726.528  
  21627912.236   113655445.298    21627910.824    88562677.477    21627910.449  
  21627915.041    84872583.590  
  20976314.954   110231278.374    20976313.239    85894493.062    20976312.595  
                                
  22867018.584   122408940.538    22867017.851    95206950.448    22867017.780  
                                
  19435003.777   104073562.233    19435002.150    80946097.470    19435002.133  
                                
  20149099.289   107708483.188    20149099.253    83773263.699    20149099.271  
                                
  21812664.353   116437482.684    21812666.122    90562493.819    21812666.122  
                                
  19450453.155   104046808.192    19450452.530    80925292.495    19450452.208  
                                
  21428452.305   114587564.179    21428454.145    89123668.411    21428453.252  
                                
  24187909.109   127108321.375                                                  
  24187912.325    94918562.747  
  22282531.795   117095495.466                                                  
  22282534.171    87441449.830  
  24831892.489   130492476.402                                                  
  24831892.882    97445681.294  
  23624845.778   124149403.384                                                  
  23624848.958    92708981.147  
 21  8 31 18 19 10.0000000  0 16G 5G13G15G18G23G29R 3R 4R 5R18R19R20
                                E 5E 9E11E36
  22553603.480   118519985.255    22553601.979    92353226.032    22553601.335  
                                
  21727196.530   114177188.044                    88969225.471    21727193.903  
                                
  20298791.292   106670867.451    20298789.273    83120145.546    20298788.630  
                                
  20976550.396   110232516.731    20976548.484    85895458.073    20976548.109  
  20976552.809    82316498.331  
  21627588.449   113653743.869    21627587.020    88561351.663    21627586.662  
  21627591.237    84871313.050  
  20976713.952   110233374.943    20976712.236    85896126.727    20976711.593  
                                
  22867754.573   122412880.227    22867753.840    95210014.627    22867753.769  
                                
  19435293.559   104075113.906    19435291.950    80947304.301    19435291.915  
                                
  20148657.137   107706119.565    20148657.102    83771425.304    20148657.120  
                                
  21813238.645   116440548.106    21813240.414    90564878.006    21813240.414  
                                
  19450504.082   104047080.546    19450503.456    80925504.306    19450503.153  
                                
  21427825.174   114584210.525    21427827.014    89121059.988    21427826.121  
                                
  24187548.923   127106428.515                                                  
  24187552.139    94917149.249  
  22282687.756   117096314.943                                                  
  22282690.114    87442061.779  
  24832270.991   130494465.380                                                  
  24832271.366    97447166.565  
  23624887.752   124149624.013                                                  
  23624890.950    92709145.903  
 21  8 31 18 19 11.0000000  0 16G 5G13G15G18G23G29R 3R 4R 5R18R19R20
                                E 5E 9E11E36
  22554119.037   118522694.537    22554117.518    92355337.159    22554116.892  
                                
  21727439.477   114178464.787                    88970220.338    21727436.851  
                                
  20298757.859   106670691.818    20298755.858    83120008.694    20298755.197  
                                
  20976237.492   110230872.360    20976235.580    85894176.745    20976235.205  
  20976239.904    82315270.389  
  21627264.770   113652042.893    21627263.358    88560026.227    21627262.983  
  21627267.575    84870042.836  
  20977113.038   110235472.220    20977111.323    85897760.969    20977110.680  
                                
  22868490.580   122416820.176    22868489.865    95213079.037    22868489.776  
                                
  19435583.466   104076666.369    19435581.857    80948511.775    19435581.822  
                                
  20148215.129   107703756.748    20148215.076    83769587.560    20148215.111  
                                
  21813813.009   116443614.115    21813814.778    90567262.682    21813814.778  
                                
  19450555.134   104047353.672    19450554.508    80925716.739    19450554.204  
                                
  21427198.096   114580857.244    21427199.954    89118451.888    21427199.025  
                                
  24187188.809   127104536.127                                                  
  24187192.007    94915736.101  
  22282843.788   117097134.960                                                  
  22282846.165    87442674.136  
  24832649.546   130496454.669                                                  
  24832649.921    97448652.062  
  23624929.816   124149845.036                                                  
  23624932.996    92709310.953  
 21  8 31 18 19 12.0000000  0 16G 5G13G15G18G23G29R 3R 4R 5R18R19R20
                                E 5E 9E11E36
  22554634.594   118525403.969    22554633.093    92357448.435    22554632.449  
                                
  21727682.568   114179742.258                    88971215.795    21727679.941  
                                
  20298724.587   106670516.966    20298722.568    83119872.466    20298721.907  
                                
  20975924.641   110229228.280    20975922.729    85892895.666    20975922.336  
  20975927.035    82314042.671  
  21626941.162   113650342.292    21626939.732    88558701.106    21626939.375  
  21626943.949    84868772.911  
  20977512.232   110237570.116    20977510.517    85899395.716    20977509.874  
                                
  22869226.605   122420760.274    22869225.873    95216143.576    22869225.819  
                                
  19435873.498   104078219.552    19435871.872    80949719.830    19435871.854  
                                
  20147773.228   107701394.657    20147773.193    83767750.397    20147773.210  
                                
  21814387.445   116446680.639    21814389.232    90569647.775    21814389.232  
                                
  19450606.311   104047627.565    19450605.703    80925929.791    19450605.381  
                                
  21426571.036   114577504.208    21426572.877    89115843.992    21426571.983  
                                
  24186828.783   127102644.180                                                  
  24186832.000    94914323.283  
  22282999.928   117097955.482                                                  
  22283002.286    87443286.857  
  24833028.137   130498444.219                                                  
  24833028.530    97450137.776  
  23624971.933   124150066.378                                                  
  23624975.131    92709476.243  
 21  8 31 18 19 13.0000000  0 16G 5G13G15G18G23G29R 3R 4R 5R18R19R20
                                E 5E 9E11E36
  22555150.169   118528113.395    22555148.650    92359559.690    22555148.024  
                                
  21727925.747   114181020.269                    88972211.659    21727923.120  
                                
  20298691.405   106670342.730    20298689.403    83119736.716    20298688.742  
                                
  20975611.790   110227584.302    20975609.896    85891614.663    20975609.485  
  20975614.185    82312815.027  
  21626617.589   113648641.887    21626616.160    88557376.134    21626615.803  
  21626620.377    84867503.126  
  20977911.533   110239668.475    20977909.818    85901030.812    20977909.175  
                                
  22869962.630   122424700.361    22869961.916    95219208.104    22869961.826  
                                
  19436163.637   104079773.298    19436162.029    80950928.313    19436161.975  
                                
  20147331.452   107699033.118    20147331.381    83765913.663    20147331.435  
                                
  21814961.988   116449747.498    21814963.757    90572033.121    21814963.757  
                                
  19450657.595   104047902.008    19450656.987    80926143.256    19450656.665  
                                
  21425944.012   114574151.259    21425945.853    89113236.159    21425944.941  
                                
  24186468.812   127100752.476                                                  
  24186472.011    94912910.649  
  22283156.121   117098776.300                                                  
  22283158.497    87443899.803  
  24833406.764   130500433.849                                                  
  24833407.157    97451623.532  
  23625014.068   124150287.871                                                  
  23625017.284    92709641.639  
 21  8 31 18 19 14.0000000  0 16G 5G13G15G18G23G29R 3R 4R 5R18R19R20
                                E 5E 9E11E36
  22555665.743   118530822.871    22555664.225    92361670.981    22555663.617  
                                
  21728169.034   114182298.890                    88973208.001    21728166.407  
                                
  20298658.347   106670169.152    20298656.328    83119601.476    20298655.702  
                                
  20975298.993   110225940.509    20975297.081    85890333.799    20975296.706  
  20975301.405    82311587.513  
  21626294.053   113646941.744    21626292.623    88556051.359    21626292.266  
  21626296.858    84866233.541  
  20978310.924   110241767.351    20978309.209    85902666.316    20978308.565  
                                
  22870698.673   122428640.501    22870697.941    95222272.667    22870697.869  
                                
  19436453.901   104081327.684    19436452.275    80952137.293    19436452.240  
                                
  20146889.784   107696672.175    20146889.730    83764077.388    20146889.748  
                                
  21815536.566   116452814.747    21815538.353    90574418.778    21815538.335  
                                
  19450709.004   104048177.057    19450708.378    80926357.199    19450708.057  
                                
  21425317.006   114570798.474    21425318.847    89110628.453    21425317.935  
                                
  24186108.876   127098861.074                                                  
  24186112.111    94911498.241  
  22283312.403   117099597.503                                                  
  22283314.780    87444513.043  
  24833785.391   130502423.598                                                  
  24833785.802    97453109.377  
  23625056.257   124150509.559                                                  
  23625059.473    92709807.192  
 21  8 31 18 19 15.0000000  0 16G 5G13G15G18G23G29R 3R 4R 5R18R19R20
                                E 5E 9E11E36
  22556181.301   118533532.159    22556179.764    92363782.131    22556179.138  
                                
  21728412.428   114183577.902                    88974204.654    21728409.801  
                                
  20298625.414   106669996.049    20298623.395    83119466.609    20298622.734  
                                
  20974986.178   110224296.666    20974984.284    85889052.898    20974983.908  
  20974988.590    82310359.966  
  21625970.534   113645241.663    21625969.140    88554726.641    21625968.783  
  21625973.340    84864963.997  
  20978710.386   110243866.547    20978708.653    85904302.069    20978708.009  
                                
  22871434.698   122432580.498    22871433.948    95225337.123    22871433.876  
                                
  19436744.219   104082882.485    19436742.611    80953346.599    19436742.593  
                                
  20146448.169   107694311.606    20146448.097    83762241.411    20146448.133  
                                
  21816111.180   116455882.172    21816112.949    90576804.566    21816112.949  
                                
  19450760.484   104048452.516    19450759.859    80926571.463    19450759.555  
                                
  21424690.000   114567445.605    21424691.823    89108020.685    21424690.911  
                                
  24185748.976   127096969.784                                                  
  24185752.193    94910085.914  
  22283468.686   117100418.869                                                  
  22283471.062    87445126.397  
  24834164.017   130504413.295                                                  
  24834164.410    97454595.194  
  23625098.446   124150731.251                                                  
  23625101.662    92709972.743  
 21  8 31 18 19 16.0000000  0 16G 5G13G15G18G23G29R 3R 4R 5R18R19R20
                                E 5E 9E11E36
  22556696.929   118536241.764    22556695.392    92365893.514    22556694.767  
                                
  21728655.965   114184857.776                    88975201.964    21728653.356  
                                
  20298592.625   106669823.844    20298590.605    83119332.428    20298589.944  
                                
  20974673.434   110222653.237    20974671.558    85887772.314    20974671.165  
  20974675.864    82309132.732  
  21625647.123   113643542.080    21625645.729    88553402.297    21625645.354  
  21625649.928    84863694.826  
  20979109.973   110245966.491    20979108.258    85905938.394    20979107.614  
                                
  22872170.777   122436520.832    22872170.026    95228401.841    22872169.955  
                                
  19437034.734   104084438.153    19437033.108    80954556.573    19437033.072  
                                
  20146006.732   107691951.888    20146006.679    83760406.082    20146006.697  
                                
  21816685.919   116458950.261    21816687.706    90579190.863    21816687.689  
                                
  19450812.144   104048728.835    19450811.518    80926786.385    19450811.197  
                                
  21424063.047   114564093.128    21424064.870    89105413.209    21424063.977  
                                
  24185389.183   127095079.037                                                  
  24185392.382    94908673.999  
  22283625.111   117101240.849                                                  
  22283627.506    87445740.216  
  24834542.716   130506403.374                                                  
  24834543.109    97456081.287  
  23625140.724   124150953.386                                                  
  23625143.922    92710138.623  
 21  8 31 18 19 17.0000000  0 16G 5G13G15G18G23G29R 3R 4R 5R18R19R20
                                E 5E 9E11E36
  22557212.558   118538951.399    22557211.021    92368004.912    22557210.413  
                                
  21728899.645   114186138.243                    88976199.728    21728897.018  
                                
  20298559.978   106669652.305    20298557.959    83119198.759    20298557.298  
                                
  20974360.726   110221009.970    20974358.850    85886491.843    20974358.457  
  20974363.156    82307905.619  
  21625323.747   113641842.750    21625322.353    88552078.139    21625321.996  
  21625326.553    84862425.850  
  20979509.685   110248066.949    20979507.970    85907575.114    20979507.309  
                                
  22872906.856   122440461.238    22872906.123    95231466.597    22872906.069  
                                
  19437325.356   104085994.426    19437323.730    80955767.002    19437323.712  
                                
  20145565.403   107689592.764    20145565.350    83758571.205    20145565.385  
                                
  21817260.748   116462018.762    21817262.535    90581577.472    21817262.535  
                                
  19450863.910   104049005.796    19450863.303    80927001.794    19450862.981  
                                
  21423436.166   114560740.793    21423437.989    89102805.834    21423437.060  
                                
  24185029.444   127093188.603                                                  
  24185032.661    94907262.307  
  22283781.590   117102063.193                                                  
  22283783.967    87446354.306  
  24834921.467   130508393.590                                                  
  24834921.843    97457567.488  
  23625183.037   124151175.729                                                  
  23625186.236    92710304.654  
 21  8 31 18 19 18.0000000  0 16G 5G13G15G18G23G29R 3R 4R 5R18R19R20
                                E 5E 9E11E36
  22557728.258   118541661.327    22557726.739    92370116.513    22557726.131  
                                
  21729143.485   114187419.541                    88977198.110    21729140.859  
                                
  20298527.546   106669481.663    20298525.526    83119065.762    20298524.883  
                                
  20974048.108   110219367.110    20974046.214    85885211.660    20974045.838  
  20974050.538    82306678.804  
  21625000.461   113640143.916    21624999.049    88550754.345    21624998.692  
  21625003.248    84861157.245  
  20979909.558   110250168.160    20979907.843    85909212.383    20979907.200  
                                
  22873643.042   122444401.887    22873642.291    95234531.518    22873642.237  
                                
  19437616.174   104087551.563    19437614.548    80956978.078    19437614.512  
                                
  20145124.253   107687234.502    20145124.199    83756736.973    20145124.235  
                                
  21817835.738   116465087.910    21817837.524    90583964.553    21817837.507  
                                
  19450915.856   104049283.563    19450915.230    80927217.808    19450914.926  
                                
  21422809.357   114557388.856    21422811.179    89100198.744    21422810.286  
                                
  24184669.812   127091298.710                                                  
  24184673.029    94905851.025  
  22283938.194   117102886.151                                                  
  22283940.571    87446968.845  
  24835300.255   130510384.164                                                  
  24835300.630    97459053.964  
  23625225.423   124151398.501                                                  
  23625228.621    92710471.005  
 21  8 31 18 19 19.0000000  0 16G 5G13G15G18G23G29R 3R 4R 5R18R19R20
                                E 5E 9E11E36
  22558243.958   118544371.211    22558242.457    92372228.083    22558241.831  
                                
  21729387.415   114188701.378                    88978196.923    21729384.806  
                                
  20298495.221   106669311.630    20298493.201    83118933.248    20298492.540  
                                
  20973735.507   110217724.353    20973733.613    85883931.567    20973733.202  
  20973737.919    82305452.072  
  21624677.210   113638445.275    21624675.798    88549430.713    21624675.441  
  21624680.016    84859888.783  
  20980309.521   110252269.812    20980307.787    85910850.013    20980307.162  
                                
  22874379.192   122448342.520    22874378.477    95237596.430    22874378.388  
                                
  19437907.082   104089109.255    19437905.456    80958189.599    19437905.438  
                                
  20144683.228   107684876.808    20144683.174    83754903.192    20144683.210  
                                
  21818410.763   116468157.386    21818412.550    90586351.897    21818412.550  
                                
  19450967.926   104049561.919    19450967.301    80927434.279    19450966.979  
                                
  21422182.547   114554036.997    21422184.388    89097591.721    21422183.494  
                                
  24184310.216   127089409.057                                                  
  24184313.415    94904439.923  
  22284094.870   117103709.410                                                  
  22284097.246    87447583.624  
  24835679.060   130512374.827                                                  
  24835679.436    97460540.489  
  23625267.844   124151621.416                                                  
  23625271.025    92710637.470  
 21  8 31 18 19 20.0000000  0 16G 5G13G15G18G23G29R 3R 4R 5R18R19R20
                                E 5E 9E11E36
  22558759.658   118547081.139    22558758.157    92374339.688    22558757.549  
                                
  21729631.488   114189983.841                    88979196.224    21729628.879  
                                
  20298463.003   106669142.265    20298461.001    83118801.255    20298460.340  
                                
  20973422.924   110216081.766    20973421.030    85882651.611    20973420.619  
  20973425.337    82304225.469  
  21624354.049   113636746.913    21624352.619    88548107.295    21624352.244  
  21624356.836    84858620.524  
  20980709.554   110254371.984    20980707.857    85912488.051    20980707.214  
                                
  22875115.360   122452283.225    22875114.645    95240661.402    22875114.573  
                                
  19438198.097   104090667.573    19438196.471    80959401.603    19438196.453  
                                
  20144242.309   107682519.710    20144242.238    83753069.876    20144242.292  
                                
  21818985.877   116471227.249    21818987.664    90588739.550    21818987.664  
                                
  19451020.086   104049840.902    19451019.478    80927651.250    19451019.174  
                                
  21421555.791   114550685.278    21421557.632    89094984.810    21421556.702  
                                
  24183950.691   127087519.727                                                  
  24183953.890    94903029.058  
  22284251.599   117104533.048                                                  
  22284253.976    87448198.678  
  24836057.902   130514365.624                                                  
  24836058.277    97462027.119  
  23625310.301   124151844.537                                                  
  23625313.499    92710804.091  
 21  8 31 18 19 21.0000000  0 16G 5G13G15G18G23G29R 3R 4R 5R18R19R20
                                E 5E 9E11E36
  22559275.322   118549790.958    22559273.821    92376451.233    22559273.195  
                                
  21729875.615   114191266.738                    88980195.882    21729873.006  
                                
  20298430.874   106668973.411    20298428.855    83118669.678    20298428.212  
                                
  20973110.359   110214439.194    20973108.465    85881371.685    20973108.054  
  20973112.772    82302998.869  
  21624030.870   113635048.636    21624029.458    88546783.958    21624029.065  
  21624033.675    84857352.333  
  20981109.660   110256474.525    20981107.944    85914126.390    20981107.301  
                                
  22875851.510   122456223.841    22875850.777    95243726.325    22875850.724  
                                
  19438489.183   104092226.349    19438487.575    80960613.981    19438487.539  
                                
  20143801.445   107680163.034    20143801.373    83751236.908    20143801.427  
                                
  21819561.010   116474297.324    21819562.814    90591127.388    21819562.779  
                                
  19451072.335   104050120.358    19451071.727    80927868.604    19451071.405  
                                
  21420928.999   114547333.553    21420930.822    89092377.917    21420929.911  
                                
  24183591.185   127085630.535                                                  
  24183594.401    94901618.299  
  22284408.364   117105356.889                                                  
  22284410.741    87448813.888  
  24836436.725   130516356.389                                                  
  24836437.100    97463513.723  
  23625352.775   124152067.707                                                  
  23625355.974    92710970.738  
 21  8 31 18 19 22.0000000  0 16G 5G13G15G18G23G29R 3R 4R 5R18R19R20
                                E 5E 9E11E36
  22559790.986   118552500.833    22559789.467    92378562.849    22559788.842  
                                
  21730119.831   114192550.245                    88981196.043    21730117.240  
                                
  20298398.835   106668805.232    20298396.834    83118538.656    20298396.173  
                                
  20972797.812   110212796.798    20972795.936    85880091.923    20972795.543  
  20972800.242    82301772.400  
  21623707.726   113633350.632    21623706.332    88545460.870    21623705.975  
  21623710.550    84856084.340  
  20981509.836   110258577.574    20981508.121    85915765.159    20981507.478  
                                
  22876587.642   122460164.543    22876586.909    95246791.348    22876586.838  
                                
  19438780.359   104093785.731    19438778.733    80961826.869    19438778.715  
                                
  20143360.652   107677806.945    20143360.598    83749404.429    20143360.634  
                                
  21820136.196   116477367.792    21820137.982    90593515.556    21820137.982  
                                
  19451124.673   104050400.422    19451124.048    80928086.462    19451123.726  
                                
  21420302.208   114543981.986    21420304.030    89089771.169    21420303.137  
                                
  24183231.731   127083741.654                                                  
  24183234.948    94900207.774  
  22284565.218   117106181.117                                                  
  22284567.595    87449429.374  
  24836815.602   130518347.295                                                  
  24836815.977    97465000.436  
  23625395.286   124152291.075                                                  
  23625398.466    92711137.542  
 21  8 31 18 19 23.0000000  0 16G 5G13G15G18G23G29R 3R 4R 5R18R19R20
                                E 5E 9E11E36
  22560306.686   118555210.911    22560305.185    92380674.611    22560304.542  
                                
  21730364.208   114193834.503                    88982196.777    21730361.599  
                                
  20298366.992   106668637.869    20298364.955    83118408.257    20298364.312  
                                
  20972485.354   110211154.722    20972483.460    85878812.399    20972483.049  
  20972487.749    82300546.180  
  21623384.708   113631653.042    21623383.278    88544138.084    21623382.921  
  21623387.496    84854816.664  
  20981910.156   110260681.306    20981908.423    85917404.445    20981907.797  
                                
  22877323.828   122464105.410    22877323.095    95249856.476    22877323.024  
                                
  19439071.695   104095345.909    19439070.087    80963040.350    19439070.051  
                                
  20142920.020   107675451.609    20142919.966    83747572.515    20142920.002  
                                
  21820711.489   116480438.842    21820713.258    90595904.161    21820713.258  
                                
  19451177.154   104050681.269    19451176.547    80928304.908    19451176.225  
                                
  21419675.487   114540630.712    21419677.328    89087164.638    21419676.417  
                                
  24182872.385   127081853.252                                                  
  24182875.602    94898797.603  
  22284722.144   117107005.870                                                  
  22284724.538    87450045.263  
  24837194.514   130520338.494                                                  
  24837194.890    97466487.381  
  23625437.850   124152514.812                                                  
  23625441.048    92711304.618  
 21  8 31 18 19 24.0000000  0 17G 5G10G13G15G18G23G29R 3R 4R 5R18R19
                                R20E 5E 9E11E36
  22560822.422   118557921.097    22560820.903    92382786.452    22560820.278  
                                
  24349465.536   127957304.759    24349467.591    99706998.322    24349467.377  
  24349466.662    95552536.973  
  21730608.727   114195119.475                    88983198.058    21730606.136  
                                
  20298335.275   106668471.280    20298333.256    83118278.452    20298332.595  
                                
  20972172.915   110209512.906    20972171.020    85877533.067    20972170.627  
  20972175.327    82299320.152  
  21623061.725   113629955.804    21623060.332    88542815.570    21623059.956  
  21623064.531    84853549.239  
  20982310.583   110262785.634    20982308.886    85919044.183    20982308.224  
                                
  22878060.032   122468046.411    22878059.299    95252921.696    22878059.228  
                                
  19439363.175   104096906.795    19439361.567    80964254.373    19439361.549  
                                
  20142479.530   107673096.956    20142479.477    83745741.120    20142479.512  
                                
  21821286.889   116483510.389    21821288.676    90598293.140    21821288.676  
                                
  19451229.779   104050962.842    19451229.171    80928523.914    19451228.849  
                                
  21419048.821   114537279.661    21419050.661    89084558.266    21419049.750  
                                
  24182513.111   127079965.234                                                  
  24182516.327    94897387.717  
  22284879.195   117107831.087                                                  
  22284881.571    87450661.497  
  24837573.463   130522329.934                                                  
  24837573.838    97467974.474  
  23625480.485   124152738.845                                                  
  23625483.684    92711471.912  
 21  8 31 18 19 25.0000000  0 17G 5G10G13G15G18G23G29R 3R 4R 5R18R19
                                R20E 5E 9E11E36
  22561338.140   118560631.256    22561336.639    92384898.253    22561336.013  
                                
  24348975.014   127954726.966    24348977.051    99704989.643    24348976.837  
  24348976.104    95550612.005  
  21730853.336   114196404.933                    88984199.705    21730850.763  
                                
  20298303.700   106668305.237    20298301.681    83118149.057    20298301.020  
                                
  20971860.510   110207871.159    20971858.598    85876253.767    20971858.205  
  20971862.923    82298094.169  
  21622738.796   113628258.719    21622737.367    88541493.155    21622737.009  
  21622741.584    84852281.942  
  20982711.117   110264890.385    20982709.402    85920684.239    20982708.759  
                                
  22878796.253   122471987.388    22878795.539    95255986.882    22878795.467  
                                
  19439654.779   104098468.178    19439653.171    80965468.768    19439653.118  
                                
  20142039.148   107670742.814    20142039.095    83743910.107    20142039.130  
                                
  21821862.361   116486582.213    21821864.148    90600682.323    21821864.148  
                                
  19451282.528   104051244.932    19451281.903    80928743.301    19451281.617  
                                
  21418422.190   114533928.716    21418424.030    89081951.961    21418423.101  
                                
  24182153.890   127078077.432                                                  
  24182157.088    94895977.997  
  22285036.264   117108656.573                                                  
  22285038.658    87451277.931  
  24837952.429   130524321.409                                                  
  24837952.804    97469461.621  
  23625523.139   124152962.970                                                  
  23625526.337    92711639.280  
 21  8 31 18 19 26.0000000  0 17G 5G10G13G15G18G23G29R 3R 4R 5R18R19
                                R20E 5E 9E11E36
  22561853.947   118563341.648    22561852.446    92387010.226    22561851.803  
                                
  24348484.527   127952149.508    24348486.582    99702981.209    24348486.332  
  24348485.635    95548687.280  
  21731098.160   114197691.211                    88985201.972    21731095.551  
                                
  20298272.269   106668140.084    20298270.267    83118020.341    20298269.606  
                                
  20971548.160   110206229.784    20971546.248    85874974.751    20971545.855  
  20971550.554    82296868.474  
  21622415.921   113626562.097    21622414.491    88540171.091    21622414.134  
  21622418.709    84851014.995  
  20983111.794   110266995.852    20983110.097    85922324.838    20983109.436  
                                
  22879532.529   122475928.646    22879531.832    95259052.275    22879531.760  
                                
  19439946.527   104100030.377    19439944.901    80966683.786    19439944.883  
                                
  20141598.945   107668389.501    20141598.891    83742079.727    20141598.927  
                                
  21822437.958   116489654.643    21822439.745    90603071.960    21822439.745  
                                
  19451335.438   104051527.847    19451334.831    80928963.322    19451334.509  
                                
  21417795.630   114530578.105    21417797.471    89079345.900    21417796.560  
                                
  24181794.740   127076190.136                                                  
  24181797.957    94894568.655  
  22285193.475   117109482.638                                                  
  22285195.870    87451894.802  
  24838331.467   130526313.236                                                  
  24838331.860    97470949.022  
  23625565.863   124153187.519                                                  
  23625569.062    92711806.959  
 21  8 31 18 19 27.0000000  0 17G 5G10G13G15G18G23G29R 3R 4R 5R18R19
                                R20E 5E 9E11E36
  22562369.718   118566052.040    22562368.217    92389122.203    22562367.574  
                                
  24347994.076   127949572.132    24347996.113    99700972.855    24347995.881  
  24347995.184    95546762.622  
  21731343.037   114198978.054                    88986204.691    21731340.464  
                                
  20298240.962   106667975.549    20298238.961    83117892.118    20298238.318  
                                
  20971235.845   110204588.553    20971233.933    85873695.858    20971233.540  
  20971238.257    82295642.875  
  21622093.117   113624865.707    21622091.688    88538849.215    21622091.312  
  21622095.905    84849748.210  
  20983512.561   110269101.800    20983510.845    85923965.820    20983510.202  
                                
  22880268.804   122479869.922    22880268.107    95262117.689    22880268.035  
                                
  19440238.364   104101593.165    19440236.774    80967899.271    19440236.738  
                                
  20141158.813   107666036.765    20141158.777    83740249.807    20141158.813  
                                
  21823013.591   116492727.421    21823015.395    90605461.883    21823015.395  
                                
  19451388.456   104051811.352    19451387.830    80929183.812    19451387.526  
                                
  21417169.071   114527227.598    21417170.912    89076739.938    21417170.018  
                                
  24181435.644   127074303.116                                                  
  24181438.861    94893159.516  
  22285350.723   117110309.029                                                  
  22285353.117    87452511.912  
  24838710.522   130528305.143                                                  
  24838710.897    97472436.489  
  23625608.624   124153412.222                                                  
  23625611.805    92711974.758  
 21  8 31 18 19 28.0000000  0 17G 5G10G13G15G18G23G29R 3R 4R 5R18R19
                                R20E 5E 9E11E36
  22562885.508   118568762.590    22562883.989    92391234.338    22562883.363  
                                
  24347503.643   127946994.982    24347505.698    99698964.714    24347505.465  
  24347504.751    95544838.134  
  21731588.021   114200265.596                    88987207.989    21731585.448  
                                
  20298209.799   106667811.795    20298207.779    83117764.534    20298207.154  
                                
  20970923.584   110202947.577    20970921.654    85872417.189    20970921.279  
  20970925.996    82294417.475  
  21621770.367   113623169.687    21621768.937    88537527.652    21621768.580  
  21621773.154    84848481.691  
  20983913.399   110271208.367    20983911.701    85925607.322    20983911.058  
                                
  22881005.097   122483811.369    22881004.382    95265183.270    22881004.329  
                                
  19440530.326   104103156.677    19440528.736    80969115.355    19440528.682  
                                
  20140718.806   107663684.745    20140718.770    83738420.475    20140718.788  
                                
  21823589.313   116495800.695    21823591.100    90607852.225    21823591.100  
                                
  19451441.562   104052095.581    19451440.973    80929404.895    19451440.651  
                                
  21416542.547   114523877.375    21416544.388    89074134.228    21416543.494  
                                
  24181076.638   127072416.512                                                  
  24181079.854    94891750.687  
  22285508.077   117111135.898                                                  
  22285510.454    87453129.375  
  24839089.631   130530297.290                                                  
  24839090.007    97473924.125  
  23625651.438   124153637.238                                                  
  23625654.637    92712142.783  
 21  8 31 18 19 29.0000000  0 17G 5G10G13G15G18G23G29R 3R 4R 5R18R19
                                R20E 5E 9E11E36
  22563401.297   118571473.257    22563399.778    92393346.567    22563399.153  
                                
  24347013.263   127944418.038    24347015.318    99696956.719    24347015.086  
  24347014.389    95542913.783  
  21731833.149   114201553.828                    88988211.826    21731830.575  
                                
  20298178.760   106667648.772    20298176.741    83117637.523    20298176.098  
                                
  20970611.359   110201306.851    20970609.447    85871138.726    20970609.053  
  20970613.771    82293192.264  
  21621447.688   113621473.992    21621446.276    88536206.350    21621445.901  
  21621450.493    84847215.430  
  20984314.362   110273315.521    20984312.646    85927249.278    20984312.003  
                                
  22881741.390   122487752.905    22881740.693    95268248.933    22881740.622  
                                
  19440822.431   104104720.889    19440820.805    80970331.989    19440820.787  
                                
  20140278.942   107661333.388    20140278.871    83736591.667    20140278.906  
                                
  21824165.124   116498874.460    21824166.911    90610242.950    21824166.911  
                                
  19451494.812   104052380.512    19451494.187    80929626.531    19451493.883  
                                
  21415916.059   114520527.358    21415917.900    89071528.685    21415916.989  
                                
  24180717.703   127070530.278                                                  
  24180720.901    94890342.137  
  22285665.503   117111963.215                                                  
  22285667.898    87453747.177  
  24839468.758   130532289.643                                                  
  24839469.134    97475411.927  
  23625694.306   124153862.513                                                  
  23625697.522    92712311.019  
 21  8 31 18 19 30.0000000  0 17G 5G10G13G15G18G23G29R 3R 4R 5R18R19
                                R20E 5E 9E11E36
  22563917.140   118574184.089    22563915.621    92395458.920    22563914.996  
                                
  24346522.937   127941841.343    24346524.992    99694948.916    24346524.778  
  24346524.063    95540989.626  
  21732078.419   114202842.788                    88989216.224    21732075.846  
                                
  20298147.883   106667486.547    20298145.863    83117511.123    20298145.220  
                                
  20970299.187   110199666.426    20970297.293    85869860.483    20970296.917  
  20970301.617    82291967.265  
  21621125.063   113619778.682    21621123.669    88534885.343    21621123.312  
  21621127.868    84845949.454  
  20984715.468   110275423.332    20984713.734    85928891.740    20984713.109  
                                
  22882477.755   122491694.618    22882477.040    95271314.711    22882476.950  
                                
  19441114.661   104106285.875    19441113.053    80971549.212    19441113.035  
                                
  20139839.186   107658982.759    20139839.132    83734763.409    20139839.150  
                                
  21824741.025   116501948.749    21824742.830    90612634.076    21824742.830  
                                
  19451548.222   104052666.186    19451547.597    80929848.734    19451547.275  
                                
  21415289.643   114517177.600    21415291.466    89068923.334    21415290.554  
                                
  24180358.839   127068644.484                                                  
  24180362.056    94888933.919  
  22285823.037   117112791.023                                                  
  22285825.413    87454365.350  
  24839847.939   130534282.265                                                  
  24839848.314    97476899.912  
  23625737.245   124154088.137                                                  
  23625740.444    92712479.506  
 21  8 31 18 19 31.0000000  0 17G 5G10G13G15G18G23G29R 3R 4R 5R18R19
                                R20E 5E 9E11E36
  22564433.001   118576894.985    22564431.482    92397571.311    22564430.857  
                                
  24346032.647   127939264.800    24346034.702    99692941.234    24346034.488  
  24346033.773    95539065.580  
  21732323.814   114204132.363                    88990221.095    21732321.223  
                                
  20298117.130   106667325.011    20298115.111    83117385.263    20298114.450  
                                
  20969987.068   110198026.190    20969985.174    85868582.393    20969984.781  
  20969989.481    82290742.409  
  21620802.527   113618083.660    21620801.115    88533564.558    21620800.758  
  21620805.332    84844683.683  
  20985116.663   110277531.657    20985114.930    85930534.600    20985114.304  
                                
  22883214.083   122495636.396    22883213.386    95274380.548    22883213.315  
                                
  19441407.034   104107851.486    19441405.408    80972766.921    19441405.372  
                                
  20139399.554   107656632.760    20139399.500    83732935.646    20139399.518  
                                
  21825317.015   116505023.462    21825318.820    90615025.521    21825318.820  
                                
  19451601.722   104052952.505    19451601.097    80930071.439    19451600.775  
                                
  21414663.262   114513828.061    21414665.067    89066318.149    21414664.156  
                                
  24180000.047   127066759.027                                                  
  24180003.263    94887525.942  
  22285980.624   117113619.227                                                  
  22285983.018    87454983.809  
  24840227.156   130536275.064                                                  
  24840227.549    97478388.045  
  23625780.238   124154313.978                                                  
  23625783.419    92712648.152  
 21  8 31 18 19 32.0000000  0 17G 5G10G13G15G18G23G29R 3R 4R 5R18R19
                                R20E 5E 9E11E36
  22564948.915   118579606.195    22564947.396    92399683.952    22564946.771  
                                
  24345542.410   127936688.645    24345544.465    99690933.849    24345544.251  
  24345543.518    95537141.838  
  21732569.388   114205422.843                    88991226.675    21732566.797  
                                
  20298086.574   106667164.423    20298084.555    83117260.141    20298083.894  
                                
  20969675.022   110196386.403    20969673.128    85867304.646    20969672.717  
  20969677.434    82289517.903  
  21620480.080   113616389.180    21620478.687    88532244.191    21620478.293  
  21620482.886    84843418.330  
  20985518.001   110279640.789    20985516.286    85932178.088    20985515.625  
                                
  22883950.519   122499578.527    22883949.805    95277446.653    22883949.715  
                                
  19441699.550   104109418.000    19441697.924    80973985.328    19441697.906  
                                
  20138960.119   107654283.671    20138960.030    83731108.584    20138960.065  
                                
  21825893.148   116508098.846    21825894.917    90617417.496    21825894.917  
                                
  19451655.437   104053239.742    19451654.793    80930294.854    19451654.490  
                                
  21414036.935   114510478.934    21414038.740    89063713.286    21414037.846  
                                
  24179641.380   127064874.155                                                  
  24179644.579    94886118.411  
  22286138.353   117114448.098                                                  
  22286140.748    87455602.771  
  24840606.443   130538268.288                                                  
  24840606.837    97479876.485  
  23625823.302   124154540.321                                                  
  23625826.483    92712817.174  
 21  8 31 18 19 33.0000000  0 17G 5G10G13G15G18G23G29R 3R 4R 5R18R19
                                R20E 5E 9E11E36
  22565464.830   118582317.364    22565463.311    92401796.562    22565462.685  
                                
  24345052.209   127934112.537    24345054.264    99688926.506    24345054.050  
  24345053.317    95535218.112  
  21732815.033   114206713.827                    88992232.650    21732812.442  
                                
  20298056.107   106667004.411    20298054.088    83117135.465    20298053.445  
                                
  20969362.993   110194746.700    20969361.099    85866026.969    20969360.723  
  20969365.423    82288293.444  
  21620157.670   113614694.868    21620156.258    88530923.957    21620155.901  
  21620160.457    84842153.099  
  20985919.429   110281750.335    20985917.696    85933821.899    20985917.070  
                                
  22884686.938   122503520.625    22884686.223    95280512.734    22884686.133  
                                
  19441992.173   104110985.019    19441990.547    80975204.130    19441990.511  
                                
  20138520.738   107651935.075    20138520.684    83729281.907    20138520.702  
                                
  21826469.317   116511174.531    21826471.086    90619809.706    21826471.086  
                                
  19451709.222   104053527.495    19451708.579    80930518.669    19451708.257  
                                
  21413410.626   114507129.858    21413412.448    89061108.458    21413411.537  
                                
  24179282.749   127062989.505                                                  
  24179285.947    94884711.041  
  22286296.155   117115277.235                                                  
  22286298.531    87456221.932  
  24840985.767   130540261.550                                                  
  24840986.160    97481364.953  
  23625866.403   124154766.757                                                  
  23625869.583    92712986.266  
 21  8 31 18 19 34.0000000  0 17G 5G10G13G15G18G23G29R 3R 4R 5R18R19
                                R20E 5E 9E11E36
  22565980.780   118585028.762    22565979.261    92403909.349    22565978.618  
                                
  24344562.026   127931536.696    24344564.099    99686919.369    24344563.867  
  24344563.152    95533294.606  
  21733060.840   114208005.571                    88993239.209    21733058.249  
                                
  20298025.819   106666845.223    20298023.800    83117011.427    20298023.139  
                                
  20969051.035   110193107.318    20969049.141    85864749.533    20969048.748  
  20969053.466    82287069.230  
  21619835.330   113613000.960    21619833.901    88529604.040    21619833.543  
  21619838.118    84840888.170  
  20986320.982   110283860.558    20986319.248    85935466.234    20986318.623  
                                
  22885423.391   122507462.957    22885422.677    95283578.987    22885422.605  
                                
  19442284.957   104112552.816    19442283.331    80976423.528    19442283.295  
                                
  20138081.535   107649587.228    20138081.463    83727455.804    20138081.499  
                                
  21827045.593   116514250.800    21827047.380    90622202.353    21827047.380  
                                
  19451763.133   104053816.034    19451762.526    80930743.096    19451762.204  
                                
  21412784.406   114503781.086    21412786.193    89058503.855    21412785.299  
                                
  24178924.189   127061105.316                                                  
  24178927.387    94883304.021  
  22286454.028   117116106.897                                                  
  22286456.404    87456841.489  
  24841365.126   130542255.088                                                  
  24841365.484    97482853.639  
  23625909.556   124154993.573                                                  
  23625912.755    92713155.632  
 21  8 31 18 19 35.0000000  0 17G 5G10G13G15G18G23G29R 3R 4R 5R18R19
                                R20E 5E 9E11E36
  22566496.730   118587740.040    22566495.211    92406022.031    22566494.568  
                                
  24344071.861   127928960.819    24344073.916    99684912.190    24344073.702  
  24344072.987    95531371.061  
  21733306.735   114209297.752                    88994246.096    21733304.144  
                                
  20297995.621   106666686.546    20297993.601    83116887.778    20297992.958  
                                
  20968739.078   110191467.938    20968737.166    85863472.092    20968736.791  
  20968741.490    82285845.020  
  21619512.991   113611307.155    21619511.597    88528284.192    21619511.222  
  21619515.796    84839623.322  
  20986722.606   110285971.131    20986720.890    85937110.829    20986720.247  
                                
  22886159.828   122511405.183    22886159.131    95286645.156    22886159.041  
                                
  19442577.812   104114121.064    19442576.186    80977643.272    19442576.150  
                                
  20137642.404   107647239.805    20137642.332    83725630.031    20137642.368  
                                
  21827621.922   116517327.295    21827623.709    90624595.183    21827623.709  
                                
  19451817.169   104054105.010    19451816.544    80930967.849    19451816.222  
                                
  21412158.150   114500432.305    21412159.973    89055899.246    21412159.079  
                                
  24178565.665   127059221.274                                                  
  24178568.881    94881897.105  
  22286611.954   117116936.768                                                  
  22286614.331    87457461.198  
  24841744.486   130544248.600                                                  
  24841744.843    97484342.298  
  23625952.728   124155220.408                                                  
  23625955.908    92713325.023  
 21  8 31 18 19 36.0000000  0 17G 5G10G13G15G18G23G29R 3R 4R 5R18R19
                                R20E 5E 9E11E36
  22567012.680   118590451.397    22567011.161    92408134.770    22567010.518  
                                
  24343581.714   127926385.098    24343583.769    99682905.123    24343583.519  
  24343582.804    95529447.647  
  21733552.774   114210590.585                    88995253.489    21733550.201  
                                
  20297965.583   106666528.564    20297963.546    83116764.661    20297962.902  
                                
  20968427.156   110189828.773    20968425.244    85862194.807    20968424.851  
  20968429.551    82284620.968  
  21619190.741   113609613.659    21619189.329    88526964.578    21619188.972  
  21619193.529    84838358.694  
  20987124.355   110288082.255    20987122.640    85938755.850    20987121.996  
                                
  22886896.299   122515347.485    22886895.585    95289711.374    22886895.513  
                                
  19442870.793   104115689.982    19442869.167    80978863.532    19442869.149  
                                
  20137203.397   107644893.020    20137203.344    83723804.747    20137203.362  
                                
  21828198.359   116520404.211    21828200.146    90626988.326    21828200.146  
                                
  19451871.312   104054394.678    19451870.687    80931193.133    19451870.383  
                                
  21411531.966   114497083.742    21411533.789    89053294.799    21411532.860  
                                
  24178207.194   127057337.576                                                  
  24178210.411    94880490.453  
  22286769.934   117117767.058                                                  
  22286772.328    87458081.220  
  24842123.881   130546242.293                                                  
  24842124.238    97485831.097  
  23625995.935   124155447.508                                                  
  23625999.134    92713494.613  
 21  8 31 18 19 37.0000000  0 17G 5G10G13G15G18G23G29R 3R 4R 5R18R19
                                R20E 5E 9E11E36
  22567528.648   118593162.690    22567527.112    92410247.458    22567526.486  
                                
  24343091.585   127923809.383    24343093.639    99680898.066    24343093.389  
  24343092.675    95527524.212  
  21733798.884   114211883.882                    88996261.242    21733796.293  
                                
  20297935.616   106666371.125    20297933.615    83116641.975    20297932.954  
                                
  20968115.235   110188189.649    20968113.323    85860917.558    20968112.947  
  20968117.647    82283396.947  
  21618868.491   113607920.274    21618867.079    88525645.046    21618866.722  
  21618871.297    84837094.164  
  20987526.176   110290193.758    20987524.460    85940401.170    20987523.817  
                                
  22887632.735   122519289.682    22887632.038    95292777.520    22887631.949  
                                
  19443163.880   104117259.379    19443162.254    80980084.167    19443162.236  
                                
  20136764.463   107642546.729    20136764.409    83721979.844    20136764.445  
                                
  21828774.814   116523481.371    21828776.601    90629381.661    21828776.601  
                                
  19451925.563   104054684.812    19451924.937    80931418.786    19451924.616  
                                
  21410905.764   114493735.182    21410907.587    89050690.358    21410906.675  
                                
  24177848.777   127055454.071                                                  
  24177852.012    94879083.931  
  22286927.986   117118597.584                                                  
  22286930.380    87458701.415  
  24842503.258   130548235.987                                                  
  24842503.633    97487319.896  
  23626039.160   124155674.658                                                  
  23626042.341    92713664.242  
 21  8 31 18 19 38.0000000  0 17G 5G10G13G15G18G23G29R 3R 4R 5R18R19
                                R20E 5E 9E11E36
  22568044.581   118595873.994    22568043.097    92412360.142    22568042.454  
                                
  24342601.437   127921233.771    24342603.492    99678891.077    24342603.260  
  24342602.545    95525600.883  
  21734045.137   114213177.780                    88997269.451    21734042.546  
                                
  20297905.811   106666214.346    20297903.792    83116519.791    20297903.131  
                                
  20967803.349   110186550.683    20967801.437    85859640.421    20967801.044  
  20967805.761    82282173.046  
  21618546.313   113606227.173    21618544.901    88524325.728    21618544.544  
  21618549.118    84835829.823  
  20987928.086   110292305.786    20987926.388    85942046.881    20987925.727  
                                
  22888369.189   122523231.926    22888368.492    95295843.692    22888368.403  
                                
  19443457.075   104118829.386    19443455.485    80981305.267    19443455.431  
                                
  20136325.671   107640201.049    20136325.617    83720155.410    20136325.653  
                                
  21829351.358   116526558.913    21829353.163    90631775.286    21829353.163  
                                
  19451979.938   104054975.549    19451979.313    80931644.896    19451978.991  
                                
  21410279.598   114490386.730    21410281.420    89048085.988    21410280.509  
                                
  24177490.414   127053570.859                                                  
  24177493.631    94877677.641  
  22287086.109   117119428.473                                                  
  22287088.485    87459321.887  
  24842882.689   130550229.845                                                  
  24842883.064    97488808.803  
  23626082.421   124155902.022                                                  
  23626085.620    92713834.027  
 21  8 31 18 19 39.0000000  0 17G 5G10G13G15G18G23G29R 3R 4R 5R18R19
                                R20E 5E 9E11E36
  22568560.584   118598585.465    22568559.083    92414472.938    22568558.476  
                                
  24342111.379   127918658.405    24342113.416    99676884.271    24342113.166  
  24342112.469    95523677.716  
  21734291.497   114214472.385                    88998278.202    21734288.942  
                                
  20297876.148   106666058.356    20297874.147    83116398.207    20297873.486  
                                
  20967491.499   110184911.993    20967489.604    85858363.490    20967489.229  
  20967493.929    82280949.349  
  21618224.188   113604534.419    21618222.758    88523006.667    21618222.401  
  21618226.975    84834565.757  
  20988330.139   110294418.434    20988328.441    85943693.070    20988327.798  
                                
  22889105.679   122527174.371    22889105.000    95298910.010    22889104.928  
                                
  19443750.431   104120400.146    19443748.841    80982526.937    19443748.805  
                                
  20135887.022   107637856.094    20135886.969    83718331.524    20135887.004  
                                
  21829928.009   116529636.970    21829929.814    90634169.298    21829929.814  
                                
  19452034.456   104055267.031    19452033.831    80931871.572    19452033.509  
                                
  21409653.485   114487038.582    21409655.326    89045481.841    21409654.432  
                                
  24177132.122   127051688.061                                                  
  24177135.339    94876271.662  
  22287244.303   117120259.846                                                  
  22287246.697    87459942.715  
  24843262.156   130552223.938                                                  
  24843262.531    97490297.898  
  23626125.754   124156129.700                                                  
  23626128.952    92714004.042  
 21  8 31 18 19 40.0000000  0 17G 5G10G13G15G18G23G29R 3R 4R 5R18R19
                                R20E 5E 9E11E36
  22569076.624   118601297.145    22569075.105    92416585.926    22569074.497  
                                
  24341621.339   127916083.347    24341623.376    99674877.721    24341623.162  
  24341622.465    95521754.785  
  21734538.000   114215767.789                    88999287.601    21734535.445  
                                
  20297846.611   106665903.206    20297844.609    83116277.301    20297843.966  
                                
  20967179.738   110183273.664    20967177.844    85857086.861    20967177.433  
  20967182.168    82279725.921  
  21617902.170   113602842.126    21617900.723    88521687.985    21617900.365  
  21617904.958    84833302.029  
  20988732.317   110296531.779    20988730.601    85945339.823    20988729.958  
                                
  22889842.222   122531117.067    22889841.543    95301976.542    22889841.454  
                                
  19444043.912   104121971.705    19444042.321    80983749.249    19444042.286  
                                
  20135448.499   107635511.904    20135448.463    83716508.263    20135448.481  
                                
  21830504.732   116532715.618    21830506.537    90636563.795    21830506.537  
                                
  19452089.082   104055559.298    19452088.492    80932098.883    19452088.171  
                                
  21409027.444   114483690.742    21409029.284    89042877.953    21409028.373  
                                
  24176773.956   127049805.765                                                  
  24176777.154    94874866.049  
  22287402.623   117121091.771                                                  
  22287404.999    87460563.960  
  24843641.676   130554218.353                                                  
  24843642.051    97491787.230  
  23626169.157   124156357.768                                                  
  23626172.338    92714174.352  
 21  8 31 18 19 41.0000000  0 17G 5G10G13G15G18G23G29R 3R 4R 5R18R19
                                R20E 5E 9E11E36
  22569592.628   118604008.857    22569591.127    92418698.958    22569590.501  
                                
  24341131.353   127913508.401    24341133.390    99672871.283    24341133.175  
  24341132.461    95519831.933  
  21734784.611   114217063.773                    89000297.475    21734782.055  
                                
  20297817.216   106665748.716    20297815.215    83116156.933    20297814.554  
                                
  20966868.013   110181635.485    20966866.101    85855810.369    20966865.725  
  20966870.425    82278502.610  
  21617580.170   113601150.061    21617578.741    88520369.505    21617578.383  
  21617582.976    84832038.479  
  20989134.549   110298645.630    20989132.851    85946986.986    20989132.208  
                                
  22890578.730   122535059.769    22890578.051    95305043.102    22890577.979  
                                
  19444337.500   104123543.861    19444335.874    80984972.054    19444335.856  
                                
  20135010.064   107633168.287    20135010.011    83714685.466    20135010.046  
                                
  21831081.526   116535794.629    21831083.331    90638958.598    21831083.331  
                                
  19452143.833   104055852.201    19452143.225    80932326.708    19452142.921  
                                
  21408401.385   114480343.009    21408403.225    89040274.177    21408402.332  
                                
  24176415.825   127047923.762                                                  
  24176419.023    94873460.657  
  22287560.996   117121924.057                                                  
  22287563.372    87461185.466  
  24844021.232   130556212.892                                                  
  24844021.607    97493276.665  
  23626212.579   124156586.013                                                  
  23626215.778    92714344.797  
 21  8 31 18 19 42.0000000  0 17G 5G10G13G15G18G23G29R 3R 4R 5R18R19
                                R20E 5E 9E11E36
  22570108.721   118606720.854    22570107.220    92420812.200    22570106.577  
                                
  24340641.420   127910933.804    24340643.457    99670865.106    24340643.242  
  24340642.510    95517909.347  
  21735031.400   114218360.603                    89001307.991    21735028.827  
                                
  20297787.983   106665595.124    20297785.981    83116037.251    20297785.338  
                                
  20966556.359   110179997.719    20966554.429    85854534.190    20966554.054  
  20966558.771    82277279.601  
  21617258.278   113599458.504    21617256.848    88519051.409    21617256.491  
  21617261.065    84830775.303  
  20989536.941   110300760.229    20989535.244    85948634.726    20989534.600  
                                
  22891315.327   122539002.785    22891314.630    95308109.890    22891314.558  
                                
  19444631.267   104125116.882    19444629.641    80986195.512    19444629.605  
                                
  20134571.826   107630825.523    20134571.755    83712863.316    20134571.773  
                                
  21831658.463   116538874.284    21831660.250    90641353.883    21831660.250  
                                
  19452198.744   104056145.925    19452198.137    80932555.163    19452197.815  
                                
  21407775.415   114476995.698    21407777.256    89037670.713    21407776.362  
                                
  24176057.765   127046042.297                                                  
  24176061.000    94872055.669  
  22287719.476   117122756.944                                                  
  22287721.853    87461807.427  
  24844400.859   130558207.800                                                  
  24844401.234    97494766.354  
  23626256.108   124156814.709                                                  
  23626259.307    92714515.576  
 21  8 31 18 19 43.0000000  0 17G 5G10G13G15G18G23G29R 3R 4R 5R18R19
                                R20E 5E 9E11E36
  22570624.778   118609432.718    22570623.259    92422925.334    22570622.634  
                                
  24340151.487   127908359.181    24340153.524    99668858.901    24340153.310  
  24340152.577    95515986.743  
  21735278.243   114219657.852                    89002318.830    21735275.687  
                                
  20297758.874   106665442.031    20297756.837    83115917.953    20297756.211  
                                
  20966244.688   110178359.954    20966242.793    85853258.003    20966242.400  
  20966247.118    82276056.594  
  21616936.421   113597767.038    21616934.973    88517733.383    21616934.616  
  21616939.208    84829512.189  
  20989939.423   110302875.174    20989937.708    85950282.728    20989937.046  
                                
  22892051.906   122542945.666    22892051.209    95311176.571    22892051.119  
                                
  19444925.087   104126690.313    19444923.479    80987419.284    19444923.443  
                                
  20134133.624   107628483.193    20134133.571    83711041.497    20134133.607  
                                
  21832235.418   116541954.154    21832237.223    90643749.321    21832237.223  
                                
  19452253.745   104056440.131    19452253.138    80932783.980    19452252.834  
                                
  21407149.463   114473648.356    21407151.286    89035067.216    21407150.392  
                                
  24175699.777   127044160.981                                                  
  24175702.976    94870650.790  
  22287878.028   117123590.040                                                  
  22287880.404    87462429.546  
  24844780.451   130560202.662                                                  
  24844780.844    97496256.028  
  23626299.637   124157043.440                                                  
  23626302.836    92714686.380  
 21  8 31 18 19 44.0000000  0 17G 5G10G13G15G18G23G29R 3R 4R 5R18R19
                                R20E 5E 9E11E36
  22571140.818   118612144.618    22571139.317    92425038.507    22571138.673  
                                
  24339661.572   127905784.639    24339663.591    99666852.767    24339663.377  
  24339662.662    95514064.205  
  21735525.246   114220955.712                    89003330.152    21735522.655  
                                
  20297729.837   106665289.598    20297727.835    83115799.179    20297727.174  
                                
  20965933.070   110176722.350    20965931.176    85851981.952    20965930.765  
  20965935.500    82274833.708  
  21616614.582   113596075.819    21616613.152    88516415.552    21616612.795  
  21616617.369    84828249.270  
  20990341.976   110304990.615    20990340.261    85951931.128    20990339.600  
                                
  22892788.485   122546888.610    22892787.788    95314243.300    22892787.698  
                                
  19445219.015   104128264.344    19445217.406    80988643.536    19445217.388  
                                
  20133695.565   107626141.459    20133695.494    83709220.153    20133695.547  
                                
  21832812.463   116545034.408    21832814.249    90646145.072    21832814.249  
                                
  19452308.853   104056734.940    19452308.246    80933013.281    19452307.924  
                                
  21406523.529   114470301.182    21406525.352    89032463.862    21406524.458  
                                
  24175341.825   127042279.967                                                  
  24175345.041    94869246.133  
  22288036.615   117124423.491                                                  
  22288039.010    87463051.928  
  24845160.096   130562197.655                                                  
  24845160.489    97497745.793  
  23626343.184   124157272.366                                                  
  23626346.382    92714857.331  
 21  8 31 18 19 45.0000000  0 17G 5G10G13G15G18G23G29R 3R 4R 5R18R19
                                R20E 5E 9E11E36
  22571656.929   118614856.691    22571655.428    92427151.806    22571654.784  
                                
  24339171.693   127903210.383    24339173.712    99664846.848    24339173.497  
  24339172.801    95512141.881  
  21735772.339   114222254.325                    89004342.049    21735769.784  
                                
  20297700.996   106665137.978    20297698.995    83115681.024    20297698.334  
                                
  20965621.505   110175085.063    20965619.593    85850706.137    20965619.200  
  20965623.936    82273611.063  
  21616292.814   113594385.007    21616291.403    88515098.032    21616291.045  
  21616295.620    84826986.655  
  20990744.655   110307106.730    20990742.957    85953580.043    20990742.296  
                                
  22893525.099   122550831.734    22893524.420    95317310.162    22893524.331  
                                
  19445513.121   104129839.156    19445511.495    80989868.378    19445511.477  
                                
  20133257.649   107623800.472    20133257.596    83707399.376    20133257.613  
                                
  21833389.614   116548115.226    21833391.401    90648541.254    21833391.401  
                                
  19452364.104   104057030.519    19452363.515    80933243.169    19452363.193  
                                
  21405897.649   114466954.306    21405899.489    89029860.730    21405898.560  
                                
  24174983.962   127040399.405                                                  
  24174987.178    94867841.821  
  22288195.328   117125257.467                                                  
  22288197.705    87463674.705  
  24845539.777   130564192.928                                                  
  24845540.152    97499235.783  
  23626386.820   124157501.652                                                  
  23626390.019    92715028.546  
 21  8 31 18 19 46.0000000  0 17G 5G10G13G15G18G23G29R 3R 4R 5R18R19
                                R20E 5E 9E11E36
  22572173.004   118617568.779    22572171.485    92429265.138    22572170.860  
                                
  24338681.867   127900636.238    24338683.904    99662841.044    24338683.672  
  24338682.957    95510219.615  
  21736019.575   114223553.499                    89005354.414    21736017.002  
                                
  20297672.245   106664986.995    20297670.261    83115563.391    20297669.600  
                                
  20965309.959   110173447.907    20965308.047    85849430.450    20965307.672  
  20965312.389    82272388.514  
  21615971.100   113592694.419    21615969.671    88513780.704    21615969.314  
  21615973.906    84825724.209  
  20991147.423   110309223.325    20991145.707    85955229.355    20991145.046  
                                
  22894261.696   122554774.860    22894261.017    95320377.053    22894260.928  
                                
  19445807.299   104131414.566    19445805.672    80991093.715    19445805.655  
                                
  20132819.804   107621460.069    20132819.733    83705579.081    20132819.769  
                                
  21833966.801   116551196.437    21833968.588    90650937.772    21833968.588  
                                
  19452419.480   104057326.687    19452418.855    80933473.541    19452418.533  
                                
  21405271.768   114463607.535    21405273.609    89027257.704    21405272.680  
                                
  24174626.171   127038519.125                                                  
  24174629.387    94866437.718  
  22288354.077   117126091.775                                                  
  22288356.453    87464297.727  
  24845919.494   130566188.332                                                  
  24845919.869    97500725.846  
  23626430.492   124157731.093                                                  
  23626433.673    92715199.891  
 21  8 31 18 19 47.0000000  0 17G 5G10G13G15G18G23G29R 3R 4R 5R18R19
                                R20E 5E 9E11E36
  22572689.061   118620280.793    22572687.542    92431378.425    22572686.899  
                                
  24338192.006   127898062.081    24338194.043    99660835.239    24338193.810  
  24338193.114    95508297.366  
  21736266.864   114224853.152                    89006367.160    21736264.291  
                                
  20297643.601   106664836.558    20297641.582    83115446.199    20297640.920  
                                
  20964998.448   110171810.817    20964996.536    85848154.827    20964996.143  
  20965000.861    82271166.005  
  21615649.422   113591003.983    21615648.029    88512463.515    21615647.653  
  21615652.228    84824461.866  
  20991550.244   110311340.300    20991548.528    85956878.976    20991547.885  
                                
  22894998.257   122558717.906    22894997.560    95323443.898    22894997.489  
                                
  19446101.566   104132990.467    19446099.939    80992319.453    19446099.904  
                                
  20132382.049   107619120.163    20132381.978    83703759.186    20132382.031  
                                
  21834544.042   116554277.913    21834545.829    90653334.511    21834545.829  
                                
  19452474.910   104057623.375    19452474.285    80933704.333    19452473.963  
                                
  21404645.870   114460260.799    21404647.693    89024654.725    21404646.799  
                                
  24174268.397   127036639.021                                                  
  24174271.613    94865033.747  
  22288512.896   117126926.332                                                  
  22288515.273    87464920.935  
  24846299.228   130568183.772                                                  
  24846299.604    97502215.930  
  23626474.164   124157960.635                                                  
  23626477.362    92715371.296  
 21  8 31 18 19 48.0000000  0 17G 5G10G13G15G18G23G29R 3R 4R 5R18R19
                                R20E 5E 9E11E36
  22573205.172   118622992.969    22573203.653    92433491.820    22573203.010  
                                
  24337702.198   127895488.162    24337704.235    99658829.609    24337704.020  
  24337703.288    95506375.290  
  21736514.314   114226153.547                    89007380.468    21736511.741  
                                
  20297615.118   106664686.907    20297613.098    83115329.604    20297612.437  
                                
  20964686.955   110170174.014    20964685.061    85846879.407    20964684.686  
  20964689.386    82269943.715  
  21615327.816   113589313.925    21615326.422    88511146.601    21615326.065  
  21615330.621    84823199.806  
  20991953.208   110313457.927    20991951.475    85958529.087    20991950.850  
                                
  22895734.872   122562661.167    22895734.193    95326510.893    22895734.122  
                                
  19446395.976   104134567.103    19446394.367    80993545.737    19446394.314  
                                
  20131944.455   107616780.975    20131944.383    83701939.832    20131944.419  
                                
  21835121.390   116557359.903    21835123.177    90655731.628    21835123.177  
                                
  19452530.501   104057920.777    19452529.875    80933935.657    19452529.553  
                                
  21404020.079   114456914.357    21404021.902    89022051.953    21404020.972  
                                
  24173910.713   127034759.357                                                  
  24173913.929    94863630.100  
  22288671.806   117127761.388                                                  
  22288674.182    87465544.516  
  24846678.999   130570179.431                                                  
  24846679.374    97503706.213  
  23626517.907   124158190.487                                                  
  23626521.106    92715542.941  
 21  8 31 18 19 49.0000000  0 17G 5G10G13G15G18G23G29R 3R 4R 5R18R19
                                R20E 5E 9E11E36
  22573721.337   118625705.356    22573719.800    92435605.343    22573719.193  
                                
  24337212.444   127892914.518    24337214.481    99656824.156    24337214.248  
  24337213.552    95504453.424  
  21736761.925   114227454.687                    89008394.321    21736759.334  
                                
  20297586.813   106664538.083    20297584.794    83115213.617    20297584.133  
                                
  20964375.534   110168537.522    20964373.640    85845604.205    20964373.265  
  20964377.964    82268721.670  
  21615006.280   113587624.279    21615004.869    88509829.978    21615004.511  
  21615009.086    84821938.068  
  20992356.316   110315576.212    20992354.600    85960179.682    20992353.957  
                                
  22896471.576   122566604.667    22896470.897    95329578.048    22896470.808  
                                
  19446690.564   104136144.531    19446688.938    80994772.607    19446688.920  
                                
  20131507.021   107614442.549    20131506.949    83700121.040    20131506.985  
                                
  21835698.882   116560442.452    21835700.668    90658129.145    21835700.668  
                                
  19452586.234   104058218.982    19452585.626    80934167.576    19452585.323  
                                
  21403394.324   114453568.180    21403396.146    89019449.352    21403395.253  
                                
  24173553.100   127032880.163                                                  
  24173556.316    94862226.809  
  22288830.804   117128596.978                                                  
  22288833.199    87466168.493  
  24847058.805   130572175.411                                                  
  24847059.180    97505196.708  
  23626561.722   124158420.721                                                  
  23626564.921    92715714.869  
 21  8 31 18 19 50.0000000  0 17G 5G10G13G15G18G23G29R 3R 4R 5R18R19
                                R20E 5E 9E11E36
  22574237.484   118628417.863    22574235.983    92437718.990    22574235.357  
                                
  24336722.743   127890341.113    24336724.798    99654818.914    24336724.566  
  24336723.851    95502531.716  
  21737009.644   114228756.502                    89009408.724    21737007.070  
                                
  20297558.634   106664390.023    20297556.614    83115098.250    20297555.971  
                                
  20964064.184   110166901.294    20964062.272    85844329.222    20964061.897  
  20964066.597    82267499.809  
  21614684.817   113585934.984    21614683.423    88508513.647    21614683.066  
  21614687.622    84820676.571  
  20992759.530   110317695.098    20992757.815    85961830.764    20992757.171  
                                
  22897208.262   122570548.308    22897207.583    95332645.329    22897207.512  
                                
  19446985.260   104137722.656    19446983.634    80996000.042    19446983.616  
                                
  20131069.694   107612104.797    20131069.605    83698302.793    20131069.659  
                                
  21836276.426   116563525.478    21836278.213    90660527.059    21836278.213  
                                
  19452642.128   104058517.904    19452641.521    80934400.068    19452641.199  
                                
  21402768.622   114450222.257    21402770.445    89016846.972    21402769.533  
                                
  24173195.577   127031001.359                                                  
  24173198.811    94860823.804  
  22288989.892   117129433.014                                                  
  22288992.287    87466792.804  
  24847438.664   130574171.570                                                  
  24847439.040    97506687.346  
  23626605.590   124158651.225                                                  
  23626608.771    92715886.998  
 21  8 31 18 19 51.0000000  0 17G 5G10G13G15G18G23G29R 3R 4R 5R18R19
                                R20E 5E 9E11E36
  22574753.720   118631130.611    22574752.201    92439832.826    22574751.558  
                                
  24336233.096   127887768.012    24336235.133    99652813.922    24336234.919  
  24336234.204    95500610.254  
  21737257.523   114230059.154                    89010423.789    21737254.950  
                                
  20297530.615   106664242.816    20297528.596    83114983.557    20297527.953  
                                
  20963752.888   110165265.442    20963750.994    85843054.544    20963750.601  
  20963755.318    82266278.229  
  21614363.442   113584246.145    21614362.049    88507197.679    21614361.691  
  21614366.248    84819415.433  
  20993162.852   110319814.703    20993161.136    85963482.414    20993160.493  
                                
  22897945.002   122574492.170    22897944.305    95335712.791    22897944.234  
                                
  19447280.117   104139301.604    19447278.509    80997228.122    19447278.455  
                                
  20130632.493   107609767.860    20130632.440    83696485.185    20130632.475  
                                
  21836854.078   116566609.071    21836855.865    90662925.423    21836855.865  
                                
  19452698.166   104058817.639    19452697.540    80934633.209    19452697.219  
                                
  21402142.992   114446876.704    21402144.779    89014244.889    21402143.885  
                                
  24172838.160   127029123.068                                                  
  24172841.377    94859421.185  
  22289149.105   117130269.622                                                  
  22289151.482    87467417.546  
  24847818.596   130576168.089                                                  
  24847818.971    97508178.245  
  23626649.512   124158882.151                                                  
  23626652.711    92716059.441  
 21  8 31 18 19 52.0000000  0 17G 5G10G13G15G18G23G29R 3R 4R 5R18R19
                                R20E 5E 9E11E36
  22575269.956   118633843.485    22575268.437    92441946.754    22575267.794  
                                
  24335743.485   127885195.123    24335745.522    99650809.080    24335745.308  
  24335744.575    95498688.945  
  21737505.527   114231362.472                    89011439.366    21737502.972  
                                
  20297502.739   106664096.355    20297500.720    83114869.436    20297500.059  
                                
  20963441.627   110163629.833    20963439.733    85841780.048    20963439.358  
  20963444.058    82265056.839  
  21614042.139   113582557.639    21614040.728    88505881.970    21614040.370  
  21614044.945    84818154.537  
  20993566.316   110321934.891    20993564.601    85965134.511    20993563.958  
                                
  22898681.760   122578436.151    22898681.081    95338780.339    22898681.009  
                                
  19447575.099   104140881.245    19447573.473    80998456.737    19447573.437  
                                
  20130195.470   107607431.607    20130195.381    83694668.104    20130195.435  
                                
  21837431.837   116569693.138    21837433.606    90665324.142    21837433.606  
                                
  19452754.310   104059118.055    19452753.685    80934866.871    19452753.363  
                                
  21401517.379   114443531.360    21401519.202    89011642.960    21401518.273  
                                
  24172480.780   127027245.156                                                  
  24172483.996    94858018.852  
  22289308.372   117131106.674                                                  
  22289310.784    87468042.619  
  24848198.562   130578164.820                                                  
  24848198.938    97509669.312  
  23626693.506   124159113.342                                                  
  23626696.705    92716232.085  
 21  8 31 18 19 53.0000000  0 17G 5G10G13G15G18G23G29R 3R 4R 5R18R19
                                R20E 5E 9E11E36
  22575786.192   118636556.391    22575784.673    92444060.710    22575784.048  
                                
  24335253.892   127882622.325    24335255.929    99648804.311    24335255.714  
  24335254.982    95496767.717  
  21737753.656   114232666.397                    89012455.420    21737751.083  
                                
  20297475.007   106663950.569    20297472.987    83114755.843    20297472.326  
                                
  20963130.438   110161994.400    20963128.526    85840505.689    20963128.151  
  20963132.851    82263835.568  
  21613720.890   113580869.404    21613719.461    88504566.467    21613719.103  
  21613723.696    84816893.837  
  20993969.870   110324055.600    20993968.155    85966787.020    20993967.512  
                                
  22899418.535   122582380.213    22899417.856    95341847.952    22899417.785  
                                
  19447870.206   104142461.481    19447868.562    80999685.818    19447868.544  
                                
  20129758.519   107605095.966    20129758.448    83692851.506    20129758.483  
                                
  21838009.650   116572777.616    21838011.437    90667723.190    21838011.437  
                                
  19452810.580   104059419.110    19452809.954    80935101.024    19452809.650  
                                
  21400891.803   114440186.147    21400893.625    89009041.135    21400892.696  
                                
  24172123.489   127025367.555                                                  
  24172126.705    94856616.750  
  22289467.746   117131944.098                                                  
  22289470.122    87468667.966  
  24848578.565   130580161.691                                                  
  24848578.940    97511160.491  
  23626737.571   124159344.752                                                  
  23626740.770    92716404.888  
 21  8 31 18 19 54.0000000  0 17G 5G10G13G15G18G23G29R 3R 4R 5R18R19
                                R20E 5E 9E11E36
  22576302.482   118639269.439    22576300.981    92446174.747    22576300.337  
                                
  24334764.352   127880049.791    24334766.389    99646799.723    24334766.157  
  24334765.442    95494846.665  
  21738001.946   114233971.032                    89013471.996    21737999.355  
                                
  20297447.417   106663805.548    20297445.398    83114642.819    20297444.736  
                                
  20962819.267   110160359.243    20962817.373    85839231.521    20962816.962  
  20962821.697    82262614.510  
  21613399.694   113579181.524    21613398.265    88503251.215    21613397.908  
  21613402.482    84815633.418  
  20994373.567   110326176.930    20994371.834    85968439.980    20994371.209  
                                
  22900155.365   122586324.439    22900154.668    95344915.656    22900154.614  
                                
  19448165.438   104144042.432    19448163.812    81000915.419    19448163.794  
                                
  20129321.747   107602761.047    20129321.657    83691035.437    20129321.711  
                                
  21838587.588   116575862.613    21838589.375    90670122.604    21838589.393  
                                
  19452867.010   104059720.870    19452866.385    80935335.706    19452866.099  
                                
  21400266.298   114436841.251    21400268.120    89006439.523    21400267.209  
                                
  24171766.287   127023490.383                                                  
  24171769.504    94855214.967  
  22289627.191   117132782.003                                                  
  22289629.585    87469293.674  
  24848958.586   130582158.818                                                  
  24848958.979    97512651.843  
  23626781.636   124159576.459                                                  
  23626784.835    92716577.920  
 21  8 31 18 19 55.0000000  0 17G 5G10G13G15G18G23G29R 3R 4R 5R18R19
                                R20E 5E 9E11E36
  22576818.807   118641982.580    22576817.306    92448288.851    22576816.681  
                                
  24334274.848   127877477.427    24334276.867    99644795.256    24334276.635  
  24334275.938    95492925.755  
  21738250.344   114235276.319                    89014489.071    21738247.788  
                                
  20297419.970   106663661.261    20297417.969    83114530.354    20297417.308  
                                
  20962508.150   110158724.312    20962506.256    85837957.519    20962505.845  
  20962510.562    82261393.622  
  21613078.552   113577493.976    21613077.123    88501936.208    21613076.765  
  21613081.358    84814373.229  
  20994777.372   110328298.833    20994775.656    85970093.381    20994775.013  
                                
  22900892.229   122590268.765    22900891.550    95347983.434    22900891.461  
                                
  19448460.813   104145624.065    19448459.222    81002145.545    19448459.187  
                                
  20128885.099   107600426.803    20128885.028    83689219.881    20128885.063  
                                
  21839165.633   116578948.069    21839167.420    90672522.366    21839167.420  
                                
  19452923.583   104060023.334    19452922.976    80935570.921    19452922.654  
                                
  21399640.846   114433496.520    21399642.669    89003838.037    21399641.757  
                                
  24171409.139   127021613.571                                                  
  24171412.355    94853813.448  
  22289786.725   117133620.334                                                  
  22289789.102    87469919.701  
  24849338.678   130584156.142                                                  
  24849339.053    97514143.334  
  23626825.790   124159808.448                                                  
  23626828.989    92716751.154  
 21  8 31 18 19 56.0000000  0 17G 5G10G13G15G18G23G29R 3R 4R 5R18R19
                                R20E 5E 9E11E36
  22577335.114   118644695.753    22577333.613    92450403.015    22577332.970  
                                
  24333785.362   127874905.183    24333787.399    99642790.917    24333787.166  
  24333786.469    95491004.912  
  21738498.848   114236582.195                    89015506.642    21738496.275  
                                
  20297392.648   106663517.623    20297390.629    83114418.432    20297389.986  
                                
  20962197.068   110157089.543    20962195.156    85836683.672    20962194.763  
  20962199.480    82260172.850  
  21612757.464   113575806.671    21612756.052    88500621.429    21612755.695  
  21612760.269    84813113.227  
  20995181.247   110330421.234    20995179.550    85971747.202    20995178.889  
                                
  22901629.059   122594213.117    22901628.380    95351051.268    22901628.308  
                                
  19448756.295   104147206.308    19448754.687    81003376.179    19448754.651  
                                
  20128448.541   107598093.141    20128448.452    83687404.815    20128448.505  
                                
  21839743.696   116582033.894    21839745.501    90674922.450    21839745.501  
                                
  19452980.228   104060326.382    19452979.638    80935806.629    19452979.317  
                                
  21399015.395   114430151.973    21399017.235    89001236.728    21399016.306  
                                
  24171052.044   127019737.053                                                  
  24171055.261    94852412.154  
  22289946.314   117134459.014                                                  
  22289948.690    87470545.994  
  24849718.787   130586153.583                                                  
  24849719.145    97515634.931  
  23626869.963   124160040.610                                                  
  23626873.161    92716924.522  
 21  8 31 18 19 57.0000000  0 17G 5G10G13G15G18G23G29R 3R 4R 5R18R19
                                R20E 5E 9E11E36
  22577851.404   118647409.018    22577849.903    92452517.265    22577849.296  
                                
  24333295.911   127872333.104    24333297.930    99640786.727    24333297.716  
  24333296.983    95489084.215  
  21738747.442   114237888.726                    89016524.736    21738744.887  
                                
  20297365.416   106663374.692    20297363.432    83114307.074    20297362.771  
                                
  20961886.022   110155454.988    20961884.110    85835410.014    20961883.735  
  20961888.452    82258952.243  
  21612436.447   113574119.674    21612435.035    88499306.907    21612434.678  
  21612439.252    84811853.461  
  20995585.212   110332544.208    20995583.515    85973401.483    20995582.854  
                                
  22902365.906   122598157.582    22902365.227    95354119.207    22902365.137  
                                
  19449051.884   104148789.220    19449050.258    81004607.356    19449050.240  
                                
  20128012.090   107595760.120    20128012.001    83685590.264    20128012.055  
                                
  21840321.848   116585120.188    21840323.653    90677322.921    21840323.653  
                                
  19453036.998   104060630.104    19453036.390    80936042.874    19453036.069  
                                
  21398389.961   114426807.624    21398391.784    88998635.588    21398390.890  
                                
  24170695.021   127017860.902                                                  
  24170698.256    94851011.134  
  22290105.991   117135298.128                                                  
  22290108.386    87471172.601  
  24850098.915   130588151.211                                                  
  24850099.290    97517126.669  
  23626914.206   124160273.036                                                  
  23626917.405    92717098.091  
 21  8 31 18 19 58.0000000  0 17G 5G10G13G15G18G23G29R 3R 4R 5R18R19
                                R20E 5E 9E11E36
  22578367.730   118650122.370    22578366.229    92454631.581    22578365.603  
                                
  24332806.497   127869761.204    24332808.534    99638782.670    24332808.301  
  24332807.569    95487163.640  
  21738996.197   114239195.917                    89017543.345    21738993.623  
                                
  20297338.362   106663232.486    20297336.343    83114196.284    20297335.700  
                                
  20961575.029   110153820.670    20961573.117    85834136.538    20961572.742  
  20961577.442    82257731.800  
  21612115.484   113572432.983    21612114.072    88497992.618    21612113.715  
  21612118.289    84810593.916  
  20995989.320   110334667.736    20995987.587    85975056.197    20995986.944  
                                
  22903102.771   122602102.143    22903102.074    95357187.217    22903102.002  
                                
  19449347.599   104150372.793    19449345.955    81005839.040    19449345.937  
                                
  20127575.747   107593427.751    20127575.675    83683776.220    20127575.711  
                                
  21840900.072   116588206.901    21840901.876    90679723.714    21840901.876  
                                
  19453093.893   104060934.508    19453093.268    80936279.653    19453092.946  
                                
  21397764.563   114423463.420    21397766.386    88996034.560    21397765.492  
                                
  24170338.070   127015985.097                                                  
  24170341.304    94849610.373  
  22290265.758   117136137.656                                                  
  22290268.135    87471799.519  
  24850479.079   130590149.001                                                  
  24850479.454    97518618.523  
  23626958.468   124160505.717                                                  
  23626961.684    92717271.842  
 21  8 31 18 19 59.0000000  0 17G 5G10G13G15G18G23G29R 3R 4R 5R18R19
                                R20E 5E 9E11E36
  22578884.073   118652835.804    22578882.572    92456745.957    22578881.946  
                                
  24332317.118   127867189.471    24332319.137    99636778.729    24332318.922  
  24332318.208    95485243.183  
  21739245.041   114240503.739                    89018562.441    21739242.485  
                                
  20297311.416   106663090.978    20297309.396    83114086.030    20297308.753  
                                
  20961264.055   110152186.534    20961262.161    85832863.197    20961261.768  
  20961266.485    82256511.515  
  21611794.574   113570746.593    21611793.162    88496678.559    21611792.805  
  21611797.379    84809334.602  
  20996393.482   110336791.813    20996391.766    85976711.335    20996391.123  
                                
  22903839.653   122606046.785    22903838.956    95360255.277    22903838.867  
                                
  19449643.420   104151957.031    19449641.794    81007071.237    19449641.759  
                                
  20127139.546   107591096.020    20127139.457    83681962.663    20127139.492  
                                
  21841478.403   116591294.032    21841480.190    90682124.823    21841480.190  
                                
  19453150.913   104061239.574    19453150.288    80936516.937    19453149.966  
                                
  21397139.219   114420119.471    21397141.041    88993433.724    21397140.148  
                                
  24169981.190   127014109.655                                                  
  24169984.406    94848209.876  
  22290425.579   117136977.592                                                  
  22290427.973    87472426.747  
  24850859.296   130592146.994                                                  
  24850859.671    97520110.526  
  23627002.801   124160738.642                                                  
  23627006.017    92717445.781  
 21  8 31 18 20  0.0000000  0 17G 5G10G13G15G18G23G29R 3R 4R 5R18R19
                                R20E 5E 9E11E36
  22579400.434   118655549.304    22579398.915    92458860.381    22579398.308  
                                
  24331827.739   127864617.885    24331829.794    99634774.907    24331829.561  
  24331828.829    95483322.854  
  21739494.028   114241812.210                    89019582.030    21739491.472  
                                
  20297284.630   106662950.183    20297282.611    83113976.326    20297281.950  
                                
  20960953.134   110150552.631    20960951.240    85831590.029    20960950.847  
  20960955.564    82255291.392  
  21611473.718   113569060.491    21611472.288    88495364.723    21611471.931  
  21611476.505    84808075.511  
  20996797.804   110338916.454    20996796.071    85978366.902    20996795.445  
                                
  22904576.572   122609991.526    22904575.857    95363323.415    22904575.786  
                                
  19449939.403   104153541.911    19449937.759    81008303.928    19449937.741  
                                
  20126703.470   107588764.946    20126703.381    83680149.612    20126703.399  
                                
  21842056.805   116594381.595    21842058.592    90684526.268    21842058.592  
                                
  19453208.058   104061545.307    19453207.433    80936754.738    19453207.111  
                                
  21396513.910   114416775.692    21396515.733    88990833.012    21396514.821  
                                
  24169624.381   127012234.558                                                  
  24169627.597    94846809.643  
  22290585.489   117137817.939                                                  
  22290587.883    87473054.278  
  24851239.531   130594145.163                                                  
  24851239.906    97521602.676  
  23627047.170   124160971.807                                                  
  23627050.368    92717619.894  
 21  8 31 18 20  1.0000000  0 17G 5G10G13G15G18G23G29R 3R 4R 5R18R19
                                R20E 5E 9E11E36
  22579916.849   118658262.996    22579915.330    92460974.940    22579914.705  
                                
  24331338.449   127862046.551    24331340.468    99632771.265    24331340.254  
  24331339.503    95481402.704  
  21739743.175   114243121.399                    89020602.173    21739740.602  
                                
  20297257.987   106662810.171    20297255.968    83113867.222    20297255.307  
                                
  20960642.266   110148919.009    20960640.354    85830317.075    20960639.979  
  20960644.679    82254071.482  
  21611152.933   113567374.795    21611151.539    88494051.191    21611151.164  
  21611155.738    84806816.704  
  20997202.234   110341041.725    20997200.518    85980022.953    20997199.857  
                                
  22905313.508   122613936.449    22905312.829    95366391.684    22905312.722  
                                
  19450235.493   104155127.527    19450233.884    81009537.178    19450233.831  
                                
  20126267.538   107586434.624    20126267.448    83678337.137    20126267.484  
                                
  21842635.315   116597469.680    21842637.102    90686928.098    21842637.102  
                                
  19453265.346   104061851.781    19453264.721    80936993.102    19453264.417  
                                
  21395888.655   114413432.155    21395890.478    88988232.476    21395889.584  
                                
  24169267.644   127010359.894                                                  
  24169270.860    94845409.732  
  22290745.506   117138658.782                                                  
  22290747.882    87473682.178  
  24851619.819   130596143.598                                                  
  24851620.212    97523095.004  
  23627091.592   124161205.304                                                  
  23627094.791    92717794.261  
 21  8 31 18 20  2.0000000  0 17G 5G10G13G15G18G23G29R 3R 4R 5R18R19
                                R20E 5E 9E11E36
  22580433.264   118660976.818    22580431.763    92463089.593    22580431.137  
                                
  24330849.177   127859475.454    24330851.197    99630767.805    24330850.982  
  24330850.250    95479482.734  
  21739992.448   114244431.302                    89021622.861    21739989.893  
                                
  20297231.505   106662670.935    20297229.486    83113758.712    20297228.825  
                                
  20960331.453   110147285.677    20960329.558    85829044.338    20960329.165  
  20960333.883    82252851.784  
  21610832.238   113565689.456    21610830.808    88492737.928    21610830.451  
  21610835.025    84805558.174  
  20997606.788   110343167.615    20997605.073    85981679.479    20997604.430  
                                
  22906050.498   122617881.512    22906049.801    95369460.051    22906049.712  
                                
  19450531.743   104156713.854    19450530.117    81010770.974    19450530.099  
                                
  20125831.748   107584105.015    20125831.658    83676525.201    20125831.694  
                                
  21843213.914   116600558.272    21843215.718    90689330.325    21843215.718  
                                
  19453322.795   104062159.028    19453322.188    80937232.056    19453321.866  
                                
  21395263.472   114410088.928    21395265.294    88985632.175    21395264.383  
                                
  24168910.978   127008485.653                                                  
  24168914.194    94844010.139  
  22290905.612   117139500.106                                                  
  22290907.989    87474310.437  
  24852000.161   130598142.283                                                  
  24852000.554    97524587.526  
  23627136.122   124161439.124                                                  
  23627139.320    92717968.862  
 21  8 31 18 20  3.0000000  0 17G 5G10G13G15G18G23G29R 3R 4R 5R18R19
                                R20E 5E 9E11E36
  22580949.714   118663690.799    22580948.213    92465204.394    22580947.570  
                                
  24330359.959   127856904.587    24330361.978    99628764.543    24330361.764  
  24330361.031    95477562.928  
  21740241.846   114245741.920                    89022644.133    21740239.273  
                                
  20297205.131   106662532.485    20297203.112    83113650.840    20297202.468  
                                
  20960020.692   110145652.618    20960018.798    85827771.833    20960018.405  
  20960023.123    82251632.294  
  21610511.596   113564004.487    21610510.166    88491424.975    21610509.809  
  21610514.383    84804299.916  
  20998011.432   110345294.125    20998009.717    85983336.509    20998009.074  
                                
  22906787.488   122621826.734    22906786.791    95372528.561    22906786.720  
                                
  19450828.119   104158300.899    19450826.475    81012005.352    19450826.457  
                                
  20125396.065   107581776.099    20125395.994    83674713.834    20125396.030  
                                
  21843792.602   116603647.382    21843794.389    90691732.975    21843794.389  
                                
  19453380.369   104062466.986    19453379.726    80937471.590    19453379.440  
                                
  21394638.306   114406745.940    21394640.129    88983032.080    21394639.217  
                                
  24168554.402   127006611.811                                                  
  24168557.618    94842610.841  
  22291065.790   117140341.896                                                  
  22291068.185    87474939.049  
  24852380.539   130600141.183                                                  
  24852380.914    97526080.215  
  23627180.651   124161673.234                                                  
  23627183.850    92718143.685  
 21  8 31 18 20  4.0000000  0 17G 5G10G13G15G18G23G29R 3R 4R 5R18R19
                                R20E 5E 9E11E36
  22581466.165   118666404.720    22581464.628    92467319.141    22581464.020  
                                
  24329870.741   127854333.743    24329872.760    99626761.297    24329872.546  
  24329871.831    95475643.151  
  21740491.351   114247053.047                    89023665.797    21740488.778  
                                
  20297178.899   106662394.595    20297176.880    83113543.403    20297176.219  
                                
  20959709.932   110144019.633    20959708.038    85826499.386    20959707.663  
  20959712.362    82250412.857  
  21610190.972   113562319.673    21610189.578    88490112.144    21610189.203  
  21610193.777    84803041.780  
  20998416.166   110347421.054    20998414.450    85984993.866    20998413.807  
                                
  22907524.460   122625771.932    22907523.781    95375597.053    22907523.710  
                                
  19451124.584   104159888.494    19451122.940    81013240.160    19451122.922  
                                
  20124960.472   107579447.696    20124960.383    83672902.863    20124960.436  
                                
  21844371.362   116606736.791    21844373.149    90694135.865    21844373.149  
                                
  19453438.032   104062775.470    19453437.407    80937711.529    19453437.085  
                                
  21394013.158   114403403.015    21394014.963    88980432.041    21394014.069  
                                
  24168197.843   127004738.192                                                  
  24168201.060    94841211.717  
  22291226.040   117141183.972                                                  
  22291228.434    87475567.869  
  24852760.953   130602140.152                                                  
  24852761.328    97527572.939  
  23627225.217   124161907.465                                                  
  23627228.415    92718318.604  
 21  8 31 18 20  5.0000000  0 17G 5G10G13G15G18G23G29R 3R 4R 5R18R19
                                R20E 5E 9E11E36
  22581982.579   118669118.595    22581981.078    92469433.848    22581980.435  
                                
  24329381.523   127851762.943    24329383.578    99624758.081    24329383.328  
  24329382.613    95473723.398  
  21740740.946   114248364.678                    89024687.852    21740738.355  
                                
  20297152.775   106662257.289    20297150.755    83113436.416    20297150.094  
                                
  20959399.208   110142386.736    20959397.314    85825227.001    20959396.921  
  20959401.638    82249193.490  
  21609870.402   113560635.041    21609868.990    88488799.447    21609868.633  
  21609873.189    84801783.779  
  20998820.989   110349548.400    20998819.255    85986651.540    20998818.630  
                                
  22908261.468   122629717.106    22908260.789    95378665.522    22908260.700  
                                
  19451421.138   104161476.628    19451419.512    81014475.375    19451419.476  
                                
  20124525.004   107577119.813    20124524.915    83671092.292    20124524.950  
                                
  21844950.175   116609826.530    21844951.944    90696538.995    21844951.980  
                                
  19453495.803   104063084.485    19453495.160    80937951.877    19453494.856  
                                
  21393388.028   114400060.173    21393389.851    88977832.058    21393388.922  
                                
  24167841.356   127002864.796                                                  
  24167844.573    94839812.752  
  22291386.343   117142026.323                                                  
  22291388.719    87476196.896  
  24853141.331   130604139.131                                                  
  24853141.724    97529065.694  
  23627269.818   124162141.819                                                  
  23627273.016    92718493.606  
 21  8 31 18 20  6.0000000  0 17G 5G10G13G15G18G23G29R 3R 4R 5R18R19
                                R20E 5E 9E11E36
  22582499.012   118671832.414    22582497.511    92471548.510    22582496.868  
                                
  24328892.341   127849192.141    24328894.360    99622754.856    24328894.128  
  24328893.395    95471803.645  
  21740990.630   114249676.804                    89025710.286    21740988.039  
                                
  20297126.739   106662120.532    20297124.720    83113329.845    20297124.059  
                                
  20959088.501   110140753.885    20959086.589    85823954.648    20959086.196  
  20959090.914    82247974.149  
  21609549.849   113558950.536    21609548.420    88487486.845    21609548.080  
  21609552.655    84800525.871  
  20999225.883   110351676.140    20999224.149    85988309.514    20999223.524  
                                
  22908998.458   122633662.206    22908997.761    95381733.921    22908997.672  
                                
  19451717.817   104163065.243    19451716.173    81015710.964    19451716.156  
                                
  20124089.607   107574792.419    20124089.518    83669282.094    20124089.572  
                                
  21845529.042   116612916.531    21845530.829    90698942.320    21845530.847  
                                
  19453553.645   104063393.988    19453553.037    80938192.596    19453552.716  
                                
  21392762.898   114396717.332    21392764.703    88975232.067    21392763.810  
                                
  24167484.905   127000991.591                                                  
  24167488.121    94838413.928  
  22291546.663   117142868.920                                                  
  22291549.076    87476826.108  
  24853521.744   130606138.165                                                  
  24853522.120    97530558.464  
  23627314.437   124162376.249                                                  
  23627317.635    92718668.663  
 21  8 31 18 20  7.0000000  0 17G 5G10G13G15G18G23G29R 3R 4R 5R18R19
                                R20E 5E 9E11E36
  22583015.462   118674546.359    22583013.961    92473663.252    22583013.336  
                                
  24328403.158   127846621.561    24328405.177    99620751.788    24328404.963  
  24328404.230    95469884.054  
  21741240.456   114250989.609                    89026733.235    21741237.901  
                                
  20297100.883   106661984.526    20297098.864    83113223.848    20297098.203  
                                
  20958777.812   110139121.296    20958775.918    85822682.485    20958775.525  
  20958780.243    82246755.008  
  21609229.368   113557266.389    21609227.939    88486174.504    21609227.581  
  21609232.174    84799268.233  
  20999630.902   110353804.486    20999629.187    85989967.950    20999628.543  
                                
  22909735.484   122637607.437    22909734.787    95384802.408    22909734.715  
                                
  19452014.604   104164654.546    19452012.996    81016947.072    19452012.960  
                                
  20123654.372   107572465.727    20123654.282    83667472.426    20123654.336  
                                
  21846108.016   116616007.019    21846109.785    90701346.014    21846109.821  
                                
  19453611.666   104063704.216    19453611.040    80938433.871    19453610.719  
                                
  21392137.822   114393374.771    21392139.645    88972632.282    21392138.751  
                                
  24167128.507   126999118.788                                                  
  24167131.724    94837015.402  
  22291707.091   117143711.981                                                  
  22291709.504    87477455.671  
  24853902.194   130608137.428                                                  
  24853902.569    97532051.413  
  23627359.109   124162610.969                                                  
  23627362.308    92718843.944  
 21  8 31 18 20  8.0000000  0 17G 5G10G13G15G18G23G29R 3R 4R 5R18R19
                                R20E 5E 9E11E36
  22583531.949   118677260.504    22583530.448    92475778.170    22583529.804  
                                
  24327914.047   127844051.245    24327916.067    99618748.952    24327915.834  
  24327915.120    95467964.671  
  21741490.426   114252303.171                    89027756.787    21741487.853  
                                
  20297075.151   106661849.336    20297073.132    83113118.512    20297072.471  
                                
  20958467.213   110137489.030    20958465.319    85821410.589    20958464.908  
  20958469.625    82245536.108  
  21608908.959   113555582.658    21608907.547    88484862.508    21608907.190  
  21608911.764    84798010.899  
  21000036.046   110355933.499    21000034.331    85991626.921    21000033.688  
                                
  22910472.510   122641552.868    22910471.831    95387871.077    22910471.759  
                                
  19452311.534   104166244.614    19452309.907    81018183.797    19452309.872  
                                
  20123219.225   107570139.778    20123219.154    83665663.364    20123219.189  
                                
  21846687.062   116619098.049    21846688.849    90703750.151    21846688.867  
                                
  19453669.794   104064015.200    19453669.168    80938675.750    19453668.847  
                                
  21391512.799   114390032.506    21391514.622    88970032.747    21391513.711  
                                
  24166772.217   126997246.437                                                  
  24166775.433    94835617.222  
  22291867.627   117144555.556                                                  
  22291870.003    87478085.611  
  24854282.679   130610136.970                                                  
  24854283.090    97533544.591  
  23627403.835   124162846.057                                                  
  23627407.034    92719019.492  
 21  8 31 18 20  9.0000000  0 17G 5G10G13G15G18G23G29R 3R 4R 5R18R19
                                R20E 5E 9E11E36
  22584048.417   118679974.508    22584046.916    92477892.974    22584046.273  
                                
  24327424.919   127841480.886    24327426.938    99616746.065    24327426.723  
  24327426.009    95466045.238  
  21741740.467   114253617.164                    89028780.671    21741737.912  
                                
  20297049.527   106661714.657    20297047.508    83113013.558    20297046.847  
                                
  20958156.614   110135856.766    20958154.684    85820138.691    20958154.309  
  20958159.026    82244317.210  
  21608588.567   113553899.006    21608587.138    88483550.565    21608586.780  
  21608591.373    84796753.631  
  21000441.262   110358062.855    21000439.529    85993286.150    21000438.903  
                                
  22911209.553   122645498.155    22911208.874    95390939.620    22911208.785  
                                
  19452608.570   104167835.136    19452606.944    81019420.856    19452606.908  
                                
  20122784.222   107567814.265    20122784.132    83663854.620    20122784.150  
                                
  21847266.161   116622189.293    21847267.948    90706154.445    21847267.948  
                                
  19453728.029   104064326.641    19453727.403    80938917.973    19453727.082  
                                
  21390887.777   114386690.196    21390889.599    88967433.168    21390888.688  
                                
  24166415.944   126995374.235                                                  
  24166419.161    94834219.149  
  22292028.198   117145399.342                                                  
  22292030.574    87478715.713  
  24854663.182   130612136.480                                                  
  24854663.575    97535037.729  
  23627448.579   124163081.168                                                  
  23627451.778    92719195.064  
 21  8 31 18 20 10.0000000  0 17G 5G10G13G15G18G23G29R 3R 4R 5R18R19
                                R20E 5E 9E11E36
  22584564.903   118682688.670    22584563.402    92480007.915    22584562.759  
                                
  24326935.843   127838910.790    24326937.863    99614743.405    24326937.648  
  24326936.933    95464126.013  
  21741990.634   114254931.888                    89029805.140    21741988.079  
                                
  20297024.046   106661580.758    20297022.027    83112909.228    20297021.366  
                                
  20957846.050   110134224.802    20957844.156    85818867.037    20957843.745  
  20957848.462    82243098.540  
  21608268.265   113552215.760    21608266.836    88482238.949    21608266.478  
  21608271.070    84795496.657  
  21000846.567   110360192.865    21000844.870    85994945.906    21000844.209  
                                
  22911946.579   122649443.640    22911945.900    95394008.340    22911945.828  
                                
  19452905.714   104169426.395    19452904.088    81020658.510    19452904.052  
                                
  20122349.308   107565489.504    20122349.218    83662046.489    20122349.272  
                                
  21847845.350   116625281.051    21847847.119    90708559.150    21847847.155  
                                
  19453786.389   104064638.847    19453785.764    80939160.809    19453785.442  
                                
  21390262.808   114383348.175    21390264.630    88964833.828    21390263.701  
                                
  24166059.761   126993502.465                                                  
  24166062.977    94832821.405  
  22292188.840   117146243.624                                                  
  22292191.253    87479346.183  
  24855043.738   130614136.272                                                  
  24855044.114    97536531.069  
  23627493.377   124163316.628                                                  
  23627496.576    92719370.897  
 21  8 31 18 20 11.0000000  0 17G 5G10G13G15G18G23G29R 3R 4R 5R18R19
                                R20E 5E 9E11E36
  22585081.425   118685402.994    22585079.924    92482122.972    22585079.281  
                                
  24326446.804   127836340.915    24326448.841    99612740.909    24326448.609  
  24326447.894    95462206.957  
  21742240.979   114256247.334                    89030830.161    21742238.406  
                                
  20296998.690   106661447.640    20296996.706    83112805.497    20296996.045  
                                
  20957535.558   110132593.123    20957533.646    85817595.598    20957533.253  
  20957537.970    82241880.075  
  21607948.016   113550532.868    21607946.605    88480927.607    21607946.247  
  21607950.804    84794239.957  
  21001252.015   110362323.492    21001250.300    85996606.137    21001249.657  
                                
  22912683.676   122653389.310    22912682.997    95397077.187    22912682.926  
                                
  19453203.001   104171018.386    19453201.393    81021896.728    19453201.357  
                                
  20121914.554   107563165.472    20121914.465    83660238.911    20121914.483  
                                
  21848424.610   116628373.300    21848426.415    90710964.230    21848426.415  
                                
  19453844.874   104064951.776    19453844.249    80939404.198    19453843.927  
                                
  21389637.874   114380006.462    21389639.697    88962234.720    21389638.786  
                                
  24165703.667   126991631.123                                                  
  24165706.866    94831423.968  
  22292349.608   117147088.387                                                  
  22292352.002    87479977.013  
  24855424.349   130616136.298                                                  
  24855424.724    97538024.584  
  23627538.246   124163552.393                                                  
  23627541.445    92719546.957  
 21  8 31 18 20 12.0000000  0 17G 5G10G13G15G18G23G29R 3R 4R 5R18R19
                                R20E 5E 9E11E36
  22585598.019   118688117.561    22585596.518    92484238.196    22585595.874  
                                
  24325957.854   127833771.359    24325959.855    99610738.635    24325959.641  
  24325958.908    95460288.139  
  21742491.467   114257563.572                    89031855.780    21742488.894  
                                
  20296973.548   106661315.402    20296971.547    83112702.430    20296970.886  
                                
  20957225.102   110130961.807    20957223.207    85816324.418    20957222.814  
  20957227.532    82240661.890  
  21607627.857   113548850.449    21607626.445    88479616.611    21607626.088  
  21607630.663    84792983.607  
  21001657.607   110364454.835    21001655.909    85998266.898    21001655.248  
                                
  22913420.809   122657335.232    22913420.148    95400146.214    22913420.076  
                                
  19453500.485   104172611.214    19453498.841    81023135.571    19453498.823  
                                
  20121479.962   107560842.236    20121479.872    83658431.926    20121479.908  
                                
  21849004.031   116631466.139    21849005.836    90713369.742    21849005.836  
                                
  19453903.556   104065265.559    19453902.931    80939648.228    19453902.627  
                                
  21389013.048   114376665.057    21389014.853    88959635.824    21389013.942  
                                
  24165347.645   126989760.283                                                  
  24165350.879    94830026.919  
  22292510.465   117147933.716                                                  
  22292512.859    87480608.266  
  24855804.995   130618136.638                                                  
  24855805.370    97539518.355  
  23627583.187   124163788.575                                                  
  23627586.385    92719723.318  
 21  8 31 18 20 13.0000000  0 17G 5G10G13G15G18G23G29R 3R 4R 5R18R19
                                R20E 5E 9E11E36
  22586114.612   118690832.246    22586113.129    92486353.508    22586112.504  
                                
  24325468.922   127831202.026    24325470.941    99608736.528    24325470.691  
  24325469.976    95458369.475  
  21742742.098   114258880.488                    89032881.919    21742739.525  
                                
  20296948.549   106661183.903    20296946.548    83112599.933    20296945.905  
                                
  20956914.752   110129330.761    20956912.823    85815053.446    20956912.429  
  20956917.165    82239443.896  
  21607307.787   113547168.362    21607306.340    88478305.866    21607305.982  
  21607310.557    84791727.503  
  21002063.323   110366586.764    21002061.625    85999928.114    21002060.982  
                                
  22914157.996   122661281.252    22914157.334    95403215.310    22914157.245  
                                
  19453798.093   104174204.709    19453796.467    81024374.926    19453796.431  
                                
  20121045.494   107558519.675    20121045.423    83656625.462    20121045.459  
                                
  21849583.541   116634559.470    21849585.346    90715775.631    21849585.346  
                                
  19453962.363   104065580.035    19453961.738    80939892.792    19453961.434  
                                
  21388388.240   114373323.918    21388390.080    88957037.132    21388389.151  
                                
  24164991.712   126987889.842                                                  
  24164994.946    94828630.159  
  22292671.411   117148779.498                                                  
  22292673.806    87481239.851  
  24856185.676   130620137.221                                                  
  24856186.087    97541012.293  
  23627628.181   124164025.027                                                  
  23627631.380    92719899.900  
 21  8 31 18 20 14.0000000  0 17G 5G10G13G15G18G23G29R 3R 4R 5R18R19
                                R20E 5E 9E11E36
  22586631.206   118693546.951    22586629.723    92488468.860    22586629.079  
                                
  24324980.007   127828632.779    24324982.009    99606734.521    24324981.776  
  24324981.062    95456450.894  
  21742992.800   114260197.996                    89033908.556    21742990.245  
                                
  20296923.640   106661053.044    20296921.639    83112497.975    20296920.995  
                                
  20956604.385   110127699.856    20956602.473    85813782.614    20956602.080  
  20956606.816    82238226.013  
  21606987.735   113545486.530    21606986.288    88476995.352    21606985.930  
  21606990.523    84790471.585  
  21002469.128   110368719.193    21002467.413    86001589.749    21002466.752  
                                
  22914895.146   122665227.287    22914894.485    95406284.458    22914894.414  
                                
  19454095.738   104175798.772    19454094.129    81025614.760    19454094.112  
                                
  20120611.098   107556197.675    20120611.045    83654819.469    20120611.063  
                                
  21850163.087   116637653.174    21850164.892    90718181.845    21850164.892  
                                
  19454021.260   104065895.114    19454020.634    80940137.861    19454020.330  
                                
  21387763.449   114369982.948    21387765.272    88954438.609    21387764.379  
                                
  24164635.832   126986019.698                                                  
  24164639.049    94827233.625  
  22292832.429   117149625.625                                                  
  22292834.806    87481871.706  
  24856566.394   130622137.908                                                  
  24856566.787    97542506.319  
  23627673.211   124164261.679                                                  
  23627676.409    92720076.619  
 21  8 31 18 20 15.0000000  0 17G 5G10G13G15G18G23G29R 3R 4R 5R18R19
                                R20E 5E 9E11E36
  22587147.781   118696261.712    22587146.280    92490584.281    22587145.673  
                                
  24324491.129   127826063.707    24324493.148    99604732.675    24324492.898  
  24324492.183    95454532.428  
  21743243.610   114261516.130                    89034935.693    21743241.054  
                                
  20296898.856   106660922.896    20296896.854    83112396.581    20296896.193  
                                
  20956294.072   110126069.148    20956292.160    85812511.962    20956291.767  
  20956296.484    82237008.283  
  21606667.737   113543804.967    21606666.307    88475685.071    21606665.950  
  21606670.542    84789215.881  
  21002874.987   110370852.164    21002873.290    86003251.825    21002872.629  
                                
  22915632.297   122669173.426    22915631.636    95409353.696    22915631.564  
                                
  19454393.543   104177393.478    19454391.899    81026855.103    19454391.881  
                                
  20120176.827   107553876.326    20120176.738    83653013.996    20120176.792  
                                
  21850742.723   116640747.328    21850744.527    90720588.433    21850744.527  
                                
  19454080.263   104066210.848    19454079.655    80940383.450    19454079.334  
                                
  21387138.695   114366642.137    21387140.517    88951840.222    21387139.606  
                                
  24164280.024   126984149.885                                                  
  24164283.241    94825837.336  
  22292993.518   117150472.161                                                  
  22292995.913    87482503.857  
  24856947.165   130624138.773                                                  
  24856947.558    97544000.476  
  23627718.294   124164498.562                                                  
  23627721.493    92720253.508  
 21  8 31 18 20 16.0000000  0 17G 5G10G13G15G18G23G29R 3R 4R 5R18R19
                                R20E 5E 9E11E36
  22587664.446   118698976.784    22587662.945    92492699.926    22587662.302  
                                
  24324002.304   127823494.991    24324004.323    99602731.085    24324004.091  
  24324003.376    95452614.241  
  21743494.598   114262835.112                    89035963.476    21743492.043  
                                
  20296874.268   106660793.657    20296872.249    83112295.882    20296871.605  
                                
  20955983.848   110124438.871    20955981.936    85811241.616    20955981.543  
  20955986.260    82235790.866  
  21606347.845   113542123.933    21606346.434    88474375.177    21606346.076  
  21606350.633    84787960.559  
  21003281.025   110372985.887    21003279.310    86004914.469    21003278.666  
                                
  22916369.537   122673119.883    22916368.858    95412423.162    22916368.787  
                                
  19454691.509   104178989.075    19454689.883    81028096.128    19454689.847  
                                
  20119742.735   107551555.828    20119742.646    83651209.164    20119742.682  
                                
  21851322.501   116643842.137    21851324.270    90722995.514    21851324.270  
                                
  19454139.445   104066527.462    19454138.838    80940629.706    19454138.516  
                                
  21386514.030   114363301.771    21386515.852    88949242.164    21386514.941  
                                
  24163924.306   126982280.632                                                  
  24163927.522    94824441.463  
  22293154.715   117151319.313                                                  
  22293157.127    87483136.475  
  24857327.989   130626140.041                                                  
  24857328.364    97545494.931  
  23627763.467   124164735.912                                                  
  23627766.666    92720430.743  
 21  8 31 18 20 17.0000000  0 17G 5G10G13G15G18G23G29R 3R 4R 5R18R19
                                R20E 5E 9E11E36
  22588181.075   118701691.715    22588179.574    92494815.461    22588178.931  
                                
  24323513.497   127820926.236    24323515.516    99600729.462    24323515.266  
  24323514.551    95450696.013  
  21743745.658   114264154.540                    89036991.608    21743743.102  
                                
  20296849.769   106660664.920    20296847.750    83112195.572    20296847.107  
                                
  20955673.606   110122808.592    20955671.712    85809971.275    20955671.301  
  20955676.036    82234573.445  
  21606027.972   113540442.976    21606026.542    88473065.349    21606026.185  
  21606030.777    84786705.299  
  21003687.117   110375119.950    21003685.419    86006577.382    21003684.758  
                                
  22917106.742   122677066.220    22917106.081    95415492.543    22917105.973  
                                
  19454989.546   104180585.124    19454987.920    81029337.506    19454987.884  
                                
  20119308.715   107549235.754    20119308.625    83649404.669    20119308.679  
                                
  21851902.279   116646937.185    21851904.084    90725402.776    21851904.084  
                                
  19454198.717   104066844.510    19454198.091    80940876.306    19454197.770  
                                
  21385889.364   114359961.354    21385891.169    88946644.066    21385890.258  
                                
  24163568.623   126980411.524                                                  
  24163571.857    94823045.698  
  22293315.965   117152166.667                                                  
  22293318.377    87483769.235  
  24857708.814   130628141.261                                                  
  24857709.189    97546989.338  
  23627808.622   124164973.274                                                  
  23627811.821    92720607.998  
 21  8 31 18 20 18.0000000  0 17G 5G10G13G15G18G23G29R 3R 4R 5R18R19
                                R20E 5E 9E11E36
  22588697.705   118704406.546    22588696.204    92496930.912    22588695.560  
                                
  24323024.672   127818357.467    24323026.673    99598727.824    24323026.459  
  24323025.726    95448777.781  
  21743996.843   114265474.431                    89038020.090    21743994.269  
                                
  20296825.360   106660536.705    20296823.359    83112095.664    20296822.698  
                                
  20955363.382   110121178.344    20955361.470    85808700.952    20955361.094  
  20955365.812    82233356.057  
  21605708.134   113538762.138    21605706.687    88471755.601    21605706.330  
  21605710.904    84785450.132  
  21004093.297   110377254.385    21004091.600    86008240.571    21004090.939  
                                
  22917843.910   122681012.437    22917843.249    95418561.823    22917843.178  
                                
  19455287.673   104182181.627    19455286.065    81030579.231    19455286.011  
                                
  20118874.783   107546916.151    20118874.694    83647600.534    20118874.730  
                                
  21852482.147   116650032.466    21852483.934    90727810.216    21852483.934  
                                
  19454258.078   104067162.030    19454257.452    80941123.266    19454257.148  
                                
  21385264.681   114356620.946    21385266.504    88944045.967    21385265.592  
                                
  24163212.975   126978542.576                                                  
  24163216.192    94821650.062  
  22293477.251   117153014.238                                                  
  22293479.645    87484402.164  
  24858089.621   130630142.482                                                  
  24858090.032    97548483.758  
  23627853.795   124165210.715                                                  
  23627856.994    92720785.312  
 21  8 31 18 20 19.0000000  0 17G 5G10G13G15G18G23G29R 3R 4R 5R18R19
                                R20E 5E 9E11E36
  22589214.387   118707121.695    22589212.886    92499046.594    22589212.243  
                                
  24322535.918   127815789.062    24322537.920    99596726.462    24322537.687  
  24322536.972    95446859.825  
  21744248.188   114266795.162                    89039049.218    21744245.615  
                                
  20296801.166   106660409.414    20296799.164    83111996.463    20296798.503  
                                
  20955053.247   110119548.522    20955051.335    85807430.947    20955050.942  
  20955055.659    82232138.978  
  21605388.368   113537081.826    21605386.939    88470446.253    21605386.581  
  21605391.156    84784195.352  
  21004499.621   110379389.590    21004497.906    86009904.353    21004497.262  
                                
  22918581.168   122684958.980    22918580.507    95421631.338    22918580.436  
                                
  19455585.996   104183778.992    19455584.352    81031821.611    19455584.334  
                                
  20118441.013   107544597.411    20118440.959    83645797.055    20118440.977  
                                
  21853062.122   116653128.390    21853063.909    90730218.141    21853063.927  
                                
  19454317.599   104067480.458    19454317.010    80941370.913    19454316.688  
                                
  21384640.105   114353280.971    21384641.910    88941448.201    21384641.016  
                                
  24162857.453   126976674.199                                                  
  24162860.670    94820254.845  
  22293638.661   117153862.447                                                  
  22293641.074    87485035.560  
  24858470.517   130632144.092                                                  
  24858470.892    97549978.448  
  23627899.075   124165448.616                                                  
  23627902.274    92720962.959  
 21  8 31 18 20 20.0000000  0 17G 5G10G13G15G18G23G29R 3R 4R 5R18R19
                                R20E 5E 9E11E36
  22589731.070   118709836.902    22589729.569    92501162.337    22589728.944  
                                
  24322047.200   127813220.850    24322049.202    99594725.263    24322048.969  
  24322048.255    95444942.006  
  21744499.623   114268116.547                    89040078.859    21744497.068  
                                
  20296777.078   106660282.834    20296775.077    83111897.824    20296774.416  
                                
  20954743.130   110117918.920    20954741.218    85806161.123    20954740.825  
  20954745.542    82230922.074  
  21605068.656   113535401.816    21605067.244    88469137.152    21605066.887  
  21605071.461    84782940.801  
  21004906.034   110381525.358    21004904.337    86011568.583    21004903.693  
                                
  22919318.444   122688905.622    22919317.783    95424700.936    22919317.712  
                                
  19455884.409   104185377.038    19455882.801    81033064.531    19455882.747  
                                
  20118007.385   107542279.339    20118007.331    83643994.106    20118007.349  
                                
  21853642.186   116656224.753    21853643.991    90732626.421    21853643.991  
                                
  19454377.264   104067799.549    19454376.657    80941619.093    19454376.335  
                                
  21384015.529   114349941.155    21384017.352    88938850.562    21384016.458  
                                
  24162501.967   126974806.196                                                  
  24162505.201    94818859.904  
  22293800.162   117154711.072                                                  
  22293802.538    87485669.275  
  24858851.466   130634145.885                                                  
  24858851.842    97551473.300  
  23627944.391   124165686.773                                                  
  23627947.590    92721140.801  
 21  8 31 18 20 21.0000000  0 17G 5G10G13G15G18G23G29R 3R 4R 5R18R19
                                R20E 5E 9E11E36
  22590247.771   118712552.226    22590246.270    92503278.177    22590245.662  
                                
  24321558.518   127810652.812    24321560.502    99592724.201    24321560.287  
  24321559.555    95443024.331  
  21744751.219   114269438.607                    89041109.040    21744748.646  
                                
  20296753.134   106660157.013    20296751.132    83111799.783    20296750.471  
                                
  20954433.085   110116289.568    20954431.173    85804891.505    20954430.780  
  20954435.515    82229705.345  
  21604749.032   113533722.138    21604747.603    88467828.314    21604747.246  
  21604751.820    84781686.500  
  21005312.572   110383661.715    21005310.875    86013233.282    21005310.231  
                                
  22920055.738   122692852.389    22920055.077    95427770.646    22920055.005  
                                
  19456182.982   104186975.757    19456181.338    81034307.979    19456181.321  
                                
  20117573.865   107539961.960    20117573.811    83642191.700    20117573.829  
                                
  21854222.322   116659321.565    21854224.109    90735035.050    21854224.109  
                                
  19454437.036   104068119.327    19454436.446    80941867.812    19454436.125  
                                
  21383391.025   114346601.571    21383392.829    88936253.110    21383391.936  
                                
  24162146.588   126972938.555                                                  
  24162149.804    94817465.241  
  22293961.733   117155560.137                                                  
  22293964.128    87486303.317  
  24859232.416   130636147.883                                                  
  24859232.791    97552968.314  
  23627989.779   124165925.200                                                  
  23627992.977    92721318.856  
 21  8 31 18 20 22.0000000  0 17G 5G10G13G15G18G23G29R 3R 4R 5R18R19
                                R20E 5E 9E11E36
  22590764.489   118715267.606    22590763.006    92505394.066    22590762.363  
                                
  24321069.854   127808084.920    24321071.891    99590723.262    24321071.641  
  24321070.926    95441106.732  
  21745002.904   114270761.277                    89042139.699    21745000.331  
                                
  20296729.297   106660031.839    20296727.277    83111702.257    20296726.634  
                                
  20954123.075   110114660.380    20954121.145    85803622.016    20954120.770  
  20954125.487    82228488.746  
  21604429.463   113532042.718    21604428.033    88466519.689    21604427.676  
  21604432.250    84780432.381  
  21005719.200   110385798.578    21005717.484    86014898.381    21005716.841  
                                
  22920793.014   122696799.204    22920792.353    95430840.403    22920792.281  
                                
  19456481.610   104188575.068    19456479.983    81035551.904    19456479.948  
                                
  20117140.469   107537645.205    20117140.398    83640389.798    20117140.434  
                                
  21854802.529   116662418.778    21854804.298    90737444.005    21854804.334  
                                
  19454496.933   104068439.733    19454496.307    80942117.030    19454495.986  
                                
  21382766.520   114343262.149    21382768.343    88933655.798    21382767.414  
                                
  24161791.227   126971071.230                                                  
  24161794.443    94816070.808  
  22294123.377   117156409.557                                                  
  22294125.753    87486937.627  
  24859613.419   130638150.034                                                  
  24859613.830    97554463.409  
  23628035.184   124166163.832                                                  
  23628038.382    92721497.054  
 21  8 31 18 20 23.0000000  0 17G 5G10G13G15G18G23G29R 3R 4R 5R18R19
                                R20E 5E 9E11E36
  22591281.208   118717982.989    22591279.707    92507509.959    22591279.064  
                                
  24320581.226   127805517.113    24320583.227    99588722.385    24320583.013  
  24320582.262    95439189.227  
  21745254.697   114272084.517                    89043170.802    21745252.141  
                                
  20296705.602   106659907.307    20296703.583    83111605.233    20296702.940  
                                
  20953813.065   110113031.344    20953811.153    85802352.652    20953810.760  
  20953815.495    82227272.258  
  21604109.911   113530363.530    21604108.499    88465211.244    21604108.124  
  21604112.699    84779178.451  
  21006125.917   110387935.927    21006124.219    86016563.853    21006123.558  
                                
  22921530.326   122700746.049    22921529.647    95433910.176    22921529.575  
                                
  19456780.362   104190174.968    19456778.754    81036796.278    19456778.718  
                                
  20116707.181   107535329.044    20116707.092    83638588.351    20116707.128  
                                
  21855382.790   116665516.389    21855384.594    90739853.263    21855384.594  
                                
  19454556.937   104068760.744    19454556.312    80942366.712    19454555.990  
                                
  21382142.051   114339922.857    21382143.856    88931058.578    21382142.963  
                                
  24161435.937   126969204.190                                                  
  24161439.171    94814676.592  
  22294285.091   117157259.338                                                  
  22294287.468    87487572.206  
  24859994.423   130640152.299                                                  
  24859994.834    97555958.604  
  23628080.625   124166402.652                                                  
  23628083.823    92721675.391  
 21  8 31 18 20 24.0000000  0 17G 5G10G13G15G18G23G29R 3R 4R 5R18R19
                                R20E 5E 9E11E36
  22591797.926   118720698.448    22591796.443    92509625.901    22591795.818  
                                
  24320092.633   127802949.488    24320094.634    99586721.641    24320094.402  
  24320093.687    95437271.836  
  21745506.632   114273408.414                    89044202.417    21745504.041  
                                
  20296682.033   106659783.499    20296680.032    83111508.755    20296679.370  
                                
  20953503.109   110111402.523    20953501.215    85801083.443    20953500.804  
  20953505.522    82226055.933  
  21603790.431   113528684.656    21603789.001    88463903.033    21603788.644  
  21603793.236    84777924.744  
  21006532.741   110390073.831    21006531.025    86018229.757    21006530.382  
                                
  22922267.655   122704692.987    22922266.994    95436980.017    22922266.905  
                                
  19457079.275   104191775.538    19457077.649    81038041.166    19457077.613  
                                
  20116274.001   107533013.504    20116273.911    83636787.382    20116273.965  
                                
  21855963.176   116668614.436    21855964.962    90742262.859    21855964.962  
                                
  19454617.066   104069082.410    19454616.441    80942616.902    19454616.119  
                                
  21381517.618   114336583.781    21381519.441    88928461.524    21381518.530  
                                
  24161080.719   126967337.503                                                  
  24161083.935    94813282.644  
  22294446.859   117158109.527                                                  
  22294449.254    87488207.083  
  24860375.497   130642154.740                                                  
  24860375.873    97557453.927  
  23628126.119   124166641.722                                                  
  23628129.318    92721853.915  
 21  8 31 18 20 25.0000000  0 17G 5G10G13G15G18G23G29R 3R 4R 5R18R19
                                R20E 5E 9E11E36
  22592314.699   118723414.060    22592313.215    92511741.948    22592312.590  
                                
  24319604.040   127800382.078    24319606.042    99584721.052    24319605.827  
  24319605.095    95435354.636  
  21745758.693   114274732.994                    89045234.549    21745756.119  
                                
  20296658.625   106659660.458    20296656.623    83111412.870    20296655.962  
                                
  20953193.207   110109773.989    20953191.295    85799814.444    20953190.902  
  20953195.619    82224839.822  
  21603471.022   113527006.148    21603469.610    88462595.096    21603469.253  
  21603473.810    84776671.313  
  21006939.708   110392212.358    21006937.992    86019896.132    21006937.349  
                                
  22923005.002   122708640.074    22923004.341    95440049.962    22923004.270  
                                
  19457378.313   104193376.852    19457376.687    81039286.623    19457376.651  
                                
  20115840.980   107530698.668    20115840.873    83634986.947    20115840.927  
                                
  21856543.633   116671712.975    21856545.438    90744672.822    21856545.438  
                                
  19454677.339   104069404.844    19454676.713    80942867.670    19454676.427  
                                
  21380893.257   114333244.950    21380895.080    88925864.643    21380894.150  
                                
  24160725.590   126965471.249                                                  
  24160728.806    94811889.008  
  22294608.735   117158960.200                                                  
  22294611.147    87488842.323  
  24860756.590   130644157.425                                                  
  24860756.983    97558949.445  
  23628171.685   124166881.105                                                  
  23628174.884    92722032.680  
 21  8 31 18 20 26.0000000  0 17G 5G10G13G15G18G23G29R 3R 4R 5R18R19
                                R20E 5E 9E11E36
  22592831.489   118726129.725    22592829.988    92513858.058    22592829.344  
                                
  24319115.537   127797814.823    24319117.521    99582720.605    24319117.288  
  24319116.573    95433437.523  
  21746010.860   114276058.218                    89046267.199    21746008.287  
                                
  20296635.341   106659538.109    20296633.340    83111317.542    20296632.679  
                                
  20952883.340   110108145.640    20952881.446    85798545.607    20952881.053  
  20952885.770    82223623.841  
  21603151.667   113525327.917    21603150.237    88461287.390    21603149.880  
  21603154.454    84775418.084  
  21007346.746   110394351.406    21007345.031    86021562.930    21007344.387  
                                
  22923742.368   122712587.215    22923741.706    95443119.969    22923741.617  
                                
  19457677.458   104194978.801    19457675.832    81040532.592    19457675.796  
                                
  20115408.032   107528384.465    20115407.960    83633187.021    20115407.996  
                                
  21857124.180   116674811.919    21857125.967    90747083.119    21857125.967  
                                
  19454737.736   104069727.905    19454737.110    80943118.948    19454736.789  
                                
  21380268.913   114329906.322    21380270.718    88923267.939    21380269.825  
                                
  24160370.514   126963605.298                                                  
  24160373.731    94810495.605  
  22294770.682   117159811.249                                                  
  22294773.094    87489477.849  
  24861137.736   130646160.268                                                  
  24861138.112    97560445.055  
  23628217.269   124167120.703                                                  
  23628220.468    92722211.596  
 21  8 31 18 20 27.0000000  0 17G 5G10G13G15G18G23G29R 3R 4R 5R18R19
                                R20E 5E 9E11E36
  22593348.296   118728845.481    22593346.813    92515974.201    22593346.170  
                                
  24318627.034   127795247.753    24318629.035    99580720.263    24318628.785  
  24318628.070    95431520.548  
  21746263.189   114277384.092                    89047300.326    21746260.616  
                                
  20296612.219   106659416.476    20296610.217    83111222.736    20296609.556  
                                
  20952573.527   110106517.511    20952571.615    85797276.910    20952571.222  
  20952575.939    82222408.030  
  21602832.365   113523649.984    21602830.936    88459979.883    21602830.578  
  21602835.153    84774165.093  
  21007753.928   110396491.027    21007752.230    86023230.137    21007751.569  
                                
  22924479.751   122716534.451    22924479.090    95446190.017    22924479.018  
                                
  19457976.764   104196581.401    19457975.120    81041779.031    19457975.102  
                                
  20114975.262   107526070.943    20114975.191    83631387.592    20114975.226  
                                
  21857704.798   116677911.283    21857706.603    90749493.710    21857706.603  
                                
  19454798.276   104070051.665    19454797.651    80943370.741    19454797.347  
                                
  21379644.623   114326567.879    21379646.446    88920671.347    21379645.534  
                                
  24160015.510   126961739.740                                                  
  24160018.727    94809102.492  
  22294932.718   117160662.726                                                  
  22294935.113    87490113.690  
  24861518.883   130648163.273                                                  
  24861519.276    97561940.816  
  23628262.907   124167360.577                                                  
  23628266.105    92722390.720  
 21  8 31 18 20 28.0000000  0 17G 5G10G13G15G18G23G29R 3R 4R 5R18R19
                                R20E 5E 9E11E36
  22593865.140   118731561.474    22593863.639    92518090.553    22593863.014  
                                
  24318138.584   127792680.985    24318140.567    99578720.178    24318140.353  
  24318139.638    95429603.813  
  21746515.642   114278710.745                    89048334.076    21746513.087  
                                
  20296589.221   106659295.703    20296587.238    83111128.620    20296586.595  
                                
  20952263.767   110104889.746    20952261.855    85796008.520    20952261.444  
  20952266.180    82221192.500  
  21602513.153   113521972.527    21602511.741    88458672.766    21602511.366  
  21602515.958    84772912.436  
  21008161.216   110398631.352    21008159.519    86024897.918    21008158.857  
                                
  22925217.170   122720481.933    22925216.526    95449260.280    22925216.437  
                                
  19458276.178   104198184.797    19458274.569    81043026.112    19458274.516  
                                
  20114542.617   107523758.220    20114542.546    83629588.805    20114542.582  
                                
  21858285.541   116681011.234    21858287.346    90751904.777    21858287.346  
                                
  19454858.941   104070376.249    19454858.352    80943623.193    19454858.030  
                                
  21379020.387   114323229.797    21379022.227    88918075.056    21379021.298  
                                
  24159660.596   126959874.663                                                  
  24159663.812    94807709.742  
  22295094.862   117161514.769                                                  
  22295097.274    87490749.959  
  24861900.118   130650166.653                                                  
  24861900.511    97563436.840  
  23628308.633   124167600.832                                                  
  23628311.850    92722570.131  
 21  8 31 18 20 29.0000000  0 17G 5G10G13G15G18G23G29R 3R 4R 5R18R19
                                R20E 5E 9E11E36
  22594381.948   118734277.391    22594380.447    92520206.870    22594379.822  
                                
  24317650.152   127790114.214    24317652.136    99576720.122    24317651.921  
  24317651.188    95427687.079  
  21746768.167   114280037.919                    89049368.259    21746765.612  
                                
  20296566.349   106659175.484    20296564.348    83111034.966    20296563.686  
                                
  20951954.026   110103262.052    20951952.114    85794740.207    20951951.721  
  20951956.456    82219977.007  
  21602193.977   113520295.179    21602192.529    88457365.767    21602192.172  
  21602196.746    84771659.888  
  21008568.576   110400772.073    21008566.843    86026566.033    21008566.218  
                                
  22925954.571   122724429.352    22925953.909    95452330.516    22925953.838  
                                
  19458575.680   104199788.662    19458574.036    81044273.586    19458574.019  
                                
  20114110.044   107521445.981    20114109.973    83627790.413    20114110.008  
                                
  21858866.302   116684111.502    21858868.089    90754316.117    21858868.107  
                                
  19454919.714   104070701.338    19454919.089    80943876.059    19454918.785  
                                
  21378396.150   114319891.763    21378397.955    88915478.831    21378397.044  
                                
  24159305.717   126958009.792                                                  
  24159308.933    94806317.143  
  22295257.041   117162367.059                                                  
  22295259.435    87491386.411  
  24862281.372   130652170.048                                                  
  24862281.747    97564932.864  
  23628354.360   124167841.189                                                  
  23628357.577    92722749.625  
 21  8 31 18 20 30.0000000  0 17G 5G10G13G15G18G23G29R 3R 4R 5R18R19
                                R20E 5E 9E11E36
  22594898.756   118736993.300    22594897.255    92522323.181    22594896.629  
                                
  24317161.738   127787547.549    24317163.739    99574720.143    24317163.489  
  24317162.774    95425770.407  
  21747020.817   114281365.619                    89050402.844    21747018.244  
                                
  20296543.584   106659055.903    20296541.565    83110941.802    20296540.921  
                                
  20951644.302   110101634.483    20951642.408    85793471.988    20951642.015  
  20951646.732    82218761.620  
  21601874.836   113518618.107    21601873.406    88456058.973    21601873.067  
  21601877.623    84770407.516  
  21008976.008   110402913.270    21008974.310    86028234.514    21008973.649  
                                
  22926691.972   122728376.771    22926691.310    95455400.745    22926691.221  
                                
  19458875.290   104201393.131    19458873.664    81045521.523    19458873.611  
                                
  20113677.596   107519134.301    20113677.506    83625992.458    20113677.542  
                                
  21859447.135   116687212.127    21859448.939    90756727.723    21859448.939  
                                
  19454980.576   104071027.001    19454979.968    80944129.366    19454979.647  
                                
  21377771.932   114316553.869    21377773.736    88912882.710    21377772.825  
                                
  24158950.910   126956145.202                                                  
  24158954.126    94804924.753  
  22295419.292   117163219.684                                                  
  22295421.686    87492023.114  
  24862662.607   130654173.537                                                  
  24862663.000    97566428.996  
  23628400.141   124168081.714                                                  
  23628403.339    92722929.229  
 21  8 31 18 20 31.0000000  0 17G 5G10G13G15G18G23G29R 3R 4R 5R18R19
                                R20E 5E 9E11E36
  22595415.582   118739709.252    22595414.081    92524439.507    22595413.455  
                                
  24316673.306   127784980.998    24316675.308    99572720.238    24316675.093  
  24316674.360    95423853.842  
  21747273.593   114282693.933                    89051437.893    21747271.019  
                                
  20296520.962   106658936.984    20296518.942    83110849.142    20296518.299  
                                
  20951334.632   110100007.088    20951332.738    85792203.890    20951332.327  
  20951337.044    82217546.355  
  21601555.749   113516941.248    21601554.301    88454752.330    21601553.944  
  21601558.518    84769155.325  
  21009383.565   110405054.971    21009381.849    86029903.372    21009381.188  
                                
  22927429.390   122732324.253    22927428.729    95458471.010    22927428.640  
                                
  19459175.025   104202998.225    19459173.399    81046769.927    19459173.346  
                                
  20113245.273   107516823.226    20113245.165    83624194.958    20113245.201  
                                
  21860028.075   116690313.128    21860029.861    90759139.610    21860029.879  
                                
  19455041.581   104071353.279    19455040.937    80944383.142    19455040.634  
                                
  21377147.749   114313216.086    21377149.571    88910286.654    21377148.642  
                                
  24158596.138   126954280.900                                                  
  24158599.355    94803532.581  
  22295581.614   117164072.675                                                  
  22295584.008    87492660.083  
  24863043.914   130656177.160                                                  
  24863044.308    97567925.189  
  23628445.939   124168322.442                                                  
  23628449.173    92723108.991  
 21  8 31 18 20 32.0000000  0 17G 5G10G13G15G18G23G29R 3R 4R 5R18R19
                                R20E 5E 9E11E36
  22595932.443   118742425.422    22595930.960    92526556.003    22595930.335  
                                
  24316184.982   127782414.758    24316186.983    99570720.578    24316186.751  
  24316186.018    95421937.497  
  21747526.511   114284023.027                    89052473.551    21747523.938  
                                
  20296498.464   106658818.908    20296496.463    83110757.135    20296495.802  
                                
  20951025.015   110098380.048    20951023.103    85790936.069    20951022.710  
  20951027.428    82216331.355  
  21601236.715   113515264.851    21601235.303    88453446.051    21601234.946  
  21601239.521    84767903.465  
  21009791.246   110407197.371    21009789.531    86031572.782    21009788.888  
                                
  22928166.863   122736271.971    22928166.202    95461541.462    22928166.094  
                                
  19459474.903   104204604.103    19459473.295    81048018.946    19459473.259  
                                
  20112813.075   107514512.937    20112812.967    83622398.064    20112813.003  
                                
  21860609.104   116693414.686    21860610.891    90761551.931    21860610.891  
                                
  19455102.711   104071680.328    19455102.103    80944637.511    19455101.781  
                                
  21376523.620   114309878.643    21376525.442    88907690.870    21376524.531  
                                
  24158241.456   126952417.103                                                  
  24158244.672    94802140.780  
  22295744.043   117164926.215                                                  
  22295746.438    87493297.467  
  24863425.239   130658181.083                                                  
  24863425.632    97569421.636  
  23628491.844   124168563.551                                                  
  23628495.043    92723289.040  
 21  8 31 18 20 33.0000000  0 17G 5G10G13G15G18G23G29R 3R 4R 5R18R19
                                R20E 5E 9E11E36
  22596449.305   118745141.603    22596447.839    92528672.510    22596447.196  
                                
  24315696.657   127779848.604    24315698.658    99568720.988    24315698.444  
  24315697.693    95420021.212  
  21747779.536   114285352.693                    89053509.666    21747776.945  
                                
  20296476.128   106658701.462    20296474.109    83110665.630    20296473.466  
                                
  20950715.434   110096753.140    20950713.505    85789668.360    20950713.129  
  20950717.829    82215116.463  
  21600917.753   113513588.676    21600916.341    88452139.950    21600915.966  
  21600920.559    84766651.777  
  21010199.017   110409340.252    21010197.302    86033242.568    21010196.641  
                                
  22928904.317   122740219.733    22928903.656    95464611.947    22928903.585  
                                
  19459774.906   104206210.546    19459773.262    81049268.406    19459773.227  
                                
  20112380.984   107512203.226    20112380.894    83620601.634    20112380.930  
                                
  21861190.204   116696516.599    21861191.973    90763964.537    21861191.973  
                                
  19455163.948   104072007.974    19455163.340    80944892.354    19455163.019  
                                
  21375899.526   114306541.353    21375901.349    88905095.207    21375900.420  
                                
  24157886.845   126950553.582                                                  
  24157890.062    94800749.194  
  22295906.526   117165780.096                                                  
  22295908.939    87493935.105  
  24863806.582   130660185.118                                                  
  24863806.993    97570918.149  
  23628537.732   124168804.833                                                  
  23628540.966    92723469.223  
 21  8 31 18 20 34.0000000  0 17G 5G10G13G15G18G23G29R 3R 4R 5R18R19
                                R20E 5E 9E11E36
  22596966.220   118747858.045    22596964.737    92530789.225    22596964.093  
                                
  24315208.404   127777282.787    24315210.369    99566721.668    24315210.155  
  24315209.422    95418105.198  
  21748032.704   114286683.183                    89054546.425    21748030.113  
                                
  20296453.935   106658584.912    20296451.916    83110574.819    20296451.272  
                                
  20950405.907   110095126.637    20950404.013    85788400.962    20950403.602  
  20950408.337    82213901.869  
  21600598.862   113511912.971    21600597.451    88450834.218    21600597.093  
  21600601.668    84765400.454  
  21010606.914   110411483.858    21010605.198    86034912.915    21010604.555  
                                
  22929641.826   122744167.762    22929641.182    95467682.638    22929641.093  
                                
  19460075.052   104207817.805    19460073.408    81050518.510    19460073.372  
                                
  20111949.054   107509894.336    20111948.946    83618805.838    20111949.000  
                                
  21861771.394   116699619.102    21861773.163    90766377.600    21861773.199  
                                
  19455225.346   104072336.483    19455224.738    80945147.873    19455224.434  
                                
  21375275.486   114303204.400    21375277.309    88902499.810    21375276.398  
                                
  24157532.342   126948690.594                                                  
  24157535.558    94799358.008  
  22296069.117   117166634.566                                                  
  22296071.511    87494573.181  
  24864188.014   130662189.514                                                  
  24864188.390    97572414.929  
  23628583.745   124169046.555                                                  
  23628586.961    92723649.730  
 21  8 31 18 20 35.0000000  0 17G 5G10G13G15G18G23G29R 3R 4R 5R18R19
                                R20E 5E 9E11E36
  22597483.188   118750574.652    22597481.687    92532906.062    22597481.062  
                                
  24314720.168   127774717.225    24314722.170    99564722.532    24314721.937  
  24314721.223    95416189.358  
  21748286.034   114288014.378                    89055583.718    21748283.443  
                                
  20296431.920   106658469.148    20296429.883    83110484.615    20296429.258  
                                
  20950096.451   110093500.415    20950094.539    85787133.774    20950094.146  
  20950098.846    82212687.485  
  21600280.079   113510237.665    21600278.667    88449528.784    21600278.310  
  21600282.867    84764149.405  
  21011014.971   110413628.109    21011013.255    86036583.760    21011012.594  
                                
  22930379.405   122748115.967    22930378.726    95470753.464    22930378.655  
                                
  19460375.323   104209425.812    19460373.679    81051769.187    19460373.644  
                                
  20111517.267   107507586.181    20111517.177    83617010.608    20111517.213  
                                
  21862352.691   116702722.138    21862354.478    90768791.077    21862354.478  
                                
  19455286.905   104072665.704    19455286.261    80945403.931    19455285.975  
                                
  21374651.536   114299867.793    21374653.323    88899904.672    21374652.429  
                                
  24157177.892   126946828.035                                                  
  24157181.126    94797967.143  
  22296231.814   117167489.520                                                  
  22296234.208    87495211.619  
  24864569.482   130664194.176                                                  
  24864569.893    97573911.919  
  23628629.793   124169288.594                                                  
  23628633.010    92723830.473  
 21  8 31 18 20 36.0000000  0 17G 5G10G13G15G18G23G29R 3R 4R 5R18R19
                                R20E 5E 9E11E36
  22598000.175   118753291.408    22597998.692    92535022.989    22597998.049  
                                
  24314232.022   127772151.895    24314234.006    99562723.550    24314233.774  
  24314233.041    95414273.690  
  21748539.506   114289346.292                    89056621.548    21748536.915  
                                
  20296410.049   106658354.165    20296408.029    83110394.990    20296407.386  
                                
  20949787.049   110091874.479    20949785.137    85785866.790    20949784.744  
  20949789.444    82211473.305  
  21599961.367   113508562.717    21599959.938    88448223.609    21599959.580  
  21599964.137    84762898.628  
  21011423.135   110415772.971    21011421.419    86038255.056    21011420.776  
                                
  22931117.003   122752064.274    22931116.342    95473824.346    22931116.252  
                                
  19460675.755   104211034.545    19460674.129    81053020.398    19460674.093  
                                
  20111085.640   107505278.739    20111085.533    83615215.910    20111085.569  
                                
  21862934.096   116705825.676    21862935.901    90771204.916    21862935.901  
                                
  19455348.606   104072995.701    19455347.981    80945660.572    19455347.659  
                                
  21374027.639   114296531.401    21374029.426    88897309.677    21374028.532  
                                
  24156823.549   126944965.887                                                  
  24156826.765    94796576.574  
  22296394.601   117168344.944                                                  
  22296396.995    87495850.414  
  24864951.022   130666199.068                                                  
  24864951.415    97575409.089  
  23628675.913   124169530.939                                                  
  23628679.130    92724011.445  
 21  8 31 18 20 37.0000000  0 17G 5G10G13G15G18G23G29R 3R 4R 5R18R19
                                R20E 5E 9E11E36
  22598517.197   118756008.203    22598515.714    92537139.938    22598515.089  
                                
  24313743.876   127769586.688    24313745.842    99560724.658    24313745.610  
  24313744.895    95412358.113  
  21748793.085   114290678.790                    89057659.821    21748790.530  
                                
  20296388.320   106658239.839    20296386.319    83110305.871    20296385.657  
                                
  20949477.665   110090248.715    20949475.753    85784599.926    20949475.360  
  20949480.095    82210259.265  
  21599642.673   113506888.036    21599641.226    88446918.631    21599640.868  
  21599645.461    84761648.052  
  21011831.406   110417918.346    21011829.709    86039926.740    21011829.048  
                                
  22931854.600   122756012.628    22931853.957    95476895.258    22931853.868  
                                
  19460976.312   104212643.903    19460974.704    81054272.089    19460974.668  
                                
  20110654.121   107502971.912    20110654.032    83613421.679    20110654.068  
                                
  21863515.607   116708929.628    21863517.412    90773619.069    21863517.412  
                                
  19455410.451   104073326.316    19455409.826    80945917.687    19455409.504  
                                
  21373403.760   114293195.210    21373405.582    88894714.834    21373404.671  
                                
  24156469.260   126943104.065                                                  
  24156472.476    94795186.254  
  22296557.441   117169200.747                                                  
  22296559.836    87496489.488  
  24865332.543   130668204.115                                                  
  24865332.936    97576906.362  
  23628722.069   124169773.503                                                  
  23628725.303    92724192.578  
 21  8 31 18 20 38.0000000  0 17G 5G10G13G15G18G23G29R 3R 4R 5R18R19
                                R20E 5E 9E11E36
  22599034.202   118758725.068    22599032.754    92539256.943    22599032.111  
                                
  24313255.748   127767021.634    24313257.714    99558725.880    24313257.500  
  24313256.785    95410442.653  
  21749046.789   114292011.945                    89058698.613    21749044.234  
                                
  20296366.716   106658126.217    20296364.715    83110217.305    20296364.072  
                                
  20949168.334   110088623.160    20949166.422    85783333.232    20949166.011  
  20949170.747    82209045.374  
  21599324.051   113505213.631    21599322.603    88445613.868    21599322.246  
  21599326.820    84760397.691  
  21012239.785   110420064.261    21012238.087    86041598.847    21012237.444  
                                
  22932592.234   122759961.058    22932591.572    95479966.231    22932591.501  
                                
  19461276.994   104214253.883    19461275.368    81055524.268    19461275.332  
                                
  20110222.710   107500665.709    20110222.638    83611627.938    20110222.674  
                                
  21864097.173   116712034.018    21864098.977    90776033.564    21864098.977  
                                
  19455472.385   104073657.600    19455471.777    80946175.322    19455471.456  
                                
  21372779.934   114289859.197    21372781.757    88892120.132    21372780.828  
                                
  24156115.024   126941242.583                                                  
  24156118.241    94793796.179  
  22296720.371   117170056.940                                                  
  22296722.765    87497128.854  
  24865714.154   130670209.341                                                  
  24865714.547    97578403.754  
  23628768.278   124170016.294                                                  
  23628771.495    92724373.883  
 21  8 31 18 20 39.0000000  0 17G 5G10G13G15G18G23G29R 3R 4R 5R18R19
                                R20E 5E 9E11E36
  22599551.278   118761442.223    22599549.812    92541374.194    22599549.205  
                                
  24312767.710   127764456.967    24312769.675    99556727.429    24312769.461  
  24312768.728    95408527.484  
  21749300.672   114293345.951                    89059738.087    21749298.099  
                                
  20296345.291   106658013.531    20296343.290    83110129.484    20296342.647  
                                
  20948859.075   110086998.030    20948857.163    85782066.884    20948856.752  
  20948861.488    82207831.807  
  21599005.500   113503539.749    21599004.070    88444309.535    21599003.695  
  21599008.305    84759147.723  
  21012648.307   110422210.957    21012646.609    86043271.584    21012645.966  
                                
  22933329.903   122763909.840    22933329.259    95483037.497    22933329.170  
                                
  19461577.819   104215864.743    19461576.193    81056777.149    19461576.175  
                                
  20109791.459   107498360.369    20109791.369    83609834.888    20109791.423  
                                
  21864678.881   116715139.096    21864680.668    90778448.613    21864680.668  
                                
  19455534.498   104073989.775    19455533.890    80946433.671    19455533.586  
                                
  21372156.162   114286523.585    21372157.985    88889525.760    21372157.074  
                                
  24155760.878   126939381.661                                                  
  24155764.112    94792406.539  
  22296883.426   117170913.772                                                  
  22296885.820    87497768.697  
  24866095.801   130672214.945                                                  
  24866096.212    97579901.448  
  23628814.577   124170259.559                                                  
  23628817.793    92724555.544  
 21  8 31 18 20 40.0000000  0 17G 5G10G13G15G18G23G29R 3R 4R 5R18R19
                                R20E 5E 9E11E36
  22600068.300   118764159.329    22600066.853    92543491.451    22600066.209  
                                
  24312279.671   127761892.338    24312281.654    99554729.047    24312281.440  
  24312280.725    95406612.335  
  21749554.591   114294680.453                    89060777.986    21749552.018  
                                
  20296323.920   106657901.400    20296321.919    83110042.139    20296321.275  
                                
  20948549.834   110085372.985    20948547.922    85780800.645    20948547.529  
  20948552.264    82206618.300  
  21598687.020   113501866.045    21598685.573    88443005.380    21598685.215  
  21598689.790    84757897.874  
  21013056.864   110424358.049    21013055.148    86044944.670    21013054.505  
                                
  22934067.554   122767858.586    22934066.893    95486108.769    22934066.821  
                                
  19461878.716   104217476.108    19461877.090    81058030.460    19461877.054  
                                
  20109360.279   107496055.530    20109360.190    83608042.266    20109360.208  
                                
  21865260.589   116718244.440    21865262.394    90780863.904    21865262.394  
                                
  19455596.664   104074322.460    19455596.056    80946692.454    19455595.735  
                                
  21371532.373   114283188.059    21371534.195    88886931.490    21371533.284  
                                
  24155406.803   126937520.974                                                  
  24155410.038    94791017.059  
  22297046.534   117171770.878                                                  
  22297048.929    87498408.741  
  24866477.447   130674220.588                                                  
  24866477.858    97581399.159  
  23628860.893   124170502.931                                                  
  23628864.092    92724737.283  
 21  8 31 18 20 41.0000000  0 17G 5G10G13G15G18G23G29R 3R 4R 5R18R19
                                R20E 5E 9E11E36
  22600585.287   118766876.238    22600583.803    92545608.557    22600583.196  
                                
  24311791.632   127759327.610    24311793.616    99552730.594    24311793.401  
  24311792.651    95404697.107  
  21749808.582   114296015.343                    89061818.194    21749806.008  
                                
  20296302.638   106657789.718    20296300.637    83109955.152    20296299.993  
                                
  20948240.593   110083747.893    20948238.681    85779534.374    20948238.305  
  20948243.023    82205404.759  
  21598368.505   113500192.367    21598367.093    88441701.250    21598366.736  
  21598371.310    84756648.055  
  21013465.457   110426505.437    21013463.759    86046617.996    21013463.098  
                                
  22934805.151   122771807.141    22934804.490    95489179.898    22934804.419  
                                
  19462179.666   104219087.897    19462178.040    81059284.107    19462178.004  
                                
  20108929.153   107493751.097    20108929.046    83606249.964    20108929.099  
                                
  21865842.315   116721349.930    21865844.120    90783279.313    21865844.120  
                                
  19455658.920   104074655.582    19455658.294    80946951.579    19455657.973  
                                
  21370908.565   114279852.420    21370910.388    88884337.136    21370909.459  
                                
  24155052.765   126935660.355                                                  
  24155055.981    94789627.646  
  22297209.661   117172628.127                                                  
  22297212.055    87499048.892  
  24866859.112   130676226.134                                                  
  24866859.505    97582896.827  
  23628907.192   124170746.293                                                  
  23628910.408    92724919.010  
 21  8 31 18 20 42.0000000  0 17G 5G10G13G15G18G23G29R 3R 4R 5R18R19
                                R20E 5E 9E11E36
  22601102.273   118769593.149    22601100.808    92547725.656    22601100.165  
                                
  24311303.593   127756762.940    24311305.577    99550732.184    24311305.327  
  24311304.612    95402781.951  
  21750062.697   114297350.790                    89062858.832    21750060.088  
                                
  20296281.499   106657678.660    20296279.480    83109868.640    20296278.836  
                                
  20947931.387   110082122.922    20947929.475    85778268.195    20947929.082  
  20947933.799    82204191.307  
  21598050.061   113498518.907    21598048.649    88440397.285    21598048.292  
  21598052.866    84755398.391  
  21013874.175   110428653.298    21013872.460    86048291.679    21013871.816  
                                
  22935542.749   122775755.687    22935542.088    95492251.010    22935542.016  
                                
  19462480.741   104220700.239    19462479.097    81060538.174    19462479.079  
                                
  20108498.152   107491447.249    20108498.045    83604458.105    20108498.099  
                                
  21866424.130   116724455.756    21866425.917    90785694.977    21866425.935  
                                
  19455721.283   104074989.250    19455720.657    80947211.124    19455720.336  
                                
  21370284.793   114276516.912    21370286.598    88881742.878    21370285.687  
                                
  24154698.743   126933800.014                                                  
  24154701.960    94788238.424  
  22297372.840   117173485.693                                                  
  22297375.253    87499689.285  
  24867240.776   130678231.788                                                  
  24867241.169    97584394.549  
  23628953.526   124170989.809                                                  
  23628956.743    92725100.858  
 21  8 31 18 20 43.0000000  0 17G 5G10G13G15G18G23G29R 3R 4R 5R18R19
                                R20E 5E 9E11E36
  22601619.349   118772310.405    22601617.866    92549843.014    22601617.223  
                                
  24310815.626   127754198.699    24310817.610    99548734.088    24310817.395  
  24310816.662    95400867.098  
  21750316.991   114298687.117                    89063900.140    21750314.382  
                                
  20296260.521   106657568.560    20296258.501    83109782.858    20296257.858  
                                
  20947622.235   110080498.423    20947620.341    85777002.360    20947619.966  
  20947624.665    82202978.203  
  21597731.724   113496846.002    21597730.295    88439093.733    21597729.937  
  21597734.530    84754149.145  
  21014283.054   110430801.957    21014281.321    86049965.970    21014280.660  
                                
  22936280.418   122779704.540    22936279.757    95495322.348    22936279.685  
                                
  19462781.995   104222313.467    19462780.369    81061792.912    19462780.315  
                                
  20108067.330   107489144.326    20108067.241    83602666.957    20108067.276  
                                
  21867006.089   116727562.263    21867007.858    90788111.160    21867007.858  
                                
  19455783.824   104075323.844    19455783.199    80947471.371    19455782.877  
                                
  21369661.111   114273181.849    21369662.915    88879148.952    21369662.004  
                                
  24154344.847   126931940.284                                                  
  24154348.064    94786849.660  
  22297536.145   117174343.925                                                  
  22297538.558    87500330.173  
  24867622.512   130680237.868                                                  
  24867622.905    97585892.605  
  23628999.968   124171233.831                                                  
  23629003.184    92725283.081  
 21  8 31 18 20 44.0000000  0 17G 5G10G13G15G18G23G29R 3R 4R 5R18R19
                                R20E 5E 9E11E36
  22602136.461   118775027.824    22602134.978    92551960.477    22602134.334  
                                
  24310327.712   127751634.692    24310329.696    99546736.149    24310329.446  
  24310328.731    95398952.424  
  21750571.410   114300024.181                    89064941.996    21750568.837  
                                
  20296239.721   106657459.246    20296237.720    83109697.674    20296237.059  
                                
  20947313.155   110078874.212    20947311.260    85775736.737    20947310.867  
  20947315.585    82201765.322  
  21597413.477   113495173.483    21597412.047    88437790.468    21597411.690  
  21597416.247    84752900.176  
  21014692.040   110432951.238    21014690.325    86051640.727    21014689.682  
                                
  22937018.140   122783653.535    22937017.479    95498393.778    22937017.408  
                                
  19463083.392   104223927.406    19463081.765    81063048.189    19463081.748  
                                
  20107636.669   107486842.126    20107636.579    83600876.350    20107636.615  
                                
  21867588.137   116730669.312    21867589.941    90790527.742    21867589.941  
                                
  19455846.509   104075659.176    19455845.883    80947732.178    19455845.580  
                                
  21369037.500   114269847.082    21369039.287    88876555.237    21369038.393  
                                
  24153991.041   126930080.977                                                  
  24153994.257    94785461.216  
  22297699.558   117175202.645                                                  
  22297701.988    87500971.429  
  24868004.319   130682244.224                                                  
  24868004.713    97587390.838  
  23629046.463   124171478.171                                                  
  23629049.680    92725465.545  
 21  8 31 18 20 45.0000000  0 17G 5G10G13G15G18G23G29R 3R 4R 5R18R19
                                R20E 5E 9E11E36
  22602653.590   118777745.235    22602652.107    92554077.924    22602651.464  
                                
  24309839.817   127749070.797    24309841.800    99544738.293    24309841.568  
  24309840.835    95397037.827  
  21750825.972   114301361.796                    89065984.276    21750823.381  
                                
  20296219.047   106657350.560    20296217.063    83109612.963    20296216.420  
                                
  20947004.128   110077250.144    20947002.198    85774471.209    20947001.805  
  20947006.522    82200552.544  
  21597095.230   113493501.182    21597093.800    88436487.355    21597093.443  
  21597098.035    84751651.386  
  21015101.152   110435101.003    21015099.436    86053315.851    21015098.775  
                                
  22937755.881   122787602.571    22937755.220    95501465.223    22937755.148  
                                
  19463384.913   104225541.944    19463383.305    81064303.921    19463383.252  
                                
  20107206.115   107484540.460    20107206.007    83599086.147    20107206.043  
                                
  21868170.274   116733776.727    21868172.078    90792944.600    21868172.078  
                                
  19455909.318   104075995.090    19455908.693    80947993.424    19455908.389  
                                
  21368413.906   114266512.413    21368415.711    88873961.587    21368414.800  
                                
  24153637.270   126928221.945                                                  
  24153640.486    94784072.983  
  22297863.059   117176061.702                                                  
  22297865.454    87501612.928  
  24868386.127   130684250.676                                                  
  24868386.520    97588889.160  
  23629093.012   124171722.687                                                  
  23629096.211    92725648.140  
 21  8 31 18 20 46.0000000  0 17G 5G10G13G15G18G23G29R 3R 4R 5R18R19
                                R20E 5E 9E11E36
  22603170.684   118780462.643    22603169.219    92556195.376    22603168.575  
                                
  24309351.956   127746506.987    24309353.904    99542740.517    24309353.690  
  24309352.957    95395123.291  
  21751080.642   114302699.981                    89067027.010    21751078.033  
                                
  20296198.515   106657242.502    20296196.496    83109528.755    20296195.853  
                                
  20946695.083   110075626.209    20946693.189    85773205.795    20946692.778  
  20946697.495    82199339.865  
  21596777.036   113491829.098    21596775.624    88435184.426    21596775.267  
  21596779.823    84750402.754  
  21015510.334   110437251.229    21015508.601    86054991.345    21015507.958  
                                
  22938493.621   122791551.646    22938492.960    95504536.712    22938492.871  
                                
  19463686.525   104227157.067    19463684.916    81065560.124    19463684.881  
                                
  20106775.632   107482239.334    20106775.543    83597296.378    20106775.596  
                                
  21868752.482   116736884.494    21868754.269    90795361.740    21868754.287  
                                
  19455972.235   104076331.581    19455971.610    80948255.132    19455971.288  
                                
  21367790.331   114263177.918    21367792.154    88871368.084    21367791.243  
                                
  24153283.553   126926363.180                                                  
  24153286.769    94782684.948  
  22298026.579   117176921.084                                                  
  22298028.973    87502254.677  
  24868767.952   130686257.214                                                  
  24868768.381    97590387.545  
  23629139.561   124171967.373                                                  
  23629142.759    92725830.858  
 21  8 31 18 20 47.0000000  0 17G 5G10G13G15G18G23G29R 3R 4R 5R18R19
                                R20E 5E 9E11E36
  22603687.813   118783180.183    22603686.312    92558312.953    22603685.705  
                                
  24308864.096   127743943.362    24308866.062    99540742.907    24308865.830  
  24308865.115    95393208.911  
  21751335.400   114304038.846                    89068070.296    21751332.809  
                                
  20296178.091   106657135.209    20296176.072    83109445.167    20296175.428  
                                
  20946386.128   110074002.540    20946384.198    85771940.618    20946383.822  
  20946388.522    82198127.385  
  21596458.932   113490157.378    21596457.520    88433881.801    21596457.162  
  21596461.719    84749154.385  
  21015919.606   110439402.065    21015917.873    86056667.332    21015917.230  
                                
  22939231.362   122795500.855    22939230.701    95507608.328    22939230.611  
                                
  19463988.279   104228772.893    19463986.635    81066816.889    19463986.617  
                                
  20106345.292   107479938.910    20106345.185    83595507.173    20106345.221  
                                
  21869334.744   116739992.735    21869336.531    90797779.268    21869336.531  
                                
  19456035.259   104076668.789    19456034.634    80948517.421    19456034.312  
                                
  21367166.810   114259843.634    21367168.596    88868774.768    21367167.703  
                                
  24152929.907   126924504.823                                                  
  24152933.141    94781297.214  
  22298190.205   117177780.930                                                  
  22298192.600    87502896.767  
  24869149.849   130688263.989                                                  
  24869150.242    97591886.104  
  23629186.163   124172212.347                                                  
  23629189.380    92726013.797  
 21  8 31 18 20 48.0000000  0 17G 5G10G13G15G18G23G29R 3R 4R 5R18R19
                                R20E 5E 9E11E36
  22604204.961   118785897.799    22604203.496    92560430.557    22604202.852  
                                
  24308376.290   127741379.919    24308378.256    99538745.401    24308378.023  
  24308377.309    95391294.650  
  21751590.320   114305378.366                    89069114.057    21751587.711  
                                
  20296157.792   106657028.619    20296155.790    83109362.091    20296155.165  
                                
  20946077.190   110072379.086    20946075.260    85770675.575    20946074.885  
  20946079.602    82196915.061  
  21596140.863   113488485.940    21596139.433    88432579.363    21596139.076  
  21596143.650    84747906.236  
  21016329.004   110441553.444    21016327.288    86058343.716    21016326.645  
                                
  22939969.138   122799450.181    22939968.495    95510680.010    22939968.405  
                                
  19464290.140   104230389.351    19464288.514    81068074.117    19464288.478  
                                
  20105915.060   107477639.155    20105914.988    83593718.458    20105915.024  
                                
  21869917.131   116743101.412    21869918.936    90800197.104    21869918.936  
                                
  19456098.444   104077006.669    19456097.819    80948780.195    19456097.497  
                                
  21366543.341   114256509.569    21366545.146    88866181.585    21366544.217  
                                
  24152576.332   126922646.819                                                  
  24152579.567    94779909.743  
  22298353.921   117178641.181                                                  
  22298356.316    87503539.160  
  24869531.746   130690270.929                                                  
  24869532.157    97593384.786  
  23629232.855   124172457.576                                                  
  23629236.054    92726196.918  
 21  8 31 18 20 49.0000000  0 17G 5G10G13G15G18G23G29R 3R 4R 5R18R19
                                R20E 5E 9E11E36
  22604722.126   118788615.359    22604720.643    92562548.123    22604720.018  
                                
  24307888.484   127738816.511    24307890.449    99536747.929    24307890.235  
  24307889.484    95389380.423  
  21751845.328   114306718.388                    89070158.218    21751842.737  
                                
  20296137.653   106656922.614    20296135.652    83109279.474    20296134.991  
                                
  20945768.270   110070755.711    20945766.340    85769410.589    20945765.965  
  20945770.683    82195702.801  
  21595822.848   113486814.678    21595821.401    88431277.069    21595821.043  
  21595825.618    84746658.220  
  21016738.508   110443705.255    21016736.775    86060020.435    21016736.149  
                                
  22940706.914   122803399.465    22940706.271    95513751.659    22940706.182  
                                
  19464592.127   104232006.322    19464590.483    81069331.748    19464590.465  
                                
  20105484.970   107475339.945    20105484.881    83591930.163    20105484.917  
                                
  21870499.536   116746210.377    21870501.341    90802615.175    21870501.359  
                                
  19456161.700   104077345.078    19456161.093    80949043.393    19456160.771  
                                
  21365919.873   114253175.557    21365921.696    88863588.449    21365920.767  
                                
  24152222.829   126920789.040                                                  
  24152226.046    94778522.439  
  22298517.655   117179501.714                                                  
  22298520.067    87504181.768  
  24869913.678   130692277.907                                                  
  24869914.071    97594883.525  
  23629279.529   124172702.922                                                  
  23629282.745    92726380.129  
 21  8 31 18 20 50.0000000  0 17G 5G10G13G15G18G23G29R 3R 4R 5R18R19
                                R20E 5E 9E11E36
  22605239.220   118791332.852    22605237.755    92564665.668    22605237.111  
                                
  24307400.677   127736253.109    24307402.661    99534750.493    24307402.428  
  24307401.713    95387466.185  
  21752100.391   114308058.888                    89071202.784    21752097.818  
                                
  20296117.568   106656817.153    20296115.549    83109197.315    20296114.906  
                                
  20945459.369   110069132.395    20945457.457    85768145.685    20945457.046  
  20945461.763    82194490.584  
  21595504.833   113485143.559    21595503.403    88429974.920    21595503.028  
  21595507.620    84745410.306  
  21017148.030   110445857.444    21017146.315    86061697.486    21017145.672  
                                
  22941444.619   122807348.615    22941443.994    95516823.236    22941443.904  
                                
  19464894.149   104233623.784    19464892.523    81070589.792    19464892.487  
                                
  20105054.952   107473041.232    20105054.845    83590142.298    20105054.881  
                                
  21871081.995   116749319.623    21871083.800    90805033.498    21871083.818  
                                
  19456225.064   104077684.000    19456224.439    80949307.018    19456224.117  
                                
  21365296.387   114249841.596    21365298.192    88860995.386    21365297.299  
                                
  24151869.344   126918931.458                                                  
  24151872.579    94777135.281  
  22298681.443   117180362.488                                                  
  22298683.855    87504824.558  
  24870295.575   130694284.920                                                  
  24870296.004    97596382.269  
  23629326.221   124172948.356                                                  
  23629329.455    92726563.406  
 21  8 31 18 20 51.0000000  0 17G 5G10G13G15G18G23G29R 3R 4R 5R18R19
                                R20E 5E 9E11E36
  22605756.367   118794050.545    22605754.902    92566783.367    22605754.259  
                                
  24306912.942   127733689.982    24306914.908    99532753.275    24306914.675  
  24306913.943    95385552.174  
  21752355.614   114309400.157                    89072247.943    21752353.023  
                                
  20296097.644   106656712.526    20296095.625    83109115.807    20296094.982  
                                
  20945150.520   110067509.404    20945148.608    85766881.033    20945148.215  
  20945152.933    82193278.613  
  21595186.907   113483472.852    21595185.478    88428673.090    21595185.102  
  21595189.695    84744162.707  
  21017557.696   110448010.299    21017555.962    86063375.054    21017555.319  
                                
  22942182.377   122811297.971    22942181.734    95519894.969    22942181.645  
                                
  19465196.314   104235241.999    19465194.670    81071848.425    19465194.652  
                                
  20104625.042   107470743.288    20104624.934    83588355.027    20104624.988  
                                
  21871664.543   116752429.396    21871666.348    90807452.227    21871666.366  
                                
  19456288.535   104078023.696    19456287.909    80949571.242    19456287.623  
                                
  21364672.973   114246507.981    21364674.778    88858402.596    21364673.849  
                                
  24151515.931   126917074.327                                                  
  24151519.165    94775748.470  
  22298845.355   117181223.801                                                  
  22298847.767    87505467.742  
  24870677.579   130696292.241                                                  
  24870677.990    97597881.236  
  23629373.002   124173194.152                                                  
  23629376.218    92726746.954  
 21  8 31 18 20 52.0000000  0 17G 5G10G13G15G18G23G29R 3R 4R 5R18R19
                                R20E 5E 9E11E36
  22606273.586   118796768.533    22606272.103    92568901.285    22606271.460  
                                
  24306425.261   127731127.249    24306427.244    99530756.354    24306426.994  
  24306426.279    95383638.444  
  21752611.016   114310742.280                    89073293.764    21752608.407  
                                
  20296077.899   106656608.831    20296075.880    83109035.018    20296075.237  
                                
  20944841.761   110065886.851    20944839.832    85765616.715    20944839.456  
  20944844.174    82192066.970  
  21594869.053   113481802.669    21594867.641    88427371.658    21594867.284  
  21594871.859    84742915.501  
  21017967.522   110450163.943    21017965.788    86065053.225    21017965.145  
                                
  22942920.207   122815247.632    22942919.564    95522966.932    22942919.475  
                                
  19465498.676   104236861.088    19465497.032    81073107.723    19465496.996  
                                
  20104195.327   107468446.189    20104195.220    83586568.408    20104195.256  
                                
  21872247.252   116755539.837    21872249.039    90809871.470    21872249.039  
                                
  19456352.202   104078364.279    19456351.577    80949836.149    19456351.273  
                                
  21364049.630   114243174.761    21364051.435    88855810.100    21364050.523  
                                
  24151162.642   126915217.784                                                  
  24151165.859    94774362.083  
  22299009.393   117182085.743                                                  
  22299011.787    87506111.402  
  24871059.619   130698299.953                                                  
  24871060.030    97599380.503  
  23629419.872   124173440.422                                                  
  23629423.089    92726930.860  
 21  8 31 18 20 53.0000000  0 17G 5G10G13G15G18G23G29R 3R 4R 5R18R19
                                R20E 5E 9E11E36
  22606790.841   118799486.643    22606789.358    92571019.290    22606788.714  
                                
  24305937.633   127728564.719    24305939.599    99528759.579    24305939.384  
  24305938.634    95381724.871  
  21752866.543   114312085.072                    89074340.093    21752863.934  
                                
  20296058.315   106656505.867    20296056.296    83108954.779    20296055.652  
                                
  20944533.038   110064264.547    20944531.144    85764352.580    20944530.733  
  20944535.451    82190855.509  
  21594551.306   113480132.827    21594549.894    88426070.483    21594549.537  
  21594554.094    84741668.537  
  21018377.455   110452318.172    21018375.739    86066731.840    21018375.078  
                                
  22943658.073   122819197.439    22943657.412    95526039.002    22943657.340  
                                
  19465801.145   104238480.885    19465799.519    81074367.565    19465799.483  
                                
  20103765.720   107466149.753    20103765.613    83584782.289    20103765.649  
                                
  21872830.014   116758650.752    21872831.819    90812291.064    21872831.819  
                                
  19456415.994   104078705.556    19456415.387    80950101.586    19456415.065  
                                
  21363426.358   114239841.794    21363428.163    88853217.793    21363427.234  
                                
  24150809.425   126913361.634                                                  
  24150812.642    94772976.002  
  22299173.502   117182948.130                                                  
  22299175.896    87506755.393  
  24871441.730   130700307.899                                                  
  24871442.159    97600879.935  
  23629466.778   124173686.963                                                  
  23629469.995    92727114.967  
 21  8 31 18 20 54.0000000  0 17G 5G10G13G15G18G23G29R 3R 4R 5R18R19
                                R20E 5E 9E11E36
  22607308.078   118802204.737    22607306.594    92573137.269    22607305.969  
                                
  24305450.005   127726002.244    24305451.953    99526762.832    24305451.738  
  24305450.988    95379811.345  
  21753122.177   114313428.427                    89075386.845    21753119.586  
                                
  20296038.837   106656403.537    20296036.836    83108875.025    20296036.175  
                                
  20944224.351   110062642.369    20944222.439    85763088.532    20944222.046  
  20944226.763    82189644.147  
  21594233.595   113478463.194    21594232.165    88424769.454    21594231.808  
  21594236.365    84740421.737  
  21018787.477   110454472.849    21018785.762    86068410.794    21018785.119  
                                
  22944395.938   122823147.231    22944395.295    95529111.045    22944395.206  
                                
  19466103.775   104240101.253    19466102.131    81075627.838    19466102.095  
                                
  20103336.238   107463853.866    20103336.131    83582996.585    20103336.167  
                                
  21873412.866   116761761.998    21873414.671    90814710.908    21873414.689  
                                
  19456479.912   104079047.435    19456479.304    80950367.477    19456478.983  
                                
  21362803.087   114236508.902    21362804.910    88850625.537    21362803.980  
                                
  24150456.280   126911505.727                                                  
  24150459.479    94771590.104  
  22299337.665   117183810.832                                                  
  22299340.059    87507399.618  
  24871823.823   130702315.877                                                  
  24871824.252    97602379.410  
  23629513.720   124173933.677                                                  
  23629516.955    92727299.199  
 21  8 31 18 20 55.0000000  0 17G 5G10G13G15G18G23G29R 3R 4R 5R18R19
                                R20E 5E 9E11E36
  22607825.332   118804922.923    22607823.849    92575255.338    22607823.206  
                                
  24304962.431   127723439.975    24304964.397    99524766.269    24304964.146  
  24304963.432    95377897.953  
  21753377.919   114314772.428                    89076434.128    21753375.328  
                                
  20296019.503   106656301.917    20296017.502    83108795.852    20296016.841  
                                
  20943915.699   110061020.414    20943913.787    85761824.682    20943913.394  
  20943918.112    82188432.949  
  21593915.937   113476793.874    21593914.508    88423468.694    21593914.132  
  21593918.725    84739175.165  
  21019197.589   110456628.096    21019195.874    86070090.220    21019195.231  
                                
  22945133.804   122827097.131    22945133.178    95532183.191    22945133.089  
                                
  19466406.458   104241722.264    19466404.832    81076888.634    19466404.796  
                                
  20102906.863   107461558.662    20102906.774    83581211.439    20102906.792  
                                
  21873995.807   116764873.679    21873997.576    90817131.111    21873997.612  
                                
  19456543.937   104079389.975    19456543.329    80950633.903    19456543.025  
                                
  21362179.869   114233176.264    21362181.674    88848033.492    21362180.745  
                                
  24150103.170   126909650.196                                                  
  24150106.387    94770204.480  
  22299501.899   117184673.950                                                  
  22299504.311    87508044.150  
  24872205.988   130704324.085                                                  
  24872206.399    97603879.021  
  23629560.734   124174180.634                                                  
  23629563.950    92727483.617  
 21  8 31 18 20 56.0000000  0 17G 5G10G13G15G18G23G29R 3R 4R 5R18R19
                                R20E 5E 9E11E36
  22608342.551   118807641.040    22608341.104    92577373.348    22608340.460  
                                
  24304474.839   127720877.708    24304476.787    99522769.703    24304476.572  
  24304475.840    95375984.586  
  21753633.768   114316116.916                    89077481.790    21753631.177  
                                
  20296000.276   106656200.863    20295998.257    83108717.114    20295997.614  
                                
  20943607.066   110059398.539    20943605.136    85760560.888    20943604.761  
  20943609.478    82187221.813  
  21593598.315   113475124.721    21593596.868    88422168.060    21593596.511  
  21593601.085    84737928.715  
  21019607.809   110458783.750    21019606.093    86071769.951    21019605.432  
                                
  22945871.669   122831046.951    22945871.026    95535255.266    22945870.955  
                                
  19466709.266   104243343.760    19466707.640    81078149.797    19466707.605  
                                
  20102477.596   107459263.981    20102477.489    83579426.689    20102477.524  
                                
  21874578.784   116767985.691    21874580.571    90819551.565    21874580.571  
                                
  19456608.086   104079733.047    19456607.461    80950900.737    19456607.139  
                                
  21361556.651   114229843.659    21361558.456    88845441.472    21361557.527  
                                
  24149750.114   126907794.883                                                  
  24149753.330    94768819.018  
  22299666.204   117185537.344                                                  
  22299668.617    87508688.892  
  24872588.135   130706332.313                                                  
  24872588.546    97605378.681  
  23629607.747   124174427.711                                                  
  23629610.964    92727668.121  
 21  8 31 18 20 57.0000000  0 17G 5G10G13G15G18G23G29R 3R 4R 5R18R19
                                R20E 5E 9E11E36
  22608859.877   118810359.376    22608858.412    92579491.492    22608857.769  
                                
  24303987.301   127718315.756    24303989.266    99520773.346    24303989.034  
  24303988.301    95374071.437  
  21753889.795   114317462.214                    89078530.037    21753887.204  
                                
  20295981.228   106656100.664    20295979.226    83108639.000    20295978.565  
                                
  20943298.503   110057777.018    20943296.591    85759297.333    20943296.180  
  20943300.898    82186010.933  
  21593280.765   113473456.000    21593279.318    88420867.724    21593278.960  
  21593283.553    84736682.595  
  21020018.188   110460940.101    21020016.455    86073450.192    21020015.794  
                                
  22946609.606   122834997.000    22946608.981    95538327.487    22946608.910  
                                
  19467012.254   104244966.036    19467010.610    81079411.535    19467010.592  
                                
  20102048.507   107456970.091    20102048.400    83577642.518    20102048.453  
                                
  21875161.886   116771098.299    21875163.691    90821972.445    21875163.709  
                                
  19456672.379   104080076.925    19456671.790    80951168.167    19456671.468  
                                
  21360933.522   114226511.373    21360935.327    88842849.660    21360934.416  
                                
  24149397.147   126905940.050                                                  
  24149400.364    94767433.910  
  22299830.599   117186401.278                                                  
  22299833.012    87509334.040  
  24872970.335   130708340.866                                                  
  24872970.764    97606878.579  
  23629654.832   124174675.168                                                  
  23629658.048    92727852.910  
 21  8 31 18 20 58.0000000  0 17G 5G10G13G15G18G23G29R 3R 4R 5R18R19
                                R20E 5E 9E11E36
  22609377.221   118813077.884    22609375.756    92581609.780    22609375.113  
                                
  24303499.851   127715754.073    24303501.781    99518777.200    24303501.567  
  24303500.852    95372158.490  
  21754145.965   114318808.242                    89079578.859    21754143.374  
                                
  20295962.340   106656001.271    20295960.339    83108561.519    20295959.696  
                                
  20942990.013   110056155.821    20942988.065    85758034.030    20942987.690  
  20942992.407    82184800.294  
  21592963.268   113471787.681    21592961.839    88419567.701    21592961.481  
  21592966.074    84735436.774  
  21020428.676   110463097.102    21020426.960    86075130.938    21020426.317  
                                
  22947347.561   122838947.223    22947346.936    95541399.845    22947346.864  
                                
  19467315.366   104246589.099    19467313.740    81080673.882    19467313.704  
                                
  20101619.543   107454676.954    20101619.454    83575858.934    20101619.490  
                                
  21875745.131   116774211.461    21875746.918    90824393.763    21875746.954  
                                
  19456736.851   104080421.570    19456736.243    80951436.190    19456735.921  
                                
  21360310.448   114223179.424    21360312.270    88840258.114    21360311.341  
                                
  24149044.270   126904085.681                                                  
  24149047.504    94766049.158  
  22299995.102   117187265.728                                                  
  22299997.514    87509979.573  
  24873352.625   130710349.722                                                  
  24873353.054    97608378.692  
  23629701.988   124174922.982                                                  
  23629705.205    92728037.959  
 21  8 31 18 20 59.0000000  0 17G 5G10G13G15G18G23G29R 3R 4R 5R18R19
                                R20E 5E 9E11E36
  22609894.547   118815796.465    22609893.100    92583728.142    22609892.474  
                                
  24303012.385   127713192.511    24303014.314    99516781.160    24303014.100  
  24303013.385    95370245.646  
  21754402.243   114320154.881                    89080628.167    21754399.652  
                                
  20295943.578   106655902.556    20295941.576    83108484.580    20295940.933  
                                
  20942681.522   110054534.793    20942679.592    85756770.874    20942679.217  
  20942683.934    82183589.786  
  21592645.861   113470119.644    21592644.431    88418267.915    21592644.074  
  21592648.666    84734191.153  
  21020839.252   110465254.614    21020837.519    86076812.096    21020836.894  
                                
  22948085.534   122842897.547    22948084.927    95544472.304    22948084.837  
                                
  19467618.585   104248212.804    19467616.977    81081936.748    19467616.941  
                                
  20101190.705   107452384.428    20101190.597    83574075.844    20101190.633  
                                
  21876328.394   116777325.008    21876330.216    90826815.385    21876330.234  
                                
  19456801.411   104080766.864    19456800.804    80951704.734    19456800.482  
                                
  21359687.408   114219847.625    21359689.213    88837666.698    21359688.302  
                                
  24148691.464   126902231.626                                                  
  24148694.680    94764664.636  
  22300159.658   117188130.551                                                  
  22300162.088    87510625.378  
  24873734.933   130712358.731                                                  
  24873735.362    97609878.915  
  23629749.198   124175171.001                                                  
  23629752.415    92728223.178  
 21  8 31 18 21  0.0000000  0 17G 5G10G13G15G18G23G29R 3R 4R 5R18R19
                                R20E 5E 9E11E36
  22610411.963   118818515.337    22610410.497    92585846.737    22610409.854  
                                
  24302525.025   127710631.351    24302526.955    99514785.446    24302526.722  
  24302526.025    95368333.090  
  21754658.663   114321502.377                    89081678.152    21754656.072  
                                
  20295924.958   106655804.763    20295922.957    83108408.368    20295922.331  
                                
  20942373.138   110052914.203    20942371.208    85755508.069    20942370.815  
  20942375.550    82182379.605  
  21592328.543   113468452.106    21592327.095    88416968.528    21592326.738  
  21592331.348    84732945.922  
  21021249.954   110467412.892    21021248.256    86078493.860    21021247.595  
                                
  22948823.561   122846848.183    22948822.953    95547545.001    22948822.882  
                                
  19467921.966   104249837.347    19467920.340    81083200.276    19467920.322  
                                
  20100761.991   107450092.789    20100761.920    83572293.453    20100761.955  
                                
  21876911.817   116780439.184    21876913.640    90829237.513    21876913.640  
                                
  19456866.133   104081113.054    19456865.525    80951973.986    19456865.204  
                                
  21359064.441   114216516.268    21359066.245    88835075.631    21359065.334  
                                
  24148338.747   126900378.140                                                  
  24148341.964    94763280.540  
  22300324.374   117188995.999                                                  
  22300326.769    87511271.656  
  24874117.312   130714368.100                                                  
  24874117.723    97611379.431  
  23629796.480   124175419.493                                                  
  23629799.696    92728408.738  
 21  8 31 18 21  1.0000000  0 17G 5G10G13G15G18G23G29R 3R 4R 5R18R19
                                R20E 5E 9E11E36
  22610929.289   118821234.036    22610927.841    92587965.215    22610927.216  
                                
  24302037.611   127708070.088    24302039.559    99512789.670    24302039.309  
  24302038.612    95366420.469  
  21754915.137   114322850.245                    89082728.449    21754912.564  
                                
  20295906.446   106655707.424    20295904.445    83108332.531    20295903.801  
                                
  20942064.754   110051293.581    20942062.807    85754245.258    20942062.432  
  20942067.149    82181169.398  
  21592011.224   113466784.626    21592009.795    88415669.202    21592009.438  
  21592014.012    84731700.726  
  21021660.709   110469571.487    21021659.012    86080175.891    21021658.350  
                                
  22949561.533   122850798.642    22949560.944    95550617.585    22949560.854  
                                
  19468225.399   104251462.272    19468223.773    81084464.114    19468223.756  
                                
  20100333.367   107447801.558    20100333.277    83570511.399    20100333.313  
                                
  21877495.223   116783553.521    21877497.046    90831659.784    21877497.046  
                                
  19456930.908   104081459.630    19456930.319    80952243.560    19456929.997  
                                
  21358441.419   114213184.842    21358443.242    88832484.534    21358442.331  
                                
  24147986.048   126898524.760                                                  
  24147989.283    94761896.529  
  22300489.073   117189861.611                                                  
  22300491.485    87511918.057  
  24874499.656   130716377.399                                                  
  24874500.085    97612879.877  
  23629843.761   124175667.982                                                  
  23629846.978    92728594.295  
 21  8 31 18 21  2.0000000  0 17G 5G10G13G15G18G23G29R 3R 4R 5R18R19
                                R20E 5E 9E11E36
  22611446.615   118823952.759    22611445.149    92590083.741    22611444.524  
                                
  24301550.252   127705508.963    24301552.217    99510794.032    24301551.967  
  24301551.252    95364507.932  
  21755171.701   114324198.713                    89083779.248    21755169.110  
                                
  20295887.987   106655610.743    20295885.986    83108257.239    20295885.360  
                                
  20941756.371   110049673.119    20941754.459    85752982.600    20941754.066  
  20941758.801    82179959.314  
  21591693.960   113465117.375    21591692.530    88414370.091    21591692.155  
  21591696.748    84730455.710  
  21022071.536   110471730.552    21022069.820    86081858.320    21022069.177  
                                
  22950299.488   122854749.121    22950298.881    95553690.220    22950298.791  
                                
  19468528.941   104253087.796    19468527.297    81085728.452    19468527.279  
                                
  20099904.832   107445510.916    20099904.725    83568729.835    20099904.760  
                                
  21878078.683   116786668.240    21878080.487    90834082.383    21878080.505  
                                
  19456995.773   104081806.811    19456995.165    80952513.630    19456994.861  
                                
  21357818.451   114209853.619    21357820.238    88829893.627    21357819.327  
                                
  24147633.439   126896671.680                                                  
  24147636.655    94760512.731  
  22300653.861   117190727.576                                                  
  22300656.291    87512564.717  
  24874882.053   130718386.836                                                  
  24874882.482    97614380.418  
  23629891.078   124175916.656                                                  
  23629894.295    92728779.996  
 21  8 31 18 21  3.0000000  0 17G 5G10G13G15G18G23G29R 3R 4R 5R18R19
                                R20E 5E 9E11E36
  22611963.959   118826671.657    22611962.511    92592202.398    22611961.868  
                                
  24301062.928   127702948.096    24301064.893    99508798.586    24301064.661  
  24301063.928    95362595.599  
  21755428.443   114325547.916                    89084830.608    21755425.816  
                                
  20295869.725   106655514.869    20295867.724    83108182.563    20295867.063  
                                
  20941448.077   110048052.975    20941446.165    85751720.184    20941445.772  
  20941450.489    82178749.466  
  21591376.767   113463450.558    21591375.355    88413071.310    21591374.998  
  21591379.572    84729211.001  
  21022482.488   110473890.282    21022480.772    86083541.259    21022480.129  
                                
  22951037.497   122858699.778    22951036.853    95556762.981    22951036.764  
                                
  19468832.607   104254714.070    19468830.981    81086993.364    19468830.927  
                                
  20099476.422   107443221.011    20099476.333    83566948.823    20099476.368  
                                
  21878662.249   116789783.521    21878664.054    90836505.410    21878664.054  
                                
  19457060.798   104082154.788    19457060.173    80952784.311    19457059.851  
                                
  21357195.502   114206522.665    21357197.306    88827302.917    21357196.395  
                                
  24147280.883   126894819.060                                                  
  24147284.100    94759129.285  
  22300818.756   117191594.054                                                  
  22300821.151    87513211.764  
  24875264.468   130720396.525                                                  
  24875264.879    97615881.166  
  23629938.485   124176165.697                                                  
  23629941.683    92728965.968  
 21  8 31 18 21  4.0000000  0 17G 5G10G13G15G18G23G29R 3R 4R 5R18R19
                                R20E 5E 9E11E36
  22612481.338   118829390.491    22612479.873    92594320.979    22612479.230  
                                
  24300575.622   127700387.235    24300577.605    99506803.121    24300577.373  
  24300576.622    95360683.252  
  21755685.274   114326897.607                    89085882.328    21755682.648  
                                
  20295851.570   106655419.561    20295849.551    83108108.314    20295848.926  
                                
  20941139.782   110046432.881    20941137.888    85750457.784    20941137.477  
  20941142.195    82177539.659  
  21591059.628   113461783.871    21591058.198    88411772.608    21591057.841  
  21591062.397    84727966.396  
  21022893.547   110476050.406    21022891.831    86085224.483    21022891.170  
                                
  22951775.470   122862650.308    22951774.844    95559835.634    22951774.773  
                                
  19469136.380   104256340.855    19469134.754    81088258.661    19469134.700  
                                
  20099048.119   107440931.572    20099048.012    83565168.167    20099048.066  
                                
  21879245.887   116792899.080    21879247.692    90838928.636    21879247.692  
                                
  19457125.931   104082503.254    19457125.305    80953055.356    19457125.002  
                                
  21356572.587   114203191.762    21356574.392    88824712.233    21356573.481  
                                
  24146928.381   126892966.631                                                  
  24146931.615    94757745.977  
  22300983.688   117192460.781                                                  
  22300986.100    87513858.994  
  24875646.918   130722406.270                                                  
  24875647.329    97617381.946  
  23629985.873   124176414.811                                                  
  23629989.108    92729151.997  
 21  8 31 18 21  5.0000000  0 17G 5G10G13G15G18G23G29R 3R 4R 5R18R19
                                R20E 5E 9E11E36
  22612998.700   118832109.199    22612997.235    92596439.443    22612996.592  
                                
  24300088.298   127697826.354    24300090.263    99504807.620    24300090.049  
  24300089.298    95358770.917  
  21755942.195   114328247.750                    89086934.376    21755939.568  
                                
  20295833.558   106655324.763    20295831.539    83108034.434    20295830.896  
                                
  20940831.506   110044812.828    20940829.576    85749195.396    20940829.183  
  20940833.900    82176329.879  
  21590742.470   113460117.295    21590741.059    88410473.973    21590740.701  
  21590745.258    84726721.884  
  21023304.677   110478210.885    21023302.962    86086907.962    21023302.300  
                                
  22952513.460   122866600.752    22952512.835    95562908.190    22952512.745  
                                
  19469440.261   104257968.119    19469438.617    81089524.301    19469438.599  
                                
  20098619.942   107438642.610    20098619.835    83563387.854    20098619.870  
                                
  21879829.597   116796014.878    21879831.401    90841352.020    21879831.401  
                                
  19457191.171   104082852.198    19457190.545    80953326.746    19457190.241  
                                
  21355949.691   114199860.859    21355951.496    88822121.524    21355950.585  
                                
  24146575.914   126891114.371                                                  
  24146579.131    94756362.795  
  22301148.672   117193327.735                                                  
  22301151.067    87514506.392  
  24876029.351   130724415.998                                                  
  24876029.762    97618882.720  
  23630033.298   124176664.002                                                  
  23630036.514    92729338.078  
 21  8 31 18 21  6.0000000  0 17G 5G10G13G15G18G23G29R 3R 4R 5R18R19
                                R20E 5E 9E11E36
  22613516.098   118834828.030    22613514.633    92598557.985    22613513.989  
                                
  24299601.027   127695265.669    24299602.975    99502812.245    24299602.761  
  24299602.010    95356858.710  
  21756199.259   114329598.564                    89087986.922    21756196.668  
                                
  20295815.689   106655230.711    20295813.670    83107961.119    20295813.027  
                                
  20940523.265   110043193.021    20940521.353    85747933.179    20940520.942  
  20940525.660    82175120.281  
  21590425.402   113458451.051    21590423.973    88409175.569    21590423.615  
  21590428.190    84725477.613  
  21023715.950   110480371.948    21023714.235    86088591.877    21023713.574  
                                
  22953251.487   122870551.331    22953250.861    95565980.830    22953250.790  
                                
  19469744.302   104259596.065    19469742.658    81090790.451    19469742.640  
                                
  20098191.889   107436354.344    20098191.782    83561608.059    20098191.836  
                                
  21880413.395   116799131.111    21880415.218    90843775.722    21880415.218  
                                
  19457256.553   104083201.838    19457255.946    80953598.656    19457255.624  
                                
  21355326.884   114196530.203    21355328.689    88819530.981    21355327.760  
                                
  24146223.519   126889262.503                                                  
  24146226.736    94754979.901  
  22301313.711   117194195.123                                                  
  22301316.141    87515154.117  
  24876411.838   130726425.939                                                  
  24876412.267    97620383.649  
  23630080.758   124176913.456                                                  
  23630083.974    92729524.361  
 21  8 31 18 21  7.0000000  0 17G 5G10G13G15G18G23G29R 3R 4R 5R18R19
                                R20E 5E 9E11E36
  22614033.531   118837547.020    22614032.066    92600676.655    22614031.423  
                                
  24299113.793   127692705.225    24299115.740    99500817.068    24299115.508  
  24299114.793    95354946.688  
  21756456.483   114330950.092                    89089040.031    21756453.875  
                                
  20295797.963   106655137.446    20295795.962    83107888.417    20295795.318  
                                
  20940215.060   110041573.487    20940213.131    85746671.178    20940212.755  
  20940217.473    82173910.896  
  21590108.406   113456785.185    21590106.958    88407877.462    21590106.601  
  21590111.176    84724233.620  
  21024127.331   110482533.632    21024125.598    86090276.280    21024124.972  
                                
  22953989.549   122874502.110    22953988.923    95569053.630    22953988.834  
                                
  19470048.451   104261224.713    19470046.843    81092057.147    19470046.789  
                                
  20097763.980   107434066.806    20097763.891    83559828.835    20097763.926  
                                
  21880997.319   116802247.877    21880999.106    90846199.841    21880999.124  
                                
  19457322.097   104083552.249    19457321.471    80953871.172    19457321.168  
                                
  21354704.113   114193199.834    21354705.918    88816940.667    21354704.989  
                                
  24145871.178   126887411.036                                                  
  24145874.412    94753597.319  
  22301478.874   117195062.992                                                  
  22301481.286    87515802.203  
  24876794.378   130728436.145                                                  
  24876794.789    97621884.774  
  23630128.307   124177163.248                                                  
  23630131.524    92729710.892  
 21  8 31 18 21  8.0000000  0 17G 5G10G13G15G18G23G29R 3R 4R 5R18R19
                                R20E 5E 9E11E36
  22614550.982   118840266.247    22614549.535    92602795.520    22614548.892  
                                
  24298626.612   127690145.110    24298628.559    99498822.162    24298628.327  
  24298627.612    95353034.925  
  21756713.833   114332302.432                    89090093.794    21756711.242  
                                
  20295780.380   106655045.052    20295778.396    83107816.404    20295777.753  
                                
  20939906.945   110039954.364    20939905.033    85745409.505    20939904.622  
  20939909.375    82172701.808  
  21589791.481   113455119.797    21589790.033    88406579.746    21589789.676  
  21589794.268    84722989.991  
  21024538.819   110484696.051    21024537.121    86091961.265    21024536.460  
                                
  22954727.647   122878453.172    22954727.039    95572126.665    22954726.932  
                                
  19470352.778   104262854.169    19470351.134    81093324.485    19470351.116  
                                
  20097336.213   107431780.080    20097336.124    83558050.249    20097336.160  
                                
  21881581.297   116805365.233    21881583.120    90848624.431    21881583.137  
                                
  19457387.748   104083903.508    19457387.158    80954144.353    19457386.836  
                                
  21354081.395   114189869.848    21354083.200    88814350.663    21354082.289  
                                
  24145518.962   126885560.124                                                  
  24145522.196    94752215.142  
  22301644.127   117195931.450                                                  
  22301646.557    87516450.725  
  24877176.971   130730446.677                                                  
  24877177.382    97623386.143  
  23630175.911   124177413.454                                                  
  23630179.127    92729897.736  
 21  8 31 18 21  9.0000000  0 17G 5G10G13G15G18G23G29R 3R 4R 5R18R19
                                R20E 5E 9E11E36
  22615068.469   118842985.635    22615067.004    92604914.529    22615066.361  
                                
  24298139.484   127687585.232    24298141.432    99496827.458    24298141.200  
  24298140.485    95351123.328  
  21756971.290   114333655.477                    89091148.121    21756968.699  
                                
  20295762.940   106654953.435    20295760.938    83107745.017    20295760.313  
                                
  20939598.901   110038335.514    20939596.971    85744148.068    20939596.578  
  20939601.313    82171492.929  
  21589474.645   113453454.777    21589473.198    88405282.325    21589472.840  
  21589477.415    84721746.625  
  21024950.432   110486859.080    21024948.734    86093646.751    21024948.073  
                                
  22955465.762   122882404.376    22955465.137    95575199.825    22955465.065  
                                
  19470657.195   104264484.327    19470655.551    81094592.391    19470655.533  
                                
  20096908.554   107429494.076    20096908.483    83556272.249    20096908.518  
                                
  21882165.382   116808483.106    21882167.204    90851049.445    21882167.222  
                                
  19457453.559   104084255.496    19457452.952    80954418.123    19457452.648  
                                
  21353458.696   114186540.130    21353460.518    88811760.883    21353459.607  
                                
  24145166.835   126883709.620                                                  
  24145170.051    94750833.270  
  22301809.487   117196800.376                                                  
  22301811.899    87517099.602  
  24877559.601   130732457.455                                                  
  24877560.012    97624887.696  
  23630223.585   124177663.977                                                  
  23630226.802    92730084.813  
 21  8 31 18 21 10.0000000  0 17G 5G10G13G15G18G23G29R 3R 4R 5R18R19
                                R20E 5E 9E11E36
  22615585.920   118845705.086    22615584.455    92607033.620    22615583.812  
                                
  24297652.375   127685025.489    24297654.322    99494832.892    24297654.090  
  24297653.357    95349211.847  
  21757228.872   114335009.156                    89092202.972    21757226.263  
                                
  20295745.625   106654862.514    20295743.623    83107674.208    20295742.980  
                                
  20939290.892   110036716.869    20939288.963    85742886.827    20939288.569  
  20939293.305    82170284.196  
  21589157.845   113451790.023    21589156.416    88403985.153    21589156.058  
  21589160.633    84720503.475  
  21025362.116   110489022.649    21025360.401    86095332.683    21025359.740  
                                
  22956203.860   122886355.636    22956203.235    95578273.072    22956203.163  
                                
  19470961.683   104266115.117    19470960.057    81095860.815    19470960.021  
                                
  20096481.002   107427208.699    20096480.913    83554494.773    20096480.948  
                                
  21882749.520   116811601.383    21882751.343    90853474.814    21882751.343  
                                
  19457519.460   104084608.159    19457518.853    80954692.456    19457518.531  
                                
  21352836.050   114183210.579    21352837.819    88809171.272    21352836.925  
                                
  24144814.761   126881859.447                                                  
  24144817.978    94749451.652  
  22301974.900   117197669.700                                                  
  22301977.330    87517748.771  
  24877942.266   130734468.394                                                  
  24877942.695    97626389.360  
  23630271.295   124177914.728                                                  
  23630274.530    92730272.064  
 21  8 31 18 21 11.0000000  0 17G 5G10G13G15G18G23G29R 3R 4R 5R18R19
                                R20E 5E 9E11E36
  22616103.389   118848424.418    22616101.906    92609152.603    22616101.263  
                                
  24297165.283   127682465.731    24297167.213    99492838.304    24297166.998  
  24297166.266    95347300.337  
  21757486.543   114336363.289                    89093258.162    21757483.917  
                                
  20295728.399   106654772.116    20295726.398    83107603.790    20295725.754  
                                
  20938982.884   110035098.245    20938980.954    85741625.589    20938980.561  
  20938985.279    82169075.483  
  21588841.081   113450125.398    21588839.634    88402688.071    21588839.276  
  21588843.869    84719260.407  
  21025773.872   110491186.564    21025772.157    86097018.878    21025771.496  
                                
  22956941.940   122890306.755    22956941.297    95581346.195    22956941.208  
                                
  19471266.296   104267746.394    19471264.652    81097129.614    19471264.616  
                                
  20096053.539   107424923.797    20096053.450    83552717.655    20096053.486  
                                
  21883333.694   116814719.899    21883335.481    90855900.356    21883335.517  
                                
  19457585.451   104084961.282    19457584.825    80954967.135    19457584.521  
                                
  21352213.368   114179881.032    21352215.173    88806581.654    21352214.261  
                                
  24144462.724   126880009.450                                                  
  24144465.922    94748070.163  
  22302140.367   117198539.245                                                  
  22302142.797    87518398.104  
  24878324.967   130736479.357                                                  
  24878325.378    97627891.055  
  23630319.041   124178165.547                                                  
  23630322.258    92730459.360  
 21  8 31 18 21 12.0000000  0 17G 5G10G13G15G18G23G29R 3R 4R 5R18R19
                                R20E 5E 9E11E36
  22616620.894   118851144.053    22616619.429    92611271.813    22616618.803  
                                
  24296678.245   127679906.388    24296680.210    99490844.028    24296679.978  
  24296679.245    95345389.132  
  21757744.358   114337718.274                    89094314.012    21757741.749  
                                
  20295711.370   106654682.639    20295709.351    83107534.084    20295708.707  
                                
  20938674.947   110033480.058    20938673.017    85740364.680    20938672.624  
  20938677.342    82167867.101  
  21588524.406   113448461.308    21588522.995    88401391.395    21588522.637  
  21588527.194    84718017.736  
  21026185.807   110493351.274    21026184.074    86098705.682    21026183.412  
                                
  22957680.074   122894258.177    22957679.430    95584419.546    22957679.377  
                                
  19471571.070   104269378.558    19471569.426    81098399.094    19471569.408  
                                
  20095626.255   107422639.767    20095626.166    83550941.207    20095626.202  
                                
  21883918.011   116817839.050    21883919.798    90858326.374    21883919.798  
                                
  19457651.620   104085315.296    19457650.994    80955242.495    19457650.690  
                                
  21351590.811   114176551.962    21351592.598    88803992.391    21351591.687  
                                
  24144110.776   126878160.014                                                  
  24144113.992    94746689.095  
  22302305.960   117199409.420                                                  
  22302308.390    87519047.912  
  24878707.686   130738490.680                                                  
  24878708.114    97629393.029  
  23630366.841   124178416.830                                                  
  23630370.057    92730647.006  
 21  8 31 18 21 13.0000000  0 17G 5G10G13G15G18G23G29R 3R 4R 5R18R19
                                R20E 5E 9E11E36
  22617138.488   118853864.035    22617137.005    92613391.290    22617136.380  
                                
  24296191.314   127677347.464    24296193.244    99488850.073    24296193.029  
  24296192.279    95343478.256  
  21758002.404   114339074.180                    89095370.567    21757999.777  
                                
  20295694.519   106654594.147    20295692.500    83107465.139    20295691.857  
                                
  20938367.100   110031862.376    20938365.188    85739104.160    20938364.812  
  20938369.512    82166659.092  
  21588207.857   113446797.781    21588206.445    88400095.149    21588206.088  
  21588210.644    84716775.494  
  21026597.884   110495516.791    21026596.133    86100393.105    21026595.490  
                                
  22958418.297   122898209.984    22958417.653    95587493.188    22958417.564  
                                
  19471876.041   104271011.659    19471874.415    81099669.290    19471874.361  
                                
  20095199.150   107420356.668    20095199.060    83549165.471    20095199.078  
                                
  21884502.453   116820958.922    21884504.258    90860752.946    21884504.258  
                                
  19457717.985   104085670.268    19457717.360    80955518.589    19457717.038  
                                
  21350968.326   114173223.328    21350970.113    88801403.461    21350969.201  
                                
  24143758.952   126876311.224                                                  
  24143762.169    94745308.507  
  22302471.695   117200280.277                                                  
  22302474.089    87519698.232  
  24879090.529   130740502.509                                                  
  24879090.940    97630895.357  
  23630414.766   124178668.650                                                  
  23630417.982    92730835.056  
 21  8 31 18 21 14.0000000  0 17G 5G10G13G15G18G23G29R 3R 4R 5R18R19
                                R20E 5E 9E11E36
  22617656.100   118856584.128    22617654.617    92615510.843    22617653.992  
                                
  24295704.383   127674788.718    24295706.349    99486856.243    24295706.098  
  24295705.366    95341567.505  
  21758260.522   114340430.752                    89096427.636    21758257.913  
                                
  20295677.812   106654506.384    20295675.793    83107396.756    20295675.149  
                                
  20938059.306   110030244.917    20938057.412    85737843.798    20938057.001  
  20938061.700    82165451.249  
  21587891.378   113445134.600    21587889.949    88398799.162    21587889.591  
  21587894.148    84715533.493  
  21027010.069   110497682.887    21027008.336    86102080.971    21027007.693  
                                
  22959156.555   122902161.908    22959155.912    95590566.908    22959155.823  
                                
  19472181.137   104272645.406    19472179.493    81100939.984    19472179.457  
                                
  20094772.169   107418074.231    20094772.062    83547390.244    20094772.116  
                                
  21885086.985   116824079.239    21885088.790    90863179.856    21885088.790  
                                
  19457784.458   104086025.918    19457783.850    80955795.206    19457783.529  
                                
  21350345.894   114169894.909    21350347.663    88798814.693    21350346.770  
                                
  24143407.218   126874462.815                                                  
  24143410.435    94743928.199  
  22302637.501   117201151.573                                                  
  22302639.896    87520348.871  
  24879473.427   130742514.516                                                  
  24879473.838    97632397.815  
  23630462.744   124178920.733                                                  
  23630465.961    92731023.296  
 21  8 31 18 21 15.0000000  0 17G 5G10G13G15G18G23G29R 3R 4R 5R18R19
                                R20E 5E 9E11E36
  22618173.712   118859304.162    22618172.229    92617630.353    22618171.604  
                                
  24295217.470   127672230.026    24295219.418    99484862.457    24295219.203  
  24295218.453    95339656.806  
  21758518.783   114341787.846                    89097485.110    21758516.156  
                                
  20295661.229   106654419.216    20295659.210    83107328.826    20295658.567  
                                
  20937751.530   110028627.566    20937749.636    85736583.522    20937749.225  
  20937753.960    82164243.485  
  21587574.900   113443471.569    21587573.488    88397503.287    21587573.113  
  21587577.688    84714291.630  
  21027422.343   110499849.414    21027420.610    86103769.169    21027419.967  
                                
  22959894.778   122906113.777    22959894.153    95593640.587    22959894.064  
                                
  19472486.322   104274279.658    19472484.678    81102211.067    19472484.660  
                                
  20094345.296   107415792.308    20094345.189    83545615.415    20094345.225  
                                
  21885671.606   116827199.874    21885673.410    90865607.015    21885673.410  
                                
  19457851.056   104086382.088    19457850.430    80956072.227    19457850.109  
                                
  21349723.480   114166566.592    21349725.285    88796225.999    21349724.356  
                                
  24143055.520   126872614.626                                                  
  24143058.737    94742548.058  
  22302803.344   117202023.154                                                  
  22302805.774    87520999.722  
  24879856.271   130744526.550                                                  
  24879856.717    97633900.326  
  23630510.722   124179172.946                                                  
  23630513.957    92731211.636  
