     2.11           OBSERVATION DATA    M (MIXED)           RINEX VERSION / TYPE
CONVBIN 2.4.3                           20210901 190855 UTC PGM / RUN BY / DATE 
log: logs/21_09_01_09_42_27_mami_SW.rtcm                    COMMENT             
format: RTCM 3, station ID: 1753                            COMMENT             
1753                                                        MARKER NAME         
                                                            MARKER NUMBER       
                                                            OBSERVER / AGENCY   
                    SWFT                                    REC # / TYPE / VERS 
                    NULL                                    ANT # / TYPE        
  1556688.1357 -4533459.6534  4193678.3792                  APPROX POSITION XYZ 
        0.0000        0.0000        0.0000                  ANTENNA: DELTA H/E/N
     1     1                                                WAVELENGTH FACT L1/2
     5    C1    L1    P2    L2    C2                        # / TYPES OF OBSERV 
  2021     9     1     9    42   32.0000000     GPS         TIME OF FIRST OBS   
  2021     9     1    10    12   30.0000000     GPS         TIME OF LAST OBS    
                                                            END OF HEADER       
 21  9  1  9 42 32.0000000  0 14G 1G 3G 7G 8G14G17G19G21G30C23C25C28
                                C34E27
  20175583.575   106023371.984    20175586.148    82615604.769                  
  23801831.249   125079436.327    23801833.911    97464487.441                  
  23215151.323   121996449.393    23215151.180    95062169.550                  
  24590248.084   129222574.933    24590251.068   100692902.899                  
  20537573.402   107925692.734    20537573.295    84097948.520                  
  21438661.074   112660941.211    21438660.288    87787750.004                  
  23245231.786   122154537.672    23245229.589    95185359.548                  
  22372711.465   117569400.911    22372710.142    91612522.952                  
  21823223.319   114681774.082    21823225.356    89362411.732                  
                 116163638.860                   116163638.860    22307996.082  
                 129798480.281                   129798480.281    24926431.396  
                 119876822.477                   119876822.477    23021081.958  
                 129375282.558                   129375282.558    24845162.866  
  23730190.297   124702980.359                                                  
 21  9  1  9 42 33.0000000  0 14G 1G 3G 7G 8G14G17G19G21G30C23C25C28
                                C34E27
  20175765.142   106024326.108    20175767.697    82616348.245                  
  23801279.918   125076539.061    23801282.598    97462229.829                  
  23215827.219   122000001.332    23215827.094    95064937.294                  
  24590806.759   129225510.807    24590809.743   100695190.593                  
  20537319.198   107924356.888    20537319.108    84096907.597                  
  21438400.633   112659572.534    21438399.847    87786683.505                  
  23244700.040   122151743.312    23244697.842    95183182.124                  
  22373205.204   117571995.491    22373203.881    91614544.703                  
  21823657.269   114684054.530    21823659.324    89364188.704                  
                 116164795.190                   116164795.190    22308218.140  
                 129801748.355                   129801748.355    24927058.992  
                 119874936.944                   119874936.944    23020719.860  
                 129377957.173                   129377957.173    24845676.493  
  23730416.162   124704167.246                                                  
 21  9  1  9 42 34.0000000  0 14G 1G 3G 7G 8G14G17G19G21G30C23C25C28
                                C34E27
  20175946.834   106025280.913    20175949.407    82617092.247                  
  23800728.623   125073641.995    23800731.303    97459972.379                  
  23216503.169   122003553.426    23216503.043    95067705.157                  
  24591365.416   129228446.685    24591368.418   100697478.285                  
  20537065.082   107923021.444    20537064.957    84095866.991                  
  21438140.246   112658204.110    21438139.424    87785617.200                  
  23244168.312   122148949.124    23244166.114    95181004.840                  
  22373698.996   117574590.380    22373697.674    91616566.695                  
  21824091.325   114686335.465    21824093.362    89365966.054                  
                 116165952.039                   116165952.039    22308440.306  
                 129805016.597                   129805016.597    24927686.642  
                 119873051.699                   119873051.699    23020357.816  
                 129380631.840                   129380631.840    24846190.138  
  23730642.080   124705354.480                                                  
 21  9  1  9 42 35.0000000  0 14G 1G 3G 7G 8G14G17G19G21G30C23C25C28
                                C34E27
  20176128.652   106026236.411    20176131.225    82617836.788                  
  23800177.381   125070745.181    23800180.062    97457715.116                  
  23217179.136   122007105.696    23217178.993    95070473.160                  
  24591924.109   129231382.562    24591927.093   100699765.984                  
  20536811.021   107921686.414    20536810.913    84094826.710                  
  21437879.876   112656835.935    21437879.072    87784551.085                  
  23243636.637   122146155.118    23243634.439    95178827.692                  
  22374192.842   117577185.574    22374191.520    91618588.921                  
  21824525.453   114688616.896    21824527.508    89367743.792                  
                 116167109.401                   116167109.401    22308662.561  
                 129808285.005                   129808285.005    24928314.291  
                 119871166.742                   119871166.742    23019995.825  
                 129383306.562                   129383306.562    24846703.801  
  23730868.087   124706542.063                                                  
 21  9  1  9 42 36.0000000  0 14G 1G 3G 7G 8G14G17G19G21G30C23C25C28
                                C34E27
  20176310.612   106027192.589    20176313.185    82618581.864                  
  23799626.158   125067848.575    23799628.856    97455458.023                  
  23217855.139   122010658.133    23217855.014    95073241.293                  
  24592482.784   129234318.425    24592485.768   100702053.667                  
  20536557.066   107920351.794    20536556.959    84093786.747                  
  21437619.578   112655467.989    21437618.756    87783485.160                  
  23243104.980   122143361.274    23243102.782    95176650.668                  
  22374686.742   117579781.061    22374685.420    91620611.379                  
  21824959.688   114690898.805    21824961.743    89369521.903                  
                 116168267.276                   116168267.276    22308884.923  
                 129811553.579                   129811553.579    24928941.994  
                 119869282.070                   119869282.070    23019633.906  
                 129385981.340                   129385981.340    24847217.464  
  23731094.113   124707729.995                                                  
 21  9  1  9 42 37.0000000  0 14G 1G 3G 7G 8G14G17G19G21G30C23C25C28
                                C34E27
  20176492.697   106028149.454    20176495.253    82619327.473                  
  23799075.006   125064952.186    23799077.686    97453201.097                  
  23218531.178   122014210.729    23218531.052    95076009.552                  
  24593041.459   129237254.300    24593044.443   100704341.364                  
  20536303.165   107919017.589    20536303.058    84092747.106                  
  21437359.298   112654100.298    21437358.494    87782419.425                  
  23242573.358   122140567.606    23242571.160    95174473.786                  
  22375180.696   117582376.860    22375179.391    91622634.081                  
  21825394.013   114693181.207    21825396.068    89371300.398                  
                 116169425.668                   116169425.668    22309107.374  
                 129814822.316                   129814822.316    24929569.715  
                 119867397.683                   119867397.683    23019272.023  
                 129388656.173                   129388656.173    24847731.145  
  23731320.245   124708918.271                                                  
 21  9  1  9 42 38.0000000  0 14G 1G 3G 7G 8G14G17G19G21G30C23C25C28
                                C34E27
  20176674.926   106029106.997    20176677.481    82620073.610                  
  23798523.871   125062056.035    23798526.552    97450944.356                  
  23219207.252   122017763.516    23219207.127    95078777.952                  
  24593600.134   129240190.156    24593603.118   100706629.042                  
  20536049.353   107917683.794    20536049.246    84091707.781                  
  21437099.107   112652732.863    21437098.285    87781353.891                  
  23242041.773   122137774.114    23242039.575    95172297.039                  
  22375674.738   117584972.957    22375673.416    91624657.015                  
  21825828.444   114695464.103    21825830.481    89373079.278                  
                 116170584.575                   116170584.575    22309329.933  
                 129818091.224                   129818091.224    24930197.472  
                 119865513.586                   119865513.586    23018910.193  
                 129391331.058                   129391331.058    24848244.825  
  23731546.431   124710106.875                                                  
 21  9  1  9 42 39.0000000  0 14G 1G 3G 7G 8G14G17G19G21G30C23C25C28
                                C34E27
  20176857.261   106030065.229    20176859.816    82620820.285                  
  23797972.809   125059160.104    23797975.489    97448687.789                  
  23219883.362   122021316.461    23219883.219    95081546.485                  
  24594158.826   129243126.005    24594161.793   100708916.719                  
  20535795.613   107916350.401    20535795.524    84090668.778                  
  21436838.916   112651365.677    21436838.112    87780288.551                  
  23241510.223   122134980.789    23241508.043    95170120.427                  
  22376168.799   117587569.348    22376167.477    91626680.177                  
  21826262.965   114697747.491    21826265.002    89374858.539                  
                 116171743.991                   116171743.991    22309552.599  
                 129821360.289                   129821360.289    24930825.282  
                 119863629.778                   119863629.778    23018548.435  
                 129394005.999                   129394005.999    24848758.524  
  23731772.689   124711295.837                                                  
 21  9  1  9 42 40.0000000  0 14G 1G 3G 7G 8G14G17G19G21G30C23C25C28
                                C34E27
  20177039.740   106031024.145    20177042.295    82621567.488                  
  23797421.764   125056264.391    23797424.462    97446431.386                  
  23220559.508   122024869.558    23220559.365    95084315.128                  
  24594717.484   129246061.847    24594720.468   100711204.386                  
  20535541.962   107915017.425    20535541.855    84089630.093                  
  21436578.797   112649998.735    21436577.993    87779223.401                  
  23240978.709   122132187.646    23240976.529    95167943.945                  
  22376662.949   117590166.048    22376661.627    91628703.579                  
  21826697.558   114700031.363    21826699.595    89376638.180                  
                 116172903.924                   116172903.924    22309775.336  
                 129824629.528                   129824629.528    24931453.092  
                 119861746.251                   119861746.251    23018186.712  
                 129396680.991                   129396680.991    24849272.223  
  23731999.000   124712485.140                                                  
 21  9  1  9 42 41.0000000  0 14G 1G 3G 7G 8G14G17G19G21G30C23C25C28
                                C34E27
  20177222.343   106031983.745    20177224.898    82622315.235                  
  23796870.772   125053368.915    23796873.453    97444175.171                  
  23221235.654   122028422.832    23221235.511    95087083.913                  
  24595276.159   129248997.680    24595279.143   100713492.046                  
  20535288.383   107913684.860    20535288.276    84088591.731                  
  21436318.731   112648632.053    21436317.927    87778158.457                  
  23240447.213   122129394.679    23240445.015    95165767.609                  
  22377157.135   117592763.046    22377155.812    91630727.212                  
  21827132.258   114702315.726    21827134.295    89378418.203                  
                 116174064.375                   116174064.375    22309998.199  
                 129827898.925                   129827898.925    24932080.938  
                 119859863.012                   119859863.012    23017825.061  
                 129399356.043                   129399356.043    24849785.939  
  23732225.383   124713674.792                                                  
 21  9  1  9 42 42.0000000  0 14G 1G 3G 7G 8G14G17G19G21G30C23C25C28
                                C34E27
  20177405.072   106032944.035    20177407.645    82623063.508                  
  23796319.817   125050473.656    23796322.515    97441919.130                  
  23221911.854   122031976.288    23221911.729    95089852.840                  
  24595834.816   129251933.508    24595837.800   100715779.704                  
  20535034.875   107912352.708    20535034.786    84087553.688                  
  21436058.701   112647265.592    21436057.897    87777093.682                  
  23239915.788   122126601.888    23239913.572    95163591.411                  
  22377651.374   117595360.344    22377650.052    91632751.078                  
  21827567.064   114704600.575    21827569.102    89380198.605                  
                 116175225.335                   116175225.335    22310221.133  
                 129831168.493                   129831168.493    24932708.838  
                 119857980.062                   119857980.062    23017463.463  
                 129402031.146                   129402031.146    24850299.656  
  23732451.837   124714864.795                                                  
 21  9  1  9 42 43.0000000  0 14G 1G 3G 7G 8G14G17G19G21G30C23C25C28
                                C34E27
  20177587.943   106033904.993    20177590.499    82623812.309                  
  23795768.915   125047578.638    23795771.595    97439663.269                  
  23222588.071   122035529.890    23222587.964    95092621.878                  
  24596393.509   129254869.333    24596396.475   100718067.359                  
  20534781.457   107911020.961    20534781.368    84086515.966                  
  21435798.725   112645899.378    21435797.921    87776029.097                  
  23239384.363   122123809.273    23239382.165    95161415.348                  
  22378145.703   117597957.944    22378144.380    91634775.184                  
  21828001.943   114706885.909    21828003.980    89381979.382                  
                 116176386.813                   116176386.813    22310444.192  
                 129834438.221                   129834438.221    24933336.755  
                 119856097.399                   119856097.399    23017101.919  
                 129404706.302                   129404706.302    24850813.408  
  23732678.362   124716055.134                                                  
 21  9  1  9 42 44.0000000  0 15G 1G 3G 7G 8G14G17G19G21G22G30C23C25
                                C28C34E27
  20177770.940   106034866.635    20177773.495    82624561.641                  
  23795218.066   125044683.831    23795220.747    97437407.578                  
  23223264.342   122039083.663    23223264.217    95095391.051                  
  24596952.166   129257805.140    24596955.132   100720355.003                  
  20534528.128   107909689.626    20534528.003    84085478.564                  
  21435538.802   112644533.439    21435537.980    87774964.729                  
  23238852.974   122121016.814    23238850.776    95159239.405                  
  22378640.067   117600555.844    22378638.745    91636799.519                  
  23087183.316   121323991.164    23087180.814    94538181.582                  
  21828436.928   114709171.736    21828438.966    89383760.546                  
                 116177548.802                   116177548.802    22310667.340  
                 129837708.118                   129837708.118    24933964.709  
                 119854215.021                   119854215.021    23016740.411  
                 129407381.513                   129407381.513    24851327.142  
  23732904.941   124717245.822                                                  
 21  9  1  9 42 45.0000000  0 15G 1G 3G 7G 8G14G17G19G21G22G30C23C25
                                C28C34E27
  20177954.062   106035828.961    20177956.617    82625311.505                  
  23794667.236   125041789.241    23794669.916    97435152.056                  
  23223940.631   122042637.608    23223940.524    95098160.360                  
  24597510.823   129260740.956    24597513.825   100722642.652                  
  20534274.834   107908358.704    20534274.745    84084441.477                  
  21435278.897   112643167.735    21435278.093    87773900.542                  
  23238321.621   122118224.536    23238319.423    95157063.605                  
  22379134.485   117603154.043    22379133.163    91638824.090                  
  23086882.062   121322408.011    23086879.561    94536947.957                  
  21828871.986   114711458.047    21828874.041    89385542.087                  
                 116178711.305                   116178711.305    22310890.596  
                 129840978.181                   129840978.181    24934592.680  
                 119852332.931                   119852332.931    23016378.974  
                 129410056.779                   129410056.779    24851840.895  
  23733131.574   124718436.855                                                  
 21  9  1  9 42 46.0000000  0 15G 1G 3G 7G 8G14G17G19G21G22G30C23C25
                                C28C34E27
  20178137.326   106036791.968    20178139.882    82626061.902                  
  23794116.459   125038894.898    23794119.139    97432896.719                  
  23224616.956   122046191.727    23224616.849    95100929.801                  
  24598069.498   129263676.798    24598072.482   100724930.317                  
  20534021.666   107907028.192    20534021.559    84083404.715                  
  21435019.064   112641802.263    21435018.259    87772836.542                  
  23237790.303   122115432.456    23237788.105    95154887.957                  
  22379628.957   117605752.526    22379627.634    91640848.882                  
  23086580.898   121320825.343    23086578.396    94535714.711                  
  21829307.168   114713744.851    21829309.205    89387324.012                  
                 116179874.324                   116179874.324    22311113.940  
                 129844248.406                   129844248.406    24935220.704  
                 119850451.126                   119850451.126    23016017.591  
                 129412732.094                   129412732.094    24852354.665  
  23733358.279   124719628.230                                                  
 21  9  1  9 42 47.0000000  0 15G 1G 3G 7G 8G14G17G19G21G22G30C23C25
                                C28C34E27
  20178320.698   106037755.667    20178323.254    82626812.832                  
  23793565.718   125036000.780    23793568.416    97430641.567                  
  23225293.316   122049746.010    23225293.191    95103699.374                  
  24598628.155   129266612.593    24598631.139   100727217.950                  
  20533768.533   107905698.086    20533768.444    84082368.273                  
  21434759.284   112640437.063    21434758.480    87771772.751                  
  23237259.021   122112640.536    23237256.824    95152712.438                  
  22380123.482   117608351.323    22380122.159    91642873.921                  
  23086279.822   121319243.162    23086277.321    94534481.840                  
  21829742.404   114716032.153    21829744.459    89389106.323                  
                 116181037.854                   116181037.854    22311337.375  
                 129847518.797                   129847518.797    24935848.747  
                 119848569.605                   119848569.605    23015656.280  
                 129415407.468                   129415407.468    24852868.435  
  23733585.054   124720819.956                                                  
 21  9  1  9 42 48.0000000  0 15G 1G 3G 7G 8G14G17G19G21G22G30C23C25
                                C28C34E27
  20178504.213   106038720.047    20178506.786    82627564.297                  
  23793015.048   125033106.883    23793017.728    97428386.577                  
  23225969.712   122053300.458    23225969.587    95106469.071                  
  24599186.848   129269548.406    24599189.814   100729505.594                  
  20533515.526   107904368.394    20533515.419    84081332.149                  
  21434499.540   112639072.105    21434498.718    87770709.149                  
  23236727.758   122109848.773    23236725.560    95150537.035                  
  22380618.078   117610950.414    22380616.756    91644899.187                  
  23085978.819   121317661.441    23085976.317    94533249.335                  
  21830177.764   114718319.929    21830179.802    89390889.008                  
                 116182201.902                   116182201.902    22311560.916  
                 129850789.351                   129850789.351    24936476.825  
                 119846688.376                   119846688.376    23015295.022  
                 129418082.894                   129418082.894    24853382.223  
  23733811.902   124722012.023                                                  
 21  9  1  9 42 49.0000000  0 15G 1G 3G 7G 8G14G17G19G21G22G30C23C25
                                C28C34E27
  20178687.853   106039685.114    20178690.426    82628316.297                  
  23792464.378   125030213.212    23792467.077    97426131.769                  
  23226646.144   122056855.067    23226646.001    95109238.894                  
  24599745.505   129272484.207    24599748.471   100731793.231                  
  20533262.554   107903039.118    20533262.465    84080296.347                  
  21434239.831   112637707.398    21434239.045    87769645.739                  
  23236196.547   122107057.188    23236194.331    95148361.777                  
  22381112.729   117613549.813    22381111.406    91646924.692                  
  23085677.922   121316080.211    23085675.421    94532017.208                  
  21830613.197   114720608.191    21830615.234    89392672.069                  
                 116183366.462                   116183366.462    22311784.565  
                 129854060.071                   129854060.071    24937104.921  
                 119844807.429                   119844807.429    23014933.799  
                 129420758.376                   129420758.376    24853896.011  
  23734038.820   124723204.436                                                  
 21  9  1  9 42 50.0000000  0 15G 1G 3G 7G 8G14G17G19G21G22G30C23C25
                                C28C34E27
  20178871.636   106040650.847    20178874.191    82629068.816                  
  23791913.780   125027319.757    23791916.461    97423877.133                  
  23227322.576   122060409.837    23227322.469    95112008.847                  
  24600304.162   129275419.988    24600307.146   100734080.852                  
  20533009.672   107901710.247    20533009.582    84079260.864                  
  21433980.194   112636342.933    21433979.372    87768582.519                  
  23235665.355   122104265.773    23235663.157    95146186.653                  
  22381607.433   117616149.512    22381606.128    91648950.429                  
  23085377.115   121314499.458    23085374.614    94530785.448                  
  21831048.736   114722896.952    21831050.773    89394455.520                  
                 116184531.536                   116184531.536    22312008.303  
                 129857330.956                   129857330.956    24937733.053  
                 119842926.772                   119842926.772    23014572.648  
                 129423433.909                   129423433.909    24854409.835  
  23734265.793   124724397.196                                                  
 21  9  1  9 42 51.0000000  0 15G 1G 3G 7G 8G14G17G19G21G22G30C23C25
                                C28C34E27
  20179055.544   106041617.281    20179058.099    82629821.882                  
  23791363.218   125024426.535    23791365.898    97421622.677                  
  23227999.061   122063964.769    23227998.936    95114778.922                  
  24600862.819   129278355.778    24600865.803   100736368.481                  
  20532756.879   107900381.781    20532756.771    84078225.695                  
  21433720.593   112634978.725    21433719.771    87767519.505                  
  23235134.198   122101474.529    23235132.000    95144011.653                  
  22382102.208   117618749.524    22382100.886    91650976.415                  
  23085076.397   121312919.188    23085073.896    94529554.075                  
  21831484.365   114725186.195    21831486.420    89396239.345                  
                 116185697.125                   116185697.125    22312232.148  
                 129860602.007                   129860602.007    24938361.239  
                 119841046.404                   119841046.404    23014211.533  
                 129426109.501                   129426109.501    24854923.659  
  23734492.836   124725590.298                                                  
 21  9  1  9 42 52.0000000  0 15G 1G 3G 7G 8G14G17G19G21G22G30C23C25
                                C28C34E27
  20179239.577   106042584.381    20179242.132    82630575.469                  
  23790812.709   125021533.542    23790815.371    97419368.394                  
  23228675.583   122067519.871    23228675.458    95117549.133                  
  24601421.476   129281291.549    24601424.461   100738656.093                  
  20532504.157   107899053.735    20532504.068    84077190.857                  
  21433461.046   112633614.770    21433460.241    87766456.680                  
  23234603.077   122098683.455    23234600.879    95141836.790                  
  22382597.019   117621349.818    22382595.697    91653002.618                  
  23084775.787   121311339.386    23084773.285    94528323.059                  
  21831920.084   114727475.927    21831922.138    89398023.550                  
                 116186863.246                   116186863.246    22312456.083  
                 129863873.221                   129863873.221    24938989.442  
                 119839166.337                   119839166.337    23013850.472  
                 129428785.111                   129428785.111    24855437.482  
  23734719.934   124726783.741                                                  
 21  9  1  9 42 53.0000000  0 15G 1G 3G 7G 8G14G17G19G21G22G30C23C25
                                C28C34E27
  20179423.735   106043552.180    20179426.308    82631329.593                  
  23790262.218   125018640.768    23790264.916    97417114.289                  
  23229352.122   122071075.140    23229351.997    95120319.473                  
  24601980.134   129284227.289    24601983.118   100740943.684                  
  20532251.525   107897726.094    20532251.418    84076156.333                  
  21433201.534   112632251.067    21433200.712    87765394.055                  
  23234071.974   122095892.559    23234069.776    95139662.066                  
  22383091.902   117623950.423    22383090.579    91655029.063                  
  23084475.248   121309760.075    23084472.746    94527092.427                  
  21832355.891   114729766.141    21832357.946    89399808.130                  
                 116188029.864                   116188029.864    22312680.125  
                 129867144.598                   129867144.598    24939617.681  
                 119837286.539                   119837286.539    23013489.482  
                 129431460.804                   129431460.804    24855951.324  
  23734947.103   124727977.534                                                  
 21  9  1  9 42 54.0000000  0 15G 1G 3G 7G 8G14G17G19G21G22G30C23C25
                                C28C34E27
  20179608.036   106044520.654    20179610.592    82632084.250                  
  23789711.798   125015748.227    23789714.479    97414860.359                  
  23230028.697   122074630.582    23230028.572    95123089.945                  
  24602538.773   129287163.040    24602541.775   100743231.278                  
  20531998.964   107896398.875    20531998.857    84075122.132                  
  21432942.076   112630887.617    21432941.271    87764331.626                  
  23233540.925   122093101.837    23233538.727    95137487.480                  
  22383586.838   117626551.327    22383585.516    91657055.742                  
  23084174.798   121308181.245    23084172.296    94525862.167                  
  21832791.806   114732056.848    21832793.861    89401593.098                  
                 116189196.992                   116189196.992    22312904.256  
                 129870416.141                   129870416.141    24940245.938  
                 119835407.028                   119835407.028    23013128.545  
                 129434136.556                   129434136.556    24856465.166  
  23735174.343   124729171.669                                                  
 21  9  1  9 42 55.0000000  0 15G 1G 3G 7G 8G14G17G19G21G22G30C23C25
                                C28C34E27
  20179792.463   106045489.805    20179795.018    82632839.433                  
  23789161.397   125012855.911    23789164.077    97412606.606                  
  23230705.325   122078186.189    23230705.182    95125860.548                  
  24603097.448   129290098.777    24603100.414   100745518.867                  
  20531746.475   107895072.067    20531746.385    84074088.258                  
  21432682.653   112629524.413    21432681.867    87763269.392                  
  23233009.893   122090311.294    23233007.695    95135313.026                  
  22384081.828   117629152.531    22384080.505    91659082.652                  
  23083874.438   121306602.899    23083871.936    94524632.289                  
  21833227.828   114734348.047    21833229.865    89403378.446                  
                 116190364.636                   116190364.636    22313128.494  
                 129873687.852                   129873687.852    24940874.249  
                 119833527.805                   119833527.805    23012767.663  
                 129436812.354                   129436812.354    24856979.025  
  23735401.637   124730366.160                                                  
 21  9  1  9 42 56.0000000  0 15G 1G 3G 7G 8G14G17G19G21G22G30C23C25
                                C28C34E27
  20179977.014   106046459.640    20179979.587    82633595.149                  
  23788611.067   125009963.833    23788613.747    97410353.034                  
  23231381.953   122081741.965    23231381.828    95128631.278                  
  24603656.105   129293034.508    24603659.071   100747806.450                  
  20531494.075   107893745.673    20531493.986    84073054.704                  
  21432423.302   112628161.462    21432422.498    87762207.347                  
  23232478.897   122087520.918    23232476.717    95133138.710                  
  22384576.871   117631754.034    22384575.567    91661109.797                  
  23083574.184   121305025.017    23083571.683    94523402.768                  
  21833663.904   114736639.725    21833665.959    89405164.172                  
                 116191532.793                   116191532.793    22313352.822  
                 129876959.723                   129876959.723    24941502.559  
                 119831648.867                   119831648.867    23012406.833  
                 129439488.214                   129439488.214    24857492.902  
  23735629.020   124731560.985                                                  
 21  9  1  9 42 57.0000000  0 15G 1G 3G 7G 8G14G17G19G21G22G30C23C25
                                C28C34E27
  20180161.708   106047430.154    20180164.263    82634351.395                  
  23788060.754   125007071.961    23788063.435    97408099.629                  
  23232058.618   122085297.886    23232058.493    95131402.130                  
  24604214.744   129295970.253    24604217.746   100750094.044                  
  20531241.746   107892419.675    20531241.639    84072021.461                  
  21432164.005   112626798.754    21432163.183    87761145.496                  
  23231947.955   122084730.710    23231945.757    95130964.528                  
  22385071.986   117634355.824    22385070.664    91663137.169                  
  23083274.021   121303447.607    23083271.519    94522173.620                  
  21834100.086   114738931.888    21834102.141    89406950.270                  
                 116192701.464                   116192701.464    22313577.257  
                 129880231.757                   129880231.757    24942130.923  
                 119829770.219                   119829770.219    23012046.058  
                 129442164.125                   129442164.125    24858006.780  
  23735856.439   124732756.148                                                  
 21  9  1  9 42 58.0000000  0 15G 1G 3G 7G 8G14G17G19G21G22G30C23C25
                                C28C34E27
  20180346.527   106048401.362    20180349.083    82635108.183                  
  23787510.496   125004180.332    23787513.176    97405846.414                  
  23232735.335   122088853.986    23232735.192    95134173.114                  
  24604773.401   129298905.960    24604776.385   100752381.605                  
  20530989.507   107891094.102    20530989.400    84070988.543                  
  21431904.725   112625436.304    21431903.921    87760083.847                  
  23231417.012   122081940.686    23231414.815    95128790.482                  
  22385567.137   117636957.926    22385565.814    91665164.778                  
  23082973.946   121301870.684    23082971.444    94520944.852                  
  21834536.359   114741224.540    21834538.414    89408736.754                  
                 116193870.647                   116193870.647    22313801.781  
                 129883503.957                   129883503.957    24942759.323  
                 119827891.854                   119827891.854    23011685.336  
                 129444840.087                   129444840.087    24858520.657  
  23736083.948   124733951.669                                                  
 21  9  1  9 42 59.0000000  0 15G 1G 3G 7G 8G14G17G19G21G22G30C23C25
                                C28C34E27
  20180531.454   106049373.231    20180534.027    82635865.481                  
  23786960.273   125001288.923    23786962.953    97403593.366                  
  23233412.053   122092410.246    23233411.946    95136944.222                  
  24605332.041   129301841.703    24605335.043   100754669.195                  
  20530737.340   107889768.938    20530737.215    84069955.950                  
  21431645.499   112624074.101    21431644.695    87759022.390                  
  23230886.142   122079150.827    23230883.944    95126616.567                  
  22386062.359   117639560.324    22386061.036    91667192.620                  
  23082673.961   121300294.240    23082671.441    94519716.449                  
  21834972.738   114743517.679    21834974.775    89410523.614                  
                 116195040.348                   116195040.348    22314026.412  
                 129886776.319                   129886776.319    24943387.741  
                 119826013.783                   119826013.783    23011324.685  
                 129447516.106                   129447516.106    24859034.552  
  23736311.528   124735147.530                                                  
 21  9  1  9 43  0.0000000  0 15G 1G 3G 7G 8G14G17G19G21G22G30C23C25
                                C28C34E27
  20180716.523   106050345.804    20180719.096    82636623.333                  
  23786410.103   124998397.746    23786412.784    97401340.503                  
  23234088.825   122095966.651    23234088.699    95139715.449                  
  24605890.698   129304777.434    24605893.682   100756956.782                  
  20530485.243   107888444.181    20530485.136    84068923.672                  
  21431386.345   112622712.144    21431385.523    87757961.130                  
  23230355.289   122076361.141    23230353.073    95124442.781                  
  22386557.634   117642163.015    22386556.312    91669220.692                  
  23082374.065   121298718.274    23082371.563    94518488.430                  
  21835409.207   114745811.309    21835411.244    89412310.860                  
                 116196210.557                   116196210.557    22314251.133  
                 129890048.848                   129890048.848    24944016.195  
                 119824135.993                   119824135.993    23010964.053  
                 129450192.175                   129450192.175    24859548.483  
  23736539.143   124736343.734                                                  
 21  9  1  9 43  1.0000000  0 15G 1G 3G 7G 8G14G17G19G21G22G30C23C25
                                C28C34E27
  20180901.736   106051319.058    20180904.309    82637381.710                  
  23785859.988   124995506.789    23785862.668    97399087.810                  
  23234765.614   122099523.214    23234765.507    95142486.797                  
  24606449.337   129307713.144    24606452.339   100759244.344                  
  20530233.219   107887119.841    20530233.112    84067891.714                  
  21431127.226   112621350.437    21431126.404    87756900.055                  
  23229824.436   122073571.633    23229822.238    95122269.142                  
  22387052.982   117644766.015    22387051.659    91671249.003                  
  23082074.241   121297142.789    23082071.739    94517260.777                  
  21835845.765   114748105.425    21835847.802    89414098.481                  
                 116197381.284                   116197381.284    22314475.961  
                 129893321.539                   129893321.539    24944644.684  
                 119822258.489                   119822258.489    23010603.492  
                 129452868.296                   129452868.296    24860062.396  
  23736766.848   124737540.288                                                  
 21  9  1  9 43  2.0000000  0 15G 1G 3G 7G 8G14G17G19G21G22G30C23C25
                                C28C34E27
  20181087.055   106052292.981    20181089.629    82638140.608                  
  23785309.872   124992616.067    23785312.552    97396835.301                  
  23235442.439   122103079.957    23235442.314    95145258.282                  
  24607007.994   129310648.842    24607010.978   100761531.903                  
  20529981.283   107885795.912    20529981.176    84066860.085                  
  21430868.143   112619988.985    21430867.321    87755839.183                  
  23229293.654   122070782.296    23229291.456    95120095.632                  
  22387548.365   117647369.308    22387547.042    91673277.543                  
  23081774.541   121295567.776    23081772.040    94516033.495                  
  21836282.395   114750400.035    21836284.467    89415886.488                  
                 116198552.523                   116198552.523    22314700.897  
                 129896594.396                   129896594.396    24945273.191  
                 119820381.275                   119820381.275    23010243.002  
                 129455544.478                   129455544.478    24860576.345  
  23736994.607   124738737.188                                                  
 21  9  1  9 43  3.0000000  0 15G 1G 3G 7G 8G14G17G19G21G22G30C23C25
                                C28C34E27
  20181272.518   106053267.602    20181275.073    82638900.054                  
  23784759.845   124989725.573    23784762.526    97394582.969                  
  23236119.299   122106636.860    23236119.174    95148029.895                  
  24607566.633   129313584.556    24607569.618   100763819.472                  
  20529729.437   107884472.387    20529729.312    84065828.765                  
  21430609.096   112618627.773    21430608.292    87754778.501                  
  23228762.909   122067993.130    23228760.693    95117922.258                  
  22388043.819   117649972.915    22388042.497    91675306.325                  
  23081474.914   121293993.251    23081472.394    94514806.595                  
  21836719.131   114752695.120    21836721.204    89417674.866                  
                 116199724.276                   116199724.276    22314925.921  
                 129899867.415                   129899867.415    24945901.734  
                 119818504.343                   119818504.343    23009882.566  
                 129458220.707                   129458220.707    24861090.276  
  23737222.437   124739934.431                                                  
 21  9  1  9 43  4.0000000  0 15G 1G 3G 7G 8G14G17G19G21G22G30C23C25
                                C28C34E27
  20181458.123   106054242.895    20181460.679    82639660.022                  
  23784209.837   124986835.306    23784212.517    97392330.812                  
  23236796.196   122110193.934    23236796.053    95150801.641                  
  24608125.273   129316520.251    24608128.275   100766107.025                  
  20529477.663   107883149.286    20529477.538    84064797.781                  
  21430350.120   112617266.817    21430349.316    87753718.016                  
  23228232.163   122065204.136    23228229.965    95115749.016                  
  22388539.327   117652576.812    22388538.005    91677335.341                  
  23081175.375   121292419.207    23081172.874    94513580.067                  
  21837155.975   114754990.704    21837158.012    89419463.633                  
                 116200896.542                   116200896.542    22315151.035  
                 129903140.598                   129903140.598    24946530.348  
                 119816627.702                   119816627.702    23009522.184  
                 129460896.993                   129460896.993    24861604.243  
  23737450.321   124741132.023                                                  
 21  9  1  9 43  5.0000000  0 15G 1G 3G 7G 8G14G17G19G21G22G30C23C25
                                C28C34E27
  20181643.836   106055218.875    20181646.392    82640420.526                  
  23783659.882   124983945.264    23783662.562    97390078.832                  
  23237473.128   122113751.181    23237472.985    95153573.520                  
  24608683.912   129319455.926    24608686.914   100768394.564                  
  20529225.960   107881826.595    20529225.835    84063767.109                  
  21430091.198   112615906.113    21430090.376    87752657.727                  
  23227701.489   122062415.321    23227699.273    95113575.909                  
  22389034.889   117655181.009    22389033.566    91679364.583                  
  23080875.944   121290845.641    23080873.442    94512353.909                  
  21837592.909   114757286.774    21837594.964    89421252.777                  
                 116202069.324                   116202069.324    22315376.256  
                 129906413.946                   129906413.946    24947158.945  
                 119814751.346                   119814751.346    23009161.837  
                 129463573.327                   129463573.327    24862118.192  
  23737678.276   124742329.956                                                  
 21  9  1  9 43  6.0000000  0 15G 1G 3G 7G 8G14G17G19G21G22G30C23C25
                                C28C34E27
  20181829.692   106056195.530    20181832.265    82641181.558                  
  23783109.981   124981055.449    23783112.661    97387827.032                  
  23238150.060   122117308.587    23238149.935    95156345.524                  
  24609242.551   129322391.616    24609245.553   100770682.114                  
  20528974.328   107880504.306    20528974.221    84062736.754                  
  21429832.294   112614545.636    21429831.507    87751597.617                  
  23227170.814   122059626.683    23227168.617    95111402.949                  
  22389530.504   117657785.493    22389529.181    91681394.051                  
  23080576.602   121289272.554    23080574.101    94511128.129                  
  21838029.913   114759583.329    21838031.986    89423042.300                  
                 116203242.616                   116203242.616    22315601.585  
                 129909687.454                   129909687.454    24947787.577  
                 119812875.278                   119812875.278    23008801.562  
                 129466249.718                   129466249.718    24862632.159  
  23737906.302   124743528.226                                                  
 21  9  1  9 43  7.0000000  0 15G 1G 3G 7G 8G14G17G19G21G22G30C23C25
                                C28C34E27
  20182015.673   106057172.874    20182018.246    82641943.125                  
  23782560.097   124978165.862    23782562.778    97385575.406                  
  23238827.046   122120866.145    23238826.921    95159117.649                  
  24609801.226   129325327.329    24609804.192   100772969.680                  
  20528722.786   107879182.422    20528722.679    84061706.719                  
  21429573.461   112613185.410    21429572.657    87750537.699                  
  23226640.176   122056838.226    23226637.978    95109230.125                  
  22390026.173   117660390.280    22390024.868    91683423.753                  
  23080277.332   121287699.948    23080274.848    94509902.722                  
  21838467.043   114761880.383    21838469.098    89424832.210                  
                 116204416.422                   116204416.422    22315827.002  
                 129912961.128                   129912961.128    24948416.263  
                 119810999.495                   119810999.495    23008441.340  
                 129468926.159                   129468926.159    24863146.143  
  23738134.400   124744726.855                                                  
 21  9  1  9 43  8.0000000  0 15G 1G 3G 7G 8G14G17G19G21G22G30C23C25
                                C28C34E27
  20182201.779   106058150.906    20182204.352    82642705.228                  
  23782010.285   124975276.519    23782012.966    97383323.966                  
  23239504.068   122124423.887    23239503.943    95161889.914                  
  24610359.865   129328263.016    24610362.832   100775257.226                  
  20528471.315   107877860.984    20528471.226    84060677.022                  
  21429314.682   112611825.484    21429313.860    87749478.016                  
  23226109.573   122054049.898    23226107.375    95107057.402                  
  22390521.895   117662995.390    22390520.608    91685453.710                  
  23079978.169   121286127.817    23079975.667    94508677.683                  
  21838904.245   114764177.886    21838906.300    89426622.477                  
                 116205590.743                   116205590.743    22316052.492  
                 129916234.965                   129916234.965    24949044.967  
                 119809124.003                   119809124.003    23008081.154  
                 129471602.661                   129471602.661    24863660.146  
  23738362.552   124745925.820                                                  
 21  9  1  9 43  9.0000000  0 15G 1G 3G 7G 8G14G17G19G21G22G30C23C25
                                C28C34E27
  20182388.027   106059129.597    20182390.601    82643467.844                  
  23781460.491   124972387.388    23781463.172    97381072.696                  
  23240181.107   122127981.789    23240180.982    95164662.305                  
  24610918.505   129331198.688    24610921.489   100777544.765                  
  20528219.934   107876539.942    20528219.844    84059647.642                  
  21429055.920   112610465.766    21429055.116    87748418.496                  
  23225579.024   122051261.776    23225576.826    95104884.840                  
  22391017.707   117665600.769    22391016.385    91687483.874                  
  23079679.095   121284556.171    23079676.593    94507453.028                  
  21839341.536   114766475.903    21839343.608    89428413.137                  
                 116206765.579                   116206765.579    22316278.124  
                 129919508.965                   129919508.965    24949673.706  
                 119807248.792                   119807248.792    23007721.057  
                 129474279.207                   129474279.207    24864174.148  
  23738590.775   124747125.130                                                  
 21  9  1  9 43 10.0000000  0 15G 1G 3G 7G 8G14G17G19G21G22G30C23C25
                                C28C34E27
  20182574.401   106060108.984    20182576.957    82644231.001                  
  23780910.769   124969498.482    23780913.449    97378821.599                  
  23240858.182   122131539.849    23240858.057    95167434.817                  
  24611477.144   129334134.331    24611480.128   100779832.277                  
  20527968.624   107875219.306    20527968.517    84058618.574                  
  21428797.213   112609106.292    21428796.426    87747359.167                  
  23225048.493   122048473.827    23225046.295    95102712.414                  
  22391513.536   117668206.453    22391512.214    91689514.277                  
  23079380.092   121282985.000    23079377.609    94506228.738                  
  21839778.916   114768774.392    21839780.988    89430204.165                  
                 116207940.927                   116207940.927    22316503.845  
                 129922783.130                   129922783.130    24950302.481  
                 119805373.876                   119805373.876    23007360.997  
                 129476955.813                   129476955.813    24864688.168  
  23738819.052   124748324.794                                                  
 21  9  1  9 43 11.0000000  0 15G 1G 3G 7G 8G14G17G19G21G22G30C23C25
                                C28C34E27
  20182760.900   106061089.045    20182763.456    82644994.687                  
  23780361.064   124966609.820    23780363.744    97376570.695                  
  23241535.293   122135098.087    23241535.168    95170207.468                  
  24612035.783   129337069.976    24612038.767   100782119.793                  
  20527717.403   107873899.083    20527717.296    84057589.829                  
  21428538.576   112607747.082    21428537.772    87746300.043                  
  23224517.997   122045686.051    23224515.799    95100540.121                  
  22392009.438   117670812.437    22392008.115    91691544.914                  
  23079081.215   121281414.321    23079078.713    94505004.831                  
  21840216.421   114771073.371    21840218.458    89431995.579                  
                 116209116.786                   116209116.786    22316729.638  
                 129926057.453                   129926057.453    24950931.274  
                 119803499.241                   119803499.241    23007000.972  
                 129479632.470                   129479632.470    24865202.189  
  23739047.418   124749524.789                                                  
 21  9  1  9 43 12.0000000  0 15G 1G 3G 7G 8G14G17G19G21G22G30C23C25
                                C28C34E27
  20182947.524   106062069.785    20182950.080    82645758.898                  
  23779811.395   124963721.372    23779814.075    97374319.957                  
  23242212.440   122138656.461    23242212.297    95172980.231                  
  24612594.405   129340005.622    24612597.407   100784407.309                  
  20527466.236   107872579.273    20527466.147    84056561.406                  
  21428279.976   112606388.124    21428279.154    87745241.112                  
  23223987.519   122042898.437    23223985.339    95098367.956                  
  22392505.392   117673418.712    22392504.088    91693575.773                  
  23078782.427   121279844.124    23078779.926    94503781.301                  
  21840653.979   114773372.837    21840656.034    89433787.366                  
                 116210293.160                   116210293.160    22316955.556  
                 129929331.947                   129929331.947    24951560.103  
                 119801624.895                   119801624.895    23006641.036  
                 129482309.175                   129482309.175    24865716.227  
  23739275.838   124750725.143                                                  
 21  9  1  9 43 13.0000000  0 15G 1G 3G 7G 8G14G17G19G21G22G30C23C25
                                C28C34E27
  20183134.274   106063051.208    20183136.847    82646523.641                  
  23779261.797   124960833.155    23779264.478    97372069.403                  
  23242889.604   122142215.017    23242889.479    95175753.130                  
  24613153.044   129342941.247    24613156.028   100786694.809                  
  20527215.176   107871259.875    20527215.051    84055533.306                  
  21428021.411   112605029.410    21428020.625    87744182.374                  
  23223457.095   122040111.013    23223454.897    95096195.938                  
  22393001.419   117676025.285    22393000.096    91695606.872                  
  23078483.729   121278274.403    23078481.191    94502558.144                  
  21841091.663   114775672.781    21841093.700    89435579.535                  
                 116211470.048                   116211470.048    22317181.564  
                 129932606.598                   129932606.598    24952188.968  
                 119799750.833                   119799750.833    23006281.136  
                 129484985.939                   129484985.939    24866230.265  
  23739504.311   124751925.826                                                  
 21  9  1  9 43 14.0000000  0 15G 1G 3G 7G 8G14G17G19G21G22G30C23C25
                                C28C34E27
  20183321.184   106064033.316    20183323.739    82647288.921                  
  23778712.235   124957945.180    23778714.916    97369819.030                  
  23243566.804   122145773.725    23243566.679    95178526.149                  
  24613711.665   129345876.852    24613714.667   100788982.293                  
  20526964.188   107869940.899    20526964.081    84054505.528                  
  21427762.918   112603670.945    21427762.096    87743123.832                  
  23222926.707   122037323.754    23222924.491    95094024.047                  
  22393497.498   117678632.167    22393496.176    91697638.208                  
  23078185.101   121276705.157    23078182.600    94501335.357                  
  21841529.419   114777973.221    21841531.456    89437372.082                  
                 116212647.449                   116212647.449    22317407.678  
                 129935881.414                   129935881.414    24952817.868  
                 119797877.059                   119797877.059    23005921.307  
                 129487662.755                   129487662.755    24866744.321  
  23739732.874   124753126.872                                                  
 21  9  1  9 43 15.0000000  0 15G 1G 3G 7G 8G14G17G19G21G22G30C23C25
                                C28C34E27
  20183508.201   106065016.112    20183510.756    82648054.739                  
  23778162.727   124955057.421    23778165.408    97367568.829                  
  23244244.040   122149332.607    23244243.915    95181299.301                  
  24614270.305   129348812.453    24614273.289   100791269.773                  
  20526713.254   107868622.328    20526713.164    84053478.070                  
  21427504.460   112602312.733    21427503.638    87742065.487                  
  23222396.337   122034536.667    23222394.139    95091852.292                  
  22393993.614   117681239.331    22393992.292    91699669.766                  
  23077886.564   121275136.398    23077884.062    94500112.945                  
  21841967.263   114780274.140    21841969.318    89439165.007                  
                 116213825.364                   116213825.364    22317633.882  
                 129939156.391                   129939156.391    24953446.786  
                 119796003.573                   119796003.573    23005561.515  
                 129490339.620                   129490339.620    24867258.377  
  23739961.472   124754328.261                                                  
 21  9  1  9 43 16.0000000  0 15G 1G 3G 7G 8G14G17G19G21G22G30C23C25
                                C28C34E27
  20183695.343   106065999.575    20183697.898    82648821.074                  
  23777613.237   124952169.892    23777615.917    97365318.804                  
  23244921.294   122152891.655    23244921.187    95184072.586                  
  24614828.926   129351748.058    24614831.892   100793557.257                  
  20526462.426   107867304.168    20526462.319    84052450.934                  
  21427246.039   112600954.767    21427245.234    87741007.327                  
  23221866.002   122031749.757    23221863.804    95089680.671                  
  22394489.801   117683846.796    22394488.479    91701701.558                  
  23077588.133   121273568.129    23077585.631    94498890.917                  
  21842405.197   114782575.543    21842407.252    89440958.308                  
                 116215003.790                   116215003.790    22317860.176  
                 129942431.536                   129942431.536    24954075.740  
                 119794130.375                   119794130.375    23005201.793  
                 129493016.538                   129493016.538    24867772.469  
  23740190.160   124755529.980                                                  
 21  9  1  9 43 17.0000000  0 15G 1G 3G 7G 8G14G17G19G21G22G30C23C25
                                C28C34E27
  20183882.628   106066983.730    20183885.184    82649587.948                  
  23777063.800   124949282.594    23777066.481    97363068.966                  
  23245598.602   122156450.868    23245598.477    95186846.001                  
  24615387.547   129354683.677    24615390.531   100795844.750                  
  20526211.652   107865986.422    20526211.563    84051424.117                  
  21426987.688   112599597.051    21426986.866    87739949.367                  
  23221335.703   122028963.020    23221333.505    95087509.188                  
  22394986.042   117686454.567    22394984.719    91703733.585                  
  23077289.792   121272000.329    23077287.308    94497669.255                  
  21842843.239   114784877.441    21842845.276    89442751.991                  
                 116216182.732                   116216182.732    22318086.576  
                 129945706.836                   129945706.836    24954704.747  
                 119792257.462                   119792257.462    23004842.126  
                 129495693.517                   129495693.517    24868286.543  
  23740418.919   124756732.056                                                  
 21  9  1  9 43 18.0000000  0 15G 1G 3G 7G 8G14G17G19G21G22G30C23C25
                                C28C34E27
  20184070.021   106067968.587    20184072.594    82650355.376                  
  23776514.399   124946395.546    23776517.080    97360819.325                  
  23246275.927   122160010.249    23246275.802    95189619.535                  
  24615946.187   129357619.252    24615949.153   100798132.195                  
  20525960.986   107864669.086    20525960.878    84050397.617                  
  21426729.356   112598239.528    21426728.552    87738891.536                  
  23220805.440   122026176.524    23220803.242    95085337.926                  
  22395482.336   117689062.614    22395481.014    91705765.824                  
  23076991.540   121270433.017    23076989.038    94496447.973                  
  21843281.351   114787179.839    21843283.424    89444546.083                  
                 116217362.182                   116217362.182    22318313.102  
                 129948982.304                   129948982.304    24955333.755  
                 119790384.837                   119790384.837    23004482.494  
                 129498370.539                   129498370.539    24868800.635  
  23740647.714   124757934.473                                                  
 21  9  1  9 43 19.0000000  0 15G 1G 3G 7G 8G14G17G19G21G22G30C23C25
                                C28C34E27
  20184257.556   106068954.107    20184260.111    82651123.313                  
  23775965.052   124943508.706    23775967.732    97358569.837                  
  23246953.288   122163569.784    23246953.163    95192393.199                  
  24616504.808   129360554.854    24616507.774   100800419.679                  
  20525710.372   107863352.167    20525710.283    84049371.449                  
  21426471.077   112596882.293    21426470.273    87737833.950                  
  23220275.194   122023390.142    23220272.996    95083166.722                  
  22395978.702   117691670.990    22395977.379    91707798.325                  
  23076693.378   121268866.189    23076690.876    94495227.067                  
  21843719.571   114789482.706    21843721.644    89446340.523                  
                 116218542.153                   116218542.153    22318539.699  
                 129952257.935                   129952257.935    24955962.798  
                 119788512.496                   119788512.496    23004122.933  
                 129501047.617                   129501047.617    24869314.744  
  23740876.598   124759137.224                                                  
 21  9  1  9 43 20.0000000  0 15G 1G 3G 7G 8G14G17G19G21G22G30C23C25
                                C28C34E27
  20184445.234   106069940.313    20184447.808    82651891.781                  
  23775415.758   124940622.107    23775418.438    97356320.534                  
  23247630.685   122167129.499    23247630.542    95195167.003                  
  24617063.412   129363490.429    24617066.396   100802707.141                  
  20525459.867   107862035.668    20525459.759    84048345.601                  
  21426212.852   112595525.316    21426212.065    87736776.563                  
  23219745.002   122020603.930    23219742.805    95080995.648                  
  22396475.103   117694279.644    22396473.781    91709831.042                  
  23076395.322   121267299.839    23076392.821    94494006.535                  
  21844157.898   114791786.066    21844159.953    89448135.349                  
                 116219722.633                   116219722.633    22318766.385  
                 129955533.725                   129955533.725    24956591.877  
                 119786640.447                   119786640.447    23003763.444  
                 129503724.750                   129503724.750    24869828.854  
  23741105.554   124760340.327                                                  
 21  9  1  9 43 21.0000000  0 15G 1G 3G 7G 8G14G17G19G21G22G30C23C25
                                C28C34E27
  20184633.020   106070927.183    20184635.593    82652660.773                  
  23774866.500   124937735.730    23774869.180    97354071.419                  
  23248308.100   122170689.387    23248307.974    95197940.942                  
  24617622.033   129366425.984    24617625.017   100804994.586                  
  20525209.414   107860719.574    20525209.325    84047320.075                  
  21425954.680   112594168.568    21425953.858    87735719.359                  
  23219214.846   122017817.888    23219212.648    95078824.706                  
  22396971.576   117696888.589    22396970.254    91711863.993                  
  23076097.338   121265733.973    23076094.837    94492786.382                  
  21844596.297   114794089.902    21844598.352    89449930.547                  
                 116220903.624                   116220903.624    22318993.179  
                 129958809.679                   129958809.679    24957220.992  
                 119784768.679                   119784768.679    23003403.973  
                 129506401.933                   129506401.933    24870342.981  
  23741334.564   124761543.771                                                  
 21  9  1  9 43 22.0000000  0 15G 1G 3G 7G 8G14G17G19G21G22G30C23C25
                                C28C34E27
  20184820.966   106071914.742    20184823.522    82653430.304                  
  23774317.278   124934849.577    23774319.958    97351822.473                  
  23248985.568   122174249.434    23248985.425    95200715.008                  
  24618180.654   129369361.536    24618183.638   100807282.031                  
  20524959.052   107859403.890    20524958.944    84046294.872                  
  21425696.544   112592812.066    21425695.740    87734662.347                  
  23218684.708   122015032.017    23218682.492    95076653.902                  
  22397468.102   117699497.839    22397466.780    91713897.175                  
  23075799.462   121264168.583    23075796.960    94491566.604                  
  21845034.803   114796394.230    21845036.858    89451726.128                  
                 116222085.133                   116222085.133    22319220.080  
                 129962085.796                   129962085.796    24957850.142  
                 119782897.203                   119782897.203    23003044.573  
                 129509079.173                   129509079.173    24870857.127  
  23741563.645   124762747.567                                                  
 21  9  1  9 43 23.0000000  0 15G 1G 3G 7G 8G14G17G19G21G22G30C23C25
                                C28C34E27
  20185009.002   106072902.968    20185011.575    82654200.355                  
  23773768.091   124931963.653    23773770.772    97349573.703                  
  23249663.036   122177809.647    23249662.929    95203489.203                  
  24618739.276   129372297.096    24618742.260   100809569.485                  
  20524708.760   107858088.621    20524708.653    84045269.993                  
  21425438.462   112591455.814    21425437.640    87733605.532                  
  23218154.606   122012246.321    23218152.408    95074483.235                  
  22397964.683   117702107.388    22397963.360    91715930.595                  
  23075501.657   121262603.682    23075499.155    94490347.204                  
  21845473.398   114798699.034    21845475.435    89453522.086                  
                 116223267.151                   116223267.151    22319447.088  
                 129965362.078                   129965362.078    24958479.328  
                 119781026.011                   119781026.011    23002685.245  
                 129511756.460                   129511756.460    24871371.254  
  23741792.779   124763951.703                                                  
 21  9  1  9 43 24.0000000  0 15G 1G 3G 7G 8G14G17G19G21G22G30C23C25
                                C28C34E27
  20185197.199   106073891.885    20185199.754    82654970.942                  
  23773218.976   124929077.966    23773221.656    97347325.113                  
  23250340.558   122181370.016    23250340.433    95206263.512                  
  24619297.897   129375232.660    24619300.881   100811856.937                  
  20524458.558   107856773.765    20524458.469    84044245.425                  
  21425180.415   112590099.817    21425179.611    87732548.911                  
  23217624.539   122009460.793    23217622.341    95072312.695                  
  22398461.316   117704717.230    22398459.994    91717964.234                  
  23075203.959   121261039.260    23075201.457    94489128.172                  
  21845912.082   114801004.316    21845914.120    89455318.405                  
                 116224449.684                   116224449.684    22319674.185  
                 129968638.520                   129968638.520    24959108.515  
                 119779155.110                   119779155.110    23002325.953  
                 129514433.800                   129514433.800    24871885.418  
  23742021.985   124765156.182                                                  
 21  9  1  9 43 25.0000000  0 15G 1G 3G 7G 8G14G17G19G21G22G30C23C25
                                C28C34E27
  20185385.502   106074881.484    20185388.058    82655742.054                  
  23772669.897   124926192.514    23772672.577    97345076.714                  
  23251018.098   122184930.550    23251017.973    95209037.956                  
  24619856.519   129378168.206    24619859.503   100814144.376                  
  20524208.427   107855459.329    20524208.320    84043221.192                  
  21424922.440   112588744.069    21424921.618    87731492.484                  
  23217094.508   122006675.450    23217092.292    95070142.296                  
  22398958.004   117707327.367    22398956.681    91719998.110                  
  23074906.368   121259475.314    23074903.866    94487909.512                  
  21846350.838   114803310.082    21846352.893    89457115.106                  
                 116225632.731                   116225632.731    22319901.354  
                 129971915.125                   129971915.125    24959737.754  
                 119777284.491                   119777284.491    23001966.714  
                 129517111.194                   129517111.194    24872399.581  
  23742251.262   124766361.011                                                  
 21  9  1  9 43 26.0000000  0 15G 1G 3G 7G 8G14G17G19G21G22G30C23C25
                                C28C34E27
  20185573.967   106075871.767    20185576.522    82656513.702                  
  23772120.853   124923307.294    23772123.534    97342828.484                  
  23251695.673   122188491.257    23251695.566    95211812.535                  
  24620415.122   129381103.743    24620418.124   100816431.805                  
  20523958.386   107854145.306    20523958.279    84042197.278                  
  21424664.483   112587388.574    21424663.679    87730436.254                  
  23216564.495   122003890.280    23216562.297    95067972.036                  
  22399454.763   117709937.825    22399453.440    91722032.230                  
  23074608.849   121257911.860    23074606.347    94486691.239                  
  21846789.720   114805616.339    21846791.757    89458912.191                  
                 116226816.290                   116226816.290    22320128.666  
                 129975191.890                   129975191.890    24960367.048  
                 119775414.160                   119775414.160    23001607.547  
                 129519788.641                   129519788.641    24872913.762  
  23742480.593   124767566.183                                                  
 21  9  1  9 43 27.0000000  0 15G 1G 3G 7G 8G14G17G19G21G22G30C23C25
                                C28C34E27
  20185762.521   106076862.727    20185765.076    82657285.879                  
  23771571.863   124920422.288    23771574.544    97340580.434                  
  23252373.302   122192052.128    23252373.177    95214587.237                  
  24620973.743   129384039.239    24620976.728   100818719.202                  
  20523708.399   107852831.691    20523708.291    84041173.684                  
  21424406.597   112586033.332    21424405.775    87729380.223                  
  23216034.536   122001105.286    23216032.338    95065801.911                  
  22399951.557   117712548.557    22399950.235    91724066.566                  
  23074311.419   121256348.891    23074308.917    94485473.340                  
  21847228.672   114807923.082    21847230.727    89460709.652                  
                 116228000.364                   116228000.364    22320356.031  
                 129978468.818                   129978468.818    24960996.341  
                 119773544.117                   119773544.117    23001248.415  
                 129522466.141                   129522466.141    24873427.943  
  23742709.996   124768771.705                                                  
 21  9  1  9 43 28.0000000  0 15G 1G 3G 7G 8G14G17G19G21G22G30C23C25
                                C28C34E27
  20185951.218   106077854.356    20185953.773    82658058.577                  
  23771022.891   124917537.541    23771025.571    97338332.581                  
  23253050.931   122195613.186    23253050.806    95217362.098                  
  24621532.347   129386974.712    24621535.331   100821006.570                  
  20523458.518   107851518.493    20523458.393    84040150.406                  
  21424148.747   112584678.332    21424147.943    87728324.375                  
  23215504.594   121998320.453    23215502.396    95063631.906                  
  22400448.423   117715159.574    22400447.101    91726101.124                  
  23074014.096   121254786.376    23074011.595    94484255.781                  
  21847667.714   114810230.325    21847669.787    89462507.507                  
                 116229184.952                   116229184.952    22320583.522  
                 129981745.917                   129981745.917    24961625.652  
                 119771674.353                   119771674.353    23000889.355  
                 129525143.687                   129525143.687    24873942.142  
  23742939.452   124769977.578                                                  
 21  9  1  9 43 29.0000000  0 15G 1G 3G 7G 8G14G17G19G21G22G30C23C25
                                C28C34E27
  20186140.058   106078846.675    20186142.613    82658831.813                  
  23770474.008   124914653.013    23770476.653    97336084.899                  
  23253728.596   122199174.380    23253728.471    95220137.051                  
  24622090.933   129389910.184    24622093.935   100823293.953                  
  20523208.691   107850205.706    20523208.602    84039127.458                  
  21423890.969   112583323.589    21423890.147    87727268.731                  
  23214974.706   121995535.800    23214972.508    95061462.051                  
  22400945.343   117717770.907    22400944.021    91728135.930                  
  23073716.863   121253224.364    23073714.361    94483038.628                  
  21848106.863   114812538.042    21848108.918    89464305.731                  
                 116230370.052                   116230370.052    22320811.120  
                 129985023.168                   129985023.168    24962255.017  
                 119769804.882                   119769804.882    23000530.348  
                 129527821.294                   129527821.294    24874456.341  
  23743168.998   124771183.780                                                  
 21  9  1  9 43 30.0000000  0 15G 1G 3G 7G 8G14G17G19G21G22G30C23C25
                                C28C34E27
  20186329.023   106079839.681    20186331.578    82659605.586                  
  23769925.126   124911768.708    23769927.806    97333837.392                  
  23254406.315   122202735.747    23254406.172    95222912.140                  
  24622649.536   129392845.665    24622652.538   100825581.339                  
  20522958.954   107848893.324    20522958.865    84038104.824                  
  21423633.208   112581969.094    21423632.386    87726213.281                  
  23214444.836   121992751.328    23214442.638    95059292.328                  
  22401442.316   117720382.534    22401440.994    91730170.966                  
  23073419.701   121251662.829    23073417.199    94481821.852                  
  21848546.102   114814846.230    21848548.156    89466104.321                  
                 116231555.661                   116231555.661    22321038.807  
                 129988300.581                   129988300.581    24962884.418  
                 119767935.703                   119767935.703    23000171.377  
                 129530498.950                   129530498.950    24874970.558  
  23743398.597   124772390.337                                                  
 21  9  1  9 43 31.0000000  0 15G 1G 3G 7G 8G14G17G19G21G22G30C23C25
                                C28C34E27
  20186518.095   106080833.358    20186520.686    82660379.880                  
  23769376.296   124908884.636    23769378.977    97331590.062                  
  23255084.033   122206297.255    23255083.926    95225687.343                  
  24623208.158   129395781.144    24623211.142   100827868.727                  
  20522709.306   107847581.367    20522709.199    84037082.516                  
  21423375.501   112580614.849    21423374.679    87725158.022                  
  23213915.001   121989967.026    23213912.803    95057122.745                  
  22401939.361   117722994.478    22401938.039    91732206.247                  
  23073122.646   121250101.785    23073120.145    94480605.454                  
  21848985.411   114817154.907    21848987.484    89467903.286                  
                 116232741.785                   116232741.785    22321266.583  
                 129991578.157                   129991578.157    24963513.836  
                 119766066.805                   119766066.805    22999812.478  
                 129533176.656                   129533176.656    24875484.793  
  23743628.267   124773597.238                                                  
 21  9  1  9 43 32.0000000  0 15G 1G 3G 7G 8G14G17G19G21G22G30C23C25
                                C28C34E27
  20186707.346   106081827.720    20186709.901    82661154.707                  
  23768827.539   124906000.803    23768830.201    97329342.923                  
  23255761.823   122209858.942    23255761.680    95228462.684                  
  24623766.761   129398716.637    24623769.763   100830156.124                  
  20522459.711   107846269.825    20522459.622    84036060.534                  
  21423117.847   112579260.848    21423117.026    87724102.961                  
  23213385.203   121987182.910    23213383.005    95054953.301                  
  22402436.441   117725606.680    22402435.119    91734241.726                  
  23072825.681   121248541.210    23072823.179    94479389.422                  
  21849424.846   114819464.077    21849426.901    89469702.641                  
                 116233928.423                   116233928.423    22321494.467  
                 129994855.893                   129994855.893    24964143.308  
                 119764198.199                   119764198.199    22999453.632  
                 129535854.417                   129535854.417    24875999.028  
  23743857.991   124774804.482                                                  
 21  9  1  9 43 33.0000000  0 15G 1G 3G 7G 8G14G17G19G21G22G30C23C25
                                C28C34E27
  20186896.686   106082822.759    20186899.241    82661930.058                  
  23768278.799   124903117.194    23768281.479    97327095.952                  
  23256439.613   122213420.790    23256439.488    95231238.148                  
  24624325.365   129401652.130    24624328.367   100832443.515                  
  20522210.224   107844958.695    20522210.117    84035038.875                  
  21422860.212   112577907.110    21422859.426    87723048.098                  
  23212855.422   121984398.949    23212853.224    95052783.985                  
  22402933.575   117728219.196    22402932.289    91736277.453                  
  23072528.805   121246981.122    23072526.304    94478173.767                  
  21849864.353   114821773.723    21849866.408    89471502.363                  
                 116235115.570                   116235115.570    22321722.440  
                 129998133.792                   129998133.792    24964772.780  
                 119762329.874                   119762329.874    22999094.840  
                 129538532.230                   129538532.230    24876513.280  
  23744087.805   124776012.066                                                  
 21  9  1  9 43 34.0000000  0 15G 1G 3G 7G 8G14G17G19G21G22G30C23C25
                                C28C34E27
  20187086.169   106083818.464    20187088.724    82662705.936                  
  23767730.095   124900233.823    23767732.775    97324849.172                  
  23257117.439   122216982.785    23257117.313    95234013.730                  
  24624883.968   129404587.570    24624886.952   100834730.875                  
  20521960.808   107843647.974    20521960.701    84034017.534                  
  21422602.666   112576553.602    21422601.862    87721993.419                  
  23212325.695   121981615.175    23212323.497    95050614.809                  
  22403430.781   117730832.005    22403429.477    91738313.411                  
  23072232.019   121245421.524    23072229.517    94476958.496                  
  21850303.967   114824083.856    21850306.022    89473302.469                  
                 116236303.235                   116236303.235    22321950.520  
                 130001411.857                   130001411.857    24965402.306  
                 119760461.843                   119760461.843    22998736.102  
                 129541210.093                   129541210.093    24877027.515  
  23744317.654   124777219.996                                                  
 21  9  1  9 43 35.0000000  0 15G 1G 3G 7G 8G14G17G19G21G22G30C23C25
                                C28C34E27
  20187275.759   106084814.868    20187278.314    82663482.355                  
  23767181.462   124897350.680    23767184.142    97322602.567                  
  23257795.300   122220544.956    23257795.157    95236789.450                  
  24625442.554   129407523.031    24625445.556   100837018.245                  
  20521711.464   107842337.667    20521711.357    84032996.520                  
  21422345.155   112575200.360    21422344.333    87720938.940                  
  23211796.003   121978831.575    23211793.805    95048445.770                  
  22403928.040   117733445.111    22403926.736    91740349.595                  
  23071935.321   121243862.387    23071932.820    94475743.586                  
  21850743.652   114826394.476    21850745.725    89475102.954                  
                 116237491.406                   116237491.406    22322178.707  
                 130004690.079                   130004690.079    24966031.832  
                 119758594.097                   119758594.097    22998377.417  
                 129543888.011                   129543888.011    24877541.803  
  23744547.575   124778428.273                                                  
 21  9  1  9 43 36.0000000  0 15G 1G 3G 7G 8G14G17G19G21G22G30C23C25
                                C28C34E27
  20187465.492   106085811.947    20187468.066    82664259.302                  
  23766632.865   124894467.767    23766635.546    97320356.141                  
  23258473.179   122224107.294    23258473.054    95239565.294                  
  24626001.157   129410458.489    24626004.159   100839305.613                  
  20521462.209   107841027.779    20521462.102    84031975.823                  
  21422087.680   112573847.360    21422086.876    87719884.656                  
  23211266.312   121976048.136    23211264.114    95046276.854                  
  22404425.353   117736058.530    22404424.049    91742386.028                  
  23071638.731   121242303.770    23071636.212    94474529.079                  
  21851183.444   114828705.562    21851185.499    89476903.796                  
                 116238680.094                   116238680.094    22322406.984  
                 130007968.460                   130007968.460    24966661.429  
                 119756726.636                   119756726.636    22998018.803  
                 129546565.982                   129546565.982    24878056.074  
  23744777.585   124779636.899                                                  
 21  9  1  9 43 37.0000000  0 15G 1G 3G 7G 8G14G17G19G21G22G30C23C25
                                C28C34E27
  20187655.387   106086809.703    20187657.942    82665036.774                  
  23766084.304   124891585.082    23766086.984    97318109.891                  
  23259151.094   122227669.788    23259150.987    95242341.263                  
  24626559.761   129413393.944    24626562.763   100841592.985                  
  20521213.025   107839718.296    20521212.900    84030955.454                  
  21421830.259   112572494.608    21421829.455    87718830.567                  
  23210736.674   121973264.886    23210734.476    95044108.090                  
  22404922.737   117738672.229    22404921.415    91744422.676                  
  23071342.213   121240745.636    23071339.711    94473314.949                  
  21851623.326   114831017.144    21851625.381    89478705.031                  
                 116239869.297                   116239869.297    22322635.333  
                 130011247.005                   130011247.005    24967291.044  
                 119754859.460                   119754859.460    22997660.244  
                 129549243.999                   129549243.999    24878570.362  
  23745007.649   124780845.874                                                  
 21  9  1  9 43 38.0000000  0 15G 1G 3G 7G 8G14G17G19G21G22G30C23C25
                                C28C34E27
  20187845.352   106087808.149    20187847.943    82665814.782                  
  23765535.797   124888702.620    23765538.477    97315863.821                  
  23259829.063   122231232.443    23259828.938    95245117.355                  
  24627118.364   129416329.408    24627121.366   100843880.354                  
  20520963.895   107838409.238    20520963.806    84029935.402                  
  21421572.892   112571142.112    21421572.088    87717776.671                  
  23210207.072   121970481.805    23210204.874    95041939.458                  
  22405420.157   117741286.227    22405418.835    91746459.556                  
  23071045.819   121239187.981    23071043.318    94472101.192                  
  21852063.297   114833329.211    21852065.334    89480506.637                  
                 116241059.009                   116241059.009    22322863.824  
                 130014525.712                   130014525.712    24967920.677  
                 119752992.577                   119752992.577    22997301.720  
                 129551922.074                   129551922.074    24879084.668  
  23745237.766   124782055.195                                                  
 21  9  1  9 43 39.0000000  0 15G 1G 3G 7G 8G14G17G19G21G22G30C23C25
                                C28C34E27
  20188035.496   106088807.261    20188038.052    82666593.313                  
  23764987.325   124885820.405    23764990.005    97313617.937                  
  23260507.031   122234795.251    23260506.924    95247893.571                  
  24627676.968   129419264.857    24627679.952   100846167.720                  
  20520714.873   107837100.586    20520714.783    84028915.675                  
  21421315.560   112569789.863    21421314.756    87716722.972                  
  23209677.523   121967698.894    23209675.308    95039770.956                  
  22405917.649   117743900.515    22405916.326    91748496.663                  
  23070749.497   121237630.807    23070746.996    94470887.812                  
  21852503.357   114835641.762    21852505.412    89482308.629                  
                 116242249.235                   116242249.235    22323092.386  
                 130017804.579                   130017804.579    24968550.363  
                 119751125.977                   119751125.977    22996943.267  
                 129554600.195                   129554600.195    24879598.957  
  23745467.955   124783264.854                                                  
 21  9  1  9 43 40.0000000  0 20G 1G 3G 7G 8G14G17G19G21G22G30C23C25
                                C28C34E13E15E21E26E27E30
  20188225.748   106089807.063    20188228.321    82667372.379                  
  23764438.907   124882938.422    23764441.587    97311372.238                  
  23261185.054   122238358.231    23261184.928    95250669.918                  
  24628235.554   129422200.288    24628238.538   100848455.066                  
  20520465.921   107835792.359    20520465.814    84027896.278                  
  21421058.282   112568437.862    21421057.478    87715669.466                  
  23209147.975   121964916.154    23209145.777    95037602.587                  
  22406415.176   117746515.097    22406413.854    91750534.000                  
  23070453.265   121236074.112    23070450.763    94469674.804                  
  21852943.525   114837954.788    21852945.562    89484110.985                  
                 116243439.974                   116243439.974    22323321.056  
                 130021083.606                   130021083.606    24969180.068  
                 119749259.664                   119749259.664    22996584.832  
                 129557278.375                   129557278.375    24880113.281  
  23490444.440   123443082.242                                                  
  23944217.914   125827688.930                                                  
  24228533.225   127321783.066                                                  
  27046456.954   142130054.382                                                  
  23745698.215   124784474.868                                                  
  26995963.276   141864709.173                                                  
 21  9  1  9 43 41.0000000  0 20G 1G 3G 7G 8G14G17G19G21G22G30C23C25
                                C28C34E13E15E21E26E27E30
  20188416.142   106090807.528    20188418.698    82668151.960                  
  23763890.524   124880056.667    23763893.205    97309126.715                  
  23261863.094   122241921.374    23261862.986    95253446.395                  
  24628794.139   129425135.711    24628797.141   100850742.411                  
  20520217.060   107834484.540    20520216.952    84026877.200                  
  21420801.057   112567086.118    21420800.253    87714616.156                  
  23208618.462   121962133.587    23208616.264    95035434.355                  
  22406912.775   117749129.972    22406911.452    91752571.563                  
  23070157.121   121234517.898    23070154.620    94468462.163                  
  21853383.764   114840268.304    21853385.819    89485913.723                  
                 116244631.224                   116244631.224    22323549.815  
                 130024362.796                   130024362.796    24969809.772  
                 119747393.640                   119747393.640    22996226.505  
                 129559956.602                   129559956.602    24880627.605  
  23490213.232   123441867.274                                                  
  23944516.094   125829255.887                                                  
  24228253.092   127320311.058                                                  
  27045906.766   142127163.164                                                  
  23745928.547   124785685.220                                                  
  26996490.019   141867477.250                                                  
 21  9  1  9 43 42.0000000  0 20G 1G 3G 7G 8G14G17G19G21G22G30C23C25
                                C28C34E13E15E21E26E27E30
  20188606.644   106091808.700    20188609.217    82668932.094                  
  23763342.177   124877175.130    23763344.858    97306881.359                  
  23262541.152   122245484.671    23262541.044    95256222.988                  
  24629352.743   129428071.145    24629355.745   100853029.758                  
  20519968.251   107833177.129    20519968.162    84025858.434                  
  21420543.886   112565734.616    21420543.064    87713563.038                  
  23208089.003   121959351.187    23208086.805    95033266.251                  
  22407410.427   117751745.141    22407409.122    91754609.359                  
  23069861.085   121232962.173    23069858.584    94467249.915                  
  21853824.093   114842582.296    21853826.166    89487716.835                  
                 116245822.988                   116245822.988    22323778.682  
                 130027642.144                   130027642.144    24970439.566  
                 119745527.903                   119745527.903    22995868.195  
                 129562634.883                   129562634.883    24881141.947  
  23489982.114   123440652.692                                                  
  23944814.346   125830823.150                                                  
  24227973.049   127318839.344                                                  
  27045356.615   142124272.075                                                  
  23746158.914   124786895.923                                                  
  26997016.798   141870245.456                                                  
 21  9  1  9 43 43.0000000  0 20G 1G 3G 7G 8G14G17G19G21G22G30C23C25
                                C28C34E13E15E21E26E27E30
  20188797.289   106092810.524    20188799.862    82669712.734                  
  23762793.902   124874293.859    23762796.583    97304636.215                  
  23263219.281   122249048.139    23263219.138    95258999.714                  
  24629911.328   129431006.539    24629914.313   100855317.077                  
  20519719.568   107831870.140    20519719.461    84024840.003                  
  21420286.733   112564383.367    21420285.947    87712510.117                  
  23207559.562   121956568.969    23207557.364    95031098.289                  
  22407908.133   117754360.612    22407906.828    91756647.390                  
  23069565.121   121231406.919    23069562.619    94466038.028                  
  21854264.546   114844896.777    21854266.583    89489520.325                  
                 116247015.262                   116247015.262    22324007.656  
                 130030921.656                   130030921.656    24971069.359  
                 119743662.454                   119743662.454    22995509.957  
                 129565313.214                   129565313.214    24881656.289  
  23489751.068   123439438.487                                                  
  23945112.634   125832390.691                                                  
  24227693.041   127317367.886                                                  
  27044806.481   142121381.113                                                  
  23746389.389   124788106.958                                                  
  26997543.577   141873013.753                                                  
 21  9  1  9 43 44.0000000  0 20G 1G 3G 7G 8G14G17G19G21G22G30C23C25
                                C28C34E13E15E21E26E27E30
  20188988.058   106093813.034    20188990.614    82670493.913                  
  23762245.645   124871412.800    23762248.325    97302391.234                  
  23263897.393   122252611.763    23263897.285    95261776.564                  
  24630469.914   129433941.952    24630472.916   100857604.413                  
  20519470.921   107830563.565    20519470.813    84023821.895                  
  21420029.651   112563032.359    21420028.847    87711457.388                  
  23207030.138   121953786.927    23207027.940    95028930.464                  
  22408405.892   117756976.382    22408404.588    91758685.653                  
  23069269.263   121229852.136    23069266.761    94464826.512                  
  21854705.053   114847211.737    21854707.108    89491324.192                  
                 116248208.050                   116248208.050    22324236.719  
                 130034201.329                   130034201.329    24971699.189  
                 119741797.290                   119741797.290    22995151.772  
                 129567991.597                   129567991.597    24882170.649  
  23489520.075   123438224.673                                                  
  23945410.993   125833958.546                                                  
  24227413.087   127315896.700                                                  
  27044256.383   142118490.273                                                  
  23746619.899   124789318.343                                                  
  26998070.391   141875782.176                                                  
 21  9  1  9 43 45.0000000  0 20G 1G 3G 7G 8G14G17G19G21G22G30C23C25
                                C28C34E13E15E21E26E27E30
  20189178.953   106094816.231    20189181.526    82671275.625                  
  23761697.441   124868531.964    23761700.121    97300146.429                  
  23264575.576   122256175.548    23264575.468    95264553.539                  
  24631028.500   129436877.343    24631031.502   100859891.730                  
  20519222.363   107829257.407    20519222.255    84022804.110                  
  21419772.623   112561681.609    21419771.801    87710404.850                  
  23206500.786   121951005.058    23206498.588    95026762.774                  
  22408903.723   117759592.437    22408902.401    91760724.133                  
  23068973.477   121228297.844    23068970.976    94463615.370                  
  21855145.686   114849527.176    21855147.723    89493128.425                  
                 116249401.350                   116249401.350    22324465.889  
                 130037481.165                   130037481.165    24972329.036  
                 119739932.411                   119739932.411    22994793.641  
                 129570670.030                   129570670.030    24882685.008  
  23489289.171   123437011.232                                                  
  23945709.405   125835526.701                                                  
  24227133.187   127314425.784                                                  
  27043706.286   142115599.560                                                  
  23746850.481   124790530.073                                                  
  26998597.242   141878550.708                                                  
 21  9  1  9 43 46.0000000  0 20G 1G 3G 7G 8G14G17G19G21G22G30C23C25
                                C28C34E13E15E21E26E27E30
  20189370.009   106095820.097    20189372.564    82672057.860                  
  23761149.273   124865651.372    23761151.953    97297901.809                  
  23265253.776   122259739.497    23265253.634    95267330.640                  
  24631587.103   129439812.739    24631590.087   100862179.052                  
  20518973.894   107827951.665    20518973.787    84021786.644                  
  21419515.613   112560331.105    21419514.827    87709352.512                  
  23205971.434   121948223.347    23205969.237    95024595.212                  
  22409401.608   117762208.800    22409400.285    91762762.859                  
  23068677.816   121226744.042    23068675.297    94462404.618                  
  21855586.371   114851843.107    21855588.426    89494933.047                  
                 116250595.168                   116250595.168    22324695.148  
                 130040761.157                   130040761.157    24972958.919  
                 119738067.820                   119738067.820    22994435.582  
                 129573348.518                   129573348.518    24883199.386  
  23489058.339   123435798.184                                                  
  23946007.872   125837095.157                                                  
  24226853.322   127312955.136                                                  
  27043156.223   142112708.972                                                  
  23747081.134   124791742.156                                                  
  26999124.092   141881319.375                                                  
 21  9  1  9 43 47.0000000  0 20G 1G 3G 7G 8G14G17G19G21G22G30C23C25
                                C28C34E13E15E21E26E27E30
  20189561.154   106096824.650    20189563.727    82672840.624                  
  23760601.159   124862771.011    23760603.839    97295657.375                  
  23265931.995   122263303.599    23265931.888    95270107.860                  
  24632145.689   129442748.132    24632148.673   100864466.371                  
  20518725.496   107826646.329    20518725.407    84020769.501                  
  21419258.675   112558980.842    21419257.853    87708300.364                  
  23205442.118   121945441.825    23205439.920    95022427.785                  
  22409899.528   117764825.448    22409898.224    91764801.806                  
  23068382.227   121225190.715    23068379.725    94461194.233                  
  21856027.182   114854159.508    21856029.219    89496738.039                  
                 116251789.492                   116251789.492    22324924.497  
                 130044041.312                   130044041.312    24973588.838  
                 119736203.520                   119736203.520    22994077.558  
                 129576027.059                   129576027.059    24883713.764  
  23488827.579   123434585.511                                                  
  23946306.391   125838663.908                                                  
  24226573.529   127311484.757                                                  
  27042606.179   142109818.508                                                  
  23747311.859   124792954.573                                                  
  26999650.960   141884088.135                                                  
 21  9  1  9 43 48.0000000  0 20G 1G 3G 7G 8G14G17G19G21G22G30C23C25
                                C28C34E13E15E21E26E27E30
  20189752.441   106097829.880    20189754.997    82673623.923                  
  23760053.098   124859890.894    23760055.778    97293413.130                  
  23266610.268   122266867.868    23266610.143    95272885.215                  
  24632704.257   129445683.520    24632707.259   100866753.684                  
  20518477.189   107825341.415    20518477.081    84019752.683                  
  21419001.772   112557630.835    21419000.985    87707248.405                  
  23204912.856   121942660.472    23204910.658    95020260.500                  
  22410397.520   117767442.406    22410396.198    91766840.992                  
  23068086.727   121223637.867    23068084.225    94459984.224                  
  21856468.065   114856476.401    21856470.120    89498543.411                  
                 116252984.333                   116252984.333    22325153.936  
                 130047321.625                   130047321.625    24974218.793  
                 119734339.504                   119734339.504    22993719.588  
                 129578705.648                   129578705.648    24884228.159  
  23488596.872   123433373.243                                                  
  23946604.983   125840232.969                                                  
  24226293.754   127310014.645                                                  
  27042056.189   142106928.179                                                  
  23747542.638   124794167.348                                                  
  27000177.882   141886857.028                                                  
 21  9  1  9 43 49.0000000  0 20G 1G 3G 7G 8G14G17G19G21G22G30C23C25
                                C28C34E13E15E21E26E27E30
  20189943.854   106098835.789    20189946.428    82674407.745                  
  23759505.073   124857011.000    23759507.753    97291169.054                  
  23267288.540   122270432.301    23267288.415    95275662.695                  
  24633262.860   129448618.898    24633265.844   100869040.992                  
  20518228.934   107824036.906    20518228.845    84018736.187                  
  21418744.922   112556281.071    21418744.118    87706196.641                  
  23204383.629   121939879.293    23204381.413    95018093.352                  
  22410895.565   117770059.641    22410894.243    91768880.395                  
  23067791.316   121222085.511    23067788.815    94458774.594                  
  21856909.037   114858793.785    21856911.092    89500349.160                  
                 116254179.683                   116254179.683    22325383.499  
                 130050602.100                   130050602.100    24974848.783  
                 119732475.774                   119732475.774    22993361.671  
                 129581384.290                   129581384.290    24884742.555  
  23488366.254   123432161.337                                                  
  23946903.628   125841802.324                                                  
  24226014.068   127308544.815                                                  
  27041506.198   142104037.974                                                  
  23747773.487   124795380.470                                                  
  27000704.803   141889626.020                                                  
 21  9  1  9 43 50.0000000  0 20G 1G 3G 7G 8G14G17G19G21G22G30C23C25
                                C28C34E13E15E21E26E27E30
  20190135.393   106099842.375    20190137.966    82675192.098                  
  23758957.101   124854131.335    23758959.764    97288925.164                  
  23267966.866   122273996.899    23267966.741    95278440.301                  
  24633821.446   129451554.274    24633824.412   100871328.298                  
  20517980.787   107822732.816    20517980.680    84017720.011                  
  21418488.127   112554931.556    21418487.322    87705145.071                  
  23203854.402   121937098.296    23203852.204    95015926.341                  
  22411393.664   117772677.181    22411392.342    91770920.034                  
  23067495.995   121220533.637    23067493.493    94457565.343                  
  21857350.116   114861111.641    21857352.188    89502155.282                  
                 116255375.547                   116255375.547    22325613.152  
                 130053882.738                   130053882.738    24975478.773  
                 119730612.331                   119730612.331    22993003.826  
                 129584062.985                   129584062.985    24885256.986  
  23488135.726   123430949.823                                                  
  23947202.326   125843371.990                                                  
  24225734.417   127307075.246                                                  
  27040956.225   142101147.888                                                  
  23748004.409   124796593.923                                                  
  27001231.743   141892395.148                                                  
 21  9  1  9 43 51.0000000  0 20G 1G 3G 7G 8G14G17G19G21G22G30C23C25
                                C28C34E13E15E21E26E27E30
  20190327.074   106100849.648    20190329.647    82675976.989                  
  23758409.166   124851251.919    23758411.846    97286681.456                  
  23268645.228   122277561.652    23268645.103    95281218.031                  
  24634380.014   129454489.620    24634382.998   100873615.583                  
  20517732.694   107821429.141    20517732.604    84016704.160                  
  21418231.367   112553582.288    21418230.563    87704093.696                  
  23203325.247   121934317.469    23203323.049    95013759.460                  
  22411891.817   117775295.020    22411890.495    91772959.909                  
  23067200.799   121218982.259    23067198.279    94456356.477                  
  21857791.284   114863429.982    21857793.339    89503961.781                  
                 116256571.930                   116256571.930    22325842.911  
                 130057163.527                   130057163.527    24976108.817  
                 119728749.159                   119728749.159    22992646.017  
                 129586741.749                   129586741.749    24885771.400  
  23487905.251   123429738.694                                                  
  23947501.061   125844941.940                                                  
  24225454.821   127305605.945                                                  
  27040406.288   142098257.938                                                  
  23748235.384   124797807.734                                                  
  27001758.718   141895164.387                                                  
 21  9  1  9 43 52.0000000  0 20G 1G 3G 7G 8G14G17G19G21G22G30C23C25
                                C28C34E13E15E21E26E27E30
  20190518.897   106101857.616    20190521.453    82676762.418                  
  23757861.266   124848372.714    23757863.946    97284437.925                  
  23269323.607   122281126.567    23269323.482    95283995.887                  
  24634938.581   129457424.961    24634941.583   100875902.857                  
  20517484.707   107820125.882    20517484.600    84015688.633                  
  21417974.660   112552233.269    21417973.838    87703042.512                  
  23202796.091   121931536.812    23202793.875    95011592.719                  
  22412390.041   117777913.149    22412388.719    91775000.012                  
  23066905.656   121217431.364    23066903.154    94455147.988                  
  21858232.541   114865748.798    21858234.596    89505768.648                  
                 116257768.815                   116257768.815    22326072.761  
                 130060444.485                   130060444.485    24976738.897  
                 119726886.292                   119726886.292    22992288.279  
                 129589420.542                   129589420.542    24886285.849  
  23487674.866   123428527.938                                                  
  23947799.884   125846512.199                                                  
  24225175.278   127304136.919                                                  
  27039856.369   142095368.102                                                  
  23748466.412   124799021.880                                                  
  27002285.694   141897933.737                                                  
 21  9  1  9 43 53.0000000  0 20G 1G 3G 7G 8G14G17G19G21G22G30C23C25
                                C28C34E13E15E21E26E27E30
  20190710.829   106102866.221    20190713.384    82677548.345                  
  23757313.419   124845493.756    23757316.100    97282194.581                  
  23270002.023   122284691.640    23270001.880    95286773.864                  
  24635497.167   129460360.301    24635500.151   100878190.133                  
  20517236.775   107818823.039    20517236.685    84014673.434                  
  21417718.007   112550884.514    21417717.185    87701991.532                  
  23202266.972   121928756.349    23202264.774    95009426.117                  
  22412888.301   117780531.569    22412886.996    91777040.340                  
  23066610.638   121215880.954    23066608.119    94453939.874                  
  21858673.906   114868068.101    21858675.943    89507575.900                  
                 116258966.218                   116258966.218    22326302.699  
                 130063725.600                   130063725.600    24977368.994  
                 119725023.711                   119725023.711    22991930.577  
                 129592099.391                   129592099.391    24886800.280  
  23487444.516   123427317.575                                                  
  23948098.744   125848082.762                                                  
  24224895.788   127302668.171                                                  
  27039306.485   142092478.415                                                  
  23748697.548   124800236.372                                                  
  27002812.723   141900703.211                                                  
 21  9  1  9 43 54.0000000  0 20G 1G 3G 7G 8G14G17G19G21G22G30C23C25
                                C28C34E13E15E21E26E27E30
  20190902.885   106103875.528    20190905.458    82678334.817                  
  23756765.627   124842615.030    23756768.271    97279951.418                  
  23270680.456   122288256.866    23270680.313    95289551.964                  
  24636055.735   129463295.633    24636058.737   100880477.402                  
  20516988.931   107817520.611    20516988.824    84013658.550                  
  21417461.373   112549535.997    21417460.586    87700940.738                  
  23201737.923   121925976.035    23201735.708    95007259.644                  
  22413386.632   117783150.286    22413385.328    91779080.898                  
  23066315.674   121214331.017    23066313.173    94452732.133                  
  21859115.343   114870387.888    21859117.380    89509383.524                  
                 116260164.130                   116260164.130    22326532.763  
                 130067006.878                   130067006.878    24977999.145  
                 119723161.417                   119723161.417    22991572.964  
                 129594778.292                   129594778.292    24887314.747  
  23487214.274   123426107.590                                                  
  23948397.657   125849653.625                                                  
  24224616.335   127301199.682                                                  
  27038756.602   142089588.832                                                  
  23748928.702   124801451.210                                                  
  27003339.734   141903472.790                                                  
 21  9  1  9 43 55.0000000  0 20G 1G 3G 7G 8G14G17G19G21G22G30C23C25
                                C28C34E13E15E21E26E27E30
  20191095.084   106104885.509    20191097.639    82679121.813                  
  23756217.852   124839736.542    23756220.514    97277708.442                  
  23271358.925   122291822.259    23271358.800    95292330.192                  
  24636614.321   129466230.956    24636617.323   100882764.669                  
  20516741.159   107816218.599    20516741.052    84012643.995                  
  21417204.827   112548187.730    21417204.005    87699890.144                  
  23201208.857   121923195.909    23201206.659    95005093.312                  
  22413885.017   117785769.302    22413883.695    91781121.687                  
  23066020.836   121212781.567    23066018.334    94451524.769                  
  21859556.868   114872708.156    21859558.923    89511191.527                  
                 116261362.553                   116261362.553    22326762.898  
                 130070288.316                   130070288.316    24978629.296  
                 119721299.413                   119721299.413    22991215.387  
                 129597457.242                   129597457.242    24887829.196  
  23486984.103   123424897.996                                                  
  23948696.659   125851224.776                                                  
  24224336.935   127299731.463                                                  
  27038206.754   142086699.386                                                  
  23749159.963   124802666.397                                                  
  27003866.799   141906242.484                                                  
 21  9  1  9 43 56.0000000  0 20G 1G 3G 7G 8G14G17G19G21G22G30C23C25
                                C28C34E13E15E21E26E27E30
  20191287.408   106105896.171    20191289.964    82679909.345                  
  23755670.148   124836858.285    23755672.829    97275465.645                  
  23272037.412   122295387.804    23272037.304    95295108.539                  
  24637172.888   129469166.273    24637175.872   100885051.929                  
  20516493.477   107814917.001    20516493.387    84011629.765                  
  21416948.299   112546839.712    21416947.477    87698839.738                  
  23200679.863   121920415.954    23200677.665    95002927.113                  
  22414383.438   117788388.605    22414382.133    91783162.703                  
  23065726.086   121211232.594    23065723.584    94450317.780                  
  21859998.501   114875028.906    21860000.538    89512999.903                  
                 116262561.491                   116262561.491    22326993.140  
                 130073569.914                   130073569.914    24979259.501  
                 119719437.695                   119719437.695    22990857.846  
                 129600136.242                   129600136.242    24888343.681  
  23486754.004   123423688.777                                                  
  23948995.697   125852796.246                                                  
  24224057.606   127298263.511                                                  
  27037656.942   142083810.066                                                  
  23749391.259   124803881.931                                                  
  27004393.881   141909012.307                                                  
 21  9  1  9 43 57.0000000  0 20G 1G 3G 7G 8G14G17G19G21G22G30C23C25
                                C28C34E13E15E21E26E27E30
  20191479.858   106106907.508    20191482.413    82680697.399                  
  23755122.463   124833980.257    23755125.143    97273223.028                  
  23272715.952   122298953.511    23272715.845    95297887.012                  
  24637731.456   129472101.602    24637734.458   100887339.200                  
  20516245.884   107813615.820    20516245.759    84010615.860                  
  21416691.825   112545491.937    21416691.021    87697789.526                  
  23200150.886   121917636.177    23200148.688    95000761.051                  
  22414881.948   117791008.211    22414880.625    91785203.956                  
  23065431.426   121209684.121    23065428.924    94449111.175                  
  21860440.206   114877350.139    21860442.261    89514808.657                  
                 116263760.941                   116263760.941    22327223.472  
                 130076851.668                   130076851.668    24979889.741  
                 119717576.262                   119717576.262    22990500.376  
                 129602815.297                   129602815.297    24888858.166  
  23486523.958   123422479.949                                                  
  23949294.771   125854367.999                                                  
  24223778.296   127296795.832                                                  
  27037107.166   142080920.870                                                  
  23749622.628   124805097.793                                                  
  27004920.982   141911782.230                                                  
 21  9  1  9 43 58.0000000  0 20G 1G 3G 7G 8G14G17G19G21G22G30C23C25
                                C28C34E13E15E21E26E27E30
  20191672.432   106107919.526    20191675.005    82681485.985                  
  23754574.849   124831102.470    23754577.529    97270980.594                  
  23273394.528   122302519.383    23273394.403    95300665.609                  
  24638290.042   129475036.910    24638293.044   100889626.453                  
  20515998.344   107812315.055    20515998.237    84009602.272                  
  21416435.405   112544144.427    21416434.583    87696739.516                  
  23199621.945   121914856.574    23199619.747    94998595.129                  
  22415380.494   117793628.110    22415379.171    91787245.434                  
  23065136.837   121208136.126    23065134.335    94447904.950                  
  21860882.017   114879671.849    21860884.054    89516617.777                  
                 116264960.903                   116264960.903    22327453.911  
                 130080133.586                   130080133.586    24980520.000  
                 119715715.117                   119715715.117    22990142.960  
                 129605494.399                   129605494.399    24889372.669  
  23486294.002   123421271.496                                                  
  23949593.934   125855940.068                                                  
  24223499.056   127295328.417                                                  
  27036557.372   142078031.818                                                  
  23749854.085   124806314.022                                                  
  27005448.100   141914552.276                                                  
 21  9  1  9 43 59.0000000  0 20G 1G 3G 7G 8G14G17G19G21G22G30C23C25
                                C28C34E13E15E21E26E27E30
  20191865.168   106108932.246    20191867.723    82682275.117                  
  23754027.252   124828224.909    23754029.933    97268738.341                  
  23274073.122   122306085.398    23274072.979    95303444.324                  
  24638848.592   129477972.215    24638851.594   100891913.700                  
  20515750.894   107811014.698    20515750.804    84008589.012                  
  21416179.020   112542797.157    21416178.216    87695689.695                  
  23199093.040   121912077.143    23199090.842    94996429.343                  
  22415879.093   117796248.302    22415877.788    91789287.140                  
  23064842.356   121206588.613    23064839.854    94446699.093                  
  21861323.918   114881994.042    21861325.955    89518427.280                  
                 116266161.374                   116266161.374    22327684.457  
                 130083415.663                   130083415.663    24981150.276  
                 119713854.262                   119713854.262    22989785.597  
                 129608173.555                   129608173.555    24889887.154  
  23486064.117   123420063.442                                                  
  23949893.133   125857512.424                                                  
  24223219.889   127293861.284                                                  
  27036007.631   142075142.868                                                  
  23750085.578   124807530.586                                                  
  27005975.236   141917322.442                                                  
 21  9  1  9 44  0.0000000  0 20G 1G 3G 7G 8G14G17G19G21G22G30C23C25
                                C28C34E13E15E21E26E27E30
  20192057.974   106109945.590    20192060.547    82683064.733                  
  23753479.728   124825347.588    23753482.408    97266496.273                  
  23274751.734   122309651.586    23274751.627    95306223.172                  
  24639407.177   129480907.512    24639410.179   100894200.941                  
  20515503.515   107809714.767    20515503.426    84007576.074                  
  21415922.707   112541450.128    21415921.885    87694640.067                  
  23198564.153   121909297.892    23198561.955    94994263.688                  
  22416377.764   117798868.782    22416376.441    91791329.074                  
  23064547.963   121205041.583    23064545.462    94445493.613                  
  21861765.908   114884316.711    21861767.963    89520237.152                  
                 116267362.362                   116267362.362    22327915.093  
                 130086697.898                   130086697.898    24981780.606  
                 119711993.692                   119711993.692    22989428.306  
                 129610852.762                   129610852.762    24890401.674  
  23485834.303   123418855.758                                                  
  23950192.422   125859085.083                                                  
  24222940.739   127292394.421                                                  
  27035457.909   142072254.050                                                  
  23750317.143   124808747.493                                                  
  27006502.426   141920092.726                                                  
 21  9  1  9 44  1.0000000  0 20G 1G 3G 7G 8G14G17G19G21G22G30C23C25
                                C28C34E13E15E21E26E27E30
  20192250.960   106110959.644    20192253.515    82683854.906                  
  23752932.239   124822470.511    23752934.901    97264254.395                  
  23275430.382   122313217.933    23275430.257    95309002.141                  
  24639965.745   129483842.799    24639968.747   100896488.181                  
  20515256.244   107808415.243    20515256.136    84006563.460                  
  21415666.393   112540103.360    21415665.607    87693590.637                  
  23198035.319   121906518.817    23198033.121    94992098.175                  
  22416876.488   117801489.558    22416875.166    91793371.238                  
  23064253.661   121203495.035    23064251.159    94444288.515                  
  21862207.988   114886639.864    21862210.043    89522047.403                  
                 116268563.859                   116268563.859    22328145.835  
                 130089980.292                   130089980.292    24982410.936  
                 119710133.408                   119710133.408    22989071.069  
                 129613532.020                   129613532.020    24890916.195  
  23485604.561   123417648.450                                                  
  23950491.746   125860658.036                                                  
  24222661.660   127290927.819                                                  
  27034908.222   142069365.370                                                  
  23750548.779   124809964.749                                                  
  27007029.598   141922863.121                                                  
 21  9  1  9 44  2.0000000  0 20G 1G 3G 7G 8G14G17G19G21G22G30C23C25
                                C28C34E13E15E21E26E27E30
  20192444.035   106111974.371    20192446.626    82684645.601                  
  23752384.785   124819593.663    23752387.466    97262012.695                  
  23276109.083   122316784.438    23276108.940    95311781.234                  
  24640524.295   129486778.075    24640527.297   100898775.411                  
  20515009.026   107807116.134    20515008.918    84005551.167                  
  21415410.187   112538756.835    21415409.365    87692541.395                  
  23197506.521   121903739.915    23197504.323    94989932.797                  
  22417375.266   117804110.640    22417373.944    91795413.641                  
  23063959.465   121201948.977    23063956.963    94443083.792                  
  21862650.157   114888963.504    21862652.194    89523858.027                  
                 116269765.871                   116269765.871    22328376.667  
                 130093262.852                   130093262.852    24983041.319  
                 119708273.411                   119708273.411    22988713.867  
                 129616211.328                   129616211.328    24891430.734  
  23485374.873   123416441.538                                                  
  23950791.123   125862231.296                                                  
  24222382.618   127289461.501                                                  
  27034358.535   142066476.805                                                  
  23750780.487   124811182.343                                                  
  27007556.823   141925633.628                                                  
 21  9  1  9 44  3.0000000  0 20G 1G 3G 7G 8G14G17G19G21G22G30C23C25
                                C28C34E13E15E21E26E27E30
  20192637.288   106112989.793    20192639.843    82685436.839                  
  23751837.386   124816717.047    23751840.066    97259771.176                  
  23276787.784   122320351.101    23276787.659    95314560.452                  
  24641082.863   129489713.328    24641085.865   100901062.616                  
  20514761.897   107805817.449    20514761.772    84004539.208                  
  21415153.981   112537410.531    21415153.177    87691492.329                  
  23196977.741   121900961.194    23196975.543    94987767.563                  
  22417874.080   117806732.003    22417872.758    91797456.258                  
  23063665.341   121200403.394    23063662.839    94441879.445                  
  21863092.415   114891287.622    21863094.488    89525669.026                  
                 116270968.391                   116270968.391    22328607.607  
                 130096545.566                   130096545.566    24983671.738  
                 119706413.702                   119706413.702    22988356.719  
                 129618890.689                   129618890.689    24891945.272  
  23485145.291   123415235.016                                                  
  23951090.554   125863804.856                                                  
  24222103.646   127287995.442                                                  
  27033808.884   142063588.377                                                  
  23751012.248   124812400.288                                                  
  27008084.049   141928404.255                                                  
 21  9  1  9 44  4.0000000  0 20G 1G 3G 7G 8G14G17G19G21G22G30C23C25
                                C28C34E13E15E21E26E27E30
  20192830.613   106114005.854    20192833.186    82686228.578                  
  23751290.022   124813840.668    23751292.702    97257529.844                  
  23277466.539   122323917.938    23277466.396    95317339.806                  
  24641641.413   129492648.577    24641644.415   100903349.824                  
  20514514.840   107804519.179    20514514.733    84003527.566                  
  21414897.847   112536064.482    21414897.025    87690443.457                  
  23196448.996   121898182.647    23196446.798    94985602.466                  
  22418372.965   117809353.663    22418371.661    91799499.114                  
  23063371.324   121198858.304    23063368.822    94440675.476                  
  21863534.781   114893612.216    21863536.836    89527480.398                  
                 116272171.427                   116272171.427    22328838.635  
                 130099828.440                   130099828.440    24984302.175  
                 119704554.281                   119704554.281    22987999.642  
                 129621570.098                   129621570.098    24892459.846  
  23484915.782   123414028.872                                                  
  23951390.057   125865378.718                                                  
  24221824.729   127286529.665                                                  
  27033259.269   142060700.079                                                  
  23751244.081   124813618.583                                                  
  27008611.292   141931174.987                                                  
 21  9  1  9 44  5.0000000  0 20G 1G 3G 7G 8G14G17G19G21G22G30C23C25
                                C28C34E13E15E21E26E27E30
  20193024.117   106115022.626    20193026.672    82687020.868                  
  23750742.711   124810964.527    23750745.392    97255288.695                  
  23278145.294   122327484.922    23278145.187    95320119.273                  
  24642199.981   129495583.827    24642202.983   100905637.036                  
  20514267.854   107803221.325    20514267.765    84002516.249                  
  21414641.748   112534718.679    21414640.926    87689394.782                  
  23195920.306   121895404.273    23195918.108    94983437.497                  
  22418871.904   117811975.616    22418870.600    91801542.192                  
  23063077.397   121197313.696    23063074.895    94439471.887                  
  21863977.218   114895937.285    21863979.273    89529292.145                  
                 116273374.974                   116273374.974    22329069.753  
                 130103111.472                   130103111.472    24984932.666  
                 119702695.145                   119702695.145    22987642.619  
                 129624249.558                   129624249.558    24892974.403  
  23484686.326   123412823.110                                                  
  23951689.595   125866952.883                                                  
  24221545.847   127285064.151                                                  
  27032709.653   142057811.901                                                  
  23751475.985   124814837.216                                                  
  27009138.571   141933945.855                                                  
 21  9  1  9 44  6.0000000  0 20G 1G 3G 7G 8G14G17G19G21G22G30C23C25
                                C28C34E13E15E21E26E27E30
  20193217.728   106116040.067    20193220.283    82687813.676                  
  23750195.455   124808088.621    23750198.117    97253047.732                  
  23278824.120   122331052.066    23278823.995    95322898.867                  
  24642758.548   129498519.082    24642761.532   100907924.243                  
  20514020.976   107801923.880    20514020.869    84001505.255                  
  21414385.685   112533373.120    21414384.881    87688346.292                  
  23195391.615   121892626.076    23195389.417    94981272.667                  
  22419370.897   117814597.863    22419369.592    91803585.501                  
  23062783.558   121195769.560    23062781.057    94438268.664                  
  21864419.762   114898262.847    21864421.817    89531104.269                  
                 116274579.032                   116274579.032    22329300.978  
                 130106394.669                   130106394.669    24985563.156  
                 119700836.296                   119700836.296    22987285.632  
                 129626929.069                   129626929.069    24893488.959  
  23484456.941   123411617.742                                                  
  23951989.223   125868527.331                                                  
  24221267.019   127283598.899                                                  
  27032160.073   142054923.835                                                  
  23751707.943   124816056.189                                                  
  27009665.886   141936716.840                                                  
 21  9  1  9 44  7.0000000  0 20G 1G 3G 7G 8G14G17G19G21G22G30C23C25
                                C28C34E13E15E21E26E27E30
  20193411.463   106117058.191    20193414.037    82688607.025                  
  23749648.216   124805212.950    23749650.896    97250806.946                  
  23279502.946   122334619.358    23279502.821    95325678.574                  
  24643317.098   129501454.329    24643320.100   100910211.446                  
  20513774.169   107800626.856    20513774.062    84000494.585                  
  21414129.675   112532027.802    21414128.871    87687297.992                  
  23194862.978   121889848.063    23194860.780    94979107.979                  
  22419869.960   117817220.394    22419868.638    91805629.032                  
  23062489.827   121194225.914    23062487.308    94437065.823                  
  21864862.396   114900588.902    21864864.469    89532916.777                  
                 116275783.603                   116275783.603    22329532.329  
                 130109678.020                   130109678.020    24986193.701  
                 119698977.739                   119698977.739    22986928.716  
                 129629608.633                   129629608.633    24894003.533  
  23484227.646   123410412.754                                                  
  23952288.887   125870102.086                                                  
  24220988.244   127282133.905                                                  
  27031610.512   142052035.894                                                  
  23751939.972   124817275.508                                                  
  27010193.201   141939487.942                                                  
 21  9  1  9 44  8.0000000  0 20G 1G 3G 7G 8G14G17G19G21G22G30C23C25
                                C28C34E13E15E21E26E27E30
  20193605.342   106118077.008    20193607.898    82689400.903                  
  23749101.049   124802337.504    23749103.711    97248566.340                  
  23280181.826   122338186.826    23280181.701    95328458.415                  
  24643875.666   129504389.581    24643878.668   100912498.656                  
  20513527.416   107799330.253    20513527.326    83999484.247                  
  21413873.737   112530682.771    21413872.915    87686249.918                  
  23194334.358   121887070.185    23194332.160    94976943.402                  
  22420369.060   117819843.242    22420367.756    91807672.810                  
  23062196.168   121192682.766    23062193.666    94435863.371                  
  21865305.119   114902915.403    21865307.174    89534729.637                  
                 116276988.682                   116276988.682    22329763.732  
                 130112961.531                   130112961.531    24986824.263  
                 119697119.464                   119697119.464    22986571.854  
                 129632288.246                   129632288.246    24894518.143  
  23483998.422   123409208.134                                                  
  23952588.622   125871677.165                                                  
  24220709.523   127280669.242                                                  
  27031061.003   142049148.148                                                  
  23752172.073   124818495.191                                                  
  27010720.534   141942259.124                                                  
 21  9  1  9 44  9.0000000  0 20G 1G 3G 7G 8G14G17G19G21G22G30C23C25
                                C28C34E13E15E21E26E27E30
  20193799.346   106119096.479    20193801.902    82690195.297                  
  23748553.917   124799462.297    23748556.579    97246325.918                  
  23280860.706   122341754.446    23280860.581    95331238.378                  
  24644434.216   129507324.828    24644437.218   100914785.863                  
  20513280.752   107798034.072    20513280.662    83998474.233                  
  21413617.817   112529337.960    21413617.013    87685202.016                  
  23193805.793   121884292.509    23193803.595    94974778.981                  
  22420868.231   117822466.366    22420866.927    91809716.800                  
  23061902.598   121191140.095    23061900.096    94434661.289                  
  21865747.949   114905242.415    21865749.986    89536542.886                  
                 116278194.276                   116278194.276    22329995.261  
                 130116245.198                   130116245.198    24987454.860  
                 119695261.476                   119695261.476    22986215.063  
                 129634967.909                   129634967.909    24895032.736  
  23483769.252   123408003.910                                                  
  23952888.392   125873252.518                                                  
  24220430.838   127279204.809                                                  
  27030511.495   142046260.480                                                  
  23752404.245   124819715.208                                                  
  27011247.902   141945030.440                                                  
 21  9  1  9 44 10.0000000  0 20G 1G 3G 7G 8G14G17G19G21G22G30C23C25
                                C28C34E13E15E21E26E27E30
  20193993.475   106120116.638    20193996.049    82690990.227                  
  23748006.821   124796587.341    23748009.501    97244085.691                  
  23281539.640   122345322.210    23281539.515    95334018.457                  
  24644992.784   129510260.072    24644995.786   100917073.064                  
  20513034.177   107796738.290    20513034.088    83997464.535                  
  21413361.969   112527993.407    21413361.164    87684154.308                  
  23193277.263   121881515.004    23193275.047    94972614.691                  
  22421367.456   117825089.787    22421366.134    91811761.024                  
  23061609.135   121189597.907    23061606.615    94433459.587                  
  21866190.833   114907569.890    21866192.905    89538356.508                  
                 116279400.382                   116279400.382    22330226.880  
                 130119529.032                   130119529.032    24988085.476  
                 119693403.782                   119693403.782    22985858.308  
                 129637647.630                   129637647.630    24895547.363  
  23483540.189   123406800.067                                                  
  23953188.217   125874828.179                                                  
  24220152.224   127277740.651                                                  
  27029962.023   142043372.942                                                  
  23752636.453   124820935.569                                                  
  27011775.306   141947801.874                                                  
 21  9  1  9 44 11.0000000  0 20G 1G 3G 7G 8G14G17G19G21G22G30C23C25
                                C28C34E13E15E21E26E27E30
  20194187.712   106121137.450    20194190.285    82691785.663                  
  23747459.779   124793712.609    23747462.459    97241845.644                  
  23282218.573   122348890.144    23282218.466    95336798.665                  
  24645551.334   129513195.292    24645554.336   100919360.246                  
  20512787.674   107795442.930    20512787.584    83996455.164                  
  21413106.138   112526649.101    21413105.334    87683106.802                  
  23192748.733   121878737.675    23192746.535    94970450.539                  
  22421866.734   117827713.503    22421865.412    91813805.481                  
  23061315.761   121188056.212    23061313.259    94432258.266                  
  21866633.841   114909897.847    21866635.878    89540170.500                  
                 116280607.000                   116280607.000    22330458.605  
                 130122813.020                   130122813.020    24988716.145  
                 119691546.367                   119691546.367    22985501.624  
                 129640327.394                   129640327.394    24896061.973  
  23483311.161   123405596.606                                                  
  23953488.113   125876404.136                                                  
  24219873.664   127276276.769                                                  
  27029412.568   142040485.527                                                  
  23752868.768   124822156.270                                                  
  27012302.693   141950573.458                                                  
 21  9  1  9 44 12.0000000  0 20G 1G 3G 7G 8G14G17G19G21G22G30C23C25
                                C28C34E13E15E21E26E27E30
  20194382.127   106122158.981    20194384.682    82692581.659                  
  23746912.772   124790838.108    23746915.453    97239605.773                  
  23282897.578   122352458.231    23282897.453    95339578.988                  
  24646109.901   129516130.512    24646112.903   100921647.433                  
  20512541.260   107794147.984    20512541.153    83995446.118                  
  21412850.378   112525305.048    21412849.574    87682059.485                  
  23192220.256   121875960.513    23192218.058    94968286.516                  
  22422366.066   117830337.511    22422364.744    91815850.159                  
  23061022.477   121186514.993    23061019.957    94431057.312                  
  21867076.922   114912226.297    21867078.977    89541984.874                  
                 116281814.129                   116281814.129    22330690.420  
                 130126097.168                   130126097.168    24989346.815  
                 119689689.243                   119689689.243    22985144.959  
                 129643007.211                   129643007.211    24896576.601  
  23483082.223   123404393.529                                                  
  23953788.080   125877980.399                                                  
  24219595.139   127274813.157                                                  
  27028863.114   142037598.238                                                  
  23753101.101   124823377.321                                                  
  27012830.133   141953345.094                                                  
 21  9  1  9 44 13.0000000  0 20G 1G 3G 7G 8G14G17G19G21G22G30C23C25
                                C28C34E13E15E21E26E27E30
  20194576.613   106123181.161    20194579.204    82693378.163                  
  23746365.837   124787963.854    23746368.500    97237366.097                  
  23283576.583   122356026.479    23283576.458    95342359.446                  
  24646668.434   129519065.729    24646671.436   100923934.613                  
  20512294.918   107792853.461    20512294.828    83994437.394                  
  21412594.655   112523961.243    21412593.869    87681012.362                  
  23191691.816   121873183.527    23191689.618    94966122.634                  
  22422865.452   117832961.817    22422864.148    91817895.071                  
  23060729.282   121184974.261    23060726.780    94429856.746                  
  21867520.091   114914555.219    21867522.164    89543799.616                  
                 116283021.771                   116283021.771    22330922.324  
                 130129381.473                   130129381.473    24989977.538  
                 119687832.407                   119687832.407    22984788.382  
                 129645687.078                   129645687.078    24897091.247  
  23482853.357   123403190.839                                                  
  23954088.083   125879556.952                                                  
  24219316.686   127273349.813                                                  
  27028313.713   142034711.090                                                  
  23753333.541   124824598.726                                                  
  27013357.573   141956116.898                                                  
 21  9  1  9 44 14.0000000  0 20G 1G 3G 7G 8G14G17G19G21G22G30C23C25
                                C28C34E13E15E21E26E27E30
  20194771.278   106124203.993    20194773.834    82694175.168                  
  23745818.920   124785089.864    23745821.600    97235126.634                  
  23284255.642   122359594.851    23284255.517    95345139.972                  
  24647227.001   129522000.935    24647230.003   100926221.786                  
  20512048.665   107791559.352    20512048.557    83993429.000                  
  21412339.003   112522617.689    21412338.181    87679965.430                  
  23191163.429   121870406.708    23191161.195    94963958.872                  
  22423364.891   117835586.446    22423363.587    91819940.253                  
  23060436.176   121183434.013    23060433.675    94428656.548                  
  21867963.386   114916884.628    21867965.423    89545614.745                  
                 116284229.921                   116284229.921    22331154.336  
                 130132665.937                   130132665.937    24990608.278  
                 119685975.856                   119685975.856    22984431.860  
                 129648366.996                   129648366.996    24897605.893  
  23482624.562   123401988.563                                                  
  23954388.157   125881133.728                                                  
  24219038.251   127271886.702                                                  
  27027764.347   142031824.059                                                  
  23753566.017   124825820.513                                                  
  27013885.066   141958888.669                                                  
 21  9  1  9 44 15.0000000  0 20G 1G 3G 7G 8G14G17G19G21G22G30C23C25
                                C28C34E13E15E21E26E27E30
  20194966.033   106125227.528    20194968.606    82694972.726                  
  23745272.057   124782216.082    23745274.737    97232887.323                  
  23284934.701   122363163.419    23284934.575    95347920.677                  
  24647785.533   129524936.137    24647788.535   100928508.957                  
  20511802.483   107790265.656    20511802.376    83992420.930                  
  21412083.386   112521274.383    21412082.564    87678918.703                  
  23190635.042   121867630.065    23190632.844    94961795.254                  
  22423864.402   117838211.337    22423863.080    91821985.624                  
  23060143.178   121181894.255    23060140.676    94427456.739                  
  21868406.734   114919214.515    21868408.771    89547430.246                  
                 116285438.585                   116285438.585    22331386.454  
                 130135950.562                   130135950.562    24991239.055  
                 119684119.593                   119684119.593    22984075.372  
                 129651046.964                   129651046.964    24898120.556  
  23482395.856   123400786.640                                                  
  23954688.286   125882710.882                                                  
  24218759.906   127270423.892                                                  
  27027214.982   142028937.140                                                  
  23753798.582   124827042.582                                                  
  27014412.560   141961660.690                                                  
 21  9  1  9 44 16.0000000  0 20G 1G 3G 7G 8G14G17G19G21G22G30C23C25
                                C28C34E13E15E21E26E27E30
  20195160.966   106126251.777    20195163.521    82695770.849                  
  23744725.247   124779342.539    23744727.927    97230648.203                  
  23285613.813   122366732.133    23285613.706    95350701.496                  
  24648344.101   129527871.316    24648347.103   100930796.114                  
  20511556.373   107788972.386    20511556.284    83991413.187                  
  21411827.806   112519931.324    21411826.984    87677872.164                  
  23190106.673   121864853.593    23190104.475    94959631.774                  
  22424363.948   117840836.509    22424362.644    91824031.218                  
  23059850.269   121180354.972    23059847.767    94426257.298                  
  21868850.208   114921544.887    21868852.245    89549246.120                  
                 116286647.762                   116286647.762    22331618.662  
                 130139235.344                   130139235.344    24991869.867  
                 119682263.618                   119682263.618    22983718.957  
                 129653726.985                   129653726.985    24898635.220  
  23482167.204   123399585.089                                                  
  23954988.467   125884288.339                                                  
  24218481.595   127268961.368                                                  
  27026665.635   142026050.359                                                  
  23754031.201   124828265.020                                                  
  27014940.071   141964432.805                                                  
 21  9  1  9 44 17.0000000  0 20G 1G 3G 7G 8G14G17G19G21G22G30C23C25
                                C28C34E13E15E21E26E27E30
  20195355.988   106127276.656    20195358.544    82696569.454                  
  23744178.472   124776469.226    23744181.135    97228409.258                  
  23286292.943   122370301.007    23286292.818    95353482.433                  
  24648902.633   129530806.469    24648905.635   100933083.246                  
  20511310.352   107787679.518    20511310.263    83990405.757                  
  21411572.279   112518588.521    21411571.457    87676825.825                  
  23189578.375   121862077.300    23189576.177    94957468.431                  
  22424863.566   117843461.984    22424862.244    91826077.042                  
  23059557.431   121178816.180    23059554.947    94425058.239                  
  21869293.735   114923875.737    21869295.808    89551062.367                  
                 116287857.450                   116287857.450    22331850.959  
                 130142520.285                   130142520.285    24992500.697  
                 119680407.930                   119680407.930    22983362.577  
                 129656407.052                   129656407.052    24899149.901  
  23481938.642   123398383.937                                                  
  23955288.685   125885866.095                                                  
  24218203.339   127267499.109                                                  
  27026116.323   142023163.718                                                  
  23754263.874   124829487.796                                                  
  27015467.618   141967205.069                                                  
 21  9  1  9 44 18.0000000  0 20G 1G 3G 7G 8G14G17G19G21G22G30C23C25
                                C28C34E13E15E21E26E27E30
  20195551.136   106128302.246    20195553.691    82697368.612                  
  23743631.734   124773596.149    23743634.414    97226170.497                  
  23286972.127   122373870.047    23286972.001    95356263.504                  
  24649461.183   129533741.636    24649464.185   100935370.387                  
  20511064.421   107786387.078    20511064.296    83989398.659                  
  21411316.787   112517245.958    21411315.983    87675779.668                  
  23189050.095   121859301.179    23189047.897    94955305.218                  
  22425363.220   117846087.743    22425361.915    91828123.086                  
  23059264.701   121177277.883    23059262.199    94423859.566                  
  21869737.387   114926207.062    21869739.424    89552878.984                  
                 116289067.647                   116289067.647    22332083.382  
                 130145805.384                   130145805.384    24993131.581  
                 119678552.528                   119678552.528    22983006.287  
                 129659087.171                   129659087.171    24899664.601  
  23481710.133   123397183.172                                                  
  23955588.974   125887444.148                                                  
  24217925.118   127266037.120                                                  
  27025567.047   142020277.204                                                  
  23754496.636   124830710.921                                                  
  27015995.183   141969977.425                                                  
 21  9  1  9 44 19.0000000  0 20G 1G 3G 7G 8G14G17G19G21G22G30C23C25
                                C28C34E13E15E21E26E27E30
  20195746.444   106129328.496    20195749.000    82698168.292                  
  23743085.067   124770723.312    23743087.747    97223931.922                  
  23287651.292   122377439.234    23287651.185    95359044.686                  
  24650019.715   129536676.777    24650022.717   100937657.507                  
  20510818.543   107785095.047    20510818.436    83988391.883                  
  21411061.368   112515903.644    21411060.546    87674733.714                  
  23188521.869   121856525.241    23188519.653    94953142.151                  
  22425862.945   117848713.790    22425861.640    91830169.358                  
  23058972.060   121175740.065    23058969.558    94422661.269                  
  21870181.093   114928538.863    21870183.165    89554695.972                  
                 116290278.359                   116290278.359    22332315.876  
                 130149090.639                   130149090.639    24993762.483  
                 119676697.413                   119676697.413    22982650.014  
                 129661767.343                   129661767.343    24900179.300  
  23481481.695   123395982.778                                                  
  23955889.334   125889022.505                                                  
  24217646.987   127264575.410                                                  
  27025017.771   142017390.807                                                  
  23754729.451   124831934.389                                                  
  27016522.766   141972749.894                                                  
 21  9  1  9 44 20.0000000  0 20G 1G 3G 7G 8G14G17G19G21G22G30C23C25
                                C28C34E13E15E21E26E27E30
  20195941.842   106130355.415    20195944.415    82698968.489                  
  23742538.418   124767850.710    23742541.098    97221693.531                  
  23288330.548   122381008.574    23288330.422    95361825.993                  
  24650578.265   129539611.898    24650581.267   100939944.616                  
  20510572.755   107783803.437    20510572.665    83987385.435                  
  21410805.966   112514561.577    21410805.161    87673687.950                  
  23187993.643   121853749.476    23187991.445    94950979.220                  
  22426362.724   117851340.133    22426361.401    91832215.859                  
  23058679.526   121174202.734    23058677.025    94421463.348                  
  21870624.923   114930871.148    21870626.978    89556513.337                  
                 116291489.582                   116291489.582    22332548.477  
                 130152376.058                   130152376.058    24994393.402  
                 119674842.586                   119674842.586    22982293.813  
                 129664447.564                   129664447.564    24900693.999  
  23481253.365   123394782.773                                                  
  23956189.748   125890601.153                                                  
  24217368.856   127263113.958                                                  
  27024468.531   142014504.548                                                  
  23754962.338   124833158.195                                                  
  27017050.385   141975522.493                                                  
 21  9  1  9 44 21.0000000  0 19G 1G 3G 7G 8G14G17G19G21G22G30C23C25
                                C28C34E13E15E21E26E27
  20196137.401   106131383.038    20196139.956    82699769.230                  
  23741991.822   124764978.349    23741994.502    97219455.328                  
  23289009.785   122384578.087    23289009.660    95364607.429                  
  24651136.779   129542547.015    24651139.781   100942231.723                  
  20510327.056   107782512.242    20510326.966    83986379.308                  
  21410550.635   112513219.774    21410549.813    87672642.386                  
  23187465.452   121850973.890    23187463.254    94948816.423                  
  22426862.556   117853966.772    22426861.234    91834262.589                  
  23058387.082   121172665.890    23058384.562    94420265.810                  
  21871068.843   114933203.914    21871070.881    89558331.074                  
                 116292701.318                   116292701.318    22332781.185  
                 130155661.633                   130155661.633    24995024.357  
                 119672988.047                   119672988.047    22981937.683  
                 129667127.837                   129667127.837    24901208.717  
  23481025.088   123393583.147                                                  
  23956490.198   125892180.101                                                  
  24217090.814   127261652.790                                                  
  27023919.327   142011618.413                                                  
  23755195.297   124834382.356                                                  
 21  9  1  9 44 22.0000000  0 19G 1G 3G 7G 8G14G17G19G21G22G30C23C25
                                C28C34E13E15E21E26E27
  20196333.067   106132411.301    20196335.640    82700570.476                  
  23741445.280   124762106.219    23741447.961    97217217.309                  
  23289689.076   122388147.747    23289688.969    95367388.984                  
  24651695.311   129545482.121    24651698.313   100944518.816                  
  20510081.446   107781221.469    20510081.321    83985373.511                  
  21410295.340   112511878.212    21410294.536    87671597.011                  
  23186937.315   121848198.474    23186935.118    94946653.761                  
  22427362.442   117856593.699    22427361.120    91836309.548                  
  23058094.727   121171129.536    23058092.207    94419068.648                  
  21871512.835   114935537.144    21871514.872    89560149.176                  
                 116293913.562                   116293913.562    22333013.983  
                 130158947.363                   130158947.363    24995655.366  
                 119671133.796                   119671133.796    22981581.572  
                 129669808.157                   129669808.157    24901723.434  
  23480796.865   123392383.911                                                  
  23956790.719   125893759.339                                                  
  24216812.825   127260191.890                                                  
  27023370.140   142008732.409                                                  
  23755428.309   124835606.860                                                  
 21  9  1  9 44 23.0000000  0 19G 1G 3G 7G 8G14G17G19G21G22G30C23C25
                                C28C34E13E15E21E26E27
  20196528.875   106133440.275    20196531.448    82701372.268                  
  23740898.774   124759234.333    23740901.436    97214979.474                  
  23290368.384   122391717.568    23290368.259    95370170.661                  
  24652253.861   129548417.227    24652256.863   100946805.909                  
  20509835.872   107779931.104    20509835.783    83984368.034                  
  21410040.099   112510536.893    21410039.277    87670551.832                  
  23186409.214   121845423.234    23186406.999    94944491.239                  
  22427862.381   117859220.917    22427861.077    91838356.730                  
  23057802.443   121169593.658    23057799.941    94417871.862                  
  21871956.916   114937870.864    21871958.989    89561967.656                  
                 116295126.321                   116295126.321    22333246.888  
                 130162233.255                   130162233.255    24996286.375  
                 119669279.833                   119669279.833    22981225.567  
                 129672488.526                   129672488.526    24902238.187  
  23480568.713   123391185.054                                                  
  23957091.294   125895338.900                                                  
  24216534.855   127258731.262                                                  
  27022820.972   142005846.529                                                  
  23755661.374   124836831.702                                                  
 21  9  1  9 44 24.0000000  0 19G 1G 3G 7G 8G14G17G19G21G22G30C23C25
                                C28C34E13E15E21E26E27
  20196724.773   106134470.020    20196727.347    82702174.733                  
  23740352.357   124756362.562    23740355.037    97212741.656                  
  23291047.747   122395287.562    23291047.622    95372952.477                  
  24652812.393   129551352.353    24652815.395   100949093.016                  
  20509590.405   107778641.282    20509590.280    83983363.035                  
  21409784.876   112509195.929    21409784.054    87669506.973                  
  23185881.095   121842648.419    23185878.862    94942329.160                  
  22428362.392   117861848.363    22428361.106    91840404.054                  
  23057510.285   121168058.278    23057507.783    94416675.460                  
  21872401.104   114940205.106    21872403.159    89563786.567                  
                 116296339.548                   116296339.548    22333479.882  
                 130165519.319                   130165519.319    24996917.437  
                 119667426.297                   119667426.297    22980869.563  
                 129675168.782                   129675168.782    24902752.975  
  23480340.686   123389986.590                                                  
  23957391.958   125896918.625                                                  
  24216256.956   127257270.937                                                  
  27022271.803   142002961.083                                                  
  23755894.547   124838056.872                                                  
 21  9  1  9 44 25.0000000  0 19G 1G 3G 7G 8G14G17G19G21G22G30C23C25
                                C28C34E13E15E21E26E27
  20196920.868   106135500.340    20196923.405    82702977.582                  
  23739805.940   124753491.137    23739808.638    97210504.185                  
  23291727.127   122398857.694    23291727.002    95375734.395                  
  24653370.925   129554287.441    24653373.927   100951380.098                  
  20509344.992   107777351.753    20509344.885    83982358.208                  
  21409529.742   112507855.112    21409528.920    87668462.179                  
  23185353.066   121839873.523    23185350.814    94940166.905                  
  22428862.457   117864476.179    22428861.153    91842451.703                  
  23057218.197   121166523.385    23057215.696    94415479.442                  
  21872845.382   114942539.777    21872847.419    89565605.789                  
                 116297553.324                   116297553.324    22333712.983  
                 130168805.523                   130168805.523    24997548.518  
                 119665572.901                   119665572.901    22980513.612  
                 129677849.247                   129677849.247    24903267.746  
  23480112.678   123388788.499                                                  
  23957692.658   125898498.772                                                  
  24215979.128   127255810.852                                                  
  27021722.688   142000075.452                                                  
  23756127.756   124839282.398                                                  
 21  9  1  9 44 26.0000000  0 19G 1G 3G 7G 8G14G17G19G21G22G30C23C25
                                C28C34E13E15E21E26E27
  20197117.034   106136531.317    20197119.572    82703780.941                  
  23739259.577   124750619.961    23739262.257    97208266.902                  
  23292406.525   122402427.970    23292406.400    95378516.426                  
  24653929.457   129557222.515    24653932.459   100953667.168                  
  20509099.704   107776062.641    20509099.579    83981353.703                  
  21409274.644   112506514.539    21409273.822    87667417.574                  
  23184825.036   121837098.799    23184822.802    94938004.785                  
  22429362.575   117867104.268    22429361.253    91844499.567                  
  23056926.200   121164988.965    23056923.698    94414283.788                  
  21873289.749   114944874.935    21873291.804    89567425.390                  
                 116298767.610                   116298767.610    22333946.174  
                 130172091.883                   130172091.883    24998179.634  
                 119663719.793                   119663719.793    22980157.768  
                 129680529.762                   129680529.762    24903782.499  
  23479884.758   123387590.780                                                  
  23957993.394   125900079.202                                                  
  24215701.336   127254351.031                                                  
  27021173.573   141997189.950                                                  
  23756361.036   124840508.281                                                  
 21  9  1  9 44 27.0000000  0 19G 1G 3G 7G 8G14G17G19G21G22G30C23C25
                                C28C34E13E15E21E26E27
  20197313.361   106137562.993    20197315.916    82704584.845                  
  23738713.267   124747749.020    23738715.948    97206029.808                  
  23293085.941   122405998.401    23293085.816    95381298.583                  
  24654487.972   129560157.591    24654490.974   100955954.238                  
  20508854.452   107774773.940    20508854.362    83980349.524                  
  21409019.581   112505174.218    21409018.760    87666373.172                  
  23184297.060   121834324.261    23184294.844    94935842.805                  
  22429862.747   117869732.665    22429861.443    91846547.664                  
  23056634.327   121163455.038    23056631.808    94413088.522                  
  21873734.205   114947210.568    21873736.260    89569245.364                  
                 116299982.407                   116299982.407    22334179.454  
                 130175378.398                   130175378.398    24998810.785  
                 119661866.972                   119661866.972    22979801.942  
                 129683210.329                   129683210.329    24904297.288  
  23479656.928   123386393.461                                                  
  23958294.219   125901659.942                                                  
  24215423.598   127252891.493                                                  
  27020624.511   141994304.586                                                  
  23756594.388   124841734.505                                                  
 21  9  1  9 44 28.0000000  0 19G 1G 3G 7G 8G14G17G19G21G22G30C23C25
                                C28C34E13E15E21E26E27
  20197509.813   106138595.323    20197512.368    82705389.258                  
  23738166.976   124744878.302    23738169.656    97203792.882                  
  23293765.429   122409568.997    23293765.304    95384080.863                  
  24655046.504   129563092.638    24655049.506   100958241.288                  
  20508609.324   107773485.662    20508609.199    83979345.669                  
  21408764.573   112503834.138    21408763.769    87665328.954                  
  23183769.120   121831549.889    23183766.904    94933680.957                  
  22430362.955   117872361.339    22430361.668    91848595.983                  
  23056342.508   121161921.589    23056340.006    94411893.629                  
  21874178.768   114949546.676    21874180.805    89571065.710                  
                 116301197.716                   116301197.716    22334412.859  
                 130178665.076                   130178665.076    24999441.937  
                 119660014.437                   119660014.437    22979446.188  
                 129685890.946                   129685890.946    24904812.059  
  23479429.152   123385196.511                                                  
  23958595.079   125903240.985                                                  
  24215145.896   127251432.215                                                  
  27020075.486   141991419.339                                                  
  23756827.775   124842961.069                                                  
 21  9  1  9 44 29.0000000  0 19G 1G 3G 7G 8G14G17G19G21G22G30C23C25
                                C28C34E13E15E21E26E27
  20197706.372   106139628.307    20197708.946    82706194.183                  
  23737620.737   124742007.836    23737623.436    97201556.160                  
  23294444.898   122413139.743    23294444.773    95386863.262                  
  24655605.018   129566027.691    24655608.038   100960528.344                  
  20508364.269   107772197.797    20508364.143    83978342.140                  
  21408509.617   112502494.310    21408508.795    87664284.930                  
  23183241.215   121828775.694    23183238.982    94931519.249                  
  22430863.234   117874990.314    22430861.947    91850644.535                  
  23056050.796   121160388.633    23056048.295    94410699.116                  
  21874623.403   114951883.266    21874625.440    89572886.429                  
                 116302413.534                   116302413.534    22334646.336  
                 130181951.907                   130181951.907    25000073.160  
                 119658162.192                   119658162.192    22979090.487  
                 129688571.615                   129688571.615    24905326.865  
  23479201.465   123383999.957                                                  
  23958895.994   125904822.309                                                  
  24214868.265   127249973.207                                                  
  27019526.460   141988534.216                                                  
  23757061.252   124844187.980                                                  
 21  9  1  9 44 30.0000000  0 19G 1G 3G 7G 8G14G17G19G21G22G30C23C25
                                C28C34E13E15E21E26E27
  20197903.093   106140662.020    20197905.648    82706999.671                  
  23737074.553   124739137.614    23737077.251    97199319.621                  
  23295124.422   122416710.652    23295124.296    95389645.789                  
  24656163.568   129568962.738    24656166.552   100962815.394                  
  20508119.266   107770910.349    20508119.141    83977338.933                  
  21408254.698   112501154.728    21408253.876    87663241.102                  
  23182713.346   121826001.672    23182711.095    94929357.671                  
  22431363.584   117877619.574    22431362.280    91852693.309                  
  23055759.174   121158856.167    23055756.672    94409504.989                  
  21875068.127   114954220.328    21875070.182    89574707.515                  
                 116303629.866                   116303629.866    22334879.920  
                 130185238.896                   130185238.896    25000704.384  
                 119656310.229                   119656310.229    22978734.840  
                 129691252.333                   129691252.333    24905841.654  
  23478973.831   123382803.774                                                  
  23959196.980   125906403.945                                                  
  24214590.687   127248514.484                                                  
  27018977.452   141985649.234                                                  
  23757294.800   124845415.239                                                  
 21  9  1  9 44 31.0000000  0 19G 1G 3G 7G 8G14G17G19G21G22G30C23C25
                                C28C34E13E15E21E26E27
  20198099.938   106141696.386    20198102.475    82707805.671                  
  23736528.422   124736267.626    23736531.120    97197083.270                  
  23295803.980   122420281.715    23295803.855    95392428.433                  
  24656722.082   129571897.794    24656725.084   100965102.448                  
  20507874.354   107769623.332    20507874.246    83976336.063                  
  21407999.832   112499815.396    21407999.028    87662197.464                  
  23182185.495   121823227.832    23182183.262    94927196.239                  
  22431863.952   117880249.130    22431862.666    91854742.312                  
  23055467.659   121157324.180    23055465.157    94408311.230                  
  21875512.941   114956557.875    21875514.996    89576528.979                  
                 116304846.710                   116304846.710    22335113.629  
                 130188526.042                   130188526.042    25001335.660  
                 119654458.557                   119654458.557    22978379.246  
                 129693933.098                   129693933.098    24906356.478  
  23478746.287   123381607.986                                                  
  23959498.001   125907985.870                                                  
  24214313.146   127247056.019                                                  
  27018428.498   141982764.375                                                  
  23757528.419   124846642.842                                                  
 21  9  1  9 44 32.0000000  0 19G 1G 3G 7G 8G14G17G19G21G22G30C23C25
                                C28C34E13E15E21E26E27
  20198296.908   106142731.425    20198299.445    82708612.194                  
  23735982.345   124733397.871    23735985.025    97194847.094                  
  23296483.557   122423852.933    23296483.432    95395211.200                  
  24657280.596   129574832.841    24657283.598   100967389.496                  
  20507629.512   107768336.720    20507629.405    83975333.509                  
  21407745.020   112498476.316    21407744.198    87661154.028                  
  23181657.680   121820454.165    23181655.465    94925034.940                  
  22432364.392   117882878.962    22432363.106    91856791.532                  
  23055176.215   121155792.688    23055173.713    94407117.863                  
  21875957.862   114958895.893    21875959.899    89578350.812                  
                 116306064.067                   116306064.067    22335347.391  
                 130191813.347                   130191813.347    25001966.937  
                 119652607.171                   119652607.171    22978023.706  
                 129696613.915                   129696613.915    24906871.303  
  23478518.814   123380412.574                                                  
  23959799.094   125909568.099                                                  
  24214035.657   127245597.839                                                  
  27017879.561   141979879.653                                                  
  23757762.075   124847870.792                                                  
 21  9  1  9 44 33.0000000  0 19G 1G 3G 7G 8G14G17G19G21G22G30C23C25
                                C28C34E13E15E21E26E27
  20198493.985   106143767.136    20198496.541    82709419.242                  
  23735436.285   124730528.356    23735438.983    97192611.113                  
  23297163.188   122427424.309    23297163.063    95397994.091                  
  24657839.128   129577767.870    24657842.112   100969676.536                  
  20507384.760   107767050.528    20507384.635    83974331.281                  
  21407490.261   112497137.486    21407489.439    87660110.781                  
  23181129.901   121817680.671    23181127.685    94922873.776                  
  22432864.904   117885509.094    22432863.599    91858840.987                  
  23054884.878   121154261.672    23054882.377    94405924.863                  
  21876402.854   114961234.399    21876404.927    89580173.022                  
                 116307281.934                   116307281.934    22335581.279  
                 130195100.813                   130195100.813    25002598.286  
                 119650756.077                   119650756.077    22977668.220  
                 129699294.784                   129699294.784    24907386.145  
  23478291.395   123379217.555                                                  
  23960100.241   125911150.632                                                  
  24213758.241   127244139.923                                                  
  27017330.643   141976995.049                                                  
  23757995.819   124849099.090                                                  
 21  9  1  9 44 34.0000000  0 19G 1G 3G 7G 8G14G17G19G21G22G30C23C25
                                C28C34E13E15E21E26E27
  20198691.206   106144803.539    20198693.761    82710226.829                  
  23734890.279   124727659.082    23734892.977    97190375.313                  
  23297842.818   122430995.823    23297842.693    95400777.089                  
  24658397.642   129580702.888    24658400.644   100971963.558                  
  20507140.098   107765764.758    20507139.972    83973329.378                  
  21407235.538   112495798.896    21407234.698    87659067.722                  
  23180602.157   121814907.356    23180599.941    94920712.749                  
  22433365.469   117888139.518    22433364.164    91860890.669                  
  23054593.631   121152731.140    23054591.147    94404732.243                  
  21876847.954   114963573.372    21876850.008    89581995.601                  
                 116308500.317                   116308500.317    22335815.256  
                 130198388.438                   130198388.438    25003229.616  
                 119648905.275                   119648905.275    22977312.805  
                 129701975.706                   129701975.706    24907900.987  
  23478064.084   123378022.917                                                  
  23960401.441   125912733.456                                                  
  24213480.860   127242682.277                                                  
  27016781.742   141974110.575                                                  
  23758229.618   124850327.726                                                  
 21  9  1  9 44 35.0000000  0 19G 1G 3G 7G 8G14G17G19G21G22G30C23C25
                                C28C34E13E15E21E26E27
  20198888.551   106145840.608    20198891.107    82711034.935                  
  23734344.327   124724790.042    23734347.025    97188139.695                  
  23298522.484   122434567.508    23298522.359    95403560.219                  
  24658956.157   129583637.906    24658959.159   100974250.585                  
  20506895.506   107764479.399    20506895.381    83972327.802                  
  21406980.869   112494460.544    21406980.047    87658024.855                  
  23180074.467   121812134.202    23180072.215    94918551.855                  
  22433866.087   117890770.231    22433864.765    91862940.575                  
  23054302.473   121151201.098    23054299.972    94403540.000                  
  21877293.142   114965912.829    21877295.197    89583818.552                  
                 116309719.208                   116309719.208    22336049.322  
                 130201676.218                   130201676.218    25003861.000  
                 119647054.754                   119647054.754    22976957.426  
                 129704656.674                   129704656.674    24908415.848  
  23477836.825   123376828.653                                                  
  23960702.695   125914316.579                                                  
  24213203.515   127241224.906                                                  
  27016232.877   141971226.232                                                  
  23758463.505   124851556.711                                                  
 21  9  1  9 44 36.0000000  0 19G 1G 3G 7G 8G14G17G19G21G22G30C23C25
                                C28C34E13E15E21E26E27
  20199086.040   106146878.341    20199088.577    82711843.555                  
  23733798.393   124721921.243    23733801.109    97185904.270                  
  23299202.186   122438139.350    23299202.079    95406343.474                  
  24659514.689   129586572.906    24659517.673   100976537.598                  
  20506650.987   107763194.466    20506650.862    83971326.555                  
  21406726.217   112493122.453    21406725.396    87656982.186                  
  23179546.777   121809361.231    23179544.543    94916391.098                  
  22434366.741   117893401.225    22434365.437    91864990.700                  
  23054011.423   121149671.549    23054008.921    94402348.144                  
  21877738.421   114968252.761    21877740.476    89585641.880                  
                 116310938.614                   116310938.614    22336283.496  
                 130204964.160                   130204964.160    25004492.420  
                 119645204.525                   119645204.525    22976602.100  
                 129707337.698                   129707337.698    24908930.708  
  23477609.639   123375634.784                                                  
  23961004.020   125915899.996                                                  
  24212926.259   127239767.812                                                  
  27015684.012   141968342.012                                                  
  23758697.447   124852786.034                                                  
 21  9  1  9 44 37.0000000  0 19G 1G 3G 7G 8G14G17G19G21G22G30C23C25
                                C28C34E13E15E21E26E27
  20199283.635   106147916.763    20199286.173    82712652.715                  
  23733252.548   124719052.685    23733255.246    97183669.032                  
  23299881.924   122441711.337    23299881.799    95409126.835                  
  24660073.185   129589507.891    24660076.187   100978824.598                  
  20506406.556   107761909.946    20506406.431    83970325.628                  
  21406471.638   112491784.609    21406470.816    87655939.710                  
  23179019.140   121806588.438    23179016.907    94914230.480                  
  22434867.467   117896032.519    22434866.163    91867041.059                  
  23053720.443   121148142.482    23053717.942    94401156.665                  
  21878183.806   114970593.177    21878185.843    89587465.574                  
                 116312158.526                   116312158.526    22336517.776  
                 130208252.254                   130208252.254    25005123.858  
                 119643354.583                   119643354.583    22976246.846  
                 129710018.768                   129710018.768    24909445.586  
  23477382.523   123374441.300                                                  
  23961305.399   125917483.726                                                  
  24212649.039   127238310.987                                                  
  27015135.201   141965457.925                                                  
  23758931.441   124854015.715                                                  
 21  9  1  9 44 38.0000000  0 19G 1G 3G 7G 8G14G17G19G21G22G30C23C25
                                C28C34E13E15E21E26E27
  20199481.374   106148955.860    20199483.911    82713462.403                  
  23732706.720   124716184.358    23732709.401    97181433.972                  
  23300561.679   122445283.488    23300561.554    95411910.332                  
  24660631.681   129592442.844    24660634.683   100981111.574                  
  20506162.197   107760625.843    20506162.072    83969325.031                  
  21406217.111   112490447.017    21406216.271    87654897.429                  
  23178491.522   121803815.816    23178489.288    94912069.995                  
  22435368.247   117898664.097    22435366.924    91869091.637                  
  23053429.571   121146613.901    23053427.052    94399965.563                  
  21878629.245   114972934.072    21878631.300    89589289.648                  
                 116313378.953                   116313378.953    22336752.147  
                 130211540.507                   130211540.507    25005755.349  
                 119641504.926                   119641504.926    22975891.646  
                 129712699.891                   129712699.891    24909960.464  
  23477155.479   123373248.203                                                  
  23961606.814   125919067.753                                                  
  24212371.855   127236854.444                                                  
  27014586.408   141962573.970                                                  
  23759165.508   124855245.738                                                  
 21  9  1  9 44 39.0000000  0 19G 1G 3G 7G 8G14G17G19G21G22G30C23C25
                                C28C34E13E15E21E26E27
  20199679.238   106149995.655    20199681.793    82714272.633                  
  23732160.947   124713316.284    23732163.645    97179199.109                  
  23301241.453   122448855.792    23301241.345    95414693.945                  
  24661190.195   129595377.812    24661193.197   100983398.562                  
  20505917.928   107759342.157    20505917.803    83968324.758                  
  21405962.621   112489109.671    21405961.799    87653855.343                  
  23177963.939   121801043.364    23177961.705    94909909.645                  
  22435869.062   117901295.965    22435867.757    91871142.446                  
  23053138.789   121145085.825    23053136.287    94398774.852                  
  21879074.791   114975275.442    21879076.864    89591114.094                  
                 116314599.891                   116314599.891    22336986.624  
                 130214828.918                   130214828.918    25006386.840  
                 119639655.557                   119639655.557    22975536.481  
                 129715381.060                   129715381.060    24910475.342  
  23476928.525   123372055.493                                                  
  23961908.318   125920652.071                                                  
  24212094.742   127235398.174                                                  
  27014037.614   141959690.143                                                  
  23759399.646   124856476.106                                                  
 21  9  1  9 44 40.0000000  0 19G 1G 3G 7G 8G14G17G19G21G22G30C23C25
                                C28C34E13E15E21E26E27
  20199877.244   106151036.099    20199879.782    82715083.367                  
  23731615.227   124710448.445    23731617.907    97176964.429                  
  23301921.280   122452428.251    23301921.155    95417477.675                  
  24661748.692   129598312.780    24661751.694   100985685.550                  
  20505673.712   107758058.891    20505673.605    83967324.808                  
  21405708.184   112487772.569    21405707.362    87652813.448                  
  23177436.392   121798271.093    23177434.158    94907749.430                  
  22436369.948   117903928.133    22436368.644    91873193.481                  
  23052848.096   121143558.228    23052845.594    94397584.519                  
  21879520.445   114977617.293    21879522.500    89592938.911                  
                 116315821.338                   116315821.338    22337221.173  
                 130218117.485                   130218117.485    25007018.385  
                 119637806.476                   119637806.476    22975181.406  
                 129718062.278                   129718062.278    24910990.238  
  23476701.624   123370863.160                                                  
  23962209.858   125922236.691                                                  
  24211817.683   127233942.169                                                  
  27013488.874   141956806.446                                                  
  23759633.819   124857706.825                                                  
 21  9  1  9 44 41.0000000  0 19G 1G 3G 7G 8G14G17G19G21G22G30C23C25
                                C28C34E13E15E21E26E27
  20200075.358   106152077.229    20200077.896    82715894.633                  
  23731069.525   124707580.852    23731072.223    97174729.937                  
  23302601.142   122456000.868    23302601.017    95420261.528                  
  24662307.224   129601247.765    24662310.226   100987972.542                  
  20505429.621   107756776.050    20505429.496    83966325.192                  
  21405453.800   112486435.731    21405452.978    87651771.749                  
  23176908.880   121795499.008    23176906.664    94905589.359                  
  22436870.888   117906560.589    22436869.584    91875244.743                  
  23052557.492   121142031.117    23052555.008    94396394.558                  
  21879966.187   114979959.622    21879968.224    89594764.098                  
                 116317043.300                   116317043.300    22337455.847  
                 130221406.207                   130221406.207    25007649.948  
                 119635957.683                   119635957.683    22974826.348  
                 129720743.546                   129720743.546    24911505.151  
  23476474.795   123369671.210                                                  
  23962511.469   125923821.610                                                  
  24211540.659   127232486.433                                                  
  27012940.152   141953922.872                                                  
  23759868.100   124858937.879                                                  
 21  9  1  9 44 42.0000000  0 19G 1G 3G 7G 8G14G17G19G21G22G30C23C25
                                C28C34E13E15E21E26E27
  20200273.597   106153119.044    20200276.152    82716706.429                  
  23730523.894   124704713.508    23730526.574    97172495.641                  
  23303281.005   122459573.642    23303280.898    95423045.505                  
  24662865.720   129604182.722    24662868.722   100990259.519                  
  20505185.584   107755493.628    20505185.459    83965325.895                  
  21405199.435   112485099.137    21405198.613    87650730.245                  
  23176381.405   121792727.081    23176379.189    94903429.418                  
  22437371.882   117909193.341    22437370.578    91877296.231                  
  23052266.995   121140504.503    23052264.493    94395204.984                  
  21880412.002   114982302.436    21880414.039    89596589.663                  
                 116318265.768                   116318265.768    22337690.592  
                 130224695.089                   130224695.089    25008281.546  
                 119634109.175                   119634109.175    22974471.362  
                 129723424.866                   129723424.866    24912020.083  
  23476248.055   123368479.645                                                  
  23962813.116   125925406.825                                                  
  24211263.707   127231030.982                                                  
  27012391.466   141951039.442                                                  
  23760102.416   124860169.288                                                  
 21  9  1  9 44 43.0000000  0 19G 1G 3G 7G 8G14G17G19G21G22G30C23C25
                                C28C34E13E15E21E26E27
  20200471.979   106154161.527    20200474.534    82717518.754                  
  23729978.299   124701846.388    23729980.980    97170261.516                  
  23303960.921   122463146.567    23303960.796    95425829.598                  
  24663424.216   129607117.669    24663427.218   100992546.489                  
  20504941.618   107754211.626    20504941.493    83964326.931                  
  21404945.140   112483762.792    21404944.319    87649688.933                  
  23175853.965   121789955.345    23175851.749    94901269.617                  
  22437872.948   117911826.386    22437871.643    91879347.952                  
  23051976.588   121138978.366    23051974.086    94394015.784                  
  21880857.905   114984645.722    21880859.960    89598415.598                  
                 116319488.754                   116319488.754    22337925.462  
                 130227984.130                   130227984.130    25008913.163  
                 119632260.958                   119632260.958    22974116.448  
                 129726106.236                   129726106.236    24912534.997  
  23476021.386   123367288.476                                                  
  23963114.816   125926992.340                                                  
  24210986.773   127229575.800                                                  
  27011842.780   141948156.130                                                  
  23760336.822   124861401.043                                                  
 21  9  1  9 44 44.0000000  0 19G 1G 3G 7G 8G14G17G19G21G22G30C23C25
                                C28C34E13E15E21E26E27
  20200670.504   106155204.682    20200673.041    82718331.598                  
  23729432.740   124698979.511    23729435.438    97168027.582                  
  23304640.838   122466719.646    23304640.748    95428613.808                  
  24663982.713   129610052.622    24663985.715   100994833.460                  
  20504697.742   107752930.038    20504697.617    83963328.286                  
  21404690.900   112482426.685    21404690.078    87648647.806                  
  23175326.560   121787183.776    23175324.327    94899109.953                  
  22438374.049   117914459.710    22438372.744    91881399.891                  
  23051686.252   121137452.729    23051683.768    94392826.972                  
  21881303.916   114986989.484    21881305.953    89600241.899                  
                 116320712.245                   116320712.245    22338160.422  
                 130231273.320                   130231273.320    25009544.815  
                 119630413.022                   119630413.022    22973761.551  
                 129728787.652                   129728787.652    24913049.946  
  23475794.771   123366097.683                                                  
  23963416.606   125928578.151                                                  
  24210709.929   127228120.892                                                  
  27011294.112   141945272.946                                                  
  23760571.282   124862633.136                                                  
 21  9  1  9 44 45.0000000  0 19G 1G 3G 7G 8G14G17G19G21G22G30C23C25
                                C28C34E13E15E21E26E27
  20200869.118   106156248.507    20200871.673    82719144.965                  
  23728887.235   124696112.875    23728889.933    97165793.837                  
  23305320.826   122470292.885    23305320.700    95431398.149                  
  24664541.227   129612987.546    24664544.229   100997120.409                  
  20504453.937   107751648.870    20504453.812    83962329.964                  
  21404436.695   112481090.836    21404435.873    87647606.882                  
  23174799.174   121784412.392    23174796.940    94896950.421                  
  22438875.203   117917093.325    22438873.899    91883452.051                  
  23051396.041   121135927.579    23051393.539    94391638.538                  
  21881749.998   114989333.718    21881752.053    89602068.570                  
                 116321936.245                   116321936.245    22338395.471  
                 130234562.673                   130234562.673    25010176.502  
                 119628565.378                   119628565.378    22973406.744  
                 129731469.120                   129731469.120    24913564.878  
  23475568.263   123364907.262                                                  
  23963718.414   125930164.259                                                  
  24210433.102   127226666.242                                                  
  27010745.497   141942389.891                                                  
  23760805.795   124863865.578                                                  
 21  9  1  9 44 46.0000000  0 19G 1G 3G 7G 8G14G17G19G21G22G30C23C25
                                C28C34E13E15E21E26E27
  20201067.893   106157293.027    20201070.448    82719958.872                  
  23728341.783   124693246.485    23728344.481    97163560.282                  
  23306000.795   122473866.278    23306000.706    95434182.601                  
  24665099.723   129615922.464    24665102.725   100999407.356                  
  20504210.221   107750368.118    20504210.096    83961331.978                  
  21404182.544   112479755.245    21404181.722    87646566.155                  
  23174271.823   121781641.175    23174269.608    94894791.032                  
  22439376.411   117919727.239    22439375.125    91885504.450                  
  23051105.902   121134402.910    23051103.400    94390450.480                  
  21882196.188   114991678.433    21882198.243    89603895.616                  
                 116323160.760                   116323160.760    22338630.645  
                 130237852.180                   130237852.180    25010808.226  
                 119626718.024                   119626718.024    22973051.954  
                 129734150.638                   129734150.638    24914079.845  
  23475341.791   123363717.238                                                  
  23964020.293   125931750.665                                                  
  24210156.364   127225211.885                                                  
  27010196.900   141939506.957                                                  
  23761040.397   124865098.363                                                  
 21  9  1  9 44 47.0000000  0 19G 1G 3G 7G 8G14G17G19G21G22G30C23C25
                                C28C34E13E15E21E26E27
  20201266.775   106158338.192    20201269.348    82720773.282                  
  23727796.384   124690380.336    23727799.083    97161326.914                  
  23306680.837   122477439.814    23306680.712    95436967.175                  
  24665658.219   129618857.393    24665661.221   101001694.305                  
  20503966.577   107749087.786    20503966.488    83960334.309                  
  21403928.429   112478419.886    21403927.625    87645525.614                  
  23173744.526   121778870.137    23173742.275    94892631.777                  
  22439877.673   117922361.423    22439876.404    91887557.054                  
  23050815.852   121132878.722    23050813.368    94389262.801                  
  21882642.467   114994023.621    21882644.522    89605723.031                  
                 116324385.790                   116324385.790    22338865.891  
                 130241141.843                   130241141.843    25011439.985  
                 119624870.952                   119624870.952    22972697.254  
                 129736832.202                   129736832.202    24914594.813  
  23475115.427   123362527.589                                                  
  23964322.244   125933337.360                                                  
  24209879.644   127223757.790                                                  
  27009648.321   141936624.161                                                  
  23761275.035   124866331.489                                                  
 21  9  1  9 44 48.0000000  0 19G 1G 3G 7G 8G14G17G19G21G22G30C23C25
                                C28C34E13E15E21E26E27
  20201465.800   106159384.074    20201468.356    82721588.250                  
  23727251.022   124687514.422    23727253.702    97159093.730                  
  23307360.878   122481013.508    23307360.789    95439751.863                  
  24666216.716   129621792.300    24666219.718   101003981.243                  
  20503723.022   107747807.876    20503722.915    83959336.968                  
  21403674.367   112477084.783    21403673.563    87644485.266                  
  23173217.247   121776099.270    23173215.014    94890472.657                  
  22440379.024   117924995.915    22440377.720    91889609.898                  
  23050525.909   121131355.039    23050523.407    94388075.511                  
  21883088.835   114996369.304    21883090.908    89607550.832                  
                 116325611.323                   116325611.323    22339101.244  
                 130244431.661                   130244431.661    25012071.745  
                 119623024.168                   119623024.168    22972342.608  
                 129739513.816                   129739513.816    24915109.780  
  23474889.116   123361338.339                                                  
  23964624.249   125934924.362                                                  
  24209602.996   127222303.973                                                  
  27009099.760   141933741.497                                                  
  23761509.781   124867564.973                                                  
 21  9  1  9 44 49.0000000  0 19G 1G 3G 7G 8G14G17G19G21G22G30C23C25
                                C28C34E13E15E21E26E27
  20201664.969   106160430.601    20201667.506    82722403.723                  
  23726705.695   124684648.745    23726708.393    97156860.730                  
  23308040.955   122484587.367    23308040.866    95442536.688                  
  24666775.194   129624727.194    24666778.214   101006268.169                  
  20503479.539   107746528.378    20503479.432    83958339.956                  
  21403420.359   112475749.926    21403419.537    87643445.118                  
  23172690.004   121773328.581    23172687.752    94888313.677                  
  22440880.393   117927630.689    22440879.107    91891662.966                  
  23050236.055   121129831.843    23050233.554    94386888.601                  
  21883535.275   114998715.449    21883537.365    89609378.991                  
                 116326837.370                   116326837.370    22339336.704  
                 130247721.636                   130247721.636    25012703.558  
                 119621177.675                   119621177.675    22971987.997  
                 129742195.485                   129742195.485    24915624.783  
  23474662.876   123360149.465                                                  
  23964926.307   125936511.661                                                  
  24209326.402   127220850.432                                                  
  27008551.234   141930858.965                                                  
  23761744.562   124868798.797                                                  
 21  9  1  9 44 50.0000000  0 19G 1G 3G 7G 8G14G17G19G21G22G30C23C25
                                C28C34E13E15E21E26E27
  20201864.226   106161477.805    20201866.781    82723219.722                  
  23726160.422   124681783.306    23726163.120    97154627.918                  
  23308721.086   122488161.370    23308720.979    95445321.620                  
  24667333.708   129627662.083    24667336.693   101008555.091                  
  20503236.145   107745249.307    20503236.038    83957343.273                  
  21403166.386   112474415.303    21403165.564    87642405.148                  
  23172162.778   121770558.072    23172160.563    94886154.831                  
  22441381.834   117930265.741    22441380.547    91893716.249                  
  23049946.291   121128309.132    23049943.808    94385702.070                  
  21883981.839   115001062.077    21883983.894    89611207.531                  
                 116328063.926                   116328063.926    22339572.236  
                 130251011.768                   130251011.768    25013335.388  
                 119619331.470                   119619331.470    22971633.458  
                 129744877.195                   129744877.195    24916139.786  
  23474436.725   123358960.972                                                  
  23965228.400   125938099.262                                                  
  24209049.843   127219397.164                                                  
  27008002.745   141927976.556                                                  
  23761979.414   124870032.964                                                  
 21  9  1  9 44 51.0000000  0 19G 1G 3G 7G 8G14G17G19G21G22G30C23C25
                                C28C34E13E15E21E26E27
  20202063.644   106162525.700    20202066.200    82724036.257                  
  23725615.202   124678918.122    23725617.882    97152395.305                  
  23309401.217   122491735.528    23309401.128    95448106.672                  
  24667892.187   129630596.959    24667895.207   101010842.003                  
  20502992.822   107743970.645    20502992.715    83956346.913                  
  21402912.468   112473080.919    21402911.646    87641365.368                  
  23171635.606   121767787.735    23171633.373    94883996.130                  
  22441883.328   117932901.090    22441882.024    91895769.765                  
  23049656.617   121126786.910    23049654.115    94384515.918                  
  21884428.476   115003409.172    21884430.548    89613036.434                  
                 116329291.000                   116329291.000    22339807.875  
                 130254302.083                   130254302.083    25013967.255  
                 119617485.543                   119617485.543    22971278.954  
                 129747558.957                   129747558.957    24916654.772  
  23474210.629   123357772.855                                                  
  23965530.565   125939687.148                                                  
  24208773.355   127217944.160                                                  
  27007454.255   141925094.282                                                  
  23762214.338   124871267.469                                                  
 21  9  1  9 44 52.0000000  0 19G 1G 3G 7G 8G14G17G19G21G22G30C23C25
                                C28C34E13E15E21E26E27
  20202263.188   106163574.260    20202265.725    82724853.319                  
  23725070.000   124676053.167    23725072.699    97150162.875                  
  23310081.383   122495309.850    23310081.276    95450891.860                  
  24668450.683   129633531.836    24668453.685   101013128.922                  
  20502749.571   107742692.414    20502749.482    83955350.891                  
  21402658.585   112471746.780    21402657.763    87640325.777                  
  23171108.452   121765017.575    23171106.237    94881837.559                  
  22442384.858   117935536.726    22442383.571    91897823.508                  
  23049367.031   121125265.187    23049364.565    94383330.160                  
  21884875.201   115005756.755    21884877.256    89614865.719                  
                 116330518.577                   116330518.577    22340043.638  
                 130257592.526                   130257592.526    25014599.157  
                 119615639.911                   119615639.911    22970924.540  
                 129750240.769                   129750240.769    24917169.775  
  23473984.603   123356585.137                                                  
  23965832.802   125941275.348                                                  
  24208496.904   127216491.438                                                  
  27006905.801   141922212.128                                                  
  23762449.316   124872502.329                                                  
 21  9  1  9 44 53.0000000  0 19G 1G 3G 7G 8G14G17G19G21G22G30C23C25
                                C28C34E13E15E21E26E27
  20202462.838   106164623.499    20202465.394    82725670.905                  
  23724524.888   124673188.450    23724527.568    97147930.628                  
  23310761.586   122498884.317    23310761.478    95453677.161                  
  24669009.162   129636466.707    24669012.181   101015415.833                  
  20502506.428   107741414.596    20502506.320    83954355.187                  
  21402404.737   112470412.892    21402403.933    87639286.383                  
  23170581.352   121762247.587    23170579.118    94879679.129                  
  22442886.459   117938172.653    22442885.173    91899877.477                  
  23049077.553   121123743.949    23049075.051    94382144.782                  
  21885322.016   115008104.809    21885324.089    89616695.372                  
                 116331746.669                   116331746.669    22340279.474  
                 130260883.124                   130260883.124    25015231.077  
                 119613794.564                   119613794.564    22970570.162  
                 129752922.630                   129752922.630    24917684.814  
  23473758.668   123355397.798                                                  
  23966135.074   125942863.832                                                  
  24208220.523   127215038.983                                                  
  27006357.365   141919330.107                                                  
  23762684.383   124873737.526                                                  
 21  9  1  9 44 54.0000000  0 19G 1G 3G 7G 8G14G17G19G21G22G30C23C25
                                C28C34E13E15E21E26E27
  20202662.614   106165673.430    20202665.187    82726489.036                  
  23723979.775   124670323.988    23723982.474    97145698.578                  
  23311441.824   122502458.938    23311441.699    95456462.578                  
  24669567.640   129639401.558    24669570.660   101017702.731                  
  20502263.337   107740137.199    20502263.248    83953359.812                  
  21402150.961   112469079.249    21402150.139    87638247.179                  
  23170054.287   121759477.773    23170052.036    94877520.832                  
  22443388.114   117940808.871    22443386.828    91901931.672                  
  23048788.182   121122223.180    23048785.680    94380959.765                  
  21885768.938   115010453.336    21885770.993    89618525.391                  
                 116332975.266                   116332975.266    22340515.416  
                 130264173.884                   130264173.884    25015863.033  
                 119611949.504                   119611949.504    22970215.819  
                 129755604.538                   129755604.538    24918199.834  
  23473532.803   123354210.840                                                  
  23966437.400   125944452.616                                                  
  24207944.179   127213586.804                                                  
  27005808.965   141916448.214                                                  
  23762919.504   124874973.079                                                  
 21  9  1  9 44 55.0000000  0 19G 1G 3G 7G 8G14G17G19G21G22G30C23C25
                                C28C34E13E15E21E26E27
  20202862.533   106166724.012    20202865.106    82727307.669                  
  23723434.735   124667459.758    23723437.433    97143466.710                  
  23312122.079   122506033.722    23312121.954    95459248.126                  
  24670126.119   129642336.423    24670129.138   101019989.632                  
  20502020.337   107738860.215    20502020.247    83952364.758                  
  21401897.221   112467745.860    21401896.417    87637208.176                  
  23169527.223   121756708.141    23169525.007    94875362.675                  
  22443889.841   117943445.376    22443888.536    91903986.090                  
  23048498.883   121120702.918    23048496.381    94379775.146                  
  21886215.932   115012802.351    21886218.005    89620355.789                  
                 116334204.378                   116334204.378    22340751.466  
                 130267464.798                   130267464.798    25016495.025  
                 119610104.735                   119610104.735    22969861.565  
                 129758286.500                   129758286.500    24918714.873  
  23473306.992   123353024.272                                                  
  23966739.798   125946041.702                                                  
  24207667.888   127212134.906                                                  
  27005260.582   141913566.454                                                  
  23763154.678   124876208.968                                                  
 21  9  1  9 44 56.0000000  0 19G 1G 3G 7G 8G14G17G19G21G22G30C23C25
                                C28C34E13E15E21E26E27
  20203062.594   106167775.255    20203065.167    82728126.819                  
  23722889.747   124664595.778    23722892.445    97141235.039                  
  23312802.353   122509608.646    23312802.264    95462033.774                  
  24670684.615   129645271.285    24670687.635   101022276.540                  
  20501777.425   107737583.659    20501777.318    83951370.039                  
  21401643.535   112466412.710    21401642.713    87636169.359                  
  23169000.211   121753938.673    23168997.996    94873204.653                  
  22444391.603   117946082.174    22444390.298    91906040.742                  
  23048209.655   121119183.141    23048207.189    94378590.906                  
  21886663.033   115015151.828    21886665.105    89622186.555                  
                 116335433.999                   116335433.999    22340987.587  
                 130270755.863                   130270755.863    25017127.034  
                 119608260.251                   119608260.251    22969507.348  
                 129760968.507                   129760968.507    24919229.948  
  23473081.289   123351838.074                                                  
  23967042.231   125947631.081                                                  
  24207391.669   127210683.273                                                  
  27004712.218   141910684.817                                                  
  23763389.923   124877445.208                                                  
 21  9  1  9 44 57.0000000  0 19G 1G 3G 7G 8G14G17G19G21G22G30C23C25
                                C28C34E13E15E21E26E27
  20203262.781   106168827.199    20203265.336    82728946.520                  
  23722344.778   124661732.035    23722347.476    97139003.551                  
  23313482.680   122513183.731    23313482.573    95464819.555                  
  24671243.093   129648206.130    24671246.113   101024563.430                  
  20501534.585   107736307.523    20501534.478    83950375.647                  
  21401389.902   112465079.819    21401389.080    87635130.742                  
  23168473.236   121751169.387    23168471.020    94871046.765                  
  22444893.419   117948719.255    22444892.114    91908095.610                  
  23047920.552   121117663.851    23047918.068    94377407.043                  
  21887110.223   115017501.782    21887112.278    89624017.688                  
                 116336664.132                   116336664.132    22341223.816  
                 130274047.085                   130274047.085    25017759.079  
                 119606416.055                   119606416.055    22969153.184  
                 129763650.563                   129763650.563    24919745.005  
  23472855.621   123350652.281                                                  
  23967344.754   125949220.757                                                  
  24207115.467   127209231.909                                                  
  27004163.871   141907803.317                                                  
  23763625.241   124878681.790                                                  
 21  9  1  9 44 58.0000000  0 19G 1G 3G 7G 8G14G17G19G21G22G30C23C25
                                C28C34E13E15E21E26E27
  20203463.075   106169879.789    20203465.648    82729766.715                  
  23721799.880   124658868.527    23721802.578    97136772.251                  
  23314163.026   122516758.963    23314162.918    95467605.453                  
  24671801.572   129651140.971    24671804.592   101026850.319                  
  20501291.817   107735031.801    20501291.691    83949381.578                  
  21401136.305   112463747.175    21401135.483    87634092.320                  
  23167946.297   121748400.274    23167944.063    94868889.015                  
  22445395.306   117951356.623    22445394.001    91910150.700                  
  23047631.538   121116145.051    23047629.036    94376223.563                  
  21887557.484   115019852.216    21887559.539    89625849.191                  
                 116337894.774                   116337894.774    22341460.152  
                 130277338.465                   130277338.465    25018391.160  
                 119604572.144                   119604572.144    22968799.073  
                 129766332.668                   129766332.668    24920260.079  
  23472630.042   123349466.852                                                  
  23967647.312   125950810.729                                                  
  24206839.337   127207780.821                                                  
  27003615.578   141904921.941                                                  
  23763860.611   124879918.716                                                  
 21  9  1  9 44 59.0000000  0 19G 1G 3G 7G 8G14G17G19G21G22G30C23C25
                                C28C34E13E15E21E26E27
  20203663.494   106170933.091    20203666.067    82730587.469                  
  23721255.017   124656005.268    23721257.716    97134541.140                  
  23314843.407   122520334.351    23314843.299    95470391.469                  
  24672360.068   129654075.798    24672363.088   101029137.195                  
  20501049.137   107733756.505    20501049.012    83948387.841                  
  21400882.761   112462414.783    21400881.939    87633054.090                  
  23167419.375   121745631.344    23167417.159    94866731.409                  
  22445897.229   117953994.295    22445895.942    91912206.027                  
  23047342.614   121114626.746    23047340.112    94375040.469                  
  21888004.835   115022203.129    21888006.926    89627681.071                  
                 116339125.927                   116339125.927    22341696.577  
                 130280630.001                   130280630.001    25019023.259  
                 119602728.524                   119602728.524    22968445.034  
                 129769014.826                   129769014.826    24920775.154  
  23472404.535   123348281.816                                                  
  23967949.942   125952401.001                                                  
  24206563.261   127206330.013                                                  
  27003067.303   141902040.700                                                  
  23764096.054   124881155.991                                                  
 21  9  1  9 45  0.0000000  0 19G 1G 3G 7G 8G14G17G19G21G22G30C23C25
                                C28C34E13E15E21E26E27
  20203864.056   106171987.028    20203866.629    82731408.722                  
  23720710.209   124653142.250    23720712.907    97132310.215                  
  23315523.805   122523909.886    23315523.698    95473177.597                  
  24672918.546   129657010.611    24672921.566   101031424.062                  
  20500806.547   107732481.616    20500806.422    83947394.421                  
  21400629.253   112461082.628    21400628.431    87632016.050                  
  23166892.507   121742862.577    23166890.273    94864573.929                  
  22446399.223   117956632.241    22446397.919    91914261.574                  
  23047053.779   121113108.927    23047051.277    94373857.754                  
  21888452.294   115024554.514    21888454.366    89629513.321                  
                 116340357.589                   116340357.589    22341933.127  
                 130283921.692                   130283921.692    25019655.394  
                 119600885.192                   119600885.192    22968091.031  
                 129771697.027                   129771697.027    24921290.246  
  23472179.099   123347097.167                                                  
  23968252.607   125953991.566                                                  
  24206287.220   127204879.468                                                  
  27002519.045   141899159.583                                                  
  23764331.585   124882393.618                                                  
 21  9  1  9 45  1.0000000  0 19G 1G 3G 7G 8G14G17G19G21G22G30C23C25
                                C28C34E13E15E21E26E27
  20204064.761   106173041.657    20204067.316    82732230.509                  
  23720165.436   124650279.481    23720168.134    97130079.484                  
  23316204.222   122527485.581    23316204.115    95475963.856                  
  24673477.025   129659945.423    24673480.027   101033710.929                  
  20500564.011   107731207.153    20500563.904    83946401.333                  
  21400375.799   112459750.723    21400374.977    87630978.202                  
  23166365.656   121740093.993    23166363.441    94862416.590                  
  22446901.253   117959270.484    22446899.967    91916317.345                  
  23046765.033   121111591.597    23046762.532    94372675.419                  
  21888899.841   115026906.384    21888901.914    89631345.945                  
                 116341589.766                   116341589.766    22342169.748  
                 130287213.536                   130287213.536    25020287.564  
                 119599042.144                   119599042.144    22967737.099  
                 129774379.280                   129774379.280    24921805.339  
  23471953.735   123345912.897                                                  
  23968555.344   125955582.433                                                  
  24206011.233   127203429.208                                                  
  27001970.806   141896278.597                                                  
  23764567.135   124883631.579                                                  
 21  9  1  9 45  2.0000000  0 19G 1G 3G 7G 8G14G17G19G21G22G30C23C25
                                C28C34E13E15E21E26E27
  20204265.573   106174096.969    20204268.146    82733052.833                  
  23719620.717   124647416.939    23719623.397    97127848.933                  
  23316884.674   122531061.418    23316884.585    95478750.218                  
  24674035.485   129662880.226    24674038.505   101035997.789                  
  20500321.564   107729933.106    20500321.457    83945408.571                  
  21400122.398   112458419.070    21400121.576    87629940.551                  
  23165838.842   121737325.578    23165836.626    94860259.382                  
  22447403.337   117961909.008    22447402.069    91918373.335                  
  23046476.395   121110074.757    23046473.893    94371493.466                  
  21889347.478   115029258.714    21889349.533    89633178.929                  
                 116342822.449                   116342822.449    22342406.459  
                 130290505.535                   130290505.535    25020919.752  
                 119597199.382                   119597199.382    22967383.221  
                 129777061.583                   129777061.583    24922320.431  
  23471728.461   123344729.012                                                  
  23968858.117   125957173.591                                                  
  24205735.318   127201979.217                                                  
  27001422.602   141893397.737                                                  
  23764802.791   124884869.890                                                  
 21  9  1  9 45  3.0000000  0 19G 1G 3G 7G 8G14G17G19G21G22G30C23C25
                                C28C34E13E15E21E26E27
  20204466.528   106175152.969    20204469.083    82733875.687                  
  23719076.033   124644554.645    23719078.731    97125618.577                  
  23317565.180   122534637.419    23317565.073    95481536.710                  
  24674593.964   129665815.003    24674596.984   101038284.628                  
  20500079.207   107728659.479    20500079.100    83944416.137                  
  21399869.034   112457087.664    21399868.212    87628903.089                  
  23165312.081   121734557.349    23165309.847    94858102.324                  
  22447905.493   117964547.819    22447904.206    91920429.554                  
  23046187.846   121108558.401    23046185.362    94370311.890                  
  21889795.222   115031611.531    21889797.277    89635012.293                  
                 116344055.644                   116344055.644    22342643.278  
                 130293797.691                   130293797.691    25021551.976  
                 119595356.913                   119595356.913    22967029.397  
                 129779743.933                   129779743.933    24922835.559  
  23471503.239   123343545.511                                                  
  23969160.979   125958765.054                                                  
  24205459.456   127200529.500                                                  
  27000874.416   141890517.013                                                  
  23765038.502   124886108.539                                                  
 21  9  1  9 45  4.0000000  0 19G 1G 3G 7G 8G14G17G19G21G22G30C23C25
                                C28C34E13E15E21E26E27
  20204667.608   106176209.614    20204670.163    82734699.047                  
  23718531.403   124641692.599    23718534.101    97123388.411                  
  23318245.704   122538213.558    23318245.597    95484323.316                  
  24675152.425   129668749.786    24675155.444   101040571.469                  
  20499836.921   107727386.278    20499836.813    83943424.028                  
  21399615.722   112455756.504    21399614.918    87627865.819                  
  23164785.320   121731789.280    23164783.104    94855945.386                  
  22448407.701   117967186.930    22448406.397    91922486.000                  
  23045899.387   121107042.535    23045896.903    94369130.696                  
  21890243.020   115033964.821    21890245.075    89636846.023                  
                 116345289.347                   116345289.347    22342880.203  
                 130297090.004                   130297090.004    25022184.236  
                 119593514.729                   119593514.729    22966675.626  
                 129782426.332                   129782426.332    24923350.705  
  23471278.108   123342362.391                                                  
  23969463.877   125960356.798                                                  
  24205183.647   127199080.056                                                  
  27000326.266   141887636.415                                                  
  23765274.283   124887347.536                                                  
 21  9  1  9 45  5.0000000  0 19G 1G 3G 7G 8G14G17G19G21G22G30C23C25
                                C28C34E13E15E21E26E27
  20204868.795   106177266.934    20204871.368    82735522.933                  
  23717986.827   124638830.798    23717989.525    97121158.434                  
  23318926.246   122541789.852    23318926.139    95487110.035                  
  24675710.903   129671684.563    24675713.923   101042858.309                  
  20499594.724   107726113.487    20499594.617    83942432.243                  
  21399362.465   112454425.603    21399361.660    87626828.753                  
  23164258.613   121729021.385    23164256.379    94853788.589                  
  22448909.964   117969826.314    22448908.660    91924542.665                  
  23045611.016   121105527.157    23045608.515    94367949.882                  
  21890690.943   115036318.574    21890692.998    89638680.117                  
                 116346523.563                   116346523.563    22343117.218  
                 130300382.468                   130300382.468    25022816.513  
                 119591672.833                   119591672.833    22966321.909  
                 129785108.777                   129785108.777    24923865.816  
  23471053.047   123341179.653                                                  
  23969766.846   125961948.848                                                  
  24204907.857   127197630.878                                                  
  26999778.116   141884755.934                                                  
  23765510.119   124888586.880                                                  
 21  9  1  9 45  6.0000000  0 19G 1G 3G 7G 8G14G17G19G21G22G30C23C25
                                C28C34E13E15E21E26E27
  20205070.143   106178324.946    20205072.699    82736347.360                  
  23717442.286   124635969.230    23717444.984    97118928.641                  
  23319606.823   122545366.311    23319606.716    95489896.886                  
  24676269.364   129674619.329    24676272.383   101045145.141                  
  20499352.599   107724841.125    20499352.474    83941440.794                  
  21399109.243   112453094.942    21399108.439    87625791.879                  
  23163731.941   121726253.678    23163729.707    94851631.934                  
  22449412.280   117972465.988    22449410.976    91926599.554                  
  23045322.735   121104012.274    23045320.251    94366769.454                  
  21891138.919   115038672.818    21891140.992    89640514.594                  
                 116347758.290                   116347758.290    22343354.340  
                 130303675.089                   130303675.089    25023448.844  
                 119589831.222                   119589831.222    22965968.245  
                 129787791.272                   129787791.272    24924380.980  
  23470828.041   123339997.296                                                  
  23970069.833   125963541.194                                                  
  24204632.138   127196181.980                                                  
  26999230.002   141881875.605                                                  
  23765746.026   124889826.579                                                  
 21  9  1  9 45  7.0000000  0 19G 1G 3G 7G 8G14G17G19G21G22G30C23C25
                                C28C34E13E15E21E26E27
  20205271.599   106179383.628    20205274.154    82737172.304                  
  23716897.799   124633107.923    23716900.497    97116699.055                  
  23320287.419   122548942.911    23320287.312    95492683.849                  
  24676827.842   129677554.091    24676830.844   101047431.964                  
  20499110.563   107723569.183    20499110.438    83940449.672                  
  21398856.074   112451764.537    21398855.252    87624755.195                  
  23163205.305   121723486.153    23163203.054    94849475.419                  
  22449914.632   117975105.950    22449913.345    91928656.669                  
  23045034.562   121102497.879    23045032.078    94365589.405                  
  21891587.021   115041027.528    21891589.076    89642349.433                  
                 116348993.529                   116348993.529    22343591.569  
                 130306967.867                   130306967.867    25024081.175  
                 119587989.899                   119587989.899    22965614.635  
                 129790473.817                   129790473.817    24924896.126  
  23470603.123   123338815.332                                                  
  23970372.928   125965133.843                                                  
  24204356.472   127194733.342                                                  
  26998681.923   141878995.394                                                  
  23765982.004   124891066.624                                                  
 21  9  1  9 45  8.0000000  0 19G 1G 3G 7G 8G14G17G19G21G22G30C23C25
                                C28C34E13E15E21E26E27
  20205473.179   106180442.981    20205475.734    82737997.772                  
  23716353.348   124630246.824    23716356.046    97114469.630                  
  23320968.068   122552519.651    23320967.961    95495470.917                  
  24677386.303   129680488.839    24677389.322   101049718.785                  
  20498868.580   107722297.648    20498868.473    83939458.864                  
  21398602.960   112450434.386    21398602.138    87623718.719                  
  23162678.687   121720718.766    23162676.436    94847319.015                  
  22450417.055   117977746.223    22450415.787    91930714.020                  
  23044746.477   121100983.997    23044743.975    94364409.757                  
  21892035.194   115043382.710    21892037.266    89644184.640                  
                 116350229.273                   116350229.273    22343828.851  
                 130310260.802                   130310260.802    25024713.542  
                 119586148.867                   119586148.867    22965261.078  
                 129793156.410                   129793156.410    24925411.308  
  23470378.277   123337633.753                                                  
  23970676.040   125966726.779                                                  
  24204080.878   127193285.016                                                  
  26998133.862   141876115.312                                                  
  23766218.018   124892306.986                                                  
 21  9  1  9 45  9.0000000  0 19G 1G 3G 7G 8G14G17G19G21G22G30C23C25
                                C28C34E13E15E21E26E27
  20205674.902   106181503.015    20205677.458    82738823.778                  
  23715808.932   124627385.989    23715811.649    97112240.406                  
  23321648.717   122556096.553    23321648.627    95498258.113                  
  24677944.763   129683423.578    24677947.783   101052005.593                  
  20498626.705   107721026.548    20498626.598    83938468.394                  
  21398349.881   112449104.477    21398349.077    87622682.426                  
  23162152.105   121717951.581    23162149.853    94845162.770                  
  22450919.532   117980386.751    22450918.263    91932771.579                  
  23044458.500   121099470.579    23044455.998    94363230.468                  
  21892483.456   115045738.374    21892485.529    89646020.223                  
                 116351465.527                   116351465.527    22344066.277  
                 130313553.888                   130313553.888    25025345.963  
                 119584308.117                   119584308.117    22964907.575  
                 129795839.051                   129795839.051    24925926.454  
  23470153.503   123336452.550                                                  
  23970979.224   125968320.020                                                  
  24203805.320   127191836.942                                                  
  26997585.819   141873235.357                                                  
  23766454.121   124893547.715                                                  
 21  9  1  9 45 10.0000000  0 19G 1G 3G 7G 8G14G17G19G21G22G30C23C25
                                C28C34E13E15E21E26E27
  20205876.733   106182563.716    20205879.306    82739650.298                  
  23715264.606   124624525.403    23715267.304    97110011.376                  
  23322329.419   122559673.611    23322329.294    95501045.426                  
  24678503.224   129686358.308    24678506.244   101054292.398                  
  20498384.902   107719755.858    20498384.795    83937478.246                  
  21398096.855   112447774.813    21398096.033    87621646.325                  
  23161625.558   121715184.578    23161623.325    94843006.661                  
  22451422.081   117983027.587    22451420.776    91934829.371                  
  23044170.594   121097957.659    23044168.093    94362051.574                  
  21892931.825   115048094.516    21892933.880    89647856.175                  
                 116352702.298                   116352702.298    22344303.774  
                 130316847.125                   130316847.125    25025978.383  
                 119582467.660                   119582467.660    22964554.144  
                 129798521.743                   129798521.743    24926441.635  
  23469928.800   123335271.731                                                  
  23971282.461   125969913.546                                                  
  24203529.798   127190389.138                                                  
  26997037.812   141870355.536                                                  
  23766690.296   124894788.781                                                  
 21  9  1  9 45 11.0000000  0 19G 1G 3G 7G 8G14G17G19G21G22G30C23C25
                                C28C34E13E15E21E26E27
  20206078.724   106183625.094    20206081.280    82740477.343                  
  23714720.280   124621665.050    23714722.978    97107782.531                  
  23323010.122   122563250.809    23323010.015    95503832.856                  
  24679061.684   129689293.038    24679064.704   101056579.196                  
  20498143.187   107718485.594    20498143.080    83936488.430                  
  21397843.884   112446445.394    21397843.062    87620610.413                  
  23161099.048   121712417.745    23161096.814    94840850.688                  
  22451924.665   117985668.708    22451923.378    91936887.388                  
  23043882.778   121096445.236    23043880.276    94360873.062                  
  21893380.266   115050451.133    21893382.339    89649692.500                  
                 116353939.575                   116353939.575    22344541.379  
                 130320140.520                   130320140.520    25026610.839  
                 119580627.485                   119580627.485    22964200.766  
                 129801204.480                   129801204.480    24926956.835  
  23469704.186   123334091.305                                                  
  23971585.752   125971507.374                                                  
  24203254.347   127188941.610                                                  
  26996489.823   141867475.847                                                  
  23766926.525   124896030.202                                                  
 21  9  1  9 45 12.0000000  0 19G 1G 3G 7G 8G14G17G19G21G22G30C23C25
                                C28C34E13E15E21E26E27
  20206280.823   106184687.130    20206283.378    82741304.903                  
  23714176.025   124618804.946    23714178.724    97105553.878                  
  23323690.878   122566828.160    23323690.789    95506620.402                  
  24679620.145   129692227.745    24679623.165   101058865.980                  
  20497901.545   107717215.750    20497901.420    83935498.941                  
  21397590.948   112445116.227    21397590.143    87619574.699                  
  23160572.555   121709651.083    23160570.339    94838694.847                  
  22452427.320   117988310.114    22452426.016    91938945.626                  
  23043595.087   121094933.296    23043592.585    94359694.930                  
  21893828.797   115052808.220    21893830.887    89651529.187                  
                 116355177.358                   116355177.358    22344779.108  
                 130323434.071                   130323434.071    25027243.331  
                 119578787.602                   119578787.602    22963847.442  
                 129803887.265                   129803887.265    24927472.035  
  23469479.626   123332911.257                                                  
  23971889.096   125973101.495                                                  
  24202978.931   127187494.363                                                  
  26995941.851   141864596.282                                                  
  23767162.825   124897271.961                                                  
 21  9  1  9 45 13.0000000  0 19G 1G 3G 7G 8G14G17G19G21G22G30C23C25
                                C28C34E13E15E21E26E27
  20206483.047   106185749.840    20206485.602    82742132.992                  
  23713631.824   124615945.091    23713634.522    97103325.418                  
  23324371.652   122570405.657    23324371.563    95509408.062                  
  24680178.605   129695162.446    24680181.625   101061152.758                  
  20497659.973   107715946.325    20497659.866    83934509.778                  
  21397338.065   112443787.300    21397337.243    87618539.171                  
  23160046.116   121706884.605    23160043.900    94836539.147                  
  22452929.994   117990951.804    22452928.725    91941004.086                  
  23043307.467   121093421.853    23043304.965    94358517.180                  
  21894277.434   115055165.782    21894279.507    89653366.251                  
                 116356415.656                   116356415.656    22345016.891  
                 130326727.777                   130326727.777    25027875.859  
                 119576948.003                   119576948.003    22963494.153  
                 129806570.100                   129806570.100    24927987.252  
  23469255.138   123331731.589                                                  
  23972192.512   125974695.913                                                  
  24202703.606   127186047.384                                                  
  26995393.915   141861716.854                                                  
  23767399.196   124898514.066                                                  
 21  9  1  9 45 14.0000000  0 19G 1G 3G 7G 8G14G17G19G21G22G30C23C25
                                C28C34E13E15E21E26E27
  20206685.396   106186813.237    20206687.969    82742961.613                  
  23713087.641   124613085.465    23713090.339    97101097.140                  
  23325052.462   122573983.308    23325052.355    95512195.844                  
  24680737.048   129698097.132    24680740.068   101063439.528                  
  20497418.473   107714677.317    20497418.384    83933520.941                  
  21397085.218   112442458.626    21397084.414    87617503.841                  
  23159519.694   121704118.300    23159517.478    94834383.590                  
  22453432.757   117993593.785    22453431.452    91943062.770                  
  23043019.936   121091910.894    23043017.435    94357339.813                  
  21894726.161   115057523.817    21894728.216    89655203.680                  
                 116357654.466                   116357654.466    22345254.799  
                 130330021.637                   130330021.637    25028508.422  
                 119575108.695                   119575108.695    22963140.937  
                 129809252.985                   129809252.985    24928502.488  
  23469030.721   123330552.316                                                  
  23972495.982   125976290.633                                                  
  24202428.298   127184600.671                                                  
  26994846.015   141858837.550                                                  
  23767635.621   124899756.520                                                  
 21  9  1  9 45 15.0000000  0 19G 1G 3G 7G 8G14G17G19G21G22G30C23C25
                                C28C34E13E15E21E26E27
  20206887.887   106187877.312    20206890.443    82743790.758                  
  23712543.511   124610226.065    23712546.228    97098869.020                  
  23325733.307   122577561.128    23325733.182    95514983.758                  
  24681295.509   129701031.777    24681298.529   101065726.253                  
  20497177.081   107713408.737    20497176.974    83932532.442                  
  21396832.443   112441130.216    21396831.621    87616468.711                  
  23158993.344   121701352.175    23158991.093    94832228.168                  
  22453935.555   117996236.062    22453934.287    91945121.692                  
  23042732.495   121090400.480    23042729.994    94356162.886                  
  21895174.960   115059882.348    21895177.032    89657041.501                  
                 116358893.781                   116358893.781    22345492.797  
                 130333315.648                   130333315.648    25029141.004  
                 119573269.672                   119573269.672    22962787.773  
                 129811935.919                   129811935.919    24929017.705  
  23468806.375   123329373.413                                                  
  23972799.505   125977885.614                                                  
  24202153.061   127183154.320                                                  
  26994298.115   141855958.431                                                  
  23767872.118   124900999.247                                                  
 21  9  1  9 45 16.0000000  0 19G 1G 3G 7G 8G14G17G19G21G22G30C23C25
                                C28C34E13E15E21E26E27
  20207090.504   106188942.054    20207093.060    82744620.431                  
  23711999.453   124607366.938    23712002.134    97096641.125                  
  23326414.153   122581139.089    23326414.064    95517771.782                  
  24681853.934   129703966.448    24681856.953   101068013.013                  
  20496935.760   107712140.574    20496935.652    83931544.258                  
  21396579.704   112439802.034    21396578.882    87615433.765                  
  23158466.976   121698586.225    23158464.761    94830072.880                  
  22454438.425   117998878.618    22454437.139    91947180.828                  
  23042445.161   121088890.519    23042442.660    94354986.293                  
  21895623.865   115062241.333    21895625.938    89658879.669                  
                 116360133.609                   116360133.609    22345730.902  
                 130336609.816                   130336609.816    25029773.603  
                 119571430.936                   119571430.936    22962434.663  
                 129814618.900                   129814618.900    24929532.941  
  23468582.119   123328194.915                                                  
  23973103.082   125979480.936                                                  
  24201877.860   127181708.159                                                  
  26993750.251   141853079.382                                                  
  23768108.686   124902242.380                                                  
 21  9  1  9 45 17.0000000  0 19G 1G 3G 7G 8G14G17G19G21G22G30C23C25
                                C28C34E13E15E21E26E27
  20207293.246   106190007.464    20207295.802    82745450.620                  
  23711455.413   124604508.043    23711458.111    97094413.419                  
  23327095.034   122584717.188    23327094.945    95520559.911                  
  24682412.394   129706901.111    24682415.396   101070299.758                  
  20496694.528   107710872.828    20496694.403    83930556.411                  
  21396327.000   112438474.109    21396326.178    87614399.020                  
  23157940.680   121695820.452    23157938.464    94827917.734                  
  22454941.349   118001521.464    22454940.062    91949240.187                  
  23042157.917   121087381.027    23042155.415    94353810.067                  
  21896072.860   115064600.797    21896074.915    89660718.215                  
                 116361373.945                   116361373.945    22345969.078  
                 130339904.141                   130339904.141    25030406.238  
                 119569592.489                   119569592.489    22962081.607  
                 129817301.927                   129817301.927    24930048.176  
  23468357.934   123327016.790                                                  
  23973406.713   125981076.540                                                  
  24201602.713   127180262.280                                                  
  26993202.423   141850200.468                                                  
  23768345.325   124903485.876                                                  
 21  9  1  9 45 18.0000000  0 19G 1G 3G 7G 8G14G17G19G21G22G30C23C25
                                C28C34E13E15E21E26E27
  20207496.113   106191073.555    20207498.686    82746281.343                  
  23710911.444   124601649.403    23710914.142    97092185.909                  
  23327775.951   122588295.440    23327775.862    95523348.164                  
  24682970.837   129709835.762    24682973.857   101072586.504                  
  20496453.368   107709605.507    20496453.242    83929568.891                  
  21396074.332   112437146.438    21396073.546    87613364.474                  
  23157414.402   121693054.849    23157412.186    94825762.723                  
  22455444.326   118004164.598    22455443.022    91951299.774                  
  23041870.762   121085872.028    23041868.260    94352634.231                  
  21896521.944   115066960.730    21896523.999    89662557.126                  
                 116362614.793                   116362614.793    22346207.379  
                 130343198.617                   130343198.617    25031038.926  
                 119567754.327                   119567754.327    22961728.605  
                 129819985.000                   129819985.000    24930563.447  
  23468133.821   123325839.043                                                  
  23973710.397   125982672.442                                                  
  24201327.619   127178816.677                                                  
  26992654.594   141847321.694                                                  
  23768582.000   124904729.703                                                  
 21  9  1  9 45 19.0000000  0 19G 1G 3G 7G 8G14G17G19G21G22G30C23C25
                                C28C34E13E15E21E26E27
  20207699.123   106192140.335    20207701.679    82747112.601                  
  23710367.493   124598790.995    23710370.191    97089958.583                  
  23328456.904   122591873.844    23328456.797    95526136.526                  
  24683529.280   129712770.415    24683532.299   101074873.247                  
  20496212.261   107708338.606    20496212.154    83928581.690                  
  21395821.736   112435819.011    21395820.931    87612330.117                  
  23156888.159   121690289.425    23156885.943    94823607.847                  
  22455947.339   118006808.017    22455946.053    91953359.583                  
  23041583.696   121084363.539    23041581.194    94351458.781                  
  21896971.118   115069321.142    21896973.173    89664396.405                  
                 116363856.152                   116363856.152    22346445.752  
                 130346493.247                   130346493.247    25031671.615  
                 119565916.458                   119565916.458    22961375.656  
                 129822668.126                   129822668.126    24931078.718  
  23467909.779   123324661.692                                                  
  23974014.134   125984268.635                                                  
  24201052.579   127177371.347                                                  
  26992106.819   141844443.030                                                  
  23768818.765   124905973.880                                                  
 21  9  1  9 45 20.0000000  0 19G 1G 3G 7G 8G14G17G19G21G22G30C23C25
                                C28C34E13E15E21E26E27
  20207902.240   106193207.773    20207904.796    82747944.375                  
  23709823.614   124595932.857    23709826.294    97087731.465                  
  23329137.874   122595452.425    23329137.785    95528925.047                  
  24684087.740   129715705.040    24684090.760   101077159.958                  
  20495971.261   107707072.119    20495971.154    83927594.817                  
  21395569.193   112434491.824    21395568.389    87611295.941                  
  23156361.934   121687524.159    23156359.718    94821453.090                  
  22456450.424   118009451.714    22456449.119    91955419.609                  
  23041296.737   121082855.491    23041294.236    94350283.671                  
  21897420.363   115071682.032    21897422.418    89666236.071                  
                 116365098.027                   116365098.027    22346684.268  
                 130349788.040                   130349788.040    25032304.339  
                 119564078.863                   119564078.863    22961022.778  
                 129825351.293                   129825351.293    24931593.972  
  23467685.809   123323484.703                                                  
  23974317.943   125985865.125                                                  
  24200777.593   127175926.281                                                  
  26991559.044   141841564.524                                                  
  23769055.583   124907218.397                                                  
 21  9  1  9 45 21.0000000  0 19G 1G 3G 7G 8G14G17G19G21G22G30C23C25
                                C28C34E13E15E21E26E27
  20208105.501   106194275.892    20208108.056    82748776.673                  
  23709279.752   124593074.939    23709282.468    97085504.516                  
  23329818.881   122599031.137    23329818.774    95531713.651                  
  24684646.183   129718639.676    24684649.203   101079446.688                  
  20495730.333   107705806.054    20495730.244    83926608.278                  
  21395316.685   112433164.887    21395315.881    87610261.964                  
  23155835.781   121684759.087    23155833.547    94819298.489                  
  22456953.562   118012095.702    22456952.257    91957479.860                  
  23041009.868   121081347.968    23041007.384    94349108.976                  
  21897869.715   115074043.379    21897871.788    89668076.083                  
                 116366340.401                   116366340.401    22346922.837  
                 130353082.976                   130353082.976    25032937.099  
                 119562241.567                   119562241.567    22960669.937  
                 129828034.515                   129828034.515    24932109.279  
  23467461.892   123322308.109                                                  
  23974621.806   125987461.917                                                  
  24200502.678   127174481.499                                                  
  26991011.305   141838686.141                                                  
  23769292.473   124908463.269                                                  
 21  9  1  9 45 22.0000000  0 19G 1G 3G 7G 8G14G17G19G21G22G30C23C25
                                C28C34E13E15E21E26E27
  20208308.886   106195344.653    20208311.441    82749609.472                  
  23708735.980   124590217.276    23708738.660    97083277.765                  
  23330499.923   122602609.993    23330499.816    95534502.371                  
  24685204.626   129721574.301    24685207.645   101081733.406                  
  20495489.495   107704540.414    20495489.405    83925622.058                  
  21395064.214   112431838.200    21395063.428    87609228.179                  
  23155309.645   121681994.185    23155307.394    94817144.020                  
  22457456.736   118014739.984    22457455.467    91959540.336                  
  23040723.106   121079840.941    23040720.604    94347934.669                  
  21898319.157   115076405.208    21898321.212    89669916.464                  
                 116367583.290                   116367583.290    22347161.514  
                 130356378.071                   130356378.071    25033569.877  
                 119560404.556                   119560404.556    22960317.166  
                 129830717.780                   129830717.780    24932624.568  
  23467238.082   123321131.891                                                  
  23974925.722   125989058.993                                                  
  24200227.799   127173036.999                                                  
  26990463.602   141835807.873                                                  
  23769529.434   124909708.479                                                  
 21  9  1  9 45 23.0000000  0 19G 1G 3G 7G 8G14G17G19G21G22G30C23C25
                                C28C34E13E15E21E26E27
  20208512.378   106196414.113    20208514.933    82750442.819                  
  23708192.226   124587359.851    23708194.924    97081051.203                  
  23331180.983   122606188.999    23331180.876    95537291.206                  
  24685763.068   129724508.925    24685766.088   101084020.128                  
  20495248.745   107703275.189    20495248.620    83924636.173                  
  21394811.814   112430511.759    21394810.992    87608194.589                  
  23154783.527   121679229.456    23154781.294    94814989.688                  
  22457959.981   118017384.544    22457958.694    91961601.030                  
  23040436.397   121078334.398    23040433.896    94346760.742                  
  21898768.688   115078767.504    21898770.761    89671757.219                  
                 116368826.689                   116368826.689    22347400.297  
                 130359673.315                   130359673.315    25034202.708  
                 119558567.833                   119558567.833    22959964.432  
                 129833401.098                   129833401.098    24933139.857  
  23467014.326   123319956.070                                                  
  23975229.692   125990656.375                                                  
  24199952.955   127171592.766                                                  
  26989915.898   141832929.742                                                  
  23769766.466   124910954.044                                                  
 21  9  1  9 45 24.0000000  0 19G 1G 3G 7G 8G14G17G19G21G22G30C23C25
                                C28C34E13E15E21E26E27
  20208716.014   106197484.239    20208718.587    82751276.684                  
  23707648.525   124584502.679    23707651.223    97078824.837                  
  23331862.078   122609768.152    23331861.971    95540080.156                  
  24686321.493   129727443.547    24686324.513   101086306.844                  
  20495008.067   107702010.392    20495007.942    83923650.614                  
  21394559.432   112429185.555    21394558.646    87607161.188                  
  23154257.446   121676464.904    23154255.212    94812835.489                  
  22458463.280   118020029.394    22458461.993    91963661.957                  
  23040149.814   121076828.351    23040147.312    94345587.196                  
  21899218.326   115081130.278    21899220.381    89673598.339                  
                 116370070.593                   116370070.593    22347639.188  
                 130362968.719                   130362968.719    25034835.558  
                 119556731.398                   119556731.398    22959611.787  
                 129836084.465                   129836084.465    24933655.181  
  23466790.642   123318780.626                                                  
  23975533.716   125992254.044                                                  
  24199678.183   127170148.809                                                  
  26989368.249   141830051.738                                                  
  23770003.535   124912199.940                                                  
 21  9  1  9 45 25.0000000  0 19G 1G 3G 7G 8G14G17G19G21G22G30C23C25
                                C28C34E13E15E21E26E27
  20208919.774   106198555.037    20208922.347    82752111.071                  
  23707104.860   124581645.744    23707107.558    97076598.651                  
  23332543.192   122613347.457    23332543.103    95542869.228                  
  24686879.936   129730378.145    24686882.956   101088593.546                  
  20494767.443   107700746.008    20494767.336    83922665.378                  
  21394307.121   112427859.610    21394306.317    87606127.980                  
  23153731.399   121673700.524    23153729.184    94810681.429                  
  22458966.632   118022674.536    22458965.346    91965723.102                  
  23039863.320   121075322.797    23039860.818    94344414.040                  
  21899668.018   115083493.518    21899670.073    89675439.827                  
                 116371315.011                   116371315.011    22347878.169  
                 130366264.271                   130366264.271    25035468.443  
                 119554895.251                   119554895.251    22959259.159  
                 129838767.876                   129838767.876    24934170.506  
  23466567.047   123317605.562                                                  
  23975837.793   125993852.013                                                  
  24199403.465   127168705.111                                                  
  26988820.599   141827173.860                                                  
  23770240.692   124913446.180                                                  
 21  9  1  9 45 26.0000000  0 19G 1G 3G 7G 8G14G17G19G21G22G30C23C25
                                C28C34E13E15E21E26E27
  20209123.677   106199626.512    20209126.233    82752945.985                  
  23706561.266   124578789.058    23706563.947    97074372.665                  
  23333224.341   122616926.918    23333224.234    95545658.413                  
  24687438.361   129733312.743    24687441.380   101090880.242                  
  20494526.926   107699482.047    20494526.819    83921680.476                  
  21394054.864   112426533.914    21394054.042    87605094.972                  
  23153205.371   121670936.329    23153203.155    94808527.511                  
  22459470.056   118025319.973    22459468.752    91967784.479                  
  23039576.915   121073817.754    23039574.414    94343241.276                  
  21900117.817   115085857.249    21900119.872    89677281.690                  
                 116372559.939                   116372559.939    22348117.238  
                 130369559.980                   130369559.980    25036101.346  
                 119553059.391                   119553059.391    22958906.603  
                 129841451.336                   129841451.336    24934685.849  
  23466343.505   123316430.899                                                  
  23976141.942   125995450.266                                                  
  24199128.800   127167261.708                                                  
  26988272.985   141824296.116                                                  
  23770477.922   124914692.775                                                  
 21  9  1  9 45 27.0000000  0 19G 1G 3G 7G 8G14G17G19G21G22G30C23C25
                                C28C34E13E15E21E26E27
  20209327.706   106200698.657    20209330.261    82753781.423                  
  23706017.708   124575932.604    23706020.389    97072146.859                  
  23333905.526   122620506.516    23333905.419    95548447.711                  
  24687996.803   129736247.335    24687999.823   101093166.941                  
  20494286.480   107698218.500    20494286.373    83920695.894                  
  21393802.625   112425208.462    21393801.821    87604062.152                  
  23152679.414   121668172.314    23152677.181    94806373.730                  
  22459973.516   118027965.675    22459972.212    91969846.070                  
  23039290.600   121072313.171    23039288.098    94342068.879                  
  21900567.723   115088221.434    21900569.778    89679123.915                  
                 116373805.372                   116373805.372    22348356.397  
                 130372855.840                   130372855.840    25036734.284  
                 119551223.817                   119551223.817    22958554.101  
                 129844134.843                   129844134.843    24935201.173  
  23466120.035   123315256.612                                                  
  23976446.144   125997048.824                                                  
  24198854.171   127165818.570                                                  
  26987725.388   141821418.502                                                  
  23770715.204   124915939.704                                                  
 21  9  1  9 45 28.0000000  0 19G 1G 3G 7G 8G14G17G19G21G22G30C23C25
                                C28C34E13E15E21E26E27
  20209531.860   106201771.453    20209534.415    82754617.368                  
  23705474.186   124573076.406    23705476.867    97069921.245                  
  23334586.711   122624086.276    23334586.622    95551237.132                  
  24688555.246   129739181.921    24688558.266   101095453.630                  
  20494046.124   107696955.388    20494045.999    83919711.652                  
  21393550.458   112423883.265    21393549.636    87603029.536                  
  23152153.475   121665408.468    23152151.242    94804220.087                  
  22460477.011   118030611.676    22460475.743    91971907.886                  
  23039004.374   121070809.102    23039001.908    94340896.875                  
  21901017.701   115090586.101    21901019.756    89680966.512                  
                 116375051.320                   116375051.320    22348595.681  
                 130376151.855                   130376151.855    25037367.241  
                 119549388.530                   119549388.530    22958201.653  
                 129846818.399                   129846818.399    24935716.516  
  23465896.655   123314082.704                                                  
  23976750.382   125998647.679                                                  
  24198579.596   127164375.713                                                  
  26987177.828   141818541.023                                                  
  23770952.541   124917186.988                                                  
 21  9  1  9 45 29.0000000  0 19G 1G 3G 7G 8G14G17G19G21G22G30C23C25
                                C28C34E13E15E21E26E27
  20209736.138   106202844.948    20209738.694    82755453.859                  
  23704930.700   124570220.454    23704933.398    97067695.833                  
  23335267.968   122627666.174    23335267.861    95554026.667                  
  24689113.653   129742116.499    24689116.709   101097740.316                  
  20493805.839   107695692.691    20493805.714    83918727.731                  
  21393298.326   112422558.321    21393297.522    87601997.105                  
  23151627.554   121662644.802    23151625.338    94802066.578                  
  22460980.596   118033257.958    22460979.292    91973969.922                  
  23038718.255   121069305.517    23038715.753    94339725.250                  
  21901467.768   115092951.240    21901469.823    89682809.476                  
                 116376297.774                   116376297.774    22348835.037  
                 130379448.023                   130379448.023    25038000.233  
                 119547553.534                   119547553.534    22957849.258  
                 129849502.005                   129849502.005    24936231.877  
  23465673.346   123312909.168                                                  
  23977054.691   126000246.824                                                  
  24198305.074   127162933.130                                                  
  26986630.285   141815663.665                                                  
  23771189.966   124918434.610                                                  
 21  9  1  9 45 30.0000000  0 19G 1G 3G 7G 8G14G17G19G21G22G30C23C25
                                C28C34E13E15E21E26E27
  20209940.542   106203919.109    20209943.097    82756290.868                  
  23704387.285   124567364.746    23704389.983    97065470.601                  
  23335949.224   122631246.219    23335949.117    95556816.308                  
  24689672.096   129745051.068    24689675.116   101100026.988                  
  20493565.626   107694430.415    20493565.519    83917744.141                  
  21393046.247   112421233.617    21393045.425    87600964.870                  
  23151101.687   121659881.300    23151099.453    94799913.202                  
  22461484.217   118035904.520    22461482.948    91976032.183                  
  23038432.243   121067802.422    23038429.742    94338554.007                  
  21901917.925   115095316.842    21901919.980    89684652.805                  
                 116377544.737                   116377544.737    22349074.518  
                 130382744.343                   130382744.343    25038633.261  
                 119545718.823                   119545718.823    22957496.916  
                 129852185.651                   129852185.651    24936747.237  
  23465450.108   123311736.028                                                  
  23977359.055   126001846.254                                                  
  24198030.624   127161490.816                                                  
  26986082.761   141812786.450                                                  
  23771427.446   124919682.587                                                  
 21  9  1  9 45 31.0000000  0 19G 1G 3G 7G 8G14G17G19G21G22G30C23C25
                                C28C34E13E15E21E26E27
  20210145.089   106204993.938    20210147.644    82757128.395                  
  23703843.906   124564509.292    23703846.604    97063245.575                  
  23336630.499   122634826.422    23336630.392    95559606.079                  
  24690230.521   129747985.622    24690233.540   101102313.651                  
  20493325.502   107693168.567    20493325.395    83916760.883                  
  21392794.205   112419909.165    21392793.401    87599932.832                  
  23150575.837   121657117.988    23150573.621    94797759.973                  
  22461987.909   118038551.377    22461986.622    91978094.667                  
  23038146.303   121066299.823    23038143.802    94337383.153                  
  21902368.188   115097682.938    21902370.243    89686496.515                  
                 116378792.215                   116378792.215    22349314.088  
                 130386040.817                   130386040.817    25039266.325  
                 119543884.403                   119543884.403    22957144.646  
                 129854869.350                   129854869.350    24937262.615  
  23465226.942   123310563.279                                                  
  23977663.471   126003445.992                                                  
  24197756.227   127160048.793                                                  
  26985535.254   141809909.358                                                  
  23771664.979   124920930.901                                                  
 21  9  1  9 45 32.0000000  0 19G 1G 3G 7G 8G14G17G19G21G22G30C23C25
                                C28C34E13E15E21E26E27
  20210349.743   106206069.458    20210352.298    82757966.464                  
  23703300.581   124561654.077    23703303.261    97061020.734                  
  23337311.827   122638406.781    23337311.719    95562395.964                  
  24690788.945   129750920.149    24690791.983   101104600.301                  
  20493085.468   107691907.133    20493085.360    83915777.945                  
  21392542.216   112418584.960    21392541.394    87598900.984                  
  23150050.041   121654354.847    23150047.808    94795606.878                  
  22462491.637   118041198.517    22462490.332    91980157.371                  
  23037860.453   121064797.708    23037857.969    94336212.672                  
  21902818.523   115100049.497    21902820.578    89688340.583                  
                 116380040.199                   116380040.199    22349553.747  
                 130389337.444                   130389337.444    25039899.406  
                 119542050.268                   119542050.268    22956792.412  
                 129857553.098                   129857553.098    24937777.994  
  23465003.847   123309390.905                                                  
  23977967.959   126005046.030                                                  
  24197481.866   127158607.028                                                  
  26984987.801   141807032.398                                                  
  23771902.601   124922179.562                                                  
 21  9  1  9 45 33.0000000  0 19G 1G 3G 7G 8G14G17G19G21G22G30C23C25
                                C28C34E13E15E21E26E27
  20210554.522   106207145.631    20210557.077    82758805.044                  
  23702757.309   124558799.114    23702759.971    97058796.085                  
  23337993.173   122641987.280    23337993.083    95565185.969                  
  24691347.352   129753854.671    24691350.408   101106886.937                  
  20492845.505   107690646.121    20492845.397    83914795.341                  
  21392290.281   112417261.007    21392289.459    87597869.333                  
  23149524.263   121651591.888    23149522.047    94793453.923                  
  22462995.418   118043845.938    22462994.131    91982220.301                  
  23037574.691   121063296.081    23037572.225    94335042.575                  
  21903268.948   115102416.520    21903271.021    89690185.017                  
                 116381288.691                   116381288.691    22349793.496  
                 130392634.226                   130392634.226    25040532.506  
                 119540216.421                   119540216.421    22956440.232  
                 129860236.896                   129860236.896    24938293.408  
  23464780.824   123308218.921                                                  
  23978272.483   126006646.349                                                  
  24197207.559   127157165.548                                                  
  26984440.365   141804155.565                                                  
  23772140.277   124923428.581                                                  
 21  9  1  9 45 34.0000000  0 19G 1G 3G 7G 8G14G17G19G21G22G30C23C25
                                C28C34E13E15E21E26E27
  20210759.444   106208222.471    20210761.999    82759644.137                  
  23702214.055   124555944.392    23702216.753    97056571.624                  
  23338674.554   122645567.938    23338674.447    95567976.085                  
  24691905.795   129756789.196    24691908.815   101109173.582                  
  20492605.613   107689385.535    20492605.524    83913813.066                  
  21392038.381   112415937.292    21392037.577    87596837.867                  
  23148998.521   121648829.105    23148996.305    94791301.104                  
  22463499.253   118046493.647    22463497.984    91984283.448                  
  23037289.055   121061794.949    23037286.553    94333872.864                  
  21903719.462   115104784.019    21903721.535    89692029.820                  
                 116382537.695                   116382537.695    22350033.351  
                 130395931.160                   130395931.160    25041165.641  
                 119538382.865                   119538382.865    22956088.122  
                 129862920.734                   129862920.734    24938808.804  
  23464557.872   123307047.319                                                  
  23978577.079   126008246.973                                                  
  24196933.305   127155724.332                                                  
  26983892.948   141801278.872                                                  
  23772378.024   124924677.925                                                  
 21  9  1  9 45 35.0000000  0 19G 1G 3G 7G 8G14G17G19G21G22G30C23C25
                                C28C34E13E15E21E26E27
  20210964.473   106209300.001    20210967.046    82760483.768                  
  23701670.854   124553089.910    23701673.552    97054347.355                  
  23339355.954   122649148.734    23339355.864    95570766.320                  
  24692464.220   129759723.715    24692467.240   101111460.220                  
  20492365.829   107688125.368    20492365.721    83912831.113                  
  21391786.535   112414613.833    21391785.713    87595806.602                  
  23148472.814   121646066.501    23148470.580    94789148.426                  
  22464003.159   118049141.643    22464001.873    91986346.824                  
  23037003.472   121060294.307    23037001.006    94332703.530                  
  21904170.083   115107151.995    21904172.138    89693874.999                  
                 116383787.208                   116383787.208    22350273.315  
                 130399228.247                   130399228.247    25041798.812  
                 119536549.590                   119536549.590    22955736.067  
                 129865604.625                   129865604.625    24939324.218  
  23464334.992   123305876.093                                                  
  23978881.728   126009847.891                                                  
  24196659.105   127154283.403                                                  
  26983345.548   141798402.309                                                  
  23772615.843   124925927.624                                                  
 21  9  1  9 45 36.0000000  0 19G 1G 3G 7G 8G14G17G19G21G22G30C23C25
                                C28C34E13E15E21E26E27
  20211169.663   106210378.202    20211172.218    82761323.925                  
  23701127.725   124550235.686    23701130.423    97052123.289                  
  23340037.389   122652729.683    23340037.282    95573556.667                  
  24693022.627   129762658.204    24693025.647   101113746.833                  
  20492126.098   107686865.618    20492125.973    83911849.492                  
  21391534.743   112413290.611    21391533.921    87594775.515                  
  23147947.143   121643304.064    23147944.927    94786995.880                  
  22464507.119   118051789.933    22464505.815    91988410.427                  
  23036718.014   121058794.173    23036715.513    94331534.595                  
  21904620.775   115109520.450    21904622.848    89695720.546                  
                 116385037.230                   116385037.230    22350513.367  
                 130402525.488                   130402525.488    25042432.019  
                 119534716.607                   119534716.607    22955384.065  
                 129868288.559                   129868288.559    24939839.632  
  23464112.201   123304705.254                                                  
  23979186.412   126011449.093                                                  
  24196384.958   127152842.747                                                  
  26982798.184   141795525.872                                                  
  23772853.698   124927177.667                                                  
 21  9  1  9 45 37.0000000  0 19G 1G 3G 7G 8G14G17G19G21G22G30C23C25
                                C28C34E13E15E21E26E27
  20211374.960   106211457.058    20211377.515    82762164.595                  
  23700584.632   124547381.701    23700587.312    97049899.402                  
  23340718.842   122656310.772    23340718.735    95576347.129                  
  24693581.034   129765592.676    24693584.054   101116033.434                  
  20491886.456   107685606.297    20491886.331    83910868.203                  
  21391282.986   112411967.629    21391282.164    87593744.625                  
  23147421.508   121640541.809    23147419.274    94784843.473                  
  22465011.115   118054438.496    22465009.846    91990474.242                  
  23036432.646   121057294.520    23036430.145    94330366.032                  
  21905071.575   115111889.366    21905073.648    89697566.457                  
                 116386287.761                   116386287.761    22350753.527  
                 130405822.878                   130405822.878    25043065.243  
                 119532883.911                   119532883.911    22955032.099  
                 129870972.543                   129870972.543    24940355.082  
  23463889.463   123303534.817                                                  
  23979491.186   126013050.598                                                  
  24196110.865   127151402.367                                                  
  26982250.838   141792649.575                                                  
  23773091.659   124928428.059                                                  
 21  9  1  9 45 38.0000000  0 19G 1G 3G 7G 8G14G17G19G21G22G30C23C25
                                C28C34E13E15E21E26E27
  20211580.400   106212536.609    20211582.955    82763005.801                  
  23700041.575   124544527.961    23700044.273    97047675.711                  
  23341400.348   122659892.020    23341400.241    95579137.707                  
  24694139.459   129768527.145    24694142.479   101118320.031                  
  20491646.904   107684347.395    20491646.779    83909887.242                  
  21391031.283   112410644.906    21391030.461    87592713.929                  
  23146895.908   121637779.730    23146893.657    94782691.206                  
  22465515.182   118057087.355    22465513.896    91992538.286                  
  23036147.367   121055795.355    23036144.866    94329197.855                  
  21905522.464   115114258.757    21905524.519    89699412.733                  
                 116387538.801                   116387538.801    22350993.758  
                 130409120.425                   130409120.425    25043698.504  
                 119531051.500                   119531051.500    22954680.222  
                 129873656.573                   129873656.573    24940870.514  
  23463666.797   123302364.738                                                  
  23979795.978   126014652.402                                                  
  24195836.826   127149962.257                                                  
  26981703.528   141789773.393                                                  
  23773329.657   124929678.786                                                  
 21  9  1  9 45 39.0000000  0 19G 1G 3G 7G 8G14G17G19G21G22G30C23C25
                                C28C34E13E15E21E26E27
  20211785.947   106213616.800    20211788.503    82763847.511                  
  23699498.589   124541674.468    23699501.287    97045452.210                  
  23342081.855   122663473.406    23342081.766    95581928.399                  
  24694697.866   129771461.620    24694700.885   101120606.637                  
  20491407.423   107683088.910    20491407.298    83908906.602                  
  21390779.615   112409322.426    21390778.794    87591683.426                  
  23146370.327   121635017.824    23146368.093    94780539.070                  
  22466019.303   118059736.499    22466017.999    91994602.551                  
  23035862.178   121054296.685    23035859.676    94328030.058                  
  21905973.425   115116628.617    21905975.480    89701259.376                  
                 116388790.352                   116388790.352    22351234.114  
                 130412418.126                   130412418.126    25044331.800  
                 119529219.380                   119529219.380    22954328.381  
                 129876340.653                   129876340.653    24941385.964  
  23463444.221   123301195.058                                                  
  23980100.860   126016254.487                                                  
  24195562.822   127148522.417                                                  
  26981156.217   141786897.355                                                  
  23773567.726   124930929.867                                                  
 21  9  1  9 45 40.0000000  0 20G 1G 3G 7G 8G14G17G19G21G22G30C23C25
                                C28C34E 1E13E15E21E26E27
  20211991.638   106214697.704    20211994.193    82764689.774                  
  23698955.620   124538821.219    23698958.319    97043228.899                  
  23342763.398   122667054.944    23342763.308    95584719.206                  
  24695256.273   129774396.083    24695259.292   101122893.232                  
  20491168.014   107681830.850    20491167.907    83907926.296                  
  21390528.002   112408000.202    21390527.198    87590653.121                  
  23145844.781   121632256.097    23145842.565    94778387.077                  
  22466523.460   118062385.930    22466522.173    91996667.043                  
  23035577.077   121052798.505    23035574.576    94326862.648                  
  21906424.474   115118998.950    21906426.547    89703106.391                  
                 116390042.415                   116390042.415    22351474.560  
                 130415715.972                   130415715.972    25044965.114  
                 119527387.542                   119527387.542    22953976.576  
                 129879024.782                   129879024.782    24941901.414  
  28197632.716   148179532.324                                                  
  23463221.716   123300025.754                                                  
  23980405.777   126017856.878                                                  
  24195288.872   127147082.868                                                  
  26980608.961   141784021.443                                                  
  23773805.866   124932181.292                                                  
 21  9  1  9 45 41.0000000  0 20G 1G 3G 7G 8G14G17G19G21G22G30C23C25
                                C28C34E 1E13E15E21E26E27
  20212197.435   106215779.257    20212200.008    82765532.540                  
  23698412.724   124535968.219    23698415.404    97041005.782                  
  23343444.958   122670636.632    23343444.868    95587510.132                  
  24695814.680   129777330.564    24695817.699   101125179.835                  
  20490928.695   107680573.216    20490928.587    83906946.319                  
  21390276.442   112406678.207    21390275.620    87589622.997                  
  23145319.289   121629494.546    23145317.037    94776235.219                  
  22467027.706   118065035.640    22467026.401    91998731.755                  
  23035292.084   121051300.824    23035289.583    94325695.624                  
  21906875.632   115121369.759    21906877.704    89704953.769                  
                 116391294.982                   116391294.982    22351715.095  
                 130419013.975                   130419013.975    25045598.463  
                 119525555.995                   119525555.995    22953624.860  
                 129881708.954                   129881708.954    24942416.881  
  28197107.617   148176772.930                                                  
  23462999.282   123298856.837                                                  
  23980710.765   126019459.562                                                  
  24195014.994   127145643.583                                                  
  26980061.722   141781145.651                                                  
  23774044.060   124933433.054                                                  
 21  9  1  9 45 42.0000000  0 20G 1G 3G 7G 8G14G17G19G21G22G30C23C25
                                C28C34E 1E13E15E21E26E27
  20212403.376   106216861.476    20212405.931    82766375.829                  
  23697869.863   124533115.460    23697872.543    97038782.855                  
  23344126.572   122674218.464    23344126.465    95590301.167                  
  24696373.104   129780265.033    24696376.124   101127466.437                  
  20490689.464   107679315.996    20490689.339    83905966.672                  
  21390024.917   112405356.481    21390024.095    87588593.079                  
  23144793.797   121626733.163    23144791.581    94774083.492                  
  22467531.988   118067685.638    22467530.683    92000796.688                  
  23035007.181   121049803.625    23035004.679    94324528.977                  
  21907326.878   115123741.028    21907328.933    89706801.511                  
                 116392548.060                   116392548.060    22351955.737  
                 130422312.133                   130422312.133    25046231.849  
                 119523724.738                   119523724.738    22953273.180  
                 129884393.171                   129884393.171    24942932.367  
  28196582.518   148174013.559                                                  
  23462776.902   123297688.301                                                  
  23981015.807   126021062.531                                                  
  24194741.151   127144204.582                                                  
  26979514.501   141778269.991                                                  
  23774282.344   124934685.163                                                  
