     2.11           OBSERVATION DATA    M (MIXED)           RINEX VERSION / TYPE
CONVBIN 2.4.3                           20210901 004851 UTC PGM / RUN BY / DATE 
log: logs/21_08_31_18_18_23_okdt_VZ.rtcm                    COMMENT             
format: RTCM 3, station ID: 1339                            COMMENT             
1339                                                        MARKER NAME         
                                                            MARKER NUMBER       
                                                            OBSERVER / AGENCY   
                    LEICA GR50          4.40/7.701          REC # / TYPE / VERS 
                    GPPNULLANTENNA                          ANT # / TYPE        
  -688033.7737 -5158311.4450  3675952.2011                  APPROX POSITION XYZ 
        0.0000        0.0000        0.0000                  ANTENNA: DELTA H/E/N
     1     1                                                WAVELENGTH FACT L1/2
     7    C1    L1    C2    L2    P2    C5    L5            # / TYPES OF OBSERV 
  2021     8    31    18    18   32.0000000     GPS         TIME OF FIRST OBS   
  2021     8    31    18    48   27.0000000     GPS         TIME OF LAST OBS    
                                                            END OF HEADER       
 21  8 31 18 18 32.0000000  0 18G 5G10G13G15G18G23G29R 3R 4R 5R18R19
                                R20E 4E 5E 9E11E36
  22543465.954   118466737.209    22543464.346    92311746.305    22543463.542  
                                
  24364968.969   128038778.622    24364971.649    99770492.226    24364971.381  
  24364970.434    95613386.783  
  21725953.043   114170687.243                    88964175.957    21725950.255  
                                
  20302297.356   106689345.194    20302295.533    83134569.242    20302294.765  
                                
  20989392.577   110300037.269    20989390.808    85948100.747    20989390.308  
  20989395.007    82366945.936  
  21633567.442   113685208.918    21633566.084    88585897.541    21633565.637  
  21633570.194    84894836.884  
  20956950.705   110129520.007    20956949.097    85815209.819    20956948.328  
                                
  22850295.841   122319456.441    22850295.090    95137357.925    22850294.876  
                                
  19427610.879   104034029.037    19427609.557    80915370.772    19427609.360  
                                
  20158255.590   107757447.581    20158256.841    83811368.294    20158256.770  
                                
  21792450.825   116329572.028    21792453.737    90478554.123    21792454.059  
                                
  19451404.841   104051910.599    19451404.984    80929281.149    19451404.448  
                                
  21454073.714   114724592.184    21454077.216    89230249.922    21454075.858  
                                
  28034457.337   147322075.350                                                  
  28034460.107   110013254.769  
  24196109.972   127151467.571                                                  
  24196113.027    94950812.038  
  22281964.882   117092561.200                                                  
  22281966.937    87439285.148  
  24821818.506   130439521.933                                                  
  24821818.685    97406108.427  
  23626624.782   124158766.484                                                  
  23626627.766    92715981.757  
 21  8 31 18 18 33.0000000  0 18G 5G10G13G15G18G23G29R 3R 4R 5R18R19
                                R20E 4E 5E 9E11E36
  22543981.368   118469445.751    22543979.778    92313856.855    22543978.956  
                                
  24364477.410   128036195.524    24364480.090    99768479.415    24364479.822  
  24364478.875    95611457.846  
  21726192.077   114171943.371                    88965154.758    21726189.289  
                                
  20302260.081   106689149.241    20302258.240    83134416.553    20302257.472  
                                
  20989078.726   110298387.924    20989076.957    85946815.548    20989076.456  
  20989081.156    82365714.274  
  21633242.780   113683502.894    21633241.440    88584568.172    21633240.975  
  21633245.532    84893562.901  
  20957344.735   110131590.627    20957343.127    85816823.287    20957342.358  
                                
  22851031.562   122323394.881    22851030.812    95140421.151    22851030.597  
                                
  19427897.588   104035564.410    19427896.265    80916564.954    19427896.069  
                                
  20157810.026   107755065.893    20157811.295    83809515.870    20157811.223  
                                
  21793020.775   116332614.387    21793023.688    90480920.403    21793024.009  
                                
  19451450.175   104052153.250    19451450.336    80929469.878    19451449.800  
                                
  21453445.439   114721232.447    21453448.942    89227636.796    21453447.583  
                                
  28034969.142   147324764.781                                                  
  28034971.912   110015263.083  
  24195747.999   127149565.426                                                  
  24195751.037    94949391.603  
  22282118.735   117093369.682                                                  
  22282120.790    87439888.882  
  24822194.828   130441499.522                                                  
  24822195.006    97407585.202  
  23626664.630   124158975.916                                                  
  23626667.632    92716138.146  
 21  8 31 18 18 34.0000000  0 18G 5G10G13G15G18G23G29R 3R 4R 5R18R19
                                R20E 4E 5E 9E11E36
  22544496.836   118472154.508    22544495.245    92315967.577    22544494.423  
                                
  24363985.922   128033612.702    24363988.585    99766466.851    24363988.335  
  24363987.388    95609529.148  
  21726431.271   114173200.257                    88966134.148    21726428.466  
                                
  20302222.931   106688954.117    20302221.091    83134264.504    20302220.340  
                                
  20988764.910   110296738.902    20988763.141    85945530.586    20988762.641  
  20988767.358    82364482.861  
  21632918.225   113681797.287    21632916.867    88583239.126    21632916.420  
  21632920.977    84892289.242  
  20957738.890   110133661.928    20957737.264    85818437.285    20957736.495  
                                
  22851767.337   122327333.541    22851766.604    95143484.559    22851766.390  
                                
  19428184.457   104037100.555    19428183.135    80917759.729    19428182.938  
                                
  20157364.623   107752684.967    20157365.874    83807664.036    20157365.802  
                                
  21793590.797   116335657.334    21793593.727    90483287.127    21793594.049  
                                
  19451495.688   104052396.648    19451495.848    80929659.188    19451495.312  
                                
  21452817.200   114717873.045    21452820.702    89225023.922    21452819.344  
                                
  28035480.911   147327454.420                                                  
  28035483.663   110017271.593  
  24195386.116   127147663.763                                                  
  24195389.171    94947971.543  
  22282272.676   117094178.709                                                  
  22282274.731    87440493.019  
  24822571.185   130443477.420                                                  
  24822571.364    97409062.215  
  23626704.567   124159185.696                                                  
  23626707.551    92716294.814  
 21  8 31 18 18 35.0000000  0 18G 5G10G13G15G18G23G29R 3R 4R 5R18R19
                                R20E 4E 5E 9E11E36
  22545012.286   118474863.180    22545010.695    92318078.231    22545009.873  
                                
  24363494.417   128031029.868    24363497.080    99764454.251    24363496.829  
  24363495.882    95607600.415  
  21726670.520   114174457.613                    88967113.903    21726667.714  
                                
  20302185.906   106688759.525    20302184.066    83134112.869    20302183.315  
                                
  20988451.148   110295089.909    20988449.361    85944245.654    20988448.861  
  20988453.578    82363251.472  
  21632593.688   113680091.812    21632592.330    88581910.182    21632591.883  
  21632596.439    84891015.673  
  20958133.116   110135733.619    20958131.508    85820051.585    20958130.739  
                                
  22852503.112   122331272.130    22852502.379    95146547.903    22852502.165  
                                
  19428471.398   104038637.149    19428470.076    80918954.855    19428469.879  
                                
  20156919.327   107750304.479    20156920.578    83805812.541    20156920.506  
                                
  21794160.908   116338700.504    21794163.839    90485654.028    21794164.142  
                                
  19451541.289   104052640.527    19451541.432    80929848.864    19451540.896  
                                
  21452188.979   114714513.628    21452192.481    89222411.036    21452191.123  
                                
  28035992.787   147330144.050                                                  
  28035995.574   110019280.070  
  24195024.268   127145762.261                                                  
  24195027.323    94946551.594  
  22282426.689   117094987.965                                                  
  22282428.744    87441097.338  
  24822947.578   130445455.326                                                  
  24822947.757    97410539.227  
  23626744.504   124159395.562                                                  
  23626747.488    92716451.536  
 21  8 31 18 18 36.0000000  0 18G 5G10G13G15G18G23G29R 3R 4R 5R18R19
                                R20E 4E 5E 9E11E36
  22545527.753   118477572.122    22545526.163    92320189.099    22545525.359  
                                
  24363002.983   128028447.386    24363005.646    99762441.925    24363005.396  
  24363004.448    95605671.936  
  21726909.947   114175715.796                    88968094.307    21726907.141  
                                
  20302149.043   106688565.819    20302147.220    83133961.934    20302146.452  
                                
  20988137.421   110293441.298    20988135.652    85942961.027    20988135.152  
  20988139.869    82362020.360  
  21632269.222   113678386.812    21632267.864    88580581.615    21632267.417  
  21632271.974    84889742.459  
  20958527.485   110137806.041    20958525.877    85821666.460    20958525.109  
                                
  22853238.922   122335210.991    22853238.172    95149611.466    22853237.957  
                                
  19428758.517   104040174.592    19428757.195    80920150.646    19428756.981  
                                
  20156474.138   107747924.808    20156475.407    83803961.686    20156475.335  
                                
  21794731.091   116341744.282    21794734.021    90488021.415    21794734.325  
                                
  19451587.034   104052885.248    19451587.195    80930039.205    19451586.659  
                                
  21451560.811   114711154.563    21451564.314    89219798.437    21451562.955  
                                
  28036504.627   147332833.930                                                  
  28036507.397   110021288.773  
  24194662.545   127143861.293                                                  
  24194665.601    94945132.036  
  22282580.792   117095797.809                                                  
  22282582.847    87441702.093  
  24823324.043   130447433.593                                                  
  24823324.221    97412016.487  
  23626784.495   124159605.833                                                  
  23626787.497    92716608.552  
 21  8 31 18 18 37.0000000  0 18G 5G10G13G15G18G23G29R 3R 4R 5R18R19
                                R20E 4E 5E 9E11E36
  22546043.257   118480281.044    22546041.666    92322299.947    22546040.844  
                                
  24362511.549   128025864.945    24362514.212    99760429.638    24362513.962  
  24362513.015    95603743.503  
  21727149.481   114176974.513                    88969075.121    21727146.676  
                                
  20302112.304   106688372.712    20302110.463    83133811.461    20302109.695  
                                
  20987823.713   110291792.777    20987821.944    85941676.466    20987821.426  
  20987826.143    82360789.331  
  21631944.810   113676682.001    21631943.452    88579253.188    21631943.005  
  21631947.562    84888469.390  
  20958921.944   110139878.909    20958920.336    85823281.679    20958919.567  
                                
  22853974.733   122339149.834    22853973.983    95152675.013    22853973.768  
                                
  19429045.708   104041712.597    19429044.386    80921346.877    19429044.189  
                                
  20156029.092   107745545.676    20156030.343    83802111.256    20156030.272  
                                
  21795301.363   116344788.391    21795304.293    90490389.053    21795304.597  
                                
  19451632.886   104053130.504    19451633.047    80930229.960    19451632.493  
                                
  21450932.679   114707795.594    21450936.182    89217185.907    21450934.824  
                                
  28037016.503   147335523.869                                                  
  28037019.273   110023297.478  
  24194300.840   127141960.565                                                  
  24194303.896    94943712.664  
  22282734.966   117096607.963                                                  
  22282737.021    87442307.079  
  24823700.507   130449411.913                                                  
  24823700.686    97413493.808  
  23626824.540   124159816.242                                                  
  23626827.524    92716765.678  
 21  8 31 18 18 38.0000000  0 18G 5G10G13G15G18G23G29R 3R 4R 5R18R19
                                R20E 4E 5E 9E11E36
  22546558.796   118482990.162    22546557.188    92324410.946    22546556.384  
                                
  24362020.205   128023282.818    24362022.849    99758417.592    24362022.599  
  24362021.652    95601815.281  
  21727389.158   114178234.004                    88970056.546    21727386.353  
                                
  20302075.708   106688180.432    20302073.886    83133661.631    20302073.117  
                                
  20987510.076   110290144.597    20987508.307    85940392.165    20987507.788  
  20987512.506    82359558.541  
  21631620.487   113674977.617    21631619.129    88577925.099    21631618.682  
  21631623.239    84887196.634  
  20959316.546   110141952.464    20959314.920    85824897.434    20959314.151  
                                
  22854710.562   122343088.895    22854709.811    95155738.732    22854709.597  
                                
  19429333.078   104043251.412    19429331.756    80922543.735    19429331.559  
                                
  20155584.153   107743167.337    20155585.422    83800261.435    20155585.351  
                                
  21795871.724   116347833.048    21795874.655    90492757.118    21795874.958  
                                
  19451678.881   104053376.512    19451679.024    80930421.302    19451678.488  
                                
  21450304.583   114704436.893    21450308.085    89214573.585    21450306.727  
                                
  28037528.415   147338214.042                                                  
  28037531.202   110025306.371  
  24193939.225   127140060.293                                                  
  24193942.281    94942293.634  
  22282889.229   117097418.645                                                  
  22282891.284    87442912.461  
  24824077.008   130451390.533                                                  
  24824077.186    97414971.349  
  23626864.656   124160027.011                                                  
  23626867.640    92716923.069  
 21  8 31 18 18 39.0000000  0 18G 5G10G13G15G18G23G29R 3R 4R 5R18R19
                                R20E 4E 5E 9E11E36
  22547074.371   118485699.506    22547072.763    92326522.120    22547071.959  
                                
  24361528.896   128020701.017    24361531.541    99756405.810    24361531.290  
  24361530.343    95599887.326  
  21727628.978   114179494.294                    88971038.587    21727626.173  
                                
  20302039.291   106687989.001    20302037.451    83133512.465    20302036.700  
                                
  20987196.492   110288496.755    20987194.723    85939108.132    20987194.223  
  20987198.940    82358328.015  
  21631296.218   113673273.683    21631294.878    88576597.363    21631294.413  
  21631298.970    84885924.222  
  20959711.255   110144026.717    20959709.646    85826513.735    20959708.878  
                                
  22855446.479   122347028.234    22855445.729    95158802.651    22855445.497  
                                
  19429620.590   104044791.035    19429619.268    80923741.215    19429619.072  
                                
  20155139.376   107740789.777    20155140.644    83798412.229    20155140.555  
                                
  21796442.211   116350878.302    21796445.141    90495125.644    21796445.445  
                                
  19451725.019   104053623.340    19451725.179    80930613.277    19451724.643  
                                
  21449676.558   114701078.512    21449680.061    89211961.511    21449678.703  
                                
  28038040.380   147340904.494                                                  
  28038043.168   110027315.466  
  24193577.699   127138160.525                                                  
  24193580.755    94940874.978  
  22283043.599   117098229.891                                                  
  22283045.654    87443518.266  
  24824453.579   130453369.525                                                  
  24824453.758    97416449.174  
  23626904.843   124160238.177                                                  
  23626907.827    92717080.760  
 21  8 31 18 18 40.0000000  0 18G 5G10G13G15G18G23G29R 3R 4R 5R18R19
                                R20E 4E 5E 9E11E36
  22547589.946   118488408.952    22547588.338    92328633.378    22547587.533  
                                
  24361037.623   128018119.351    24361040.268    99754394.124    24361040.017  
  24361039.070    95597959.458  
  21727868.942   114180755.221                    88972021.125    21727866.118  
                                
  20302002.981   106687798.291    20302001.159    83133363.860    20302000.390  
                                
  20986882.962   110286849.127    20986881.193    85937824.264    20986880.675  
  20986885.410    82357097.642  
  21630972.038   113671570.039    21630970.680    88575269.850    21630970.233  
  21630974.772    84884652.027  
  20960106.088   110146101.521    20960104.480    85828130.463    20960103.712  
                                
  22856182.415   122350967.696    22856181.647    95161866.672    22856181.432  
                                
  19429908.228   104046331.322    19429906.888    80924939.218    19429906.691  
                                
  20154694.741   107738412.844    20154695.992    83796563.506    20154695.920  
                                
  21797012.768   116353924.002    21797015.681    90497494.522    21797016.003  
                                
  19451771.281   104053870.845    19451771.442    80930805.781    19451770.906  
                                
  21449048.552   114697720.328    21449052.054    89209349.587    21449050.696  
                                
  28038552.399   147343595.069                                                  
  28038555.187   110029324.678  
  24193216.262   127136261.098                                                  
  24193219.318    94939456.572  
  22283198.059   117099041.551                                                  
  22283200.114    87444124.373  
  24824830.205   130455348.657                                                  
  24824830.401    97417927.078  
  23626945.084   124160449.575                                                  
  23626948.068    92717238.622  
 21  8 31 18 18 41.0000000  0 18G 5G10G13G15G18G23G29R 3R 4R 5R18R19
                                R20E 4E 5E 9E11E36
  22548105.556   118491118.490    22548103.966    92330744.706    22548103.144  
                                
  24360546.368   128015537.858    24360549.030    99752382.562    24360548.762  
  24360547.833    95596031.722  
  21728109.012   114182016.810                    88973004.182    21728106.206  
                                
  20301966.832   106687608.297    20301964.992    83133215.813    20301964.241  
                                
  20986569.468   110285201.724    20986567.699    85936540.573    20986567.199  
  20986571.916    82355867.436  
  21630647.894   113669866.726    21630646.536    88573942.596    21630646.089  
  21630650.646    84883380.066  
  20960501.012   110148176.925    20960499.404    85829747.658    20960498.635  
                                
  22856918.351   122354907.286    22856917.600    95164930.798    22856917.368  
                                
  19430195.991   104047872.302    19430194.669    80926137.759    19430194.472  
                                
  20154250.195   107736036.580    20154251.464    83794715.300    20154251.375  
                                
  21797583.434   116356970.183    21797586.346    90499863.771    21797586.668  
                                
  19451817.687   104054119.016    19451817.830    80930998.805    19451817.294  
                                
  21448420.598   114694362.344    21448424.101    89206737.825    21448422.743  
                                
  28039064.436   147346285.788                                                  
  28039067.224   110031333.950  
  24192854.879   127134362.037                                                  
  24192857.935    94938038.443  
  22283352.591   117099853.636                                                  
  22283354.628    87444730.794  
  24825206.866   130457327.966                                                  
  24825207.045    97419405.151  
  23626985.343   124160661.237                                                  
  23626988.327    92717396.681  
 21  8 31 18 18 42.0000000  0 18G 5G10G13G15G18G23G29R 3R 4R 5R18R19
                                R20E 4E 5E 9E11E36
  22548621.203   118493828.242    22548619.612    92332856.203    22548618.808  
                                
  24360055.184   128012956.670    24360057.829    99750371.247    24360057.561  
  24360056.631    95594104.220  
  21728349.225   114183279.198                    88973987.866    21728346.402  
                                
  20301930.844   106687419.154    20301929.004    83133068.431    20301928.253  
                                
  20986256.046   110283554.668    20986254.276    85935257.155    20986253.776  
  20986258.494    82354637.490  
  21630323.857   113668163.851    21630322.499    88572615.678    21630322.052  
  21630326.609    84882108.441  
  20960896.096   110150253.012    20960894.470    85831365.391    20960893.719  
                                
  22857654.358   122358847.094    22857653.590    95167995.093    22857653.375  
                                
  19430483.897   104049414.060    19430482.574    80927336.906    19430482.378  
                                
  20153805.810   107733661.095    20153807.061    83792867.701    20153806.990  
                                
  21798154.206   116360016.939    21798157.119    90502233.466    21798157.440  
                                
  19451864.218   104054368.012    19451864.379    80931192.466    19451863.843  
                                
  21447792.717   114691004.710    21447796.219    89204126.331    21447794.861  
                                
  28039576.491   147348976.745                                                  
  28039579.278   110033343.442  
  24192493.603   127132463.469                                                  
  24192496.659    94936620.679  
  22283507.229   117100666.276                                                  
  22283509.284    87445337.637  
  24825583.581   130459307.616                                                  
  24825583.759    97420883.452  
  23627025.691   124160873.277                                                  
  23627028.675    92717555.022  
 21  8 31 18 18 43.0000000  0 18G 5G10G13G15G18G23G29R 3R 4R 5R18R19
                                R20E 4E 5E 9E11E36
  22549136.903   118496538.170    22549135.295    92334967.835    22549134.490  
                                
  24359564.054   128010375.773    24359566.716    99748360.154    24359566.448  
  24359565.519    95592176.914  
  21728589.581   114184542.329                    88974972.121    21728586.776  
                                
  20301894.999   106687230.821    20301893.176    83132921.676    20301892.408  
                                
  20985942.676   110281907.912    20985940.907    85933973.966    20985940.389  
  20985945.125    82353407.775  
  21629999.874   113666461.378    21629998.516    88571289.078    21629998.069  
  21630002.626    84880837.118  
  20961291.287   110152329.753    20961289.661    85832983.629    20961288.893  
                                
  22858390.365   122362787.082    22858389.597    95171059.526    22858389.382  
                                
  19430771.945   104050956.568    19430770.623    80928536.639    19430770.426  
                                
  20153361.587   107731286.371    20153362.837    83791020.696    20153362.766  
                                
  21798725.050   116363064.213    21798727.980    90504603.566    21798728.284  
                                
  19451910.910   104054617.742    19451911.071    80931386.703    19451910.517  
                                
  21447164.871   114687647.359    21447168.373    89201515.058    21447167.015  
                                
  28040088.617   147351667.957                                                  
  28040091.440   110035353.111  
  24192132.399   127130565.336                                                  
  24192135.454    94935203.248  
  22283661.957   117101479.429                                                  
  22283664.012    87445944.862  
  24825960.349   130461287.541                                                  
  24825960.545    97422361.970  
  23627066.111   124161085.664                                                  
  23627069.095    92717713.625  
 21  8 31 18 18 44.0000000  0 18G 5G10G13G15G18G23G29R 3R 4R 5R18R19
                                R20E 4E 5E 9E11E36
  22549652.567   118499248.153    22549650.977    92337079.497    22549650.173  
                                
  24359072.942   128007794.943    24359075.586    99746349.138    24359075.318  
  24359074.407    95590249.708  
  21728830.063   114185806.040                    88975956.831    21728827.257  
                                
  20301859.296   106687043.146    20301857.456    83132775.433    20301856.705  
                                
  20985629.343   110280261.308    20985627.574    85932690.900    20985627.056  
  20985631.791    82352178.171  
  21629675.962   113664759.149    21629674.604    88569962.666    21629674.157  
  21629678.714    84879565.968  
  20961686.568   110154407.002    20961684.960    85834602.269    20961684.191  
                                
  22859126.390   122366727.088    22859125.622    95174123.982    22859125.390  
                                
  19431060.137   104052499.720    19431058.814    80929736.859    19431058.618  
                                
  20152917.452   107728912.253    20152918.703    83789174.162    20152918.631  
                                
  21799296.001   116366111.890    21799298.913    90506973.970    21799299.235  
                                
  19451957.709   104054868.091    19451957.852    80931581.415    19451957.316  
                                
  21446537.043   114684290.122    21446540.545    89198903.876    21446539.187  
                                
  28040600.743   147354359.189                                                  
  28040603.549   110037362.828  
  24191771.266   127128667.526                                                  
  24191774.321    94933786.043  
  22283816.774   117102292.934                                                  
  22283818.829    87446552.354  
  24826337.135   130463267.589                                                  
  24826337.314    97423840.568  
  23627106.566   124161298.244                                                  
  23627109.550    92717872.361  
 21  8 31 18 18 45.0000000  0 18G 5G10G13G15G18G23G29R 3R 4R 5R18R19
                                R20E 4E 5E 9E11E36
  22550168.267   118501958.140    22550166.677    92339191.175    22550165.873  
                                
  24358581.865   128005214.266    24358584.510    99744338.225    24358584.242  
  24358583.331    95588322.566  
  21729070.669   114187070.362                    88976942.017    21729067.846  
                                
  20301823.701   106686856.128    20301821.861    83132629.707    20301821.092  
                                
  20985316.046   110278614.868    20985314.259    85931407.958    20985313.758  
  20985318.494    82350948.680  
  21629352.086   113663057.175    21629350.728    88568636.452    21629350.281  
  21629354.820    84878295.013  
  20962081.956   110156484.759    20962080.347    85836221.300    20962079.579  
                                
  22859862.433   122370667.130    22859861.665    95177188.454    22859861.432  
                                
  19431348.418   104054043.484    19431347.095    80930937.567    19431346.899  
                                
  20152473.425   107726538.750    20152474.675    83787328.106    20152474.604  
                                
  21799867.005   116369159.973    21799869.936    90509344.698    21799870.240  
                                
  19452004.615   104055119.047    19452004.776    80931776.604    19452004.222  
                                
  21445909.250   114680933.004    21445912.753    89196292.787    21445911.395  
                                
  28041112.887   147357050.527                                                  
  28041115.693   110039372.589  
  24191410.151   127126769.988                                                  
  24191413.206    94932369.055  
  22283971.645   117103106.809                                                  
  22283973.700    87447160.118  
  24826713.939   130465247.755                                                  
  24826714.136    97425319.250  
  23627147.058   124161511.009                                                  
  23627150.042    92718031.242  
 21  8 31 18 18 46.0000000  0 18G 5G10G13G15G18G23G29R 3R 4R 5R18R19
                                R20E 4E 5E 9E11E36
  22550683.931   118504667.933    22550682.341    92341302.699    22550681.537  
                                
  24358090.735   128002633.395    24358093.362    99742327.159    24358093.094  
  24358092.183    95586395.314  
  21729311.329   114188335.015                    88977927.463    21729308.506  
                                
  20301788.178   106686669.500    20301786.355    83132484.283    20301785.587  
                                
  20985002.712   110276968.319    20985000.943    85930124.938    20985000.425  
  20985005.160    82349719.117  
  21629028.228   113661355.189    21629026.870    88567310.234    21629026.405  
  21629030.962    84877024.050  
  20962477.379   110158562.774    20962475.771    85837840.530    20962475.003  
                                
  22860598.422   122374606.977    22860597.636    95180252.784    22860597.422  
                                
  19431636.770   104055587.619    19431635.448    80932138.560    19431635.251  
                                
  20152029.487   107724165.561    20152030.737    83785482.294    20152030.666  
                                
  21800438.046   116372208.174    21800440.976    90511715.517    21800441.280  
                                
  19452051.593   104055370.331    19452051.736    80931972.050    19452051.200  
                                
  21445281.422   114677575.797    21445284.924    89193681.628    21445283.566  
                                
  28041625.013   147359741.704                                                  
  28041627.837   110041382.221  
  24191049.071   127124872.500                                                  
  24191052.145    94930952.098  
  22284126.534   117103920.787                                                  
  22284128.589    87447767.956  
  24827090.725   130467227.751                                                  
  24827090.904    97426797.843  
  23627187.531   124161723.704                                                  
  23627190.515    92718190.073  
 21  8 31 18 18 47.0000000  0 18G 5G10G13G15G18G23G29R 3R 4R 5R18R19
                                R20E 4E 5E 9E11E36
  22551199.596   118507377.696    22551197.987    92343414.203    22551197.183  
                                
  24357599.641   128000052.645    24357602.285    99740316.190    24357602.017  
  24357601.088    95584468.119  
  21729552.078   114189600.220                    88978913.340    21729549.255  
                                
  20301752.779   106686483.488    20301750.957    83132339.341    20301750.188  
                                
  20984689.415   110275321.886    20984687.628    85928842.002    20984687.127  
  20984691.863    82348489.632  
  21628704.370   113659653.408    21628703.012    88565984.171    21628702.565  
  21628707.104    84875753.246  
  20962872.892   110160641.238    20962871.284    85839460.115    20962870.534  
                                
  22861334.430   122378546.848    22861333.643    95183317.133    22861333.429  
                                
  19431925.230   104057132.316    19431923.908    80933339.992    19431923.711  
                                
  20151585.620   107721792.899    20151586.871    83783636.896    20151586.799  
                                
  21801009.140   116375256.713    21801012.070    90514086.602    21801012.374  
                                
  19452098.660   104055622.182    19452098.821    80932167.936    19452098.285  
                                
  21444653.630   114674218.640    21444657.114    89191070.503    21444655.756  
                                
  28042137.104   147362432.860                                                  
  28042139.909   110043391.864  
  24190688.046   127122975.259                                                  
  24190691.101    94929535.334  
  22284281.494   117104735.082                                                  
  22284283.549    87448376.034  
  24827467.530   130469207.878                                                  
  24827467.726    97428276.490  
  23627228.040   124161936.545                                                  
  23627231.024    92718349.019  
 21  8 31 18 18 48.0000000  0 18G 5G10G13G15G18G23G29R 3R 4R 5R18R19
                                R20E 4E 5E 9E11E36
  22551715.260   118510087.613    22551713.652    92345525.833    22551712.848  
                                
  24357108.564   127997472.091    24357111.209    99738305.377    24357110.941  
  24357110.030    95582541.098  
  21729792.971   114190866.144                    88979899.774    21729790.147  
                                
  20301717.542   106686298.268    20301715.719    83132195.016    20301714.951  
                                
  20984376.153   110273675.730    20984374.384    85927559.289    20984373.883  
  20984378.619    82347260.356  
  21628380.601   113657952.006    21628379.243    88564658.403    21628378.796  
  21628383.335    84874482.714  
  20963268.530   110162720.336    20963266.922    85841080.191    20963266.154  
                                
  22862070.455   122382486.914    22862069.668    95186381.631    22862069.454  
                                
  19432213.815   104058677.716    19432212.492    80934541.972    19432212.296  
                                
  20151141.897   107719420.930    20151143.147    83781792.031    20151143.076  
                                
  21801580.341   116378305.758    21801583.254    90516458.080    21801583.557  
                                
  19452145.888   104055874.762    19452146.031    80932364.388    19452145.495  
                                
  21444025.873   114670861.722    21444029.375    89188459.570    21444028.017  
                                
  28042649.248   147365124.243                                                  
  28042652.071   110045401.656  
  24190327.091   127121078.438                                                  
  24190330.147    94928118.869  
  22284436.543   117105549.864                                                  
  22284438.598    87448984.475  
  24827844.369   130471188.229                                                  
  24827844.566    97429755.338  
  23627268.603   124162149.703                                                  
  23627271.587    92718508.191  
 21  8 31 18 18 49.0000000  0 18G 5G10G13G15G18G23G29R 3R 4R 5R18R19
                                R20E 4E 5E 9E11E36
  22552230.942   118512797.529    22552229.352    92347637.461    22552228.530  
                                
  24356617.524   127994891.651    24356620.150    99736294.632    24356619.882  
  24356618.971    95580614.122  
  21730033.970   114192132.617                    88980886.640    21730031.147  
                                
  20301682.411   106686113.645    20301680.588    83132051.156    20301679.820  
                                
  20984062.927   110272029.669    20984061.140    85926276.637    20984060.639  
  20984065.375    82346031.164  
  21628056.886   113656250.812    21628055.528    88563332.795    21628055.063  
  21628059.620    84873212.347  
  20963664.276   110164799.909    20963662.667    85842700.635    20963661.899  
                                
  22862806.498   122386426.973    22862805.694    95189446.112    22862805.479  
                                
  19432502.506   104060223.687    19432501.184    80935744.394    19432500.988  
                                
  20150698.262   107717049.514    20150699.513    83779947.596    20150699.442  
                                
  21802151.578   116381355.128    21802154.508    90518829.823    21802154.812  
                                
  19452193.205   104056127.901    19452193.348    80932561.269    19452192.812  
                                
  21443398.134   114667504.900    21443401.637    89185848.713    21443400.279  
                                
  28043161.392   147367815.619                                                  
  28043164.198   110047411.474  
  24189966.191   127119181.862                                                  
  24189969.246    94926702.607  
  22284591.647   117106364.963                                                  
  22284593.701    87449593.155  
  24828221.245   130473168.694                                                  
  24828221.441    97431234.242  
  23627309.165   124162362.988                                                  
  23627312.167    92718667.467  
 21  8 31 18 18 50.0000000  0 18G 5G10G13G15G18G23G29R 3R 4R 5R18R19
                                R20E 4E 5E 9E11E36
  22552746.660   118515507.577    22552745.070    92349749.187    22552744.248  
                                
  24356126.519   127992311.382    24356129.145    99734284.035    24356128.877  
  24356127.966    95578687.302  
  21730275.113   114193399.788                    88981874.044    21730272.289  
                                
  20301647.423   106685929.790    20301645.583    83131907.885    20301644.815  
                                
  20983749.736   110270383.881    20983747.967    85924994.200    20983747.449  
  20983752.184    82344802.161  
  21627733.224   113654549.965    21627731.866    88562007.462    21627731.401  
  21627735.958    84871942.227  
  20964060.110   110166880.087    20964058.502    85844321.549    20964057.734  
                                
  22863542.576   122390367.185    22863541.772    95192510.724    22863541.558  
                                
  19432791.341   104061770.373    19432790.019    80936947.371    19432789.822  
                                
  20150254.789   107714678.796    20150256.040    83778103.702    20150255.968  
                                
  21802722.922   116384404.981    21802725.835    90521201.931    21802726.156  
                                
  19452240.665   104056381.751    19452240.826    80932758.708    19452240.272  
                                
  21442770.431   114664148.299    21442773.916    89183238.023    21442772.558  
                                
  28043673.590   147370507.209                                                  
  28043676.431   110049421.410  
  24189605.362   127117285.681                                                  
  24189608.417    94925286.622  
  22284746.839   117107180.525                                                  
  22284748.894    87450202.174  
  24828598.156   130475149.368                                                  
  24828598.353    97432713.301  
  23627349.817   124162576.581                                                  
  23627352.801    92718826.968  
 21  8 31 18 18 51.0000000  0 18G 5G10G13G15G18G23G29R 3R 4R 5R18R19
                                R20E 4E 5E 9E11E36
  22553262.413   118518217.933    22553260.823    92351861.148    22553260.001  
                                
  24355635.585   127989731.517    24355638.194    99732273.753    24355637.926  
  24355637.032    95576760.789  
  21730516.416   114194667.831                    88982862.129    21730513.593  
                                
  20301612.615   106685746.877    20301610.792    83131765.356    20301610.024  
                                
  20983436.653   110268738.530    20983434.866    85923712.112    20983434.366  
  20983439.101    82343573.490  
  21627409.652   113652849.649    21627408.294    88560682.538    21627407.829  
  21627412.386    84870672.519  
  20964456.106   110168961.054    20964454.497    85845943.079    20964453.729  
                                
  22864278.691   122394307.690    22864277.887    95195575.559    22864277.672  
                                
  19433080.355   104063317.968    19433079.033    80938151.056    19433078.836  
                                
  20149811.458   107712308.973    20149812.709    83776260.509    20149812.638  
                                
  21803294.373   116387455.519    21803297.286    90523574.575    21803297.590  
                                
  19452288.286   104056636.494    19452288.447    80932956.841    19452287.893  
                                
  21442142.800   114660792.124    21442146.302    89180627.663    21442144.944  
                                
  28044185.859   147373199.152                                                  
  28044188.682   110051431.623  
  24189244.622   127115390.089                                                  
  24189247.695    94923871.087  
  22284902.174   117107996.736                                                  
  22284904.229    87450811.684  
  24828975.157   130477130.461                                                  
  24828975.353    97434192.686  
  23627390.559   124162790.657                                                  
  23627393.543    92718986.826  
 21  8 31 18 18 52.0000000  0 18G 5G10G13G15G18G23G29R 3R 4R 5R18R19
                                R20E 4E 5E 9E11E36
  22553778.203   118520928.430    22553776.612    92353973.222    22553775.808  
                                
  24355144.705   127987151.894    24355147.314    99730263.654    24355147.046  
  24355146.152    95574834.440  
  21730757.844   114195936.572                    88983850.756    21730755.021  
                                
  20301577.949   106685564.709    20301576.126    83131623.407    20301575.358  
                                
  20983123.570   110267093.437    20983121.801    85922430.217    20983121.301  
  20983126.036    82342345.012  
  21627086.169   113651149.688    21627084.793    88559357.893    21627084.346  
  21627088.903    84869403.061  
  20964852.226   110171042.625    20964850.636    85847565.081    20964849.867  
                                
  22865014.841   122398248.368    22865014.037    95198640.528    22865013.822  
                                
  19433369.476   104064866.262    19433368.153    80939355.285    19433367.957  
                                
  20149368.253   107709939.834    20149369.522    83774417.845    20149369.432  
                                
  21803865.950   116390506.544    21803868.862    90525947.594    21803869.166  
                                
  19452336.032   104056891.936    19452336.193    80933155.516    19452335.657  
                                
  21441515.222   114657436.162    21441518.724    89178017.467    21441517.366  
                                
  28044698.146   147375891.253                                                  
  28044700.987   110053441.965  
  24188883.989   127113494.899                                                  
  24188887.045    94922455.846  
  22285057.581   117108813.408                                                  
  22285059.636    87451421.532  
  24829352.175   130479111.756                                                  
  24829352.390    97435672.216  
  23627431.354   124163005.010                                                  
  23627434.338    92719146.901  
 21  8 31 18 18 53.0000000  0 18G 5G10G13G15G18G23G29R 3R 4R 5R18R19
                                R20E 4E 5E 9E11E36
  22554294.046   118523639.148    22554292.455    92356085.464    22554291.651  
                                
  24354653.861   127984572.549    24354656.470    99728253.770    24354656.202  
  24354655.308    95572908.325  
  21730999.434   114197206.105                    88984840.003    21730996.610  
                                
  20301543.461   106685383.404    20301541.621    83131482.130    20301540.870  
                                
  20982810.594   110265448.690    20982808.807    85921148.601    20982808.307  
  20982813.042    82341116.794  
  21626762.757   113649450.172    21626761.381    88558033.595    21626760.935  
  21626765.491    84868133.947  
  20965248.489   110173124.916    20965246.881    85849187.642    20965246.113  
                                
  22865751.045   122402189.292    22865750.240    95201705.693    22865750.026  
                                
  19433658.775   104066415.355    19433657.453    80940560.135    19433657.256  
                                
  20148925.208   107707571.483    20148926.459    83772575.794    20148926.388  
                                
  21804437.616   116393558.167    21804440.528    90528321.079    21804440.832  
                                
  19452383.957   104057148.196    19452384.100    80933354.827    19452383.564  
                                
  21440887.697   114654080.582    21440891.200    89175407.574    21440889.842  
                                
  28045210.504   147378583.645                                                  
  28045213.346   110055452.506  
  24188523.446   127111600.196                                                  
  24188526.501    94921040.970  
  22285213.078   117109630.634                                                  
  22285215.132    87452031.805  
  24829729.265   130481093.383                                                  
  24829729.462    97437152.025  
  23627472.220   124163219.762                                                  
  23627475.204    92719307.268  
 21  8 31 18 18 54.0000000  0 18G 5G10G13G15G18G23G29R 3R 4R 5R18R19
                                R20E 4E 5E 9E11E36
  22554809.942   118526350.161    22554808.352    92358197.942    22554807.548  
                                
  24354163.088   127981993.594    24354165.697    99726244.200    24354165.429  
  24354164.536    95570982.484  
  21731241.184   114198476.487                    88985829.899    21731238.360  
                                
  20301509.117   106685203.027    20301507.295    83131341.574    20301506.526  
                                
  20982497.690   110263804.375    20982495.903    85919867.319    20982495.402  
  20982500.156    82339888.898  
  21626439.453   113647751.180    21626438.095    88556709.707    21626437.631  
  21626442.187    84866865.223  
  20965644.878   110175207.957    20965643.270    85850810.798    20965642.501  
                                
  22866487.320   122406130.601    22866486.516    95204771.147    22866486.283  
                                
  19433948.218   104067965.363    19433946.895    80941765.688    19433946.699  
                                
  20148482.307   107705204.016    20148483.576    83770734.431    20148483.486  
                                
  21805009.406   116396610.462    21805012.319    90530695.069    21805012.623  
                                
  19452432.006   104057405.317    19452432.167    80933554.810    19452431.631  
                                
  21440260.262   114650725.408    21440263.765    89172798.004    21440262.407  
                                
  28045722.881   147381276.345                                                  
  28045725.704   110057463.295  
  24188163.010   127109706.077                                                  
  24188166.065    94919626.531  
  22285368.717   117110448.500                                                  
  22285370.772    87452642.543  
  24830106.463   130483075.392                                                  
  24830106.659    97438632.098  
  23627513.158   124163434.974                                                  
  23627516.160    92719467.974  
 21  8 31 18 18 55.0000000  0 18G 5G10G13G15G18G23G29R 3R 4R 5R18R19
                                R20E 4E 5E 9E11E36
  22555325.839   118529061.254    22555324.249    92360310.485    22555323.444  
                                
  24353672.351   127979414.786    24353674.960    99724234.755    24353674.692  
  24353673.799    95569056.764  
  21731483.041   114199747.520                    88986820.319    21731480.217  
                                
  20301474.934   106685023.344    20301473.093    83131201.562    20301472.343  
                                
  20982184.839   110262160.259    20982183.052    85918586.190    20982182.552  
  20982187.287    82338661.145  
  21626116.203   113646052.477    21626114.844    88555386.045    21626114.398  
  21626118.937    84865596.707  
  20966041.356   110177291.565    20966039.766    85852434.387    20966038.997  
                                
  22867223.595   122410071.949    22867222.791    95207836.637    22867222.559  
                                
  19434237.803   104069516.026    19434236.481    80942971.761    19434236.284  
                                
  20148039.548   107702837.170    20148040.799    83768893.553    20148040.728  
                                
  21805581.287   116399663.167    21805584.199    90533069.400    21805584.503  
                                
  19452480.199   104057663.095    19452480.360    80933755.304    19452479.806  
                                
  21439632.863   114647370.416    21439636.365    89170188.566    21439635.007  
                                
  28046235.311   147383969.168                                                  
  28046238.134   110059474.182  
  24187802.627   127107812.280                                                  
  24187805.683    94918212.334  
  22285524.427   117111266.759                                                  
  22285526.482    87453253.583  
  24830483.660   130485057.600                                                  
  24830483.874    97440112.314  
  23627554.167   124163650.413                                                  
  23627557.152    92719628.851  
 21  8 31 18 18 56.0000000  0 18G 5G10G13G15G18G23G29R 3R 4R 5R18R19
                                R20E 4E 5E 9E11E36
  22555841.735   118531772.327    22555840.145    92362423.013    22555839.341  
                                
  24353181.650   127976836.063    24353184.259    99722225.372    24353183.991  
  24353183.097    95567131.090  
  21731725.023   114201019.092                    88987811.155    21731722.182  
                                
  20301440.858   106684844.261    20301439.017    83131062.023    20301438.267  
                                
  20981871.988   110260516.246    20981870.201    85917305.143    20981869.701  
  20981874.454    82337433.478  
  21625792.988   113644353.975    21625791.630    88554062.544    21625791.165  
  21625795.722    84864328.351  
  20966437.941   110179375.619    20966436.333    85854058.332    20966435.564  
                                
  22867959.852   122414013.255    22867959.048    95210902.095    22867958.834  
                                
  19434527.478   104071067.248    19434526.155    80944178.269    19434525.959  
                                
  20147596.897   107700470.884    20147598.148    83767053.113    20147598.076  
                                
  21806153.220   116402716.231    21806156.133    90535444.003    21806156.437  
                                
  19452528.499   104057921.440    19452528.660    80933956.244    19452528.124  
                                
  21439005.482   114644015.496    21439008.966    89167579.181    21439007.608  
                                
  28046747.759   147386662.052                                                  
  28046750.600   110061485.089  
  24187442.298   127105918.734                                                  
  24187445.354    94916798.324  
  22285680.210   117112085.341                                                  
  22285682.264    87453864.859  
  24830860.875   130487039.873                                                  
  24830861.089    97441592.579  
  23627595.195   124163866.007                                                  
  23627598.179    92719789.846  
 21  8 31 18 18 57.0000000  0 18G 5G10G13G15G18G23G29R 3R 4R 5R18R19
                                R20E 4E 5E 9E11E36
  22556357.704   118534483.725    22556356.131    92364535.784    22556355.309  
                                
  24352691.002   127974257.710    24352693.611    99720216.270    24352693.325  
  24352692.450    95565205.708  
  21731967.166   114202291.543                    88988802.672    21731964.343  
                                
  20301406.942   106684666.116    20301405.102    83130923.207    20301404.351  
                                
  20981559.226   110258872.665    20981557.457    85916024.430    20981556.939  
  20981561.692    82336206.126  
  21625469.880   113642656.003    21625468.504    88552739.447    21625468.057  
  21625472.614    84863060.379  
  20966834.669   110181460.480    20966833.061    85855682.897    20966832.310  
                                
  22868696.199   122417954.890    22868695.395    95213967.811    22868695.163  
                                
  19434817.313   104072619.322    19434816.009    80945385.438    19434815.794  
                                
  20147154.388   107698105.488    20147155.639    83765213.356    20147155.568  
                                
  21806725.279   116405769.950    21806728.192    90537819.113    21806728.496  
                                
  19452576.942   104058180.676    19452577.103    80934157.867    19452576.567  
                                
  21438378.172   114640661.009    21438381.674    89164970.138    21438380.316  
                                
  28047260.260   147389355.251                                                  
  28047263.101   110063496.246  
  24187082.077   127104025.768                                                  
  24187085.150    94915384.746  
  22285836.099   117112904.551                                                  
  22285838.154    87454476.607  
  24831238.161   130489022.562                                                  
  24831238.376    97443073.158  
  23627636.311   124164082.055                                                  
  23627639.296    92719951.179  
 21  8 31 18 18 58.0000000  0 18G 5G10G13G15G18G23G29R 3R 4R 5R18R19
                                R20E 4E 5E 9E11E36
  22556873.654   118537195.082    22556872.063    92366648.532    22556871.259  
                                
  24352200.355   127971679.425    24352202.964    99718207.212    24352202.678  
  24352201.802    95563280.358  
  21732209.417   114203564.553                    88989794.622    21732206.575  
                                
  20301373.152   106684488.562    20301371.329    83130784.851    20301370.561  
                                
  20981246.483   110257229.186    20981244.696    85914743.797    20981244.196  
  20981248.931    82334978.850  
  21625146.808   113640958.210    21625145.432    88551416.491    21625144.968  
  21625149.524    84861792.555  
  20967231.504   110183545.782    20967229.896    85857307.800    20967229.146  
                                
  22869432.528   122421896.533    22869431.724    95217033.534    22869431.492  
                                
  19435107.256   104074171.931    19435105.934    80946593.023    19435105.737  
                                
  20146711.987   107695740.618    20146713.256    83763374.013    20146713.166  
                                
  21807297.410   116408823.976    21807300.322    90540194.469    21807300.626  
                                
  19452625.528   104058440.467    19452625.689    80934359.929    19452625.153  
                                
  21437750.880   114637306.590    21437754.382    89162361.148    21437753.024  
                                
  28047772.744   147392048.482                                                  
  28047775.585   110065507.401  
  24186721.891   127102133.043                                                  
  24186724.964    94913971.341  
  22285992.042   117113724.072                                                  
  22285994.097    87455088.589  
  24831615.466   130491005.325                                                  
  24831615.680    97444553.775  
  23627677.464   124164298.251                                                  
  23627680.448    92720112.626  
 21  8 31 18 18 59.0000000  0 18G 5G10G13G15G18G23G29R 3R 4R 5R18R19
                                R20E 4E 5E 9E11E36
  22557389.622   118539906.503    22557388.049    92368761.328    22557387.245  
                                
  24351709.761   127969101.280    24351712.352    99716198.271    24351712.084  
  24351711.190    95561355.122  
  21732451.756   114204838.180                    88990787.056    21732448.933  
                                
  20301339.504   106684311.694    20301337.682    83130647.029    20301336.913  
                                
  20980933.757   110255585.877    20980931.988    85913463.297    20980931.470  
  20980936.223    82333751.711  
  21624823.772   113639260.702    21624822.396    88550093.753    21624821.949  
  21624826.506    84860524.936  
  20967628.429   110185631.623    20967626.821    85858933.133    20967626.052  
                                
  22870168.892   122425838.267    22870168.088    95220099.327    22870167.856  
                                
  19435397.324   104075725.217    19435396.002    80947801.136    19435395.805  
                                
  20146269.711   107693376.368    20146270.962    83761535.149    20146270.890  
                                
  21807869.629   116411878.422    21807872.542    90542570.149    21807872.846  
                                
  19452674.203   104058700.897    19452674.364    80934562.483    19452673.828  
                                
  21437123.623   114633952.339    21437127.126    89159752.286    21437125.768  
                                
  28048285.281   147394741.809                                                  
  28048288.122   110067518.652  
  24186361.777   127100240.635                                                  
  24186364.850    94912558.179  
  22286148.056   117114543.978                                                  
  22286150.111    87455700.854  
  24831992.788   130492988.214                                                  
  24831993.003    97446034.513  
  23627718.634   124164514.649                                                  
  23627721.636    92720274.222  
 21  8 31 18 19  0.0000000  0 18G 5G10G13G15G18G23G29R 3R 4R 5R18R19
                                R20E 4E 5E 9E11E36
  22557905.572   118542617.775    22557903.999    92370874.003    22557903.177  
                                
  24351219.131   127966523.053    24351221.722    99714189.265    24351221.454  
  24351220.578    95559429.834  
  21732694.203   114206112.197                    88991779.801    21732691.380  
                                
  20301305.946   106684135.307    20301304.124    83130509.587    20301303.355  
                                
  20980621.049   110253942.562    20980619.280    85912182.789    20980618.762  
  20980623.515    82332524.556  
  21624500.771   113637563.274    21624499.395    88548771.084    21624498.931  
  21624503.487    84859257.375  
  20968025.407   110187717.781    20968023.799    85860558.711    20968023.031  
                                
  22870905.221   122429779.887    22870904.399    95223165.031    22870904.185  
                                
  19435687.481   104077278.956    19435686.159    80949009.601    19435685.962  
                                
  20145827.506   107691012.519    20145828.757    83759696.602    20145828.668  
                                
  21808441.867   116414933.098    21808444.780    90544946.004    21808445.083  
                                
  19452722.968   104058961.743    19452723.129    80934765.366    19452722.593  
                                
  21436496.349   114630598.049    21436499.852    89157143.394    21436498.494  
                                
  28048797.782   147397435.026                                                  
  28048800.623   110069529.812  
  24186001.698   127098348.353                                                  
  24186004.753    94911145.111  
  22286304.124   117115364.068                                                  
  22286306.179    87456313.263  
  24832370.128   130494971.047                                                  
  24832370.343    97447515.207  
  23627759.822   124164731.070                                                  
  23627762.824    92720435.835  
 21  8 31 18 19  1.0000000  0 18G 5G10G13G15G18G23G29R 3R 4R 5R18R19
                                R20E 4E 5E 9E11E36
  22558421.540   118545329.141    22558419.950    92372986.758    22558419.145  
                                
  24350728.537   127963945.026    24350731.128    99712180.410    24350730.860  
  24350729.984    95557504.684  
  21732936.775   114207386.869                    88992773.052    21732933.934  
                                
  20301272.513   106683959.642    20301270.673    83130372.703    20301269.922  
                                
  20980308.395   110252299.459    20980306.608    85910902.452    20980306.108  
  20980310.843    82331297.565  
  21624177.825   113635866.156    21624176.449    88547448.657    21624175.984  
  21624180.541    84857990.045  
  20968422.493   110189804.511    20968420.884    85862184.732    20968420.116  
                                
  22871641.568   122433721.626    22871640.746    95226230.828    22871640.532  
                                
  19435977.746   104078833.387    19435976.423    80950218.597    19435976.227  
                                
  20145385.409   107688649.311    20145386.659    83757858.556    20145386.588  
                                
  21809014.194   116417988.224    21809017.107    90547322.208    21809017.410  
                                
  19452771.840   104059223.275    19452772.000    80934968.777    19452771.464  
                                
  21435869.129   114627243.944    21435872.631    89154534.641    21435871.273  
                                
  28049310.284   147400128.356                                                  
  28049313.107   110071541.085  
  24185641.673   127096456.414                                                  
  24185644.746    94909732.300  
  22286460.246   117116184.578                                                  
  22286462.301    87456925.986  
  24832747.486   130496954.068                                                  
  24832747.701    97448996.034  
  23627801.046   124164947.738                                                  
  23627804.048    92720597.633  
 21  8 31 18 19  2.0000000  0 18G 5G10G13G15G18G23G29R 3R 4R 5R18R19
                                R20E 4E 5E 9E11E36
  22558937.454   118548040.395    22558935.882    92375099.419    22558935.078  
                                
  24350237.943   127961366.937    24350240.516    99710171.509    24350240.248  
  24350239.372    95555579.505  
  21733179.401   114208662.001                    88993766.662    21733176.577  
                                
  20301239.170   106683784.470    20301237.347    83130236.210    20301236.579  
                                
  20979995.705   110250656.371    20979993.918    85909622.125    20979993.418  
  20979998.171    82330070.583  
  21623854.878   113634169.132    21623853.502    88546126.303    21623853.055  
  21623857.612    84856722.796  
  20968819.667   110191891.596    20968818.059    85863811.035    20968817.291  
                                
  22872377.897   122437663.234    22872377.075    95229296.523    22872376.860  
                                
  19436268.117   104080388.269    19436266.795    80951427.950    19436266.598  
                                
  20144943.400   107686286.527    20144944.651    83756020.835    20144944.580  
                                
  21809586.575   116421043.603    21809589.505    90549698.610    21809589.809  
                                
  19452820.819   104059485.259    19452820.979    80935172.545    19452820.443  
                                
  21435241.908   114623889.842    21435245.393    89151925.899    21435244.035  
                                
  28049822.803   147402821.631                                                  
  28049825.644   110073552.285  
  24185281.683   127094564.637                                                  
  24185284.739    94908319.613  
  22286616.439   117117005.317                                                  
  22286618.512    87457538.869  
  24833124.844   130498937.098                                                  
  24833125.059    97450476.855  
  23627842.288   124165164.453                                                  
  23627845.272    92720759.466  
 21  8 31 18 19  3.0000000  0 18G 5G10G13G15G18G23G29R 3R 4R 5R18R19
                                R20E 4E 5E 9E11E36
  22559453.458   118550751.966    22559451.886    92377212.334    22559451.064  
                                
  24349747.438   127958789.299    24349750.011    99708162.968    24349749.743  
  24349748.868    95553654.637  
  21733422.241   114209938.014                    88994760.959    21733419.400  
                                
  20301206.023   106683610.258    20301204.200    83130100.460    20301203.450  
                                
  20979683.122   110249013.728    20979681.335    85908342.144    20979680.835  
  20979685.588    82328843.935  
  21623532.038   113632472.663    21623530.662    88544804.379    21623530.215  
  21623534.772    84855455.948  
  20969216.967   110193979.483    20969215.359    85865437.957    20969214.608  
                                
  22873114.279   122441605.168    22873113.457    95232362.470    22873113.243  
                                
  19436558.650   104081944.030    19436557.327    80952637.989    19436557.131  
                                
  20144501.571   107683924.642    20144502.804    83754183.813    20144502.733  
                                
  21810159.080   116424099.677    21810162.011    90552075.552    21810162.314  
                                
  19452869.976   104059748.145    19452870.137    80935377.009    19452869.583  
                                
  21434614.741   114620536.134    21434618.243    89149317.458    21434616.885  
                                
  28050335.394   147405515.276                                                  
  28050338.217   110075563.767  
  24184921.801   127092673.455                                                  
  24184924.875    94906907.363  
  22286772.757   117117826.710                                                  
  22286774.812    87458152.247  
  24833502.274   130500920.562                                                  
  24833502.506    97451958.002  
  23627883.619   124165381.661                                                  
  23627886.621    92720921.662  
 21  8 31 18 19  4.0000000  0 18G 5G10G13G15G18G23G29R 3R 4R 5R18R19
                                R20E 4E 5E 9E11E36
  22559969.462   118553463.605    22559967.889    92379325.306    22559967.085  
                                
  24349256.934   127956211.771    24349259.525    99706154.513    24349259.239  
  24349258.363    95551729.881  
  21733665.170   114211214.637                    88995755.728    21733662.347  
                                
  20301173.001   106683436.738    20301171.178    83129965.248    20301170.410  
                                
  20979370.575   110247371.256    20979368.788    85907062.293    20979368.288  
  20979373.041    82327617.413  
  21623209.270   113630776.458    21623207.894    88543482.656    21623207.447  
  21623211.986    84854189.299  
  20969614.374   110196067.901    20969612.766    85867065.295    20969612.016  
                                
  22873850.680   122445547.152    22873849.858    95235428.465    22873849.625  
                                
  19436849.271   104083500.389    19436847.967    80953848.493    19436847.770  
                                
  20144059.849   107681563.386    20144061.100    83752347.281    20144061.010  
                                
  21810731.657   116427156.133    21810734.588    90554452.802    21810734.892  
                                
  19452919.223   104060011.661    19452919.384    80935581.971    19452918.830  
                                
  21433987.610   114617182.576    21433991.112    89146709.139    21433989.754  
                                
  28050847.967   147408208.965                                                  
  28050850.790   110077575.294  
  24184561.973   127090782.602                                                  
  24184565.028    94905495.369  
  22286929.129   117118648.488                                                  
  22286931.184    87458765.906  
  24833879.739   130502904.141                                                  
  24833879.954    97453439.272  
  23627924.985   124165599.080                                                  
  23627927.987    92721084.022  
 21  8 31 18 19  5.0000000  0 18G 5G10G13G15G18G23G29R 3R 4R 5R18R19
                                R20E 4E 5E 9E11E36
  22560485.466   118556175.214    22560483.875    92381438.248    22560483.071  
                                
  24348766.447   127953634.304    24348769.020    99704146.100    24348768.752  
  24348767.876    95549805.152  
  21733908.207   114212491.809                    88996750.925    21733905.365  
                                
  20301140.104   106683263.802    20301138.264    83129830.492    20301137.513  
                                
  20979058.046   110245728.898    20979056.259    85905782.536    20979055.758  
  20979060.512    82326390.979  
  21622886.537   113629080.455    21622885.162    88542161.095    21622884.697  
  21622889.254    84852922.805  
  20970011.871   110198156.761    20970010.262    85868692.977    20970009.494  
                                
  22874587.080   122449489.146    22874586.240    95238494.457    22874586.026  
                                
  19437140.036   104085057.328    19437138.714    80955059.443    19437138.517  
                                
  20143618.216   107679202.668    20143619.467    83750511.169    20143619.395  
                                
  21811304.324   116430212.940    21811307.236    90556830.314    21811307.558  
                                
  19452968.595   104060275.726    19452968.756    80935787.355    19452968.202  
                                
  21433360.497   114613829.098    21433363.999    89144100.883    21433362.641  
                                
  28051360.593   147410902.735                                                  
  28051363.417   110079586.878  
  24184202.198   127088891.993                                                  
  24184205.271    94904083.544  
  22287085.572   117119470.567                                                  
  22287087.627    87459379.799  
  24834257.222   130504887.807                                                  
  24834257.454    97454920.566  
  23627966.388   124165816.634                                                  
  23627969.372    92721246.484  
 21  8 31 18 19  6.0000000  0 18G 5G10G13G15G18G23G29R 3R 4R 5R18R19
                                R20E 4E 5E 9E11E36
  22561001.434   118558886.662    22560999.861    92383551.065    22560999.039  
                                
  24348275.960   127951056.749    24348278.533    99702137.627    24348278.247  
  24348277.389    95547880.369  
  21734151.315   114213769.368                    88997746.428    21734148.491  
                                
  20301107.279   106683091.336    20301105.456    83129696.105    20301104.688  
                                
  20978745.499   110244086.493    20978743.712    85904502.740    20978743.211  
  20978747.965    82325164.512  
  21622563.805   113627384.505    21622562.429    88540839.581    21622561.982  
  21622566.521    84851656.349  
  20970409.439   110200245.942    20970407.830    85870320.909    20970407.080  
                                
  22875323.444   122453430.990    22875322.605    95241560.336    22875322.390  
                                
  19437430.854   104086614.707    19437429.532    80956270.743    19437429.336  
                                
  20143176.672   107676842.350    20143177.923    83748675.364    20143177.852  
                                
  21811876.990   116433269.920    21811879.921    90559207.965    21811880.224  
                                
  19453018.039   104060540.195    19453018.200    80935993.051    19453017.646  
                                
  21432733.347   114610475.528    21432736.850    89141492.551    21432735.492  
                                
  28051873.130   147413596.345                                                  
  28051875.954   110081598.342  
  24183842.441   127087001.466                                                  
  24183845.514    94902671.789  
  22287242.034   117120292.812                                                  
  22287244.089    87459993.812  
  24834634.687   130506871.386                                                  
  24834634.902    97456401.810  
  23628007.773   124166034.180                                                  
  23628010.775    92721408.934  
 21  8 31 18 19  7.0000000  0 18G 5G10G13G15G18G23G29R 3R 4R 5R18R19
                                R20E 4E 5E 9E11E36
  22561517.420   118561598.099    22561515.829    92385663.870    22561515.025  
                                
  24347785.491   127948479.276    24347788.064    99700129.213    24347787.778  
  24347786.920    95545955.633  
  21734394.530   114215047.499                    88998742.372    21734391.707  
                                
  20301074.560   106682919.492    20301072.738    83129562.203    20301071.969  
                                
  20978432.987   110242444.217    20978431.200    85903223.044    20978430.700  
  20978435.453    82323938.135  
  21622241.126   113625688.770    21622239.750    88539518.228    21622239.304  
  21622243.842    84850390.053  
  20970807.078   110202335.598    20970805.470    85871949.215    20970804.719  
                                
  22876059.827   122457372.852    22876058.987    95244626.229    22876058.755  
                                
  19437721.798   104088172.663    19437720.493    80957482.484    19437720.297  
                                
  20142735.236   107674482.584    20142736.487    83746839.993    20142736.397  
                                
  21812449.746   116436327.261    21812452.659    90561585.894    21812452.980  
                                
  19453067.572   104060805.235    19453067.733    80936199.193    19453067.197  
                                
  21432106.234   114607122.071    21432109.736    89138884.304    21432108.378  
                                
  28052385.739   147416290.019                                                  
  28052388.562   110083609.839  
  24183482.737   127085111.200                                                  
  24183485.811    94901260.233  
  22287398.566   117121115.379                                                  
  22287400.621    87460608.073  
  24835012.171   130508855.061                                                  
  24835012.403    97457883.128  
  23628049.229   124166251.889                                                  
  23628052.213    92721571.510  
 21  8 31 18 19  8.0000000  0 18G 5G10G13G15G18G23G29R 3R 4R 5R18R19
                                R20E 4E 5E 9E11E36
  22562033.370   118564309.499    22562031.779    92387776.650    22562030.975  
                                
  24347295.004   127945901.853    24347297.559    99698120.839    24347297.291  
  24347296.434    95544030.950  
  21734637.852   114216326.155                    88999738.728    21734635.029  
                                
  20301041.985   106682748.237    20301040.163    83129428.758    20301039.394  
                                
  20978120.494   110240802.029    20978118.707    85901943.420    20978118.207  
  20978122.960    82322711.829  
  21621918.465   113623993.222    21621917.089    88538197.022    21621916.625  
  21621921.181    84849123.902  
  20971204.807   110204425.691    20971203.198    85873577.854    20971202.448  
                                
  22876796.191   122461314.696    22876795.352    95247692.110    22876795.119  
                                
  19438012.831   104089731.142    19438011.508    80958694.632    19438011.312  
                                
  20142293.889   107672123.334    20142295.140    83745005.023    20142295.050  
                                
  21813022.555   116439384.935    21813025.486    90563964.083    21813025.790  
                                
  19453117.230   104061070.833    19453117.391    80936405.769    19453116.837  
                                
  21431479.139   114603768.676    21431482.623    89136276.115    21431481.283  
                                
  28052898.330   147418983.687                                                  
  28052901.153   110085621.340  
  24183123.088   127083221.174                                                  
  24183126.161    94899848.853  
  22287555.153   117121938.254                                                  
  22287557.207    87461222.554  
  24835389.689   130510838.828                                                  
  24835389.922    97459364.495  
  23628090.667   124166469.716                                                  
  23628093.669    92721734.173  
 21  8 31 18 19  9.0000000  0 18G 5G10G13G15G18G23G29R 3R 4R 5R18R19
                                R20E 4E 5E 9E11E36
  22562549.391   118567021.179    22562547.801    92389889.640    22562546.997  
                                
  24346804.607   127943324.806    24346807.162    99696112.729    24346806.876  
  24346806.018    95542106.503  
  21734881.336   114217605.642                    89000735.730    21734878.512  
                                
  20301009.571   106682577.869    20301007.748    83129296.001    20301006.980  
                                
  20977808.054   110239160.226    20977806.267    85900664.095    20977805.767  
  20977810.520    82321485.811  
  21621595.912   113622298.147    21621594.536    88536876.193    21621594.071  
  21621598.628    84847858.105  
  20971602.696   110206516.518    20971601.088    85875207.068    20971600.320  
                                
  22877532.610   122465256.884    22877531.770    95250758.249    22877531.555  
                                
  19438304.024   104091290.486    19438302.720    80959907.455    19438302.523  
                                
  20141852.685   107669764.914    20141853.936    83743170.694    20141853.864  
                                
  21813595.472   116442443.212    21813598.385    90566342.750    21813598.688  
                                
  19453167.031   104061337.246    19453167.192    80936612.980    19453166.656  
                                
  21430852.097   114600415.688    21430855.599    89133668.238    21430854.241  
                                
  28053410.956   147421677.687                                                  
  28053413.798   110087633.093  
  24182763.527   127081331.706                                                  
  24182766.601    94898437.880  
  22287711.846   117122761.704                                                  
  22287713.901    87461837.472  
  24835767.244   130512822.917                                                  
  24835767.458    97460846.137  
  23628132.195   124166687.992                                                  
  23628135.197    92721897.171  
 21  8 31 18 19 10.0000000  0 18G 5G10G13G15G18G23G29R 3R 4R 5R18R19
                                R20E 4E 5E 9E11E36
  22563065.467   118569733.217    22563063.894    92392002.916    22563063.090  
                                
  24346314.299   127940748.187    24346316.854    99694104.979    24346316.568  
  24346315.710    95540182.402  
  21735124.998   114218886.063                    89001733.460    21735122.157  
                                
  20300977.335   106682408.496    20300975.495    83129164.022    20300974.744  
                                
  20977495.739   110237518.918    20977493.952    85899385.156    20977493.434  
  20977498.205    82320260.157  
  21621273.465   113620603.673    21621272.089    88535555.822    21621271.642  
  21621276.181    84846592.745  
  20972000.711   110208608.193    20971999.120    85876836.949    20971998.352  
                                
  22878269.099   122469199.398    22878268.259    95253824.651    22878268.027  
                                
  19438595.397   104092850.756    19438594.074    80961120.998    19438593.878  
                                
  20141411.677   107667407.423    20141412.928    83741337.097    20141412.839  
                                
  21814168.532   116445502.216    21814171.444    90568721.975    21814171.748  
                                
  19453217.011   104061604.619    19453217.189    80936820.934    19453216.635  
                                
  21430225.162   114597063.139    21430228.664    89131060.704    21430227.306  
                                
  28053923.690   147424372.071                                                  
  28053926.514   110089645.129  
  24182404.092   127079442.840                                                  
  24182407.165    94897027.369  
  22287868.665   117123585.861                                                  
  22287870.737    87462452.916  
  24836144.888   130514807.478                                                  
  24836145.102    97462328.115  
  23628173.829   124166906.773                                                  
  23628176.831    92722060.540  
 21  8 31 18 19 11.0000000  0 18G 5G10G13G15G18G23G29R 3R 4R 5R18R19
                                R20E 4E 5E 9E11E36
  22563581.631   118572445.727    22563580.059    92394116.565    22563579.237  
                                
  24345824.080   127938172.117    24345826.635    99692097.649    24345826.349  
  24345825.491    95538258.716  
  21735368.838   114220167.510                    89002731.998    21735366.015  
                                
  20300945.314   106682240.217    20300943.473    83129032.903    20300942.723  
                                
  20977183.532   110235878.207    20977181.745    85898106.684    20977181.226  
  20977185.997    82319034.950  
  21620951.144   113618909.877    21620949.750    88534235.983    21620949.303  
  21620953.860    84845327.900  
  20972398.940   110210700.815    20972397.332    85878467.566    20972396.581  
                                
  22879005.696   122473142.420    22879004.838    95256891.450    22879004.606  
                                
  19438886.948   104094412.076    19438885.643    80962335.361    19438885.447  
                                
  20140970.849   107665050.985    20140972.099    83739504.309    20140972.028  
                                
  21814741.734   116448562.055    21814744.647    90571101.848    21814744.950  
                                
  19453267.205   104061873.034    19453267.365    80937029.703    19453266.811  
                                
  21429598.335   114593711.214    21429601.819    89128453.651    21429600.479  
                                
  28054436.531   147427066.957                                                  
  28054439.372   110091657.543  
  24182044.781   127077554.710                                                  
  24182047.855    94895617.398  
  22288025.662   117124410.814                                                  
  22288027.717    87463068.950  
  24836522.639   130516792.609                                                  
  24836522.871    97463810.514  
  23628215.589   124167126.185                                                  
  23628218.591    92722224.386  
 21  8 31 18 19 12.0000000  0 18G 5G10G13G15G18G23G29R 3R 4R 5R18R19
                                R20E 4E 5E 9E11E36
  22564097.832   118575158.372    22564096.259    92396230.315    22564095.455  
                                
  24345333.897   127935596.244    24345336.452    99690090.484    24345336.166  
  24345335.308    95536335.196  
  21735612.822   114221449.655                    89003731.070    21735609.981  
                                
  20300913.435   106682072.701    20300911.613    83128902.368    20300910.844  
                                
  20976871.342   110234237.762    20976869.555    85896828.413    20976869.055  
  20976873.808    82317809.945  
  21620628.894   113617216.439    21620627.500    88532916.421    21620627.053  
  21620631.592    84844063.330  
  20972797.258   110212794.048    20972795.650    85880098.657    20972794.900  
                                
  22879742.311   122477085.576    22879741.453    95259958.349    22879741.221  
                                
  19439178.659   104095974.096    19439177.337    80963550.263    19439177.140  
                                
  20140530.163   107662695.261    20140531.414    83737672.079    20140531.342  
                                
  21815315.044   116451622.391    21815317.956    90573482.107    21815318.260  
                                
  19453317.506   104062142.172    19453317.667    80937239.030    19453317.131  
                                
  21428971.543   114590359.498    21428975.027    89125846.768    21428973.687  
                                
  28054949.354   147429762.016                                                  
  28054952.160   110093670.088  
  24181685.560   127075666.997                                                  
  24181688.634    94894207.742  
  22288182.730   117125236.242                                                  
  22288184.785    87463685.337  
  24836900.462   130518777.998                                                  
  24836900.694    97465293.096  
  23628257.385   124167345.887                                                  
  23628260.387    92722388.458  
 21  8 31 18 19 13.0000000  0 17G 5G10G13G15G18G23G29R 3R 4R 5R18R19
                                R20E 5E 9E11E36
  22564614.121   118577871.376    22564612.531    92398344.336    22564611.727  
                                
  24344843.803   127933020.846    24344846.358    99688083.683    24344846.072  
  24344845.215    95534412.011  
  21735856.984   114222732.734                    89004730.865    21735854.161  
                                
  20300881.736   106681906.171    20300879.913    83128772.605    20300879.145  
                                
  20976559.277   110232597.793    20976557.490    85895550.517    20976556.990  
  20976561.743    82316585.293  
  21620306.733   113615523.588    21620305.357    88531597.319    21620304.910  
  21620309.449    84842799.184  
  20973195.737   110214888.132    20973194.147    85881730.408    20973193.379  
                                
  22880478.997   122481029.112    22880478.139    95263025.528    22880477.907  
                                
  19439470.532   104097537.052    19439469.210    80964765.892    19439469.013  
                                
  20140089.638   107660340.473    20140090.889    83735840.578    20140090.817  
                                
  21815888.479   116454683.455    21815891.409    90575862.930    21815891.713  
                                
  19453368.004   104062412.244    19453368.165    80937449.089    19453367.629  
                                
  21428344.840   114587008.277    21428348.343    89123240.259    21428346.985  
                                
  24181326.465   127073779.906                                                  
  24181329.538    94892798.557  
  22288339.942   117126062.360                                                  
  22288341.997    87464302.241  
  24837278.338   130520763.828                                                  
  24837278.588    97466776.016  
  23628299.306   124167566.146                                                  
  23628302.290    92722552.929  
 21  8 31 18 19 14.0000000  0 17G 5G10G13G15G18G23G29R 3R 4R 5R18R19
                                R20E 5E 9E11E36
  22565130.411   118580584.490    22565128.839    92400458.449    22565128.034  
                                
  24344353.781   127930445.653    24344356.336    99686077.032    24344356.050  
  24344355.210    95532488.962  
  21736101.290   114224016.473                    89005731.176    21736098.449  
                                
  20300850.197   106681740.363    20300848.356    83128643.404    20300847.606  
                                
  20976247.231   110230958.055    20976245.444    85894272.797    20976244.943  
  20976249.696    82315360.818  
  21619984.662   113613831.048    21619983.286    88530278.457    21619982.839  
  21619987.378    84841535.274  
  20973594.360   110216982.777    20973592.751    85883362.597    20973591.983  
                                
  22881215.701   122484972.749    22881214.843    95266092.799    22881214.611  
                                
  19439762.530   104099100.716    19439761.207    80965982.076    19439761.011  
                                
  20139649.256   107657986.340    20139650.507    83734009.583    20139650.435  
                                
  21816462.021   116457744.966    21816464.933    90578244.100    21816465.237  
                                
  19453418.609   104062682.986    19453418.788    80937659.664    19453418.234  
                                
  21427718.192   114583657.263    21427721.676    89120633.914    21427720.336  
                                
  24180967.422   127071893.185                                                  
  24180970.514    94891389.636  
  22288497.225   117126888.909                                                  
  22288499.280    87464919.469  
  24837656.268   130522749.836                                                  
  24837656.518    97468259.079  
  23628341.244   124167786.632                                                  
  23628344.246    92722717.580  
 21  8 31 18 19 15.0000000  0 17G 5G10G13G15G18G23G29R 3R 4R 5R18R19
                                R20E 5E 9E11E36
  22565646.683   118583297.573    22565645.110    92402572.535    22565644.306  
                                
  24343863.723   127927870.454    24343866.260    99684070.384    24343865.974  
  24343865.135    95530565.946  
  21736345.666   114225300.740                    89006731.904    21736342.825  
                                
  20300818.748   106681575.150    20300816.907    83128514.669    20300816.157  
                                
  20975935.219   110229318.417    20975933.433    85892995.158    20975932.932  
  20975937.703    82314136.413  
  21619662.626   113612138.711    21619661.232    88528959.754    21619660.786  
  21619665.324    84840271.514  
  20973993.035   110219077.876    20973991.427    85884995.139    20973990.677  
                                
  22881952.405   122488916.390    22881951.548    95269160.075    22881951.315  
                                
  19440054.617   104100664.934    19440053.312    80967198.689    19440053.116  
                                
  20139208.963   107655632.723    20139210.214    83732178.995    20139210.142  
                                
  21817035.581   116460806.778    21817038.511    90580625.507    21817038.815  
                                
  19453469.321   104062954.275    19453469.500    80937870.668    19453468.946  
                                
  21427091.543   114580306.293    21427095.045    89118027.607    21427093.687  
                                
  24180608.451   127070006.705                                                  
  24180611.525    94889980.902  
  22288654.562   117127715.754                                                  
  22288656.635    87465536.921  
  24838034.198   130524735.906                                                  
  24838034.430    97469742.185  
  23628383.254   124168007.267                                                  
  23628386.256    92722882.340  
 21  8 31 18 19 16.0000000  0 17G 5G10G13G15G18G23G29R 3R 4R 5R18R19
                                R20E 5E 9E11E36
  22566162.972   118586010.623    22566161.382    92404686.600    22566160.578  
                                
  24343373.683   127925295.350    24343376.220    99682063.814    24343375.934  
  24343375.094    95528642.978  
  21736590.168   114226585.548                    89007733.050    21736587.327  
                                
  20300787.423   106681410.545    20300785.600    83128386.401    20300784.832  
                                
  20975623.244   110227678.882    20975621.457    85891717.600    20975620.939  
  20975625.710    82312912.085  
  21619340.626   113610446.561    21619339.233    88527641.192    21619338.786  
  21619343.325    84839007.898  
  20974391.801   110221173.421    20974390.210    85886628.032    20974389.442  
                                
  22882689.109   122492860.040    22882688.252    95272227.354    22882688.019  
                                
  19440346.847   104102229.698    19440345.542    80968415.731    19440345.346  
                                
  20138768.777   107653279.635    20138770.028    83730348.815    20138769.939  
                                
  21817609.230   116463868.942    21817612.160    90583007.188    21817612.464  
                                
  19453520.141   104063226.119    19453520.319    80938082.100    19453519.765  
                                
  21426464.912   114576955.428    21426468.414    89115421.378    21426467.056  
                                
  24180249.499   127068120.450                                                  
  24180252.590    94888572.338  
  22288811.970   117128542.905                                                  
  22288814.025    87466154.600  
  24838412.163   130526722.070                                                  
  24838412.395    97471225.357  
  23628425.264   124168228.029                                                  
  23628428.266    92723047.190  
 21  8 31 18 19 17.0000000  0 17G 5G10G13G15G18G23G29R 3R 4R 5R18R19
                                R20E 5E 9E11E36
  22566679.244   118588723.658    22566677.672    92406800.654    22566676.868  
                                
  24342883.696   127922720.286    24342886.234    99680057.271    24342885.948  
  24342885.108    95526720.030  
  21736834.760   114227870.883                    89008734.610    21736831.918  
                                
  20300756.224   106681246.519    20300754.401    83128258.588    20300753.633  
                                
  20975311.251   110226039.441    20975309.464    85890440.109    20975308.964  
  20975313.735    82311687.822  
  21619018.644   113608754.582    21619017.251    88526322.766    21619016.804  
  21619021.343    84837744.413  
  20974790.655   110223269.401    20974789.047    85888261.263    20974788.296  
                                
  22883425.831   122496803.668    22883424.974    95275294.620    22883424.741  
                                
  19440639.148   104103794.992    19440637.844    80969633.182    19440637.647  
                                
  20138328.681   107650927.077    20138329.932    83728519.048    20138329.861  
                                
  21818182.950   116466931.445    21818185.863    90585389.133    21818186.167  
                                
  19453571.049   104063498.486    19453571.228    80938293.941    19453570.674  
                                
  21425838.299   114573604.611    21425841.783    89112815.187    21425840.443  
                                
  24179890.617   127066234.439                                                  
  24179893.691    94887163.953  
  22288969.432   117129370.349                                                  
  22288971.487    87466772.492  
  24838790.129   130528708.295                                                  
  24838790.379    97472708.567  
  23628467.292   124168448.917                                                  
  23628470.277    92723212.141  
 21  8 31 18 19 18.0000000  0 17G 5G10G13G15G18G23G29R 3R 4R 5R18R19
                                R20E 5E 9E11E36
  22567195.534   118591436.805    22567193.961    92408914.794    22567193.140  
                                
  24342393.692   127920145.416    24342396.229    99678050.883    24342395.943  
  24342395.104    95524797.251  
  21737079.476   114229156.908                    89009736.705    21737076.652  
                                
  20300725.132   106681083.252    20300723.309    83128131.369    20300722.559  
                                
  20974999.329   110224400.247    20974997.543    85889162.814    20974997.042  
  20975001.813    82310463.744  
  21618696.752   113607062.957    21618695.358    88525004.617    21618694.911  
  21618699.450    84836481.185  
  20975189.635   110225365.979    20975188.026    85889894.958    20975187.276  
                                
  22884162.553   122500747.401    22884161.696    95278361.971    22884161.463  
                                
  19440931.593   104105360.992    19440930.270    80970851.182    19440930.074  
                                
  20137888.728   107648575.224    20137889.961    83726689.829    20137889.890  
                                
  21818756.743   116469994.438    21818759.673    90587771.460    21818759.977  
                                
  19453622.101   104063771.569    19453622.280    80938506.337    19453621.726  
                                
  21425211.704   114570254.018    21425215.206    89110209.168    21425213.848  
                                
  24179531.771   127064348.815                                                  
  24179534.863    94885755.857  
  22289126.983   117130198.239                                                  
  22289129.038    87467390.722  
  24839168.148   130530694.732                                                  
  24839168.398    97474191.940  
  23628509.392   124168670.080                                                  
  23628512.376    92723377.297  
 21  8 31 18 19 19.0000000  0 17G 5G10G13G15G18G23G29R 3R 4R 5R18R19
                                R20E 5E 9E11E36
  22567711.842   118594149.967    22567710.251    92411028.937    22567709.447  
                                
  24341903.705   127917570.620    24341906.243    99676044.560    24341905.957  
  24341905.117    95522874.535  
  21737324.299   114230443.520                    89010739.273    21737321.458  
                                
  20300694.200   106680920.613    20300692.378    83128004.638    20300691.609  
                                
  20974687.426   110222761.187    20974685.639    85887885.630    20974685.138  
  20974689.892    82309239.778  
  21618374.877   113605371.576    21618373.501    88523686.667    21618373.037  
  21618377.593    84835218.143  
  20975588.686   110227463.042    20975587.077    85891529.032    20975586.327  
                                
  22884899.275   122504691.186    22884898.417    95281429.349    22884898.185  
                                
  19441224.144   104106927.590    19441222.822    80972069.644    19441222.625  
                                
  20137448.864   107646223.981    20137450.097    83724861.086    20137450.026  
                                
  21819330.624   116473057.815    21819333.555    90590154.087    21819333.859  
                                
  19453673.260   104064045.239    19453673.421    80938719.193    19453672.885  
                                
  21424585.162   114566903.580    21424588.647    89107603.279    21424587.307  
                                
  24179172.997   127062463.482                                                  
  24179176.088    94884347.992  
  22289284.570   117131026.481                                                  
  22289286.625    87468009.219  
  24839546.185   130532681.306                                                  
  24839546.435    97475675.430  
  23628551.509   124168891.458                                                  
  23628554.493    92723542.605  
 21  8 31 18 19 20.0000000  0 17G 5G10G13G15G18G23G29R 3R 4R 5R18R19
                                R20E 5E 9E11E36
  22568228.167   118596863.308    22568226.594    92413143.231    22568225.790  
                                
  24341413.826   127914996.143    24341416.364    99674038.478    24341416.078  
  24341415.238    95520952.019  
  21737569.284   114231730.862                    89011742.400    21737566.442  
                                
  20300663.394   106680758.790    20300661.554    83127878.546    20300660.803  
                                
  20974375.593   110221122.438    20974373.806    85886608.685    20974373.288  
  20974378.059    82308016.039  
  21618053.092   113603680.586    21618051.698    88522369.012    21618051.251  
  21618055.790    84833955.388  
  20975987.862   110229560.770    20975986.271    85893163.629    20975985.503  
                                
  22885636.051   122508635.122    22885635.175    95284496.855    22885634.961  
                                
  19441516.821   104108494.947    19441515.517    80973288.700    19441515.320  
                                
  20137009.143   107643873.462    20137010.394    83723032.912    20137010.323  
                                
  21819904.595   116476121.698    21819907.526    90592537.107    21819907.829  
                                
  19453724.562   104064319.672    19453724.723    80938932.644    19453724.187  
                                
  21423958.657   114563553.378    21423962.141    89104997.566    21423960.801  
                                
  24178814.312   127060578.589                                                  
  24178817.404    94882940.444  
  22289442.264   117131855.231                                                  
  22289444.337    87468628.091  
  24839924.240   130534668.104                                                  
  24839924.490    97477159.091  
  23628593.680   124169113.147                                                  
  23628596.682    92723708.156  
 21  8 31 18 19 21.0000000  0 17G 5G10G13G15G18G23G29R 3R 4R 5R18R19
                                R20E 5E 9E11E36
  22568744.474   118599576.566    22568742.902    92415257.454    22568742.098  
                                
  24340923.911   127912421.634    24340926.431    99672032.368    24340926.145  
  24340925.305    95519029.509  
  21737814.339   114233018.680                    89012745.892    21737811.498  
                                
  20300632.695   106680597.504    20300630.873    83127752.871    20300630.122  
                                
  20974063.743   110219483.740    20974061.956    85885331.777    20974061.456  
  20974066.227    82306792.329  
  21617731.342   113601989.724    21617729.948    88521051.462    21617729.502  
  21617734.040    84832692.740  
  20976387.109   110231658.886    20976385.519    85894798.519    20976384.768  
                                
  22886372.808   122512579.038    22886371.951    95287564.343    22886371.718  
                                
  19441809.605   104110062.798    19441808.301    80974508.139    19441808.104  
                                
  20136569.530   107641523.415    20136570.763    83721205.096    20136570.691  
                                
  21820478.620   116479185.835    21820481.532    90594920.325    21820481.836  
                                
  19453775.954   104064594.617    19453776.132    80939146.488    19453775.578  
                                
  21423332.169   114560203.220    21423335.653    89102391.888    21423334.295  
                                
  24178455.681   127058693.881                                                  
  24178458.754    94881533.032  
  22289600.030   117132684.230                                                  
  22289602.103    87469247.146  
  24840302.331   130536654.937                                                  
  24840302.581    97478642.751  
  23628635.887   124169334.923                                                  
  23628638.889    92723873.765  
 21  8 31 18 19 22.0000000  0 17G 5G10G13G15G18G23G29R 3R 4R 5R18R19
                                R20E 5E 9E11E36
  22569260.782   118602289.734    22569259.210    92417371.605    22569258.405  
                                
  24340433.978   127909847.119    24340436.498    99670026.257    24340436.212  
  24340435.390    95517106.986  
  21738059.502   114234306.976                    89013749.757    21738056.679  
                                
  20300602.121   106680436.752    20300600.299    83127627.605    20300599.530  
                                
  20973751.929   110217845.061    20973750.142    85884054.883    20973749.624  
  20973754.395    82305568.643  
  21617409.610   113600298.998    21617408.217    88519734.013    21617407.770  
  21617412.309    84831430.180  
  20976786.464   110233757.381    20976784.874    85896433.710    20976784.105  
                                
  22887109.548   122516522.882    22887108.673    95290631.779    22887108.440  
                                
  19442102.478   104111631.115    19442101.174    80975727.944    19442100.977  
                                
  20136129.987   107639173.807    20136131.238    83719377.625    20136131.149  
                                
  21821052.680   116482250.226    21821055.610    90597303.735    21821055.914  
                                
  19453827.434   104064870.037    19453827.613    80939360.701    19453827.059  
                                
  21422705.681   114556853.069    21422709.165    89099786.214    21422707.807  
                                
  24178097.068   127056809.348                                                  
  24178100.141    94880125.747  
  22289757.831   117133513.461                                                  
  22289759.886    87469866.380  
  24840680.421   130538641.779                                                  
  24840680.689    97480126.423  
  23628678.093   124169556.756                                                  
  23628681.095    92724039.419  
 21  8 31 18 19 23.0000000  0 17G 5G10G13G15G18G23G29R 3R 4R 5R18R19
                                R20E 5E 9E11E36
  22569777.072   118605002.766    22569775.499    92419485.659    22569774.677  
                                
  24339944.063   127907272.566    24339946.583    99668020.111    24339946.297  
  24339945.457    95515184.430  
  21738304.737   114235595.686                    89014753.946    21738301.896  
                                
  20300571.619   106680276.490    20300569.796    83127502.726    20300569.028  
                                
  20973440.078   110216206.380    20973438.292    85882777.988    20973437.791  
  20973442.562    82304344.957  
  21617087.879   113598608.348    21617086.485    88518416.621    21617086.038  
  21617090.577    84830167.689  
  20977185.837   110235856.210    20977184.246    85898069.157    20977183.496  
                                
  22887846.270   122520466.552    22887845.395    95293699.074    22887845.180  
                                
  19442395.441   104113199.881    19442394.136    80976948.090    19442393.940  
                                
  20135690.517   107636824.608    20135691.750    83717550.475    20135691.678  
                                
  21821626.794   116485314.843    21821629.724    90599687.324    21821630.028  
                                
  19453879.004   104065145.887    19453879.183    80939575.248    19453878.629  
                                
  21422079.175   114553502.887    21422082.659    89097180.518    21422081.319  
                                
  24177738.472   127054924.940                                                  
  24177741.563    94878718.565  
  22289915.668   117134342.892                                                  
  22289917.741    87470485.751  
  24841058.476   130540628.553                                                  
  24841058.726    97481610.066  
  23628720.318   124169778.624                                                  
  23628723.320    92724205.097  
 21  8 31 18 19 24.0000000  0 17G 5G10G13G15G18G23G29R 3R 4R 5R18R19
                                R20E 5E 9E11E36
  22570293.326   118607715.740    22570291.735    92421599.672    22570290.931  
                                
  24339454.148   127904698.001    24339456.668    99666013.966    24339456.364  
  24339455.542    95513261.885  
  21738550.079   114236884.910                    89015758.532    21738547.237  
                                
  20300541.242   106680116.812    20300539.419    83127378.301    20300538.651  
                                
  20973128.246   110214567.749    20973126.459    85881501.135    20973125.959  
  20973130.730    82303121.308  
  21616766.183   113596917.859    21616764.789    88517099.357    21616764.342  
  21616768.881    84828905.304  
  20977585.334   110237955.450    20977583.744    85899704.932    20977582.976  
                                
  22888582.974   122524410.181    22888582.099    95296766.329    22888581.866  
                                
  19442688.493   104114769.170    19442687.188    80978168.646    19442686.992  
                                
  20135251.135   107634475.910    20135252.386    83715723.705    20135252.297  
                                
  21822200.961   116488379.779    21822203.892    90602071.151    21822204.195  
                                
  19453930.681   104065422.262    19453930.860    80939790.207    19453930.306  
                                
  21421452.687   114550152.742    21421456.171    89094574.847    21421454.831  
                                
  24177379.930   127053040.745                                                  
  24177383.003    94877311.523  
  22290073.559   117135172.598                                                  
  22290075.632    87471105.335  
  24841436.567   130542615.359                                                  
  24841436.817    97483093.707  
  23628762.560   124170000.574                                                  
  23628765.562    92724370.843  
 21  8 31 18 19 25.0000000  0 17G 5G10G13G15G18G23G29R 3R 4R 5R18R19
                                R20E 5E 9E11E36
  22570809.615   118610428.864    22570808.043    92423713.789    22570807.239  
                                
  24338964.269   127902123.677    24338966.771    99664007.997    24338966.485  
  24338965.663    95511339.501  
  21738795.527   114238174.829                    89016763.661    21738792.686  
                                
  20300510.989   106679957.879    20300509.167    83127254.455    20300508.398  
                                
  20972816.503   110212929.411    20972814.716    85880224.506    20972814.216  
  20972818.987    82301897.867  
  21616444.576   113595227.737    21616443.182    88515782.379    21616442.735  
  21616447.274    84827643.202  
  20977984.922   110240055.323    20977983.331    85901341.195    20977982.581  
                                
  22889319.714   122528353.944    22889318.838    95299833.693    22889318.606  
                                
  19442981.688   104116339.150    19442980.365    80979389.746    19442980.169  
                                
  20134811.897   107632127.929    20134813.148    83713897.498    20134813.058  
                                
  21822775.218   116491445.203    21822778.148    90604455.366    21822778.452  
                                
  19453982.484   104065699.366    19453982.645    80940005.733    19453982.108  
                                
  21420826.235   114546802.850    21420829.719    89091969.376    21420828.361  
                                
  24177021.442   127051156.967                                                  
  24177024.533    94875904.802  
  22290231.521   117136002.769                                                  
  22290233.594    87471725.267  
  24841814.711   130544602.459                                                  
  24841814.979    97484577.561  
  23628804.856   124170222.835                                                  
  23628807.840    92724536.822  
 21  8 31 18 19 26.0000000  0 17G 5G10G13G15G18G23G29R 3R 4R 5R18R19
                                R20E 5E 9E11E36
  22571325.976   118613142.304    22571324.404    92425828.152    22571323.600  
                                
  24338474.461   127899549.755    24338476.963    99662002.344    24338476.677  
  24338475.855    95509417.420  
  21739041.173   114239465.616                    89017769.470    21739038.332  
                                
  20300480.916   106679799.883    20300479.093    83127131.346    20300478.343  
                                
  20972504.814   110211291.499    20972503.027    85878948.211    20972502.509  
  20972507.298    82300674.758  
  21616123.059   113593538.140    21616121.665    88514465.808    21616121.218  
  21616125.757    84826381.488  
  20978384.652   110242155.969    20978383.061    85902978.062    20978382.311  
                                
  22890056.508   122532298.087    22890055.632    95302901.355    22890055.400  
                                
  19443275.026   104117910.017    19443273.721    80980611.532    19443273.525  
                                
  20134372.819   107629780.834    20134374.052    83712071.982    20134373.981  
                                
  21823349.618   116494511.287    21823352.548    90606840.090    21823352.852  
                                
  19454034.447   104065977.376    19454034.626    80940221.960    19454034.072  
                                
  21420199.872   114543453.395    21420203.356    89089364.246    21420201.998  
                                
  24176663.078   127049273.749                                                  
  24176666.170    94874498.507  
  22290389.626   117136833.578                                                  
  22290391.681    87472345.681  
  24842192.909   130546589.943                                                  
  24842193.177    97486061.732  
  23628847.241   124170445.577                                                  
  23628850.243    92724703.155  
 21  8 31 18 19 27.0000000  0 17G 5G10G13G15G18G23G29R 3R 4R 5R18R19
                                R20E 5E 9E11E36
  22571842.356   118615855.929    22571840.783    92427942.662    22571839.979  
                                
  24337984.707   127896976.109    24337987.209    99659996.907    24337986.905  
  24337986.101    95507495.555  
  21739286.943   114240757.176                    89018775.882    21739284.102  
                                
  20300451.003   106679642.716    20300449.180    83127008.874    20300448.430  
                                
  20972193.196   110209653.918    20972191.409    85877672.171    20972190.909  
  20972195.680    82299451.885  
  21615801.613   113591848.969    21615800.237    88513149.570    21615799.772  
  21615804.311    84825120.092  
  20978784.542   110244257.301    20978782.952    85904615.461    20978782.184  
                                
  22890793.355   122536242.442    22890792.497    95305969.178    22890792.247  
                                
  19443568.506   104119481.675    19443567.202    80981833.932    19443567.005  
                                
  20133933.902   107627434.522    20133935.135    83710247.072    20133935.064  
                                
  21823924.107   116497577.913    21823927.037    90609225.242    21823927.341  
                                
  19454086.571   104066256.138    19454086.732    80940438.775    19454086.196  
                                
  21419573.563   114540104.235    21419577.047    89086759.348    21419575.707  
                                
  24176304.805   127047391.002                                                  
  24176307.896    94873092.559  
  22290547.821   117137664.919                                                  
  22290549.894    87472966.486  
  24842571.160   130548577.686                                                  
  24842571.411    97487546.088  
  23628889.698   124170668.674                                                  
  23628892.682    92724869.752  
 21  8 31 18 19 28.0000000  0 17G 5G10G13G15G18G23G29R 3R 4R 5R18R19
                                R20E 5E 9E11E36
  22572358.788   118618569.737    22572357.216    92430057.313    22572356.412  
                                
  24337495.007   127894402.733    24337497.508    99657991.681    24337497.204  
  24337496.400    95505573.873  
  21739532.839   114242049.472                    89019782.865    21739529.998  
                                
  20300421.269   106679486.366    20300419.446    83126887.043    20300418.678  
                                
  20971881.614   110208016.640    20971879.827    85876396.370    20971879.327  
  20971884.098    82298229.248  
  21615480.256   113590160.191    21615478.863    88511833.640    21615478.398  
  21615482.955    84823858.996  
  20979184.540   110246359.285    20979182.950    85906253.366    20979182.182  
                                
  22891530.237   122540186.994    22891529.362    95309037.160    22891529.129  
                                
  19443862.148   104121054.088    19443860.844    80983056.921    19443860.647  
                                
  20133495.111   107625088.961    20133496.361    83708422.749    20133496.272  
                                
  21824498.685   116500645.084    21824501.616    90611610.812    21824501.919  
                                
  19454138.820   104066535.683    19454138.998    80940656.201    19454138.445  
                                
  21418947.307   114536755.379    21418950.791    89084154.685    21418949.451  
                                
  24175946.620   127045508.717                                                  
  24175949.711    94871686.959  
  22290706.122   117138496.777                                                  
  22290708.195    87473587.673  
  24842949.483   130550565.725                                                  
  24842949.734    97489030.660  
  23628932.227   124170892.115                                                  
  23628935.229    92725036.609  
 21  8 31 18 19 29.0000000  0 17G 5G10G13G15G18G23G29R 3R 4R 5R18R19
                                R20E 5E 9E11E36
  22572875.185   118621283.412    22572873.613    92432171.867    22572872.808  
                                
  24337005.306   127891829.342    24337007.808    99655986.444    24337007.504  
  24337006.700    95503652.187  
  21739778.860   114243342.219                    89020790.201    21739776.019  
                                
  20300391.589   106679330.515    20300389.784    83126765.598    20300389.015  
                                
  20971570.067   110206379.376    20971568.280    85875120.585    20971567.780  
  20971572.551    82297006.620  
  21615158.900   113588471.510    21615157.506    88510517.779    21615157.059  
  21615161.598    84822597.965  
  20979584.592   110248461.611    20979583.002    85907891.545    20979582.251  
                                
  22892267.102   122544131.421    22892266.227    95312105.052    22892265.994  
                                
  19444155.879   104122626.975    19444154.575    80984280.272    19444154.378  
                                
  20133056.408   107622743.840    20133057.641    83706598.766    20133057.570  
                                
  21825073.317   116503712.503    21825076.248    90613996.592    21825076.552  
                                
  19454191.158   104066815.688    19454191.337    80940873.985    19454190.783  
                                
  21418321.051   114533406.545    21418324.518    89081550.031    21418323.178  
                                
  24175588.453   127043626.574                                                  
  24175591.545    94870281.474  
  22290864.460   117139328.834                                                  
  22290866.533    87474209.019  
  24843327.788   130552553.767                                                  
  24843328.056    97490515.226  
  23628974.737   124171115.617                                                  
  23628977.739    92725203.499  
 21  8 31 18 19 30.0000000  0 17G 5G10G13G15G18G23G29R 3R 4R 5R18R19
                                R20E 5E 9E11E36
  22573391.546   118623996.955    22573389.974    92434286.316    22573389.170  
                                
  24336515.570   127889255.860    24336518.071    99653981.131    24336517.785  
  24336516.963    95501730.440  
  21740024.934   114244635.375                    89021797.853    21740022.093  
                                
  20300362.033   106679175.141    20300360.211    83126644.530    20300359.460  
                                
  20971258.503   110204742.086    20971256.716    85873844.774    20971256.216  
  20971260.987    82295783.967  
  21614837.579   113586782.893    21614836.185    88509201.981    21614835.721  
  21614840.259    84821336.990  
  20979984.715   110250564.270    20979983.125    85909529.980    20979982.375  
                                
  22893003.913   122548075.656    22893003.038    95315172.791    22893002.806  
                                
  19444449.699   104124200.289    19444448.395    80985503.963    19444448.198  
                                
  20132617.777   107620399.109    20132619.010    83704775.087    20132618.939  
                                
  21825648.003   116506780.125    21825650.933    90616382.515    21825651.237  
                                
  19454243.586   104067096.102    19454243.765    80941092.080    19454243.211  
                                
  21417694.778   114530057.627    21417698.262    89078945.317    21417696.922  
                                
  24175230.322   127041744.542                                                  
  24175233.396    94868876.058  
  22291022.815   117140161.073                                                  
  22291024.888    87474830.498  
  24843706.094   130554541.724                                                  
  24843706.362    97491999.743  
  23629017.265   124171339.116                                                  
  23629020.267    92725370.394  
 21  8 31 18 19 31.0000000  0 17G 5G10G13G15G18G23G29R 3R 4R 5R18R19
                                R20E 5E 9E11E36
  22573907.925   118626710.536    22573906.353    92436400.798    22573905.549  
                                
  24336025.905   127886682.519    24336028.406    99651975.932    24336028.121  
  24336027.299    95499808.778  
  21740271.133   114245929.129                    89022805.973    21740268.292  
                                
  20300332.585   106679020.437    20300330.762    83126523.981    20300330.012  
                                
  20970946.957   110203104.963    20970945.170    85872569.094    20970944.669  
  20970949.440    82294561.448  
  21614516.294   113585094.552    21614514.882    88507886.389    21614514.436  
  21614518.974    84820076.220  
  20980384.946   110252667.451    20980383.355    85911168.822    20980382.605  
                                
  22893740.743   122552019.948    22893739.867    95318240.574    22893739.635  
                                
  19444743.609   104125774.227    19444742.305    80986728.131    19444742.108  
                                
  20132179.271   107618054.993    20132180.504    83702951.886    20132180.433  
                                
  21826222.742   116509848.143    21826225.673    90618768.749    21826225.976  
                                
  19454296.103   104067377.146    19454296.282    80941310.670    19454295.746  
                                
  21417068.558   114526708.870    21417072.024    89076340.731    21417070.684  
                                
  24174872.245   127039862.833                                                  
  24174875.336    94867470.892  
  22291181.260   117140993.684                                                  
  22291183.333    87475452.256  
  24844084.399   130556529.845                                                  
  24844084.667    97493484.381  
  23629059.847   124171562.818                                                  
  23629062.849    92725537.444  
 21  8 31 18 19 32.0000000  0 17G 5G10G13G15G18G23G29R 3R 4R 5R18R19
                                R20E 5E 9E11E36
  22574424.340   118629424.329    22574422.768    92438515.434    22574421.963  
                                
  24335536.276   127884109.445    24335538.759    99649970.951    24335538.474  
  24335537.669    95497887.336  
  21740517.476   114247223.650                    89023814.690    21740514.635  
                                
  20300303.316   106678866.555    20300301.493    83126404.073    20300300.725  
                                
  20970635.500   110201468.187    20970633.713    85871293.684    20970633.212  
  20970638.001    82293339.167  
  21614195.098   113583406.637    21614193.687    88506571.132    21614193.240  
  21614197.779    84818815.762  
  20980785.283   110254771.301    20980783.693    85912808.181    20980782.942  
                                
  22894477.608   122555964.471    22894476.732    95321308.534    22894476.482  
                                
  19445037.680   104127348.932    19445036.375    80987952.901    19445036.179  
                                
  20131740.891   107615711.657    20131742.124    83701129.293    20131742.052  
                                
  21826797.589   116512916.718    21826800.519    90621155.417    21826800.823  
                                
  19454348.799   104067658.967    19454348.977    80941529.867    19454348.423  
                                
  21416442.374   114523360.414    21416445.858    89073736.377    21416444.518  
                                
  24174514.239   127037981.584                                                  
  24174517.330    94866066.059  
  22291339.812   117141826.836                                                  
  22291341.884    87476074.408  
  24844462.793   130558518.271                                                  
  24844463.061    97494969.232  
  23629102.483   124171786.878                                                  
  23629105.485    92725704.765  
 21  8 31 18 19 33.0000000  0 17G 5G10G13G15G18G23G29R 3R 4R 5R18R19
                                R20E 5E 9E11E36
  22574940.755   118632138.095    22574939.182    92440630.064    22574938.378  
                                
  24335046.629   127881536.444    24335049.130    99647966.018    24335048.844  
  24335048.023    95495965.944  
  21740763.925   114248518.739                    89024823.851    21740761.084  
                                
  20300274.135   106678713.300    20300272.313    83126284.654    20300271.562  
                                
  20970324.060   110199831.513    20970322.256    85870018.353    20970321.755  
  20970326.544    82292116.980  
  21613873.920   113581718.927    21613872.527    88505256.034    21613872.080  
  21613876.619    84817555.457  
  20981185.728   110256875.608    20981184.138    85914447.906    20981183.387  
                                
  22895214.472   122559909.020    22895213.597    95324376.521    22895213.347  
                                
  19445331.857   104128924.177    19445330.553    80989178.094    19445330.356  
                                
  20131302.617   107613368.860    20131303.868    83699307.120    20131303.779  
                                
  21827372.507   116515985.625    21827375.437    90623542.344    21827375.741  
                                
  19454401.584   104067941.374    19454401.762    80941749.516    19454401.209  
                                
  21415816.207   114520012.069    21415819.692    89071132.106    21415818.352  
                                
  24174156.305   127036100.597                                                  
  24174159.378    94864661.430  
  22291498.399   117142660.295                                                  
  22291500.472    87476696.795  
  24844841.205   130560506.768                                                  
  24844841.473    97496454.140  
  23629145.136   124172011.090                                                  
  23629148.138    92725872.195  
 21  8 31 18 19 34.0000000  0 17G 5G10G13G15G18G23G29R 3R 4R 5R18R19
                                R20E 5E 9E11E36
  22575457.241   118634852.222    22575455.669    92442744.957    22575454.864  
                                
  24334557.089   127878963.837    24334559.591    99645961.386    24334559.287  
  24334558.483    95494044.836  
  21741010.536   114249814.706                    89025833.693    21741007.695  
                                
  20300245.152   106678560.973    20300243.347    83126165.962    20300242.579  
                                
  20970012.675   110198195.261    20970010.888    85868743.352    20970010.388  
  20970015.176    82290895.099  
  21613552.868   113580031.743    21613551.474    88503941.344    21613551.027  
  21613555.566    84816295.542  
  20981586.316   110258980.708    20981584.743    85916088.239    20981583.975  
                                
  22895951.427   122563853.937    22895950.551    95327444.783    22895950.301  
                                
  19445626.178   104130500.332    19445624.874    80990403.997    19445624.677  
                                
  20130864.505   107611026.945    20130865.737    83697485.635    20130865.666  
                                
  21827947.532   116519055.237    21827950.480    90625929.823    21827950.784  
                                
  19454454.548   104068224.664    19454454.726    80941969.856    19454454.172  
                                
  21415190.130   114516664.101    21415193.615    89068528.140    21415192.275  
                                
  24173798.460   127034220.196                                                  
  24173801.551    94863257.226  
  22291657.130   117143494.401                                                  
  22291659.203    87477319.668  
  24845219.671   130562495.611                                                  
  24845219.939    97497939.352  
  23629187.914   124172235.787                                                  
  23629190.916    92726039.983  
 21  8 31 18 19 35.0000000  0 17G 5G10G13G15G18G23G29R 3R 4R 5R18R19
                                R20E 5E 9E11E36
  22575973.692   118637566.294    22575972.137    92444859.822    22575971.315  
                                
  24334067.549   127876391.255    24334070.033    99643956.782    24334069.747  
  24334068.925    95492123.757  
  21741257.235   114251111.154                    89026843.914    21741254.394  
                                
  20300216.276   106678409.233    20300214.453    83126047.722    20300213.685  
                                
  20969701.343   110196559.092    20969699.556    85867468.420    20969699.056  
  20969703.827    82289673.291  
  21613231.851   113578344.722    21613230.457    88502626.785    21613229.992  
  21613234.531    84815035.758  
  20981986.975   110261086.225    20981985.385    85917728.904    20981984.616  
                                
  22896688.363   122567798.767    22896687.470    95330512.982    22896687.237  
                                
  19445920.624   104132076.998    19445919.319    80991630.293    19445919.123  
                                
  20130426.499   107608685.512    20130427.732    83695664.525    20130427.661  
                                
  21828522.646   116522125.136    21828525.577    90628317.519    21828525.880  
                                
  19454507.601   104068508.481    19454507.779    80942190.599    19454507.225  
                                
  21414564.071   114513316.213    21414567.538    89065924.229    21414566.198  
                                
  24173440.686   127032339.993                                                  
  24173443.759    94861853.182  
  22291815.914   117144328.773                                                  
  22291817.987    87477942.740  
  24845598.155   130564484.547                                                  
  24845598.423    97499424.595  
  23629230.675   124172460.572                                                  
  23629233.677    92726207.848  
 21  8 31 18 19 36.0000000  0 17G 5G10G13G15G18G23G29R 3R 4R 5R18R19
                                R20E 5E 9E11E36
  22576490.196   118640280.418    22576488.623    92446974.724    22576487.801  
                                
  24333578.027   127873818.824    24333580.511    99641952.297    24333580.207  
  24333579.403    95490202.795  
  21741504.060   114252408.230                    89027854.628    21741501.219  
                                
  20300187.542   106678258.176    20300185.720    83125930.018    20300184.951  
                                
  20969390.011   110194923.116    20969388.224    85866193.634    20969387.724  
  20969392.512    82288451.619  
  21612910.869   113576657.987    21612909.476    88501312.448    21612909.029  
  21612913.568    84813776.183  
  20982387.742   110263192.275    20982386.151    85919369.987    20982385.401  
                                
  22897425.299   122571743.669    22897424.406    95333581.234    22897424.174  
                                
  19446215.159   104133654.322    19446213.855    80992857.100    19446213.658  
                                
  20129988.601   107606344.707    20129989.834    83693843.901    20129989.744  
                                
  21829097.796   116525195.450    21829100.745    90630705.541    21829101.049  
                                
  19454560.779   104068792.927    19454560.958    80942411.836    19454560.404  
                                
  21413938.030   114509968.522    21413941.515    89063320.467    21413940.174  
                                
  24173082.966   127030460.135                                                  
  24173086.057    94860449.391  
  22291974.752   117145163.547                                                  
  22291976.824    87478566.108  
  24845976.657   130566473.625                                                  
  24845976.925    97500909.951  
  23629273.507   124172685.603                                                  
  23629276.509    92726375.882  
 21  8 31 18 19 37.0000000  0 17G 5G10G13G15G18G23G29R 3R 4R 5R18R19
                                R20E 5E 9E11E36
  22577006.664   118642994.527    22577005.109    92449089.615    22577004.287  
                                
  24333088.523   127871246.460    24333091.007    99639947.858    24333090.703  
  24333089.899    95488281.876  
  21741750.992   114253705.852                    89028865.757    21741748.151  
                                
  20300158.898   106678107.715    20300157.075    83125812.776    20300156.307  
                                
  20969078.715   110193287.255    20969076.928    85864918.937    20969076.427  
  20969081.216    82287230.037  
  21612589.924   113574971.454    21612588.530    88499998.267    21612588.083  
  21612592.604    84812516.761  
  20982788.597   110265298.772    20982787.025    85921011.411    20982786.257  
                                
  22898162.254   122575688.542    22898161.360    95336649.461    22898161.128  
                                
  19446509.819   104135232.187    19446508.533    80994084.328    19446508.336  
                                
  20129550.810   107604004.454    20129552.043    83692023.709    20129551.953  
                                
  21829673.054   116528266.088    21829675.984    90633093.810    21829676.288  
                                
  19454614.064   104069077.927    19454614.243    80942633.506    19454613.689  
                                
  21413312.007   114506620.891    21413315.473    89060716.759    21413314.133  
                                
  24172725.282   127028580.518                                                  
  24172728.373    94859045.778  
  22292133.679   117145998.624                                                  
  22292135.734    87479189.711  
  24846355.194   130568462.797                                                  
  24846355.462    97502395.359  
  23629316.339   124172910.760                                                  
  23629319.341    92726544.028  
 21  8 31 18 19 38.0000000  0 17G 5G10G13G15G18G23G29R 3R 4R 5R18R19
                                R20E 5E 9E11E36
  22577523.132   118645708.601    22577521.560    92451204.473    22577520.756  
                                
  24332599.019   127868674.134    24332601.503    99637943.450    24332601.217  
  24332600.413    95486360.985  
  21741998.014   114255003.993                    89029877.298    21741995.173  
                                
  20300130.379   106677957.850    20300128.574    83125695.996    20300127.806  
                                
  20968767.436   110191651.474    20968765.649    85863644.297    20968765.149  
  20968769.920    82286008.511  
  21612269.014   113573285.096    21612267.620    88498684.218    21612267.174  
  21612271.712    84811257.464  
  20983189.542   110267405.718    20983187.970    85922653.184    20983187.202  
                                
  22898899.190   122579633.387    22898898.297    95339717.667    22898898.064  
                                
  19446804.569   104136810.590    19446803.282    80995311.973    19446803.086  
                                
  20129113.108   107601664.738    20129114.341    83690203.928    20129114.252  
                                
  21830248.329   116531337.006    21830251.260    90635482.302    21830251.564  
                                
  19454667.421   104069363.464    19454667.618    80942855.586    19454667.064  
                                
  21412686.001   114503273.316    21412689.468    89058113.083    21412688.128  
                                
  24172367.633   127026701.124                                                  
  24172370.725    94857642.344  
  22292292.641   117146833.988                                                  
  22292294.714    87479813.515  
  24846733.731   130570452.027                                                  
  24846733.999    97503880.827  
  23629359.225   124173136.041                                                  
  23629362.209    92726712.257  
 21  8 31 18 19 39.0000000  0 17G 5G10G13G15G18G23G29R 3R 4R 5R18R19
                                R20E 5E 9E11E36
  22578039.636   118648422.746    22578038.064    92453319.389    22578037.242  
                                
  24332109.569   127866101.976    24332112.035    99635939.173    24332111.749  
  24332110.945    95484440.218  
  21742245.178   114256302.786                    89030889.340    21742242.337  
                                
  20300102.003   106677808.698    20300100.181    83125579.771    20300099.412  
                                
  20968456.211   110190015.915    20968454.425    85862369.838    20968453.924  
  20968458.713    82284787.152  
  21611948.176   113571599.042    21611946.782    88497370.411    21611946.335  
  21611950.874    84809998.397  
  20983590.595   110269513.212    20983589.022    85924295.388    20983588.254  
                                
  22899636.144   122583578.361    22899635.269    95342785.987    22899635.036  
                                
  19447099.461   104138389.669    19447098.175    80996540.143    19447097.978  
                                
  20128675.549   107599325.703    20128676.782    83688384.674    20128676.693  
                                
  21830823.712   116534408.401    21830826.642    90637871.161    21830826.946  
                                
  19454720.939   104069649.655    19454721.118    80943078.177    19454720.564  
                                
  21412060.031   114499925.945    21412063.498    89055509.584    21412062.158  
                                
  24172010.056   127024822.091                                                  
  24172013.166    94856239.159  
  22292451.676   117147669.769                                                  
  22292453.749    87480437.637  
  24847112.322   130572441.448                                                  
  24847112.590    97505366.414  
  23629402.128   124173361.559                                                  
  23629405.130    92726880.657  
 21  8 31 18 19 40.0000000  0 17G 5G10G13G15G18G23G29R 3R 4R 5R18R19
                                R20E 5E 9E11E36
  22578556.230   118651137.475    22578554.657    92455434.757    22578553.853  
                                
  24331620.208   127863530.495    24331622.674    99633935.424    24331622.388  
  24331621.584    95482519.956  
  21742492.539   114257602.729                    89031902.285    21742489.698  
                                
  20300073.859   106677660.758    20300072.037    83125464.493    20300071.268  
                                
  20968145.112   110188381.057    20968143.307    85861095.930    20968142.807  
  20968147.596    82283566.322  
  21611627.498   113569913.800    21611626.105    88496057.235    21611625.658  
  21611630.197    84808739.933  
  20983991.826   110271621.775    20983990.253    85925938.423    20983989.485  
                                
  22900373.224   122587523.938    22900372.348    95345854.765    22900372.098  
                                
  19447394.568   104139969.920    19447393.264    80997769.225    19447393.067  
                                
  20128238.187   107596987.787    20128239.420    83686566.295    20128239.331  
                                
  21831399.255   116537480.730    21831402.186    90640260.747    21831402.489  
                                
  19454774.653   104069937.026    19454774.850    80943301.690    19454774.296  
                                
  21411434.169   114496579.260    21411437.636    89052906.604    21411436.295  
                                
  24171652.658   127022943.900                                                  
  24171655.749    94854836.622  
  22292610.907   117148506.468                                                  
  22292612.979    87481062.443  
  24847491.003   130574431.544                                                  
  24847491.271    97506852.529  
  23629445.193   124173587.840                                                  
  23629448.195    92727049.635  
 21  8 31 18 19 41.0000000  0 17G 5G10G13G15G18G23G29R 3R 4R 5R18R19
                                R20E 5E 9E11E36
  22579072.877   118653852.471    22579071.305    92457550.341    22579070.500  
                                
  24331130.918   127860959.346    24331133.402    99631931.932    24331133.098  
  24331132.312    95480599.958  
  21742740.061   114258903.491                    89032915.861    21742737.219  
                                
  20300045.859   106677513.701    20300044.054    83125349.903    20300043.286  
                                
  20967834.066   110186746.596    20967832.279    85859822.319    20967831.778  
  20967836.567    82282345.789  
  21611306.875   113568229.030    21611305.481    88494744.428    21611305.034  
  21611309.573    84807481.837  
  20984393.218   110273731.077    20984391.645    85927582.033    20984390.877  
                                
  22901110.357   122591469.791    22901109.481    95348923.757    22901109.249  
                                
  19447689.818   104141551.009    19447688.514    80998998.961    19447688.317  
                                
  20127800.986   107594650.686    20127802.219    83684748.554    20127802.147  
                                
  21831974.924   116540553.669    21831977.872    90642650.811    21831978.176  
                                
  19454828.546   104070225.239    19454828.725    80943525.856    19454828.171  
                                
  21410808.396   114493232.961    21410811.862    89050303.927    21410810.540  
                                
  24171295.349   127021066.261                                                  
  24171298.440    94853434.489  
  22292770.245   117149343.760                                                  
  22292772.300    87481687.698  
  24847869.790   130576422.013                                                  
  24847870.058    97508338.920  
  23629488.328   124173814.544                                                  
  23629491.330    92727218.931  
 21  8 31 18 19 42.0000000  0 17G 5G10G13G15G18G23G29R 3R 4R 5R18R19
                                R20E 5E 9E11E36
  22579589.596   118656567.795    22579588.023    92459666.176    22579587.219  
                                
  24330641.736   127858388.620    24330644.202    99629928.775    24330643.916  
  24330643.112    95478680.261  
  21742987.761   114260205.153                    89033930.148    21742984.920  
                                
  20300018.072   106677367.597    20300016.250    83125236.054    20300015.481  
                                
  20967523.127   110185112.589    20967521.322    85858549.072    20967520.822  
  20967525.611    82281125.587  
  21610986.394   113566544.821    21610985.000    88493432.055    21610984.535  
  21610989.074    84806224.148  
  20984794.753   110275841.177    20984793.180    85929226.267    20984792.412  
                                
  22901847.561   122595415.993    22901846.668    95351993.018    22901846.435  
                                
  19447985.246   104143133.003    19447983.960    81000229.403    19447983.763  
                                
  20127363.945   107592314.478    20127365.178    83682931.501    20127365.089  
                                
  21832550.717   116543627.291    21832553.665    90645041.399    21832553.969  
                                
  19454882.564   104070514.352    19454882.761    80943750.721    19454882.207  
                                
  21410182.712   114489887.095    21410186.179    89047701.586    21410184.838  
                                
  24170938.165   127019189.200                                                  
  24170941.256    94852032.790  
  22292929.690   117150181.703                                                  
  22292931.745    87482313.439  
  24848248.649   130578412.889                                                  
  24848248.917    97509825.605  
  23629531.554   124174041.741                                                  
  23629534.556    92727388.589  
 21  8 31 18 19 43.0000000  0 17G 5G10G13G15G18G23G29R 3R 4R 5R18R19
                                R20E 5E 9E11E36
  22580106.332   118659283.275    22580104.759    92461782.132    22580103.955  
                                
  24330152.589   127855818.131    24330155.037    99627925.799    24330154.751  
  24330153.947    95476760.752  
  21743235.586   114261507.517                    89034944.979    21743232.745  
                                
  20299990.411   106677222.284    20299988.588    83125122.827    20299987.820  
                                
  20967212.224   110183478.870    20967210.437    85857276.044    20967209.936  
  20967214.725    82279905.604  
  21610665.966   113564860.976    21610664.572    88492119.975    21610664.126  
  21610668.664    84804966.731  
  20985196.412   110277951.911    20985194.840    85930870.995    20985194.072  
                                
  22902584.765   122599362.345    22902583.890    95355062.396    22902583.640  
                                
  19448280.800   104144715.715    19448279.514    81001460.399    19448279.317  
                                
  20126927.047   107589978.998    20126928.280    83681115.021    20126928.209  
                                
  21833126.618   116546701.417    21833129.566    90647432.390    21833129.870  
                                
  19454936.761   104070804.217    19454936.940    80943976.172    19454936.386  
                                
  21409557.046   114486541.488    21409560.513    89045099.448    21409559.190  
                                
  24170581.053   127017312.579                                                  
  24170584.144    94850631.415  
  22293089.243   117151020.137                                                  
  22293091.315    87482939.544  
  24848627.526   130580403.986                                                  
  24848627.794    97511312.480  
  23629574.868   124174269.251                                                  
  23629577.852    92727558.483  
 21  8 31 18 19 44.0000000  0 17G 5G10G13G15G18G23G29R 3R 4R 5R18R19
                                R20E 5E 9E11E36
  22580623.050   118661998.752    22580621.496    92463898.095    22580620.674  
                                
  24329663.460   127853247.751    24329665.926    99625922.919    24329665.640  
  24329664.836    95474841.310  
  21743483.519   114262810.462                    89035960.268    21743480.678  
                                
  20299962.875   106677077.592    20299961.052    83125010.085    20299960.302  
                                
  20966901.374   110181845.280    20966899.587    85856003.117    20966899.087  
  20966903.876    82278685.711  
  21610345.575   113563177.360    21610344.181    88490808.066    21610343.734  
  21610348.255    84803709.488  
  20985598.162   110280063.112    20985596.589    85932516.093    20985595.821  
                                
  22903321.988   122603308.724    22903321.094    95358131.825    22903320.862  
                                
  19448576.461   104146298.996    19448575.157    81002691.842    19448574.978  
                                
  20126490.257   107587644.103    20126491.472    83679298.987    20126491.401  
                                
  21833702.572   116549775.927    21833705.503    90649823.674    21833705.806  
                                
  19454991.065   104071094.662    19454991.244    80944202.078    19454990.690  
                                
  21408931.434   114483196.016    21408934.900    89042497.419    21408933.578  
                                
  24170223.994   127015436.193                                                  
  24170227.103    94849230.224  
  22293248.831   117151858.905                                                  
  22293250.904    87483565.897  
  24849006.457   130582395.209                                                  
  24849006.725    97512799.406  
  23629618.200   124174496.909                                                  
  23629621.185    92727728.492  
 21  8 31 18 19 45.0000000  0 17G 5G10G13G15G18G23G29R 3R 4R 5R18R19
                                R20E 5E 9E11E36
  22581139.805   118664714.173    22581138.232    92466014.000    22581137.428  
                                
  24329174.332   127850677.371    24329176.798    99623920.025    24329176.512  
  24329175.708    95472921.874  
  21743731.559   114264113.895                    89036975.929    21743728.718  
                                
  20299935.446   106676933.469    20299933.623    83124897.779    20299932.873  
                                
  20966590.525   110180211.764    20966588.738    85854730.247    20966588.237  
  20966593.026    82277465.878  
  21610025.237   113561493.905    21610023.843    88489496.283    21610023.396  
  21610027.917    84802452.360  
  20986000.000   110282174.735    20985998.428    85934161.512    20985997.659  
                                
  22904059.192   122607255.042    22904058.299    95361201.180    22904058.066  
                                
  19448872.247   104147882.796    19448870.942    81003923.687    19448870.746  
                                
  20126053.538   107585309.688    20126054.771    83677483.334    20126054.682  
                                
  21834278.580   116552850.738    21834281.529    90652215.194    21834281.832  
                                
  19455045.458   104071385.626    19455045.637    80944428.382    19455045.083  
                                
  21408305.821   114479850.588    21408309.288    89039895.419    21408307.966  
                                
  24169866.989   127013560.045                                                  
  24169870.080    94847829.209  
  22293408.508   117152697.937                                                  
  22293410.581    87484192.445  
  24849385.369   130584386.475                                                  
  24849385.655    97514286.385  
  23629661.533   124174724.692                                                  
  23629664.517    92727898.590  
 21  8 31 18 19 46.0000000  0 17G 5G10G13G15G18G23G29R 3R 4R 5R18R19
                                R20E 5E 9E11E36
  22581656.488   118667429.453    22581654.915    92468129.806    22581654.111  
                                
  24328685.203   127848106.938    24328687.651    99621917.093    24328687.347  
  24328686.561    95471002.413  
  21743979.670   114265417.767                    89037991.936    21743976.829  
                                
  20299908.124   106676789.846    20299906.302    83124785.865    20299905.551  
                                
  20966279.675   110178578.239    20966277.888    85853457.370    20966277.388  
  20966282.177    82276246.037  
  21609704.899   113559810.535    21609703.487    88488184.568    21609703.040  
  21609707.579    84801195.300  
  20986401.892   110284286.702    20986400.320    85935807.198    20986399.552  
                                
  22904796.361   122611201.197    22904795.485    95364270.411    22904795.235  
                                
  19449168.086   104149467.046    19449166.782    81005155.881    19449166.585  
                                
  20125616.926   107582975.725    20125618.159    83675668.029    20125618.088  
                                
  21834854.642   116555925.788    21834857.590    90654606.892    21834857.894  
                                
  19455099.923   104071677.030    19455100.120    80944655.029    19455099.566  
                                
  21407680.209   114476505.140    21407683.675    89037293.406    21407682.335  
                                
  24169510.001   127011684.040                                                  
  24169513.093    94846428.296  
  22293568.204   117153537.175                                                  
  22293570.277    87484819.148  
  24849764.282   130586377.701                                                  
  24849764.550    97515773.352  
  23629704.883   124174952.505                                                  
  23629707.885    92728068.708  
 21  8 31 18 19 47.0000000  0 17G 5G10G13G15G18G23G29R 3R 4R 5R18R19
                                R20E 5E 9E11E36
  22582173.206   118670144.839    22582171.651    92470245.688    22582170.847  
                                
  24328196.074   127845536.698    24328198.540    99619914.311    24328198.236  
  24328197.450    95469083.078  
  21744227.925   114266722.305                    89039008.459    21744225.084  
                                
  20299880.928   106676646.941    20299879.105    83124674.510    20299878.354  
                                
  20965968.861   110176944.942    20965967.074    85852184.671    20965966.574  
  20965971.363    82275026.372  
  21609384.632   113558127.491    21609383.221    88486873.103    21609382.774  
  21609387.313    84799938.486  
  20986803.892   110286399.243    20986802.302    85937453.332    20986801.551  
                                
  22905533.565   122615147.489    22905532.672    95367339.744    22905532.439  
                                
  19449464.051   104151051.980    19449462.765    81006388.607    19449462.568  
                                
  20125180.440   107580642.439    20125181.673    83673853.253    20125181.583  
                                
  21835430.793   116559001.294    21835433.741    90656998.950    21835434.045  
                                
  19455154.531   104071969.127    19455154.727    80944882.210    19455154.173  
                                
  21407054.632   114473159.912    21407058.099    89034691.565    21407056.759  
                                
  24169153.050   127009808.394                                                  
  24169156.141    94845027.653  
  22293727.989   117154376.844                                                  
  22293730.061    87485446.174  
  24850143.266   130588369.153                                                  
  24850143.552    97517260.464  
  23629748.287   124175180.588                                                  
  23629751.289    92728239.029  
 21  8 31 18 19 48.0000000  0 17G 5G10G13G15G18G23G29R 3R 4R 5R18R19
                                R20E 5E 9E11E36
  22582689.960   118672860.325    22582688.388    92472361.656    22582687.584  
                                
  24327707.035   127842966.638    24327709.483    99617911.676    24327709.197  
  24327708.393    95467163.866  
  21744476.286   114268027.495                    89040025.493    21744473.445  
                                
  20299853.856   106676504.758    20299852.033    83124563.721    20299851.283  
                                
  20965658.101   110175311.866    20965656.314    85850912.149    20965655.814  
  20965660.603    82273806.867  
  21609064.401   113556444.755    21609063.008    88485561.885    21609062.543  
  21609067.082    84798681.898  
  20987205.999   110288512.343    20987204.426    85939099.905    20987203.658  
                                
  22906270.787   122619093.898    22906269.894    95370409.180    22906269.644  
                                
  19449760.159   104152637.574    19449758.854    81007621.843    19449758.658  
                                
  20124744.078   107578309.800    20124745.311    83672038.981    20124745.222  
                                
  21836007.033   116562077.232    21836009.981    90659391.344    21836010.285  
                                
  19455209.264   104072261.886    19455209.442    80945109.915    19455208.888  
                                
  21406429.073   114469814.855    21406432.540    89032089.859    21406431.218  
                                
  24168796.205   127007933.120                                                  
  24168799.297    94843627.282  
  22293887.845   117155216.926                                                  
  22293889.918    87486073.510  
  24850522.268   130590360.763                                                  
  24850522.536    97518747.697  
  23629791.744   124175408.915                                                  
  23629794.746    92728409.535  
 21  8 31 18 19 49.0000000  0 17G 5G10G13G15G18G23G29R 3R 4R 5R18R19
                                R20E 5E 9E11E36
  22583206.679   118675575.749    22583205.124    92474477.569    22583204.302  
                                
  24327217.960   127840396.583    24327220.408    99615909.041    24327220.122  
  24327219.318    95465244.694  
  21744724.755   114269333.207                    89041042.915    21744721.914  
                                
  20299826.927   106676363.174    20299825.105    83124453.393    20299824.354  
                                
  20965347.359   110173678.887    20965345.572    85849639.695    20965345.072  
  20965349.860    82272587.432  
  21608744.242   113554762.201    21608742.831    88484250.806    21608742.384  
  21608746.923    84797425.451  
  20987608.194   110290625.873    20987606.604    85940746.819    20987605.854  
                                
  22907008.010   122623040.330    22907007.116    95373478.630    22907006.866  
                                
  19450056.356   104154223.731    19450055.051    81008855.521    19450054.872  
                                
  20124307.806   107575977.702    20124309.039    83670225.125    20124308.950  
                                
  21836583.327   116565153.519    21836586.275    90661784.014    21836586.579  
                                
  19455264.104   104072555.208    19455264.282    80945338.054    19455263.728  
                                
  21405803.568   114466469.900    21405807.035    89029488.224    21405805.695  
                                
  24168439.397   127006058.066                                                  
  24168442.488    94842227.090  
  22294047.773   117156057.320                                                  
  22294049.845    87486701.075  
  24850901.252   130592352.414                                                  
  24850901.520    97520234.997  
  23629835.202   124175637.364                                                  
  23629838.204    92728580.140  
 21  8 31 18 19 50.0000000  0 17G 5G10G13G15G18G23G29R 3R 4R 5R18R19
                                R20E 5E 9E11E36
  22583723.451   118678291.317    22583721.879    92476593.586    22583721.074  
                                
  24326728.956   127837826.778    24326731.404    99613906.593    24326731.118  
  24326730.314    95463325.675  
  21744973.367   114270639.603                    89042060.881    21744970.508  
                                
  20299800.106   106676222.329    20299798.301    83124343.644    20299797.533  
                                
  20965036.652   110172046.151    20965034.865    85848367.431    20965034.365  
  20965039.154    82271368.179  
  21608424.119   113553079.993    21608422.707    88482939.990    21608422.260  
  21608426.799    84796169.249  
  20988010.498   110292739.997    20988008.925    85942394.183    20988008.157  
                                
  22907745.250   122626986.879    22907744.356    95376548.171    22907744.106  
                                
  19450352.678   104155810.564    19450351.391    81010089.724    19450351.194  
                                
  20123871.659   107573646.255    20123872.874    83668411.777    20123872.803  
                                
  21837159.692   116568230.244    21837162.640    90664177.017    21837162.944  
                                
  19455319.051   104072849.207    19455319.247    80945566.720    19455318.694  
                                
  21405178.081   114463125.147    21405181.548    89026886.755    21405180.225  
                                
  24168082.659   127004183.394                                                  
  24168085.751    94840827.179  
  22294207.772   117156898.148                                                  
  22294209.845    87487328.966  
  24851280.290   130594344.291                                                  
  24851280.558    97521722.442  
  23629878.731   124175866.105                                                  
  23629881.733    92728750.950  
 21  8 31 18 19 51.0000000  0 17G 5G10G13G15G18G23G29R 3R 4R 5R18R19
                                R20E 5E 9E11E36
  22584240.187   118681006.794    22584238.615    92478709.540    22584237.811  
                                
  24326239.916   127835256.956    24326242.347    99611904.129    24326242.061  
  24326241.275    95461406.664  
  21745222.050   114271946.468                    89043079.220    21745219.209  
                                
  20299773.428   106676082.021    20299771.605    83124234.316    20299770.854  
                                
  20964725.981   110170413.453    20964724.177    85847095.199    20964723.676  
  20964728.483    82270148.961  
  21608104.031   113551397.900    21608102.619    88481629.273    21608102.172  
  21608106.711    84794913.153  
  20988412.872   110294854.510    20988411.300    85944041.851    20988410.531  
                                
  22908482.472   122630933.303    22908481.579    95379617.611    22908481.329  
                                
  19450649.107   104157397.884    19450647.820    81011324.301    19450647.624  
                                
  20123435.601   107571315.288    20123436.816    83666598.805    20123436.745  
                                
  21837736.129   116571307.228    21837739.077    90666570.223    21837739.381  
                                
  19455374.105   104073143.696    19455374.302    80945795.765    19455373.748  
                                
  21404552.594   114459780.412    21404556.060    89024285.292    21404554.720  
                                
  24167725.958   127002308.924                                                  
  24167729.049    94839427.413  
  22294367.825   117157739.220                                                  
  22294369.898    87487957.041  
  24851659.345   130596336.192                                                  
  24851659.613    97523209.885  
  23629922.278   124176094.924                                                  
  23629925.280    92728921.822  
 21  8 31 18 19 52.0000000  0 17G 5G10G13G15G18G23G29R 3R 4R 5R18R19
                                R20E 5E 9E11E36
  22584756.942   118683722.377    22584755.387    92480825.576    22584754.583  
                                
  24325750.949   127832687.344    24325753.379    99609901.839    24325753.093  
  24325752.307    95459487.792  
  21745470.858   114273254.023                    89044098.092    21745468.017  
                                
  20299746.856   106675942.450    20299745.052    83124125.554    20299744.283  
                                
  20964415.328   110168781.002    20964413.542    85845823.155    20964413.041  
  20964417.830    82268929.919  
  21607783.997   113549716.153    21607782.585    88480318.816    21607782.138  
  21607786.677    84793657.299  
  20988815.372   110296969.614    20988813.800    85945689.986    20988813.031  
                                
  22909219.730   122634879.852    22909218.837    95382687.154    22909218.587  
                                
  19450945.661   104158985.889    19450944.357    81012559.419    19450944.178  
                                
  20122999.686   107568985.011    20123000.901    83664786.365    20123000.830  
                                
  21838312.637   116574384.666    21838315.586    90668963.788    21838315.889  
                                
  19455429.285   104073438.879    19455429.481    80946025.351    19455428.928  
                                
  21403927.160   114456435.895    21403930.627    89021684.001    21403929.287  
                                
  24167369.328   127000434.826                                                  
  24167372.437    94838027.922  
  22294527.949   117158580.729                                                  
  22294530.022    87488585.445  
  24852038.437   130598328.278                                                  
  24852038.705    97524697.484  
  23629965.878   124176324.005                                                  
  23629968.880    92729092.890  
 21  8 31 18 19 53.0000000  0 17G 5G10G13G15G18G23G29R 3R 4R 5R18R19
                                R20E 5E 9E11E36
  22585273.750   118686438.126    22585272.195    92482941.743    22585271.373  
                                
  24325262.016   127830117.971    24325264.447    99607899.734    24325264.161  
  24325263.374    95457569.108  
  21745719.827   114274562.297                    89045117.523    21745716.986  
                                
  20299720.446   106675803.683    20299718.623    83124017.429    20299717.873  
                                
  20964104.729   110167148.844    20964102.942    85844551.343    20964102.442  
  20964107.231    82267711.102  
  21607464.034   113548034.790    21607462.622    88479008.665    21607462.176  
  21607466.714    84792401.742  
  20989217.979   110299085.366    20989216.407    85947338.624    20989215.638  
                                
  22909957.024   122638826.607    22909956.113    95385756.855    22909955.862  
                                
  19451242.341   104160574.633    19451241.054    81013795.106    19451240.857  
                                
  20122563.897   107566655.474    20122565.112    83662974.503    20122565.022  
                                
  21838889.235   116577462.634    21838892.183    90671357.760    21838892.505  
                                
  19455484.607   104073734.814    19455484.804    80946255.523    19455484.250  
                                
  21403301.762   114453091.659    21403305.229    89019082.931    21403303.889  
                                
  24167012.787   126998561.172                                                  
  24167015.879    94836628.765  
  22294688.198   117159422.748                                                  
  22294690.271    87489214.224  
  24852417.582   130600320.677                                                  
  24852417.850    97526185.299  
  23630009.532   124176553.435                                                  
  23630012.516    92729264.216  
 21  8 31 18 19 54.0000000  0 17G 5G10G13G15G18G23G29R 3R 4R 5R18R19
                                R20E 5E 9E11E36
  22585790.557   118689154.064    22585789.003    92485058.069    22585788.199  
                                
  24324773.120   127827548.887    24324775.550    99605897.863    24324775.264  
  24324774.478    95455650.650  
  21745968.939   114275871.349                    89046137.573    21745966.098  
                                
  20299694.214   106675665.741    20299692.392    83123909.941    20299691.641  
                                
  20963794.219   110165517.024    20963792.432    85843279.797    20963791.932  
  20963796.721    82266492.530  
  21607144.178   113546353.856    21607142.767    88477698.853    21607142.320  
  21607146.859    84791146.497  
  20989620.729   110301201.781    20989619.156    85948987.779    20989618.388  
                                
  22910694.353   122642773.614    22910693.442    95388826.730    22910693.192  
                                
  19451539.181   104162164.139    19451537.876    81015031.393    19451537.698  
                                
  20122128.250   107564326.716    20122129.465    83661163.254    20122129.376  
                                
  21839465.958   116580541.186    21839468.906    90673752.192    21839469.210  
                                
  19455540.073   104074031.511    19455540.269    80946486.287    19455539.715  
                                
  21402676.454   114449747.746    21402679.902    89016482.105    21402678.580  
                                
  24166656.318   126996687.999                                                  
  24166659.428    94835229.954  
  22294848.519   117160265.293                                                  
  22294850.592    87489843.397  
  24852796.762   130602313.317                                                  
  24852797.030    97527673.321  
  23630053.258   124176783.220                                                  
  23630056.260    92729435.802  
 21  8 31 18 19 55.0000000  0 17G 5G10G13G15G18G23G29R 3R 4R 5R18R19
                                R20E 5E 9E11E36
  22586307.437   118691870.163    22586305.864    92487174.514    22586305.060  
                                
  24324284.295   127824980.062    24324286.725    99603896.181    24324286.439  
  24324285.653    95453732.370  
  21746218.159   114277181.096                    89047158.155    21746215.335  
                                
  20299668.108   106675528.584    20299666.285    83123803.064    20299665.534  
                                
  20963483.745   110163885.485    20963481.958    85842008.471    20963481.458  
  20963486.246    82265274.180  
  21606824.376   113544673.297    21606822.965    88476389.334    21606822.518  
  21606827.039    84789891.543  
  20990023.586   110303318.833    20990022.014    85950637.430    20990021.245  
                                
  22911431.701   122646720.757    22911430.789    95391896.733    22911430.557  
                                
  19451836.146   104163754.386    19451834.859    81016268.252    19451834.663  
                                
  20121692.746   107561998.687    20121693.961    83659352.562    20121693.890  
                                
  21840042.770   116583620.257    21840045.718    90676147.025    21840046.022  
                                
  19455595.663   104074328.948    19455595.860    80946717.629    19455595.306  
                                
  21402051.163   114446404.113    21402054.629    89013881.501    21402053.289  
                                
  24166299.956   126994815.240                                                  
  24166303.048    94833831.472  
  22295008.930   117161108.330                                                  
  22295011.002    87490472.942  
  24853176.032   130604306.265                                                  
  24853176.300    97529161.557  
  23630097.055   124177013.336                                                  
  23630100.057    92729607.640  
 21  8 31 18 19 56.0000000  0 17G 5G10G13G15G18G23G29R 3R 4R 5R18R19
                                R20E 5E 9E11E36
  22586824.298   118694586.300    22586822.744    92489290.985    22586821.922  
                                
  24323795.488   127822411.340    24323797.918    99601894.582    24323797.632  
  24323796.846    95451814.170  
  21746467.521   114278491.456                    89048179.217    21746464.680  
                                
  20299642.108   106675392.094    20299640.303    83123696.710    20299639.535  
                                
  20963173.288   110162254.116    20963171.501    85840737.277    20963171.001  
  20963175.790    82264055.955  
  21606504.628   113542993.006    21606503.217    88475080.016    21606502.752  
  21606507.291    84788636.780  
  20990426.550   110305436.401    20990424.960    85952287.483    20990424.210  
                                
  22912169.084   122650667.931    22912168.173    95394966.760    22912167.922  
                                
  19452133.236   104165345.259    19452131.932    81017505.598    19452131.753  
                                
  20121257.349   107559671.260    20121258.564    83657542.348    20121258.493  
                                
  21840619.653   116586699.736    21840622.601    90678542.178    21840622.923  
                                
  19455651.379   104074627.022    19455651.576    80946949.467    19455651.022  
                                
  21401425.926   114443060.597    21401429.374    89011280.989    21401428.052  
                                
  24165943.648   126992942.804                                                  
  24165946.739    94832433.222  
  22295169.447   117161951.744                                                  
  22295171.520    87491102.753  
  24853555.285   130606299.334                                                  
  24853555.570    97530649.883  
  23630140.869   124177243.643                                                  
  23630143.871    92729779.629  
 21  8 31 18 19 57.0000000  0 17G 5G10G13G15G18G23G29R 3R 4R 5R18R19
                                R20E 5E 9E11E36
  22587341.178   118697302.546    22587339.605    92491407.542    22587338.801  
                                
  24323306.716   127819842.829    24323309.147    99599893.149    24323308.861  
  24323308.074    95449896.122  
  21746716.990   114279802.483                    89049200.794    21746714.149  
                                
  20299616.287   106675256.326    20299614.483    83123590.917    20299613.714  
                                
  20962862.903   110160622.983    20962861.117    85839466.268    20962860.616  
  20962865.405    82262837.903  
  21606184.934   113541313.031    21606183.522    88473770.949    21606183.075  
  21606187.596    84787382.251  
  20990829.604   110307554.551    20990828.032    85953937.991    20990827.281  
                                
  22912906.467   122654615.237    22912905.556    95398036.881    22912905.306  
                                
  19452430.452   104166936.816    19452429.147    81018743.475    19452428.969  
                                
  20120822.078   107557344.491    20120823.293    83655732.633    20120823.221  
                                
  21841196.626   116589779.659    21841199.574    90680937.667    21841199.896  
                                
  19455707.238   104074925.762    19455707.434    80947181.818    19455706.880  
                                
  21400800.707   114439717.328    21400804.155    89008680.669    21400802.833  
                                
  24165587.393   126991070.729                                                  
  24165590.503    94831035.250  
  22295330.018   117162795.580                                                  
  22295332.091    87491732.892  
  24853934.590   130608292.590                                                  
  24853934.876    97532138.356  
  23630184.756   124177474.235                                                  
  23630187.758    92729951.820  
 21  8 31 18 19 58.0000000  0 17G 5G10G13G15G18G23G29R 3R 4R 5R18R19
                                R20E 5E 9E11E36
  22587858.075   118700018.845    22587856.502    92493524.143    22587855.698  
                                
  24322817.981   127817274.444    24322820.411    99597891.808    24322820.107  
  24322819.339    95447978.168  
  21746966.603   114281114.134                    89050222.860    21746963.762  
                                
  20299590.574   106675121.248    20299588.769    83123485.659    20299588.019  
                                
  20962552.536   110158992.034    20962550.749    85838195.397    20962550.249  
  20962555.038    82261619.986  
  21605865.310   113539633.332    21605863.899    88472462.089    21605863.452  
  21605867.973    84786127.937  
  20991232.783   110309673.231    20991231.210    85955588.907    20991230.442  
                                
  22913643.850   122658562.590    22913642.939    95401107.045    22913642.689  
                                
  19452727.757   104168528.996    19452726.470    81019981.835    19452726.274  
                                
  20120386.914   107555018.336    20120388.129    83653923.407    20120388.057  
                                
  21841773.688   116592859.985    21841776.654    90683333.478    21841776.958  
                                
  19455763.203   104075225.153    19455763.400    80947414.680    19455762.846  
                                
  21400175.541   114436374.227    21400178.990    89006080.486    21400177.667  
                                
  24165231.210   126989198.985                                                  
  24165234.319    94829637.512  
  22295490.661   117163639.803                                                  
  22295492.751    87492363.321  
  24854313.932   130610285.996                                                  
  24854314.218    97533626.934  
  23630228.678   124177705.027                                                  
  23630231.680    92730124.166  
 21  8 31 18 19 59.0000000  0 17G 5G10G13G15G18G23G29R 3R 4R 5R18R19
                                R20E 5E 9E11E36
  22588374.972   118702735.220    22588373.400    92495640.788    22588372.596  
                                
  24322329.263   127814706.192    24322331.693    99595890.567    24322331.389  
  24322330.603    95446060.319  
  21747216.322   114282426.379                    89051245.386    21747213.481  
                                
  20299565.021   106674986.832    20299563.198    83123380.919    20299562.448  
                                
  20962242.223   110157361.282    20962240.436    85836924.674    20962239.936  
  20962244.725    82260402.206  
  21605545.723   113537953.903    21605544.311    88471153.436    21605543.864  
  21605548.385    84784873.807  
  20991636.069   110311792.431    20991634.496    85957240.224    20991633.746  
                                
  22914381.269   122662510.000    22914380.358    95404177.239    22914380.107  
                                
  19453025.222   104170121.809    19453023.918    81021220.692    19453023.739  
                                
  20119951.874   107552692.790    20119953.089    83652114.651    20119953.018  
                                
  21842350.822   116595940.707    21842353.770    90685729.591    21842354.074  
                                
  19455819.294   104075525.183    19455819.491    80947648.035    19455818.937  
                                
  21399550.375   114433031.242    21399553.824    89003480.391    21399552.502  
                                
  24164875.098   126987327.564                                                  
  24164878.208    94828240.029  
  22295651.392   117164484.410                                                  
  22295653.465    87492994.032  
  24854693.273   130612279.570                                                  
  24854693.559    97535115.643  
  23630272.636   124177936.056                                                  
  23630275.620    92730296.682  
 21  8 31 18 20  0.0000000  0 17G 5G10G13G15G18G23G29R 3R 4R 5R18R19
                                R20E 5E 9E11E36
  22588891.905   118705451.738    22588890.350    92497757.558    22588889.546  
                                
  24321840.563   127812138.194    24321842.993    99593889.524    24321842.689  
  24321841.921    95444142.672  
  21747466.167   114283739.359                    89052268.485    21747463.344  
                                
  20299539.576   106674853.224    20299537.771    83123276.807    20299537.020  
                                
  20961931.945   110155730.811    20961930.158    85835654.177    20961929.658  
  20961934.447    82259184.653  
  21605226.207   113536274.876    21605224.795    88469845.101    21605224.348  
  21605228.869    84783619.986  
  20992039.462   110313912.277    20992037.890    85958892.050    20992037.139  
                                
  22915118.724   122666457.604    22915117.812    95407247.588    22915117.562  
                                
  19453322.813   104171715.361    19453321.509    81022460.119    19453321.330  
                                
  20119516.996   107550368.002    20119518.211    83650306.480    20119518.122  
                                
  21842928.027   116599021.948    21842930.975    90688126.109    21842931.297  
                                
  19455875.528   104075825.958    19455875.725    80947881.972    19455875.171  
                                
  21398925.281   114429688.574    21398928.730    89000880.540    21398927.407  
                                
  24164519.058   126985456.574                                                  
  24164522.167    94826842.868  
  22295812.196   117165329.517                                                  
  22295814.286    87493625.120  
  24855072.704   130614273.389                                                  
  24855072.972    97536604.546  
  23630316.647   124178167.408                                                  
  23630319.649    92730469.447  
 21  8 31 18 20  1.0000000  0 17G 5G10G13G15G18G23G29R 3R 4R 5R18R19
                                R20E 5E 9E11E36
  22589408.874   118708168.336    22589407.301    92499874.387    22589406.497  
                                
  24321351.935   127809570.361    24321354.347    99591888.610    24321354.061  
  24321353.293    95442225.127  
  21747716.155   114285052.992                    89053292.090    21747713.313  
                                
  20299514.291   106674720.326    20299512.486    83123173.250    20299511.718  
                                
  20961621.721   110154100.549    20961619.934    85834383.843    20961619.434  
  20961624.223    82257967.250  
  21604906.762   113534596.143    21604905.351    88468536.997    21604904.886  
  21604909.425    84782366.384  
  20992442.962   110316032.674    20992441.390    85960544.310    20992440.622  
                                
  22915856.196   122670405.295    22915855.285    95410318.010    22915855.034  
                                
  19453620.511   104173309.555    19453619.224    81023700.048    19453619.028  
                                
  20119082.207   107548043.880    20119083.422    83648498.832    20119083.350  
                                
  21843505.339   116602103.622    21843508.306    90690522.966    21843508.610  
                                
  19455931.869   104076127.413    19455932.066    80948116.435    19455931.512  
                                
  21398300.223   114426346.105    21398303.671    88998280.847    21398302.349  
                                
  24164163.089   126983585.943                                                  
  24164166.199    94825445.968  
  22295973.106   117166175.031                                                  
  22295975.179    87494256.515  
  24855452.153   130616267.423                                                  
  24855452.439    97538093.577  
  23630360.730   124178398.994                                                  
  23630363.714    92730642.387  
 21  8 31 18 20  2.0000000  0 17G 5G10G13G15G18G23G29R 3R 4R 5R18R19
                                R20E 5E 9E11E36
  22589925.807   118710884.946    22589924.252    92501991.226    22589923.448  
                                
  24320863.306   127807002.604    24320865.718    99589887.763    24320865.415  
  24320864.646    95440307.651  
  21747966.232   114286367.170                    89054316.123    21747963.390  
                                
  20299489.131   106674588.038    20299487.327    83123070.170    20299486.558  
                                
  20961311.515   110152470.422    20961309.728    85833113.614    20961309.228  
  20961314.017    82256749.949  
  21604587.336   113532917.621    21604585.924    88467229.058    21604585.477  
  21604589.998    84781112.954  
  20992846.552   110318153.544    20992844.980    85962196.933    20992844.211  
                                
  22916593.651   122674352.974    22916592.739    95413388.422    22916592.489  
                                
  19453918.316   104174904.318    19453917.029    81024940.417    19453916.833  
                                
  20118647.543   107545720.313    20118648.758    83646691.613    20118648.669  
                                
  21844082.705   116605185.658    21844085.654    90692920.101    21844085.976  
                                
  19455988.335   104076429.439    19455988.514    80948351.347    19455987.960  
                                
  21397675.182   114423003.721    21397678.631    88995681.212    21397677.309  
                                
  24163807.156   126981715.581                                                  
  24163810.265    94824049.265  
  22296134.053   117167020.874                                                  
  22296136.143    87494888.147  
  24855831.602   130618261.534                                                  
  24855831.887    97539582.681  
  23630404.831   124178630.754                                                  
  23630407.833    92730815.456  
 21  8 31 18 20  3.0000000  0 17G 5G10G13G15G18G23G29R 3R 4R 5R18R19
                                R20E 5E 9E11E36
  22590442.793   118713601.670    22590441.239    92504108.152    22590440.417  
                                
  24320374.731   127804435.074    24320377.144    99587887.087    24320376.840  
  24320376.072    95438390.337  
  21748216.434   114287682.061                    89055340.713    21748213.610  
                                
  20299464.097   106674456.525    20299462.292    83122967.693    20299461.524  
                                
  20961001.362   110150840.553    20960999.575    85831843.586    20960999.075  
  20961003.864    82255532.837  
  21604267.998   113531239.457    21604266.587    88465921.395    21604266.140  
  21604270.661    84779859.777  
  20993250.249   110320275.018    20993248.677    85963850.030    20993247.926  
                                
  22917331.159   122678300.796    22917330.247    95416458.946    22917329.997  
                                
  19454216.264   104176499.784    19454214.978    81026181.335    19454214.781  
                                
  20118212.986   107543397.430    20118214.201    83644884.929    20118214.130  
                                
  21844660.161   116608268.181    21844663.109    90695317.619    21844663.431  
                                
  19456044.926   104076732.196    19456045.123    80948586.822    19456044.569  
                                
  21397050.177   114419661.599    21397053.626    88993081.787    21397052.304  
                                
  24163451.313   126979845.604                                                  
  24163454.422    94822652.862  
  22296295.088   117167867.175                                                  
  22296297.179    87495520.129  
  24856211.140   130620255.873                                                  
  24856211.425    97541071.952  
  23630448.985   124178862.802                                                  
  23630451.987    92730988.736  
 21  8 31 18 20  4.0000000  0 17G 5G10G13G15G18G23G29R 3R 4R 5R18R19
                                R20E 5E 9E11E36
  22590959.780   118716318.450    22590958.207    92506225.121    22590957.403  
                                
  24319886.157   127801867.681    24319888.569    99585886.544    24319888.283  
  24319887.515    95436473.141  
  21748466.779   114288997.548                    89056365.770    21748463.955  
                                
  20299439.187   106674325.687    20299437.383    83122865.738    20299436.614  
                                
  20960691.227   110149210.851    20960689.441    85830573.694    20960688.940  
  20960693.729    82254315.858  
  21603948.715   113529561.557    21603947.285    88464613.948    21603946.838  
  21603951.359    84778606.808  
  20993654.053   110322397.003    20993652.481    85965503.524    20993651.730  
                                
  22918068.667   122682248.715    22918067.756    95419529.561    22918067.505  
                                
  19454514.337   104178095.898    19454513.051    81027422.762    19454512.854  
                                
  20117778.572   107541075.176    20117779.787    83643078.736    20117779.698  
                                
  21845237.706   116611351.145    21845240.672    90697715.471    21845240.976  
                                
  19456101.643   104077035.581    19456101.839    80948822.788    19456101.285  
                                
  21396425.226   114416319.653    21396428.675    88990482.498    21396427.352  
                                
  24163095.540   126977975.979                                                  
  24163098.632    94821256.709  
  22296456.213   117168713.863                                                  
  22296458.286    87496152.398  
  24856590.660   130622250.341                                                  
  24856590.946    97542561.345  
  23630493.193   124179095.072                                                  
  23630496.177    92731162.192  
 21  8 31 18 20  5.0000000  0 17G 5G10G13G15G18G23G29R 3R 4R 5R18R19
                                R20E 5E 9E11E36
  22591476.784   118719035.297    22591475.212    92508342.144    22591474.408  
                                
  24319397.653   127799300.440    24319400.065    99583886.097    24319399.762  
  24319398.993    95434556.042  
  21748717.231   114290313.674                    89057391.324    21748714.408  
                                
  20299414.439   106674195.541    20299412.634    83122764.326    20299411.866  
                                
  20960381.146   110147581.361    20960379.342    85829303.958    20960378.859  
  20960383.648    82253099.036  
  21603629.467   113527883.947    21603628.055    88463306.717    21603627.590  
  21603632.129    84777354.052  
  20994057.947   110324519.530    20994056.392    85967157.442    20994055.624  
                                
  22918806.211   122686196.707    22918805.282    95422600.215    22918805.049  
                                
  19454812.518   104179692.677    19454811.231    81028664.698    19454811.035  
                                
  20117344.266   107538753.558    20117345.463    83641273.036    20117345.391  
                                
  21845815.322   116614434.511    21845818.270    90700113.647    21845818.592  
                                
  19456158.484   104077339.620    19456158.681    80949059.263    19456158.127  
                                
  21395800.293   114412977.877    21395803.724    88987883.339    21395802.401  
                                
  24162739.822   126976106.667                                                  
  24162742.913    94819860.799  
  22296617.410   117169560.945                                                  
  22296619.500    87496784.957  
  24856970.234   130624244.977                                                  
  24856970.519    97544050.841  
  23630537.437   124179327.568                                                  
  23630540.421    92731335.811  
 21  8 31 18 20  6.0000000  0 17G 5G10G13G15G18G23G29R 3R 4R 5R18R19
                                R20E 5E 9E11E36
  22591993.860   118721752.505    22591992.288    92510459.452    22591991.484  
                                
  24318909.203   127796733.628    24318911.616    99581885.982    24318911.312  
  24318910.544    95432639.264  
  21748967.862   114291630.704                    89058417.581    21748965.021  
                                
  20299389.851   106674066.369    20299388.046    83122663.673    20299387.278  
                                
  20960071.155   110145952.352    20960069.368    85828034.603    20960068.867  
  20960073.674    82251882.559  
  21603310.344   113526206.907    21603308.914    88461999.935    21603308.468  
  21603312.988    84776101.713  
  20994462.037   110326642.885    20994460.464    85968812.002    20994459.696  
                                
  22919543.791   122690145.062    22919542.879    95425671.151    22919542.629  
                                
  19455110.877   104181290.361    19455109.590    81029907.344    19455109.394  
                                
  20116910.120   107536432.863    20116911.335    83639468.046    20116911.246  
                                
  21846393.081   116617518.596    21846396.029    90702512.379    21846396.351  
                                
  19456215.486   104077644.573    19456215.683    80949296.447    19456215.129  
                                
  21395175.449   114409636.568    21395178.897    88985284.543    21395177.575  
                                
  24162384.228   126974237.975                                                  
  24162387.319    94818465.348  
  22296778.731   117170408.704                                                  
  22296780.822    87497418.022  
  24857349.897   130626240.044                                                  
  24857350.165    97545540.666  
  23630581.770   124179560.572                                                  
  23630584.772    92731509.803  
 21  8 31 18 20  7.0000000  0 17G 5G10G13G15G18G23G29R 3R 4R 5R18R19
                                R20E 5E 9E11E36
  22592510.936   118724469.825    22592509.364    92512576.844    22592508.560  
                                
  24318420.772   127794166.984    24318423.166    99579886.003    24318422.880  
  24318422.112    95430722.625  
  21749218.600   114292948.389                    89059444.346    21749215.777  
                                
  20299365.406   106673937.926    20299363.602    83122563.587    20299362.833  
                                
  20959761.198   110144323.565    20959759.412    85826765.419    20959758.911  
  20959763.718    82250666.262  
  21602991.275   113524530.193    21602989.845    88460693.409    21602989.398  
  21602993.937    84774849.621  
  20994866.198   110328766.819    20994864.626    85970467.015    20994863.876  
                                
  22920281.406   122694093.521    22920280.495    95428742.172    22920280.244  
                                
  19455409.361   104182888.706    19455408.074    81031150.501    19455407.878  
                                
  20116476.117   107534112.836    20116477.314    83637663.583    20116477.243  
                                
  21846970.911   116620603.133    21846973.860    90704911.464    21846974.181  
                                
  19456272.631   104077950.204    19456272.828    80949534.162    19456272.274  
                                
  21394550.640   114406295.473    21394554.089    88982685.916    21394552.767  
                                
  24162028.688   126972369.659                                                  
  24162031.797    94817070.174  
  22296940.142   117171256.891                                                  
  22296942.215    87498051.409  
  24857729.596   130628235.363                                                  
  24857729.881    97547030.653  
  23630626.156   124179793.846                                                  
  23630629.158    92731684.001  
 21  8 31 18 20  8.0000000  0 17G 5G10G13G15G18G23G29R 3R 4R 5R18R19
                                R20E 5E 9E11E36
  22593028.030   118727187.133    22593026.457    92514694.229    22593025.653  
                                
  24317932.393   127791600.451    24317934.806    99577886.112    24317934.520  
  24317933.733    95428806.045  
  21749469.445   114294266.640                    89060471.559    21749466.622  
                                
  20299341.069   106673810.086    20299339.264    83122463.974    20299338.496  
                                
  20959451.278   110142694.897    20959449.491    85825496.333    20959448.991  
  20959453.798    82249450.051  
  21602672.241   113522853.684    21602670.829    88459387.042    21602670.365  
  21602674.903    84773597.687  
  20995270.449   110330891.204    20995268.877    85972122.385    20995268.126  
                                
  22921019.003   122698041.980    22921018.092    95431813.196    22921017.842  
                                
  19455707.952   104184487.614    19455706.666    81032394.096    19455706.469  
                                
  20116042.204   107531793.353    20116043.401    83635859.547    20116043.329  
                                
  21847548.831   116623688.014    21847551.780    90707310.815    21847552.084  
                                
  19456329.866   104078256.409    19456330.062    80949772.324    19456329.508  
                                
  21393925.868   114402954.459    21393929.317    88980087.351    21393927.994  
                                
  24161673.220   126970501.592                                                  
  24161676.311    94815675.191  
  22297101.589   117172105.393                                                  
  22297103.679    87498685.030  
  24858109.294   130630230.729                                                  
  24858109.580    97548520.708  
  23630670.579   124180027.273                                                  
  23630673.581    92731858.314  
 21  8 31 18 20  9.0000000  0 17G 5G10G13G15G18G23G29R 3R 4R 5R18R19
                                R20E 5E 9E11E36
  22593545.070   118729904.300    22593543.516    92516811.498    22593542.711  
                                
  24317443.979   127789033.797    24317446.374    99575886.131    24317446.088  
  24317445.302    95426889.403  
  21749720.380   114295585.317                    89061499.102    21749717.557  
                                
  20299316.856   106673682.764    20299315.051    83122364.764    20299314.283  
                                
  20959141.358   110141066.237    20959139.571    85824227.243    20959139.071  
  20959143.877    82248233.837  
  21602353.225   113521177.260    21602351.796    88458080.738    21602351.349  
  21602355.870    84772345.807  
  20995674.772   110333015.947    20995673.199    85973778.026    20995672.449  
                                
  22921756.583   122701990.317    22921755.672    95434884.131    22921755.422  
                                
  19456006.615   104186086.993    19456005.329    81033638.060    19456005.132  
                                
  20115608.379   107529474.323    20115609.577    83634055.855    20115609.505  
                                
  21848126.769   116626773.136    21848129.735    90709710.350    21848130.039  
                                
  19456387.190   104078563.062    19456387.386    80950010.829    19456386.832  
                                
  21393301.078   114399613.519    21393304.526    88977488.841    21393303.186  
                                
  24161317.751   126968633.690                                                  
  24161320.843    94814280.331  
  22297263.107   117172954.109                                                  
  22297265.197    87499318.811  
  24858489.011   130632226.119                                                  
  24858489.297    97550010.754  
  23630715.001   124180260.746                                                  
  23630718.003    92732032.654  
 21  8 31 18 20 10.0000000  0 17G 5G10G13G15G18G23G29R 3R 4R 5R18R19
                                R20E 5E 9E11E36
  22594062.092   118732621.177    22594060.538    92518928.540    22594059.716  
                                
  24316955.530   127786466.988    24316957.924    99573886.016    24316957.638  
  24316956.870    95424972.639  
  21749971.368   114296904.272                    89062526.859    21749968.545  
                                
  20299292.679   106673555.769    20299290.875    83122265.801    20299290.124  
                                
  20958831.420   110139437.418    20958829.633    85822958.032    20958829.132  
  20958833.921    82247017.511  
  21602034.192   113519500.771    21602032.780    88456774.381    21602032.316  
  21602036.854    84771093.888  
  20996079.130   110335140.869    20996077.557    85975433.805    20996076.789  
                                
  22922494.127   122705938.361    22922493.216    95437954.832    22922492.966  
                                
  19456305.332   104187686.621    19456304.045    81034882.215    19456303.848  
                                
  20115174.609   107527155.574    20115175.806    83632252.381    20115175.735  
                                
  21848704.725   116629858.279    21848707.673    90712109.899    21848707.977  
                                
  19456444.567   104078869.998    19456444.764    80950249.557    19456444.210  
                                
  21392676.251   114396272.281    21392679.682    88974890.102    21392678.360  
                                
  24160962.283   126966765.755                                                  
  24160965.392    94812885.447  
  22297424.625   117173802.857                                                  
  22297426.716    87499952.615  
  24858868.674   130634221.250                                                  
  24858868.942    97551500.630  
  23630759.406   124180494.082                                                  
  23630762.408    92732206.900  
 21  8 31 18 20 11.0000000  0 17G 5G10G13G15G18G23G29R 3R 4R 5R18R19
                                R20E 5E 9E11E36
  22594579.097   118735337.986    22594577.524    92521045.529    22594576.720  
                                
  24316467.098   127783900.206    24316469.492    99571885.921    24316469.188  
  24316468.420    95423055.879  
  21750222.446   114298223.703                    89063554.985    21750219.623  
                                
  20299268.610   106673429.333    20299266.805    83122167.283    20299266.055  
                                
  20958521.463   110137808.656    20958519.677    85821688.864    20958519.194  
  20958523.983    82245801.232  
  21601715.212   113517824.438    21601713.782    88455468.143    21601713.336  
  21601717.856    84769842.081  
  20996483.577   110337266.205    20996482.005    85977089.909    20996481.254  
                                
  22923231.635   122709886.342    22923230.724    95441025.481    22923230.474  
                                
  19456604.155   104189286.764    19456602.869    81036126.768    19456602.672  
                                
  20114740.928   107524837.318    20114742.125    83630449.293    20114742.053  
                                
  21849282.734   116632943.681    21849285.683    90714509.651    21849285.986  
                                
  19456502.052   104079177.452    19456502.248    80950488.690    19456501.676  
                                
  21392051.443   114392931.097    21392054.874    88972291.399    21392053.552  
                                
  24160606.886   126964898.016                                                  
  24160609.977    94811490.703  
  22297586.179   117174651.863                                                  
  22297588.269    87500586.611  
  24859248.355   130636216.423                                                  
  24859248.641    97552990.516  
  23630803.828   124180727.509                                                  
  23630806.830    92732381.210  
 21  8 31 18 20 12.0000000  0 17G 5G10G13G15G18G23G29R 3R 4R 5R18R19
                                R20E 5E 9E11E36
  22595096.119   118738055.059    22595094.565    92523162.734    22595093.761  
                                
  24315978.702   127781333.746    24315981.096    99569886.089    24315980.792  
  24315980.024    95421139.380  
  21750473.684   114299543.982                    89064583.773    21750470.861  
                                
  20299244.737   106673303.791    20299242.932    83122069.456    20299242.181  
                                
  20958211.597   110136180.298    20958209.810    85820420.013    20958209.310  
  20958214.098    82244585.246  
  21601396.303   113516148.592    21601394.874    88454162.291    21601394.427  
  21601398.966    84768590.636  
  20996888.150   110339392.271    20996886.577    85978746.587    20996885.827  
                                
  22923969.215   122713834.627    22923968.304    95444096.366    22923968.053  
                                
  19456903.122   104190887.761    19456901.835    81037371.988    19456901.639  
                                
  20114307.407   107522519.885    20114308.605    83628646.845    20114308.533  
                                
  21849860.851   116636029.703    21849863.799    90716909.888    21849864.121  
                                
  19456559.679   104079485.750    19456559.876    80950728.478    19456559.322  
                                
  21391426.689   114389590.316    21391430.137    88969693.018    21391428.815  
                                
  24160251.560   126963030.824                                                  
  24160254.669    94810096.371  
  22297747.840   117175501.460                                                  
  22297749.930    87501221.056  
  24859628.072   130638211.951                                                  
  24859628.358    97554480.689  
  23630848.322   124180961.372                                                  
  23630851.324    92732555.851  
 21  8 31 18 20 13.0000000  0 17G 5G10G13G15G18G23G29R 3R 4R 5R18R19
                                R20E 5E 9E11E36
  22595613.213   118740772.367    22595611.658    92525280.112    22595610.854  
                                
  24315490.395   127778767.629    24315492.789    99567886.525    24315492.485  
  24315491.717    95419223.127  
  21750725.084   114300865.038                    89065613.168    21750722.260  
                                
  20299221.007   106673179.101    20299219.202    83121972.295    20299218.451  
                                
  20957901.802   110134552.301    20957900.015    85819151.445    20957899.514  
  20957904.303    82243369.537  
  21601077.484   113514473.207    21601076.055    88452856.794    21601075.608  
  21601080.129    84767339.539  
  20997292.865   110341519.051    20997291.293    85980403.813    20997290.525  
                                
  22924706.830   122717783.116    22924705.901    95447167.410    22924705.651  
                                
  19457202.231   104192489.548    19457200.945    81038617.820    19457200.748  
                                
  20113874.030   107520203.249    20113875.227    83626845.017    20113875.156  
                                
  21850439.074   116639116.333    21850442.023    90719310.596    21850442.327  
                                
  19456617.450   104079794.888    19456617.646    80950968.916    19456617.092  
                                
  21390802.023   114386249.911    21390805.472    88967094.921    21390804.150  
                                
  24159896.342   126961164.124                                                  
  24159899.451    94808702.411  
  22297909.626   117176351.634                                                  
  22297911.717    87501855.931  
  24860007.878   130640207.804                                                  
  24860008.146    97555971.110  
  23630892.905   124181195.632                                                  
  23630895.907    92732730.783  
 21  8 31 18 20 14.0000000  0 17G 5G10G13G15G18G23G29R 3R 4R 5R18R19
                                R20E 5E 9E11E36
  22596130.378   118743490.075    22596128.824    92527397.804    22596128.002  
                                
  24315002.159   127776202.012    24315004.554    99565887.354    24315004.268  
  24315003.482    95417307.250  
  21750976.662   114302187.069                    89066643.310    21750973.820  
                                
  20299197.473   106673055.458    20299195.668    83121875.947    20299194.918  
                                
  20957592.096   110132924.836    20957590.327    85817883.287    20957589.826  
  20957594.615    82242154.217  
  21600758.790   113512798.438    21600757.361    88451551.779    21600756.914  
  21600761.435    84766088.899  
  20997697.760   110343646.705    20997696.187    85982061.723    20997695.437  
                                
  22925444.535   122721732.009    22925443.606    95450238.776    22925443.356  
                                
  19457501.555   104194092.283    19457500.269    81039864.394    19457500.072  
                                
  20113440.831   107517887.569    20113442.046    83625043.935    20113441.957  
                                
  21851017.441   116642203.724    21851020.407    90721711.907    21851020.711  
                                
  19456675.435   104080105.018    19456675.631    80951210.126    19456675.077  
                                
  21390177.447   114382909.996    21390180.878    88964497.218    21390179.556  
                                
  24159541.249   126959298.123                                                  
  24159544.358    94807308.965  
  22298071.555   117177202.533                                                  
  22298073.646    87502491.338  
  24860387.791   130642204.215                                                  
  24860388.077    97557461.923  
  23630937.596   124181430.467                                                  
  23630940.598    92732906.145  
 21  8 31 18 20 15.0000000  0 17G 5G10G13G15G18G23G29R 3R 4R 5R18R19
                                R20E 5E 9E11E36
  22596647.579   118746207.981    22596646.025    92529515.653    22596645.221  
                                
  24314513.996   127773636.664    24314516.390    99563888.388    24314516.104  
  24314515.318    95415391.562  
  21751228.365   114303509.862                    89067674.058    21751225.541  
                                
  20299174.101   106672932.625    20299172.296    83121780.233    20299171.527  
                                
  20957282.479   110131297.702    20957280.692    85816615.388    20957280.192  
  20957284.999    82240939.147  
  21600440.186   113511124.092    21600438.756    88450247.096    21600438.309  
  21600442.830    84764838.574  
  20998102.761   110345775.020    20998101.189    85983720.145    20998100.438  
                                
  22926182.258   122725681.135    22926181.328    95453310.316    22926181.078  
                                
  19457800.987   104195695.793    19457799.700    81041111.568    19457799.521  
                                
  20113007.775   107515572.658    20113008.991    83623243.451    20113008.901  
                                
  21851595.933   116645291.710    21851598.881    90724113.669    21851599.203  
                                
  19456733.563   104080415.925    19456733.759    80951451.942    19456733.205  
                                
  21389552.925   114379570.433    21389556.356    88961899.778    21389555.033  
                                
  24159186.245   126957432.562                                                  
  24159189.354    94805915.862  
  22298233.573   117178053.954                                                  
  22298235.664    87503127.137  
  24860767.740   130644200.887                                                  
  24860768.008    97558952.945  
  23630982.340   124181665.652                                                  
  23630985.342    92733081.770  
 21  8 31 18 20 16.0000000  0 17G 5G10G13G15G18G23G29R 3R 4R 5R18R19
                                R20E 5E 9E11E36
  22597164.816   118748926.082    22597163.244    92531633.654    22597162.439  
                                
  24314025.885   127771071.592    24314028.262    99561889.633    24314027.976  
  24314027.208    95413476.097  
  21751480.229   114304833.404                    89068705.392    21751477.405  
                                
  20299150.889   106672810.613    20299149.084    83121685.160    20299148.333  
                                
  20956972.880   110129670.881    20956971.093    85815347.741    20956970.611  
  20956975.400    82239724.320  
  21600121.617   113509450.147    21600120.187    88448942.719    21600119.740  
  21600124.261    84763588.557  
  20998507.888   110347904.000    20998506.315    85985379.091    20998505.547  
                                
  22926920.016   122729630.476    22926919.087    95456382.028    22926918.837  
                                
  19458100.579   104197300.094    19458099.292    81042359.361    19458099.096  
                                
  20112574.880   107513258.509    20112576.078    83621443.553    20112575.988  
                                
  21852174.532   116648380.245    21852177.480    90726515.861    21852177.784  
                                
  19456791.834   104080727.587    19456792.030    80951694.346    19456791.476  
                                
  21388928.474   114376231.190    21388931.905    88959302.596    21388930.600  
                                
  24158831.330   126955567.477                                                  
  24158834.439    94804523.097  
  22298395.699   117178905.901                                                  
  22298397.790    87503763.329  
  24861147.743   130646197.855                                                  
  24861148.029    97560444.192  
  23631027.191   124181901.197                                                  
  23631030.175    92733257.668  
 21  8 31 18 20 17.0000000  0 17G 5G10G13G15G18G23G29R 3R 4R 5R18R19
                                R20E 5E 9E11E36
  22597682.088   118751644.332    22597680.534    92533751.770    22597679.730  
                                
  24313537.811   127768506.749    24313540.187    99559891.054    24313539.902  
  24313539.115    95411560.801  
  21751732.235   114306157.653                    89069737.270    21751729.412  
                                
  20299127.820   106672689.394    20299126.015    83121590.699    20299125.264  
                                
  20956663.371   110128044.349    20956661.584    85814080.313    20956661.084  
  20956665.891    82238509.706  
  21599803.173   113507776.593    21599801.743    88447638.651    21599801.297  
  21599805.817    84762338.816  
  20998913.121   110350033.608    20998911.567    85987038.524    20998910.798  
                                
  22927657.828   122733579.984    22927656.899    95459453.868    22927656.649  
                                
  19458400.314   104198905.147    19458399.027    81043607.730    19458398.831  
                                
  20112142.111   107510945.073    20112143.308    83619644.214    20112143.218  
                                
  21852753.220   116651469.302    21852756.168    90728918.458    21852756.472  
                                
  19456850.212   104081039.990    19456850.408    80951937.328    19456849.854  
                                
  21388304.059   114372892.194    21388307.490    88956705.602    21388306.185  
                                
  24158476.487   126953702.820                                                  
  24158479.596    94803130.658  
  22298557.896   117179758.332                                                  
  22298560.005    87504399.885  
  24861527.817   130648195.076                                                  
  24861528.103    97561935.607  
  23631072.060   124182137.062                                                  
  23631075.062    92733433.801  
 21  8 31 18 20 18.0000000  0 17G 5G10G13G15G18G23G29R 3R 4R 5R18R19
                                R20E 5E 9E11E36
  22598199.343   118754362.555    22598197.788    92535869.864    22598196.984  
                                
  24313049.754   127765941.986    24313052.131    99557892.542    24313051.845  
  24313051.059    95409645.551  
  21751984.332   114307482.448                    89070769.575    21751981.508  
                                
  20299104.858   106672568.768    20299103.053    83121496.704    20299102.303  
                                
  20956353.880   110126417.925    20956352.093    85812812.970    20956351.592  
  20956356.399    82237295.167  
  21599484.747   113506103.224    21599483.317    88446334.725    21599482.871  
  21599487.391    84761089.224  
  20999318.480   110352163.660    20999316.908    85988698.304    20999316.157  
                                
  22928395.622   122737529.451    22928394.693    95462525.670    22928394.443  
                                
  19458700.156   104200510.713    19458698.869    81044856.509    19458698.673  
                                
  20111709.430   107508632.175    20111710.627    83617845.295    20111710.556  
                                
  21853331.944   116654558.662    21853334.892    90731321.292    21853335.196  
                                
  19456908.715   104081352.954    19456908.911    80952180.745    19456908.358  
                                
  21387679.662   114369553.291    21387683.092    88954108.677    21387681.770  
                                
  24158121.698   126951838.392                                                  
  24158124.807    94801738.394  
  22298720.165   117180611.062                                                  
  22298722.273    87505036.668  
  24861907.909   130650192.356                                                  
  24861908.195    97563427.069  
  23631116.965   124182373.068                                                  
  23631119.967    92733610.039  
 21  8 31 18 20 19.0000000  0 17G 5G10G13G15G18G23G29R 3R 4R 5R18R19
                                R20E 5E 9E11E36
  22598716.633   118757080.955    22598715.079    92537988.096    22598714.275  
                                
  24312561.733   127763377.477    24312564.110    99555894.212    24312563.824  
  24312563.038    95407730.479  
  21752236.571   114308807.962                    89071802.443    21752233.747  
                                
  20299082.057   106672448.951    20299080.252    83121403.345    20299079.502  
                                
  20956044.442   110124791.824    20956042.655    85811545.876    20956042.154  
  20956046.961    82236080.866  
  21599166.392   113504430.268    21599164.963    88445031.128    21599164.516  
  21599169.037    84759839.937  
  20999723.928   110354294.378    20999722.374    85990358.599    20999721.605  
                                
  22929133.470   122741479.132    22929132.541    95465597.636    22929132.290  
                                
  19459000.123   104202117.042    19458998.837    81046105.876    19458998.640  
                                
  20111276.893   107506320.040    20111278.108    83616046.978    20111278.018  
                                
  21853910.775   116657648.557    21853913.742    90733724.557    21853914.045  
                                
  19456967.379   104081666.701    19456967.575    80952424.773    19456967.004  
                                
  21387055.336   114366214.666    21387058.767    88951511.962    21387057.444  
                                
  24157766.998   126949974.430                                                  
  24157770.107    94800346.468  
  22298882.541   117181464.312                                                  
  22298884.631    87505673.833  
  24862288.001   130652189.864                                                  
  24862288.269    97564918.741  
  23631161.941   124182609.429                                                  
  23631164.943    92733786.525  
 21  8 31 18 20 20.0000000  0 17G 5G10G13G15G18G23G29R 3R 4R 5R18R19
                                R20E 5E 9E11E36
  22599233.924   118759799.311    22599232.369    92540106.297    22599231.565  
                                
  24312073.730   127760813.010    24312076.107    99553895.935    24312075.821  
  24312075.035    95405815.457  
  21752488.917   114310134.019                    89072835.736    21752486.094  
                                
  20299059.364   106672329.719    20299057.559    83121310.441    20299056.808  
                                
  20955735.004   110123165.796    20955733.217    85810278.843    20955732.734  
  20955737.523    82234866.623  
  21598848.073   113502757.472    21598846.644    88443727.652    21598846.197  
  21598850.718    84758590.771  
  21000129.483   110356425.509    21000127.911    85992019.226    21000127.160  
                                
  22929871.282   122745428.766    22929870.370    95468669.576    22929870.120  
                                
  19459300.198   104203723.901    19459298.911    81047355.657    19459298.715  
                                
  20110844.462   107504008.431    20110845.659    83614249.064    20110845.588  
                                
  21854489.678   116660738.737    21854492.626    90736128.031    21854492.948  
                                
  19457026.114   104081980.956    19457026.311    80952669.196    19457025.757  
                                
  21386431.010   114362876.103    21386434.441    88948915.304    21386433.119  
                                
  24157412.351   126948110.685                                                  
  24157415.442    94798954.709  
  22299044.952   117182317.831                                                  
  22299047.061    87506311.201  
  24862668.129   130654187.458                                                  
  24862668.415    97566410.457  
  23631206.935   124182845.887                                                  
  23631209.937    92733963.105  
 21  8 31 18 20 21.0000000  0 17G 5G10G13G15G18G23G29R 3R 4R 5R18R19
                                R20E 5E 9E11E36
  22599751.232   118762517.839    22599749.677    92542224.638    22599748.873  
                                
  24311585.781   127758248.801    24311588.158    99551897.853    24311587.872  
  24311587.085    95403900.636  
  21752741.389   114311460.821                    89073869.608    21752738.565  
                                
  20299036.831   106672211.296    20299035.044    83121218.162    20299034.275  
                                
  20955425.655   110121540.085    20955423.868    85809012.060    20955423.368  
  20955428.175    82233652.618  
  21598529.826   113501085.085    21598528.397    88442424.496    21598527.950  
  21598532.453    84757341.911  
  21000535.146   110358557.295    21000533.574    85993680.357    21000532.805  
                                
  22930609.147   122749378.589    22930608.218    95471741.657    22930607.986  
                                
  19459600.397   104205331.507    19459599.111    81048606.017    19459598.914  
                                
  20110412.175   107501697.590    20110413.372    83612451.745    20110413.301  
                                
  21855068.670   116663829.457    21855071.636    90738531.924    21855071.940  
                                
  19457085.011   104082295.988    19457085.207    80952914.221    19457084.653  
                                
  21385806.720   114359537.833    21385810.151    88946318.870    21385808.829  
                                
  24157057.776   126946247.399                                                  
  24157060.885    94797563.294  
  22299207.471   117183171.870                                                  
  22299209.579    87506948.958  
  24863048.328   130656185.365                                                  
  24863048.614    97567902.388  
  23631252.001   124183082.706                                                  
  23631255.003    92734139.950  
 21  8 31 18 20 22.0000000  0 17G 5G10G13G15G18G23G29R 3R 4R 5R18R19
                                R20E 5E 9E11E36
  22600268.576   118765236.441    22600267.021    92544343.029    22600266.217  
                                
  24311097.849   127755684.747    24311100.226    99549899.889    24311099.940  
  24311099.154    95401985.923  
  21752994.003   114312788.239                    89074903.955    21752991.180  
                                
  20299014.441   106672093.578    20299012.636    83121126.426    20299011.886  
                                
  20955116.325   110119914.571    20955114.556    85807745.421    20955114.055  
  20955118.844    82232438.760  
  21598211.650   113499412.987    21598210.221    88441121.558    21598209.756  
  21598214.277    84756093.264  
  21000940.898   110360689.629    21000939.343    85995341.912    21000938.575  
                                
  22931347.031   122753328.504    22931346.101    95474813.813    22931345.851  
                                
  19459900.722   104206939.750    19459899.435    81049856.870    19459899.257  
                                
  20109979.995   107499387.413    20109981.192    83610654.939    20109981.120  
                                
  21855647.752   116666920.609    21855650.718    90740936.149    21855651.022  
                                
  19457144.014   104082611.662    19457144.229    80953159.745    19457143.657  
                                
  21385182.501   114356199.746    21385185.932    88943722.584    21385184.610  
                                
  24156703.273   126944384.455                                                  
  24156706.382    94796172.137  
  22299370.061   117184026.311                                                  
  22299372.170    87507587.014  
  24863428.545   130658183.399                                                  
  24863428.813    97569394.435  
  23631297.102   124183319.756                                                  
  23631300.104    92734316.969  
 21  8 31 18 20 23.0000000  0 17G 5G10G13G15G18G23G29R 3R 4R 5R18R19
                                R20E 5E 9E11E36
  22600785.920   118767955.137    22600784.365    92546461.480    22600783.561  
                                
  24310609.971   127753120.896    24310612.348    99547902.076    24310612.062  
  24310611.276    95400071.350  
  21753246.724   114314116.318                    89075938.817    21753243.901  
                                
  20298992.176   106671976.561    20298990.371    83121035.242    20298989.603  
                                
  20954807.030   110118289.277    20954805.243    85806478.954    20954804.742  
  20954809.549    82231225.073  
  21597893.492   113497741.187    21597892.063    88439818.852    21597891.616  
  21597896.137    84754844.849  
  21001346.793   110362822.524    21001345.238    85997003.901    21001344.470  
                                
  22932084.950   122757278.529    22932084.021    95477886.044    22932083.770  
                                
  19460201.190   104208548.642    19460199.903    81051108.226    19460199.706  
                                
  20109547.975   107497077.894    20109549.172    83608858.642    20109549.083  
                                
  21856226.940   116670012.226    21856229.906    90743340.731    21856230.210  
                                
  19457203.161   104082928.014    19457203.357    80953405.789    19457202.803  
                                
  21384558.301   114352861.867    21384561.732    88941126.447    21384560.409  
                                
  24156348.840   126942521.867                                                  
  24156351.932    94794781.247  
  22299532.741   117184881.169                                                  
  22299534.849    87508225.378  
  24863808.816   130660181.664                                                  
  24863809.084    97570886.638  
  23631342.293   124183557.065                                                  
  23631345.277    92734494.175  
 21  8 31 18 20 24.0000000  0 17G 5G10G13G15G18G23G29R 3R 4R 5R18R19
                                R20E 5E 9E11E36
  22601303.264   118770673.787    22601301.709    92548579.915    22601300.905  
                                
  24310122.076   127750557.036    24310124.434    99545904.254    24310124.148  
  24310123.380    95398156.786  
  21753499.553   114315444.910                    89076974.088    21753496.730  
                                
  20298970.018   106671860.145    20298968.214    83120944.528    20298967.463  
                                
  20954497.771   110116664.077    20954495.984    85805212.568    20954495.501  
  20954500.290    82230011.449  
  21597575.406   113496069.597    21597573.976    88438516.318    21597573.530  
  21597578.033    84753596.581  
  21001752.741   110364955.851    21001751.187    85998666.231    21001750.418  
                                
  22932822.833   122761228.519    22932821.904    95480958.272    22932821.654  
                                
  19460501.729   104210158.072    19460500.442    81052360.012    19460500.263  
                                
  20109116.027   107494768.888    20109117.225    83607062.750    20109117.153  
                                
  21856806.165   116673104.165    21856809.131    90745745.577    21856809.435  
                                
  19457262.396   104083244.921    19457262.611    80953652.275    19457262.039  
                                
  21383934.118   114349524.096    21383937.549    88938530.414    21383936.226  
                                
  24155994.444   126940659.511                                                  
  24155997.535    94793390.529  
  22299695.456   117185736.320                                                  
  22299697.565    87508863.969  
  24864189.069   130662179.959                                                  
  24864189.337    97572378.871  
  23631387.466   124183794.483                                                  
  23631390.450    92734671.476  
 21  8 31 18 20 25.0000000  0 17G 5G10G13G15G18G23G29R 3R 4R 5R18R19
                                R20E 5E 9E11E36
  22601820.608   118773392.403    22601819.053    92550698.317    22601818.249  
                                
  24309634.216   127747993.271    24309636.574    99543906.521    24309636.288  
  24309635.520    95396242.277  
  21753752.471   114316774.021                    89078009.766    21753749.648  
                                
  20298947.968   106671744.320    20298946.163    83120854.275    20298945.413  
                                
  20954188.529   110115038.982    20954186.742    85803946.261    20954186.260  
  20954191.049    82228797.904  
  21597257.355   113494398.170    21597255.908    88437213.913    21597255.461  
  21597259.982    84752348.444  
  21002158.797   110367089.615    21002157.242    86000328.909    21002156.474  
                                
  22933560.699   122765178.461    22933559.770    95484030.449    22933559.537  
                                
  19460802.393   104211768.076    19460801.106    81053612.240    19460800.910  
                                
  20108684.187   107492460.392    20108685.384    83605267.252    20108685.295  
                                
  21857385.443   116676196.417    21857388.409    90748150.662    21857388.713  
                                
  19457321.740   104083562.378    19457321.954    80953899.191    19457321.382  
                                
  21383309.953   114346186.369    21383313.384    88935934.411    21383312.061  
                                
  24155640.084   126938797.406                                                  
  24155643.175    94791999.992  
  22299858.261   117186591.770                                                  
  22299860.351    87509502.777  
  24864569.357   130664178.342                                                  
  24864569.643    97573871.150  
  23631432.657   124184032.050                                                  
  23631435.659    92734848.883  
 21  8 31 18 20 26.0000000  0 17G 5G10G13G15G18G23G29R 3R 4R 5R18R19
                                R20E 5E 9E11E36
  22602337.952   118776111.099    22602336.397    92552816.784    22602335.593  
                                
  24309146.373   127745429.666    24309148.732    99541908.909    24309148.446  
  24309147.678    95394327.899  
  21754005.515   114318103.804                    89079045.961    21754002.691  
                                
  20298926.078   106671629.213    20298924.274    83120764.583    20298923.523  
                                
  20953879.324   110113414.096    20953877.537    85802680.118    20953877.036  
  20953881.843    82227584.515  
  21596939.340   113492727.060    21596937.911    88435911.756    21596937.464  
  21596941.985    84751100.535  
  21002564.942   110369223.942    21002563.369    86001992.021    21002562.619  
                                
  22934298.600   122769128.498    22934297.671    95487102.705    22934297.421  
                                
  19461103.146   104213378.738    19461101.878    81054864.975    19461101.681  
                                
  20108252.453   107490152.568    20108253.650    83603472.280    20108253.579  
                                
  21857964.810   116679289.090    21857967.758    90750556.076    21857968.080  
                                
  19457381.225   104083880.513    19457381.422    80954146.629    19457380.868  
                                
  21382685.806   114342848.840    21382689.237    88933338.558    21382687.914  
                                
  24155285.794   126936935.643                                                  
  24155288.904    94790609.712  
  22300021.119   117187447.623                                                  
  22300023.210    87510141.894  
  24864949.664   130666176.871                                                  
  24864949.949    97575363.563  
  23631477.919   124184269.854                                                  
  23631480.903    92735026.462  
 21  8 31 18 20 27.0000000  0 17G 5G10G13G15G18G23G29R 3R 4R 5R18R19
                                R20E 5E 9E11E36
  22602855.331   118778829.919    22602853.777    92554935.342    22602852.973  
                                
  24308658.585   127742866.281    24308660.944    99539911.462    24308660.640  
  24308659.871    95392413.688  
  21754258.701   114319434.278                    89080082.694    21754255.878  
                                
  20298904.314   106671514.861    20298902.509    83120675.478    20298901.759  
                                
  20953570.172   110111789.474    20953568.385    85801414.179    20953567.884  
  20953572.691    82226371.326  
  21596621.397   113491056.291    21596619.967    88434609.858    21596619.520  
  21596624.023    84749852.889  
  21002971.212   110371358.867    21002969.640    86003655.599    21002968.889  
                                
  22935036.537   122773078.646    22935035.590    95490175.049    22935035.358  
                                
  19461404.061   104214990.088    19461402.774    81056118.249    19461402.596  
                                
  20107820.845   107487845.458    20107822.042    83601677.858    20107821.971  
                                
  21858544.249   116682382.227    21858547.215    90752961.845    21858547.519  
                                
  19457440.819   104084199.377    19457441.015    80954394.632    19457440.461  
                                
  21382061.712   114339511.561    21382065.143    88930742.901    21382063.821  
                                
  24154931.595   126935074.290                                                  
  24154934.704    94789219.743  
  22300184.067   117188303.947                                                  
  22300186.175    87510781.353  
  24865330.024   130668175.650                                                  
  24865330.310    97576856.151  
  23631523.235   124184507.976                                                  
  23631526.237    92735204.273  
 21  8 31 18 20 28.0000000  0 17G 5G10G13G15G18G23G29R 3R 4R 5R18R19
                                R20E 5E 9E11E36
  22603372.711   118781548.817    22603371.157    92557053.965    22603370.352  
                                
  24308170.814   127740303.064    24308173.173    99537914.152    24308172.887  
  24308172.119    95390499.592  
  21754511.994   114320765.379                    89081119.917    21754509.189  
                                
  20298882.692   106671401.224    20298880.888    83120586.927    20298880.137  
                                
  20953261.055   110110165.069    20953259.269    85800148.409    20953258.786  
  20953263.575    82225158.294  
  21596303.542   113489385.839    21596302.095    88433308.205    21596301.648  
  21596306.169    84748605.467  
  21003377.572   110373494.345    21003375.999    86005319.605    21003375.249  
                                
  22935774.474   122777028.902    22935773.527    95493247.470    22935773.295  
                                
  19461705.100   104216602.074    19461703.814    81057372.016    19461703.617  
                                
  20107389.379   107485538.989    20107390.577    83599883.935    20107390.505  
                                
  21859123.777   116685475.806    21859126.743    90755367.961    21859127.065  
                                
  19457500.573   104084518.914    19457500.769    80954643.158    19457500.215  
                                
  21381437.655   114336174.486    21381441.085    88928147.398    21381439.763  
                                
  24154577.466   126933213.280                                                  
  24154580.558    94787830.023  
  22300347.104   117189160.674                                                  
  22300349.212    87511421.119  
  24865710.402   130670174.603                                                  
  24865710.687    97578348.884  
  23631568.586   124184746.318                                                  
  23631571.571    92735382.263  
 21  8 31 18 20 29.0000000  0 17G 5G10G13G15G18G23G29R 3R 4R 5R18R19
                                R20E 5E 9E11E36
  22603890.198   118784268.103    22603888.643    92559172.880    22603887.839  
                                
  24307683.133   127737740.314    24307685.491    99535917.215    24307685.206  
  24307684.437    95388585.859  
  21754765.484   114322097.483                    89082157.912    21754762.661  
                                
  20298861.250   106671288.600    20298859.463    83120499.166    20298858.694  
                                
  20952952.046   110108541.195    20952950.260    85798883.052    20952949.759  
  20952954.566    82223945.654  
  21595985.760   113487715.979    21595984.330    88432007.013    21595983.884  
  21595988.404    84747358.494  
  21003784.110   110375630.705    21003782.555    86006984.297    21003781.787  
                                
  22936512.483   122780979.582    22936511.554    95496320.212    22936511.303  
                                
  19462006.300   104218215.027    19462005.014    81058626.533    19462004.835  
                                
  20106958.093   107483233.478    20106959.290    83598090.770    20106959.200  
                                
  21859703.484   116688570.162    21859706.432    90757774.681    21859706.754  
                                
  19457560.488   104084839.409    19457560.684    80954892.432    19457560.130  
                                
  21380813.722   114332837.942    21380817.135    88925552.306    21380815.830  
                                
  24154223.445   126931352.946                                                  
  24154226.554    94786440.819  
  22300510.266   117190018.126                                                  
  22300512.374    87512061.417  
  24866090.887   130672174.080                                                  
  24866091.173    97579841.998  
  23631614.045   124184985.241                                                  
  23631617.047    92735560.675  
 21  8 31 18 20 30.0000000  0 17G 5G10G13G15G18G23G29R 3R 4R 5R18R19
                                R20E 5E 9E11E36
  22604407.596   118786987.137    22604406.041    92561291.605    22604405.237  
                                
  24307195.433   127735177.407    24307197.792    99533920.155    24307197.506  
  24307196.720    95386672.000  
  21755019.028   114323429.840                    89083196.108    21755016.204  
                                
  20298839.878   106671176.351    20298838.091    83120411.702    20298837.323  
                                
  20952643.002   110106917.186    20952641.215    85797617.586    20952640.732  
  20952645.521    82222732.922  
  21595667.995   113486046.105    21595666.565    88430705.814    21595666.119  
  21595670.640    84746111.505  
  21004190.684   110377767.268    21004189.111    86008649.149    21004188.361  
                                
  22937250.456   122784929.990    22937249.526    95499392.752    22937249.276  
                                
  19462307.572   104219828.296    19462306.286    81059881.298    19462306.107  
                                
  20106526.842   107480928.266    20106528.039    83596297.832    20106527.949  
                                
  21860283.173   116691664.611    21860286.121    90760181.470    21860286.443  
                                
  19457620.456   104085160.229    19457620.653    80955141.964    19457620.099  
                                
  21380189.736   114329501.246    21380193.149    88922957.098    21380191.844  
                                
  24153869.442   126929492.628                                                  
  24153872.551    94785051.623  
  22300673.446   117190875.654                                                  
  22300675.554    87512701.779  
  24866471.372   130674173.375                                                  
  24866471.640    97581334.974  
  23631659.486   124185224.061                                                  
  23631662.488    92735739.016  
 21  8 31 18 20 31.0000000  0 17G 5G10G13G15G18G23G29R 3R 4R 5R18R19
                                R20E 5E 9E11E36
  22604925.065   118789706.405    22604923.510    92563410.513    22604922.706  
                                
  24306707.788   127732614.815    24306710.147    99531923.336    24306709.861  
  24306709.074    95384758.376  
  21755272.714   114324762.992                    89084234.927    21755269.909  
                                
  20298818.686   106671064.969    20298816.899    83120324.910    20298816.130  
                                
  20952334.028   110105293.544    20952332.241    85796352.411    20952331.741  
  20952336.548    82221520.462  
  21595350.319   113484376.668    21595348.872    88429404.959    21595348.425  
  21595352.946    84744864.855  
  21004597.400   110379904.544    21004595.828    86010314.559    21004595.077  
                                
  22937988.482   122788880.652    22937987.535    95502465.489    22937987.303  
                                
  19462608.987   104221442.397    19462607.700    81061136.710    19462607.504  
                                
  20106095.769   107478623.863    20106096.949    83594505.516    20106096.877  
                                
  21860862.969   116694759.644    21860865.935    90762588.713    21860866.239  
                                
  19457680.567   104085481.847    19457680.764    80955392.111    19457680.210  
                                
  21379565.821   114326164.875    21379569.234    88920362.145    21379567.911  
                                
  24153515.528   126927632.801                                                  
  24153518.637    94783662.796  
  22300836.751   117191733.740                                                  
  22300838.859    87513342.555  
  24866851.875   130676172.994                                                  
  24866852.161    97582828.197  
  23631705.016   124185463.289                                                  
  23631708.018    92735917.658  
 21  8 31 18 20 32.0000000  0 17G 5G10G13G15G18G23G29R 3R 4R 5R18R19
                                R20E 5E 9E11E36
  22605442.480   118792425.479    22605440.925    92565529.274    22605440.121  
                                
  24306220.124   127730052.106    24306222.483    99529926.427    24306222.179  
  24306221.411    95382844.671  
  21755526.490   114326096.511                    89085274.031    21755523.667  
                                
  20298797.582   106670954.002    20298795.795    83120238.443    20298795.027  
                                
  20952025.055   110103669.831    20952023.268    85795087.182    20952022.768  
  20952027.575    82220307.954  
  21595032.626   113482707.260    21595031.197    88428104.120    21595030.750  
  21595035.253    84743618.223  
  21005004.135   110382042.082    21005002.580    86011980.175    21005001.830  
                                
  22938726.455   122792831.135    22938725.526    95505538.085    22938725.275  
                                
  19462910.491   104223056.860    19462909.204    81062392.396    19462909.008  
                                
  20105664.751   107476319.827    20105665.948    83592713.490    20105665.858  
                                
  21861442.819   116697854.808    21861445.785    90764996.056    21861446.089  
                                
  19457740.750   104085803.845    19457740.965    80955642.551    19457740.393  
                                
  21378941.870   114322828.433    21378945.283    88917767.141    21378943.979  
                                
  24153161.632   126925773.057                                                  
  24153164.741    94782274.028  
  22301000.056   117192591.954                                                  
  22301002.164    87513983.432  
  24867232.378   130678172.506                                                  
  24867232.646    97584321.333  
  23631750.529   124185702.464                                                  
  23631753.513    92736096.265  
 21  8 31 18 20 33.0000000  0 17G 5G10G13G15G18G23G29R 3R 4R 5R18R19
                                R20E 5E 9E11E36
  22605959.860   118795144.266    22605958.305    92567647.807    22605957.501  
                                
  24305732.407   127727489.194    24305734.766    99527929.352    24305734.462  
  24305733.694    95380930.824  
  21755780.284   114327430.318                    89086313.363    21755777.461  
                                
  20298776.533   106670843.391    20298774.746    83120152.252    20298773.977  
                                
  20951716.028   110102045.981    20951714.241    85793821.847    20951713.759  
  20951718.548    82219095.339  
  21594714.933   113481037.799    21594713.503    88426803.241    21594713.056  
  21594717.559    84742371.548  
  21005410.959   110384179.827    21005409.387    86013645.949    21005408.636  
                                
  22939464.392   122796781.358    22939463.445    95508610.480    22939463.212  
                                
  19463212.031   104224671.591    19463210.744    81063648.301    19463210.548  
                                
  20105233.768   107474016.075    20105234.965    83590921.683    20105234.876  
                                
  21862022.651   116700950.035    21862025.617    90767403.448    21862025.939  
                                
  19457801.022   104086126.135    19457801.219    80955893.219    19457800.665  
                                
  21378317.938   114319491.844    21378321.351    88915172.021    21378320.028  
                                
  24152807.718   126923913.309                                                  
  24152810.828    94780885.248  
  22301163.378   117193450.228                                                  
  22301165.487    87514624.352  
  24867612.827   130680171.816                                                  
  24867613.095    97585814.338  
  23631796.023   124185941.545                                                  
  23631799.008    92736274.800  
 21  8 31 18 20 34.0000000  0 17G 5G10G13G15G18G23G29R 3R 4R 5R18R19
                                R20E 5E 9E11E36
  22606477.275   118797863.244    22606475.721    92569766.498    22606474.916  
                                
  24305244.779   127724926.572    24305247.120    99525932.502    24305246.834  
  24305246.048    95379017.164  
  21756034.238   114328764.852                    89087353.269    21756031.433  
                                
  20298755.644   106670733.599    20298753.839    83120066.705    20298753.088  
                                
  20951407.091   110100422.445    20951405.304    85792556.751    20951404.821  
  20951409.610    82217882.953  
  21594397.329   113479368.764    21594395.899    88425502.690    21594395.435  
  21594399.955    84741125.184  
  21005817.873   110386318.225    21005816.300    86015312.232    21005815.550  
                                
  22940202.365   122800731.751    22940201.417    95511683.004    22940201.185  
                                
  19463513.695   104226287.065    19463512.409    81064904.787    19463512.212  
                                
  20104802.945   107471713.056    20104804.143    83589130.458    20104804.053  
                                
  21862602.608   116704045.796    21862605.574    90769811.273    21862605.896  
                                
  19457861.402   104086449.184    19457861.598    80956144.484    19457861.045  
                                
  21377694.023   114316155.509    21377697.436    88912577.085    21377696.113  
                                
  24152453.912   126922054.010                                                  
  24152457.021    94779496.820  
  22301326.791   117194309.006                                                  
  22301328.917    87515265.650  
  24867993.348   130682171.449                                                  
  24867993.616    97587307.552  
  23631841.589   124186180.970                                                  
  23631844.574    92736453.591  
 21  8 31 18 20 35.0000000  0 17G 5G10G13G15G18G23G29R 3R 4R 5R18R19
                                R20E 5E 9E11E36
  22606994.691   118800582.366    22606993.136    92571885.287    22606992.332  
                                
  24304757.152   127722364.171    24304759.493    99523935.828    24304759.207  
  24304758.438    95377103.700  
  21756288.336   114330100.117                    89088393.731    21756285.513  
                                
  20298734.898   106670624.590    20298733.093    83119981.760    20298732.343  
                                
  20951098.189   110098799.202    20951096.420    85791291.882    20951095.920  
  20951100.708    82216670.785  
  21594079.796   113477700.090    21594078.367    88424202.429    21594077.920  
  21594082.423    84739879.090  
  21006224.911   110388457.247    21006223.356    86016979.001    21006222.606  
                                
  22940940.373   122804682.339    22940939.426    95514755.678    22940939.194  
                                
  19463815.521   104227903.280    19463814.252    81066161.838    19463814.056  
                                
  20104372.266   107469410.788    20104373.464    83587339.797    20104373.374  
                                
  21863182.654   116707142.075    21863185.602    90772219.481    21863185.924  
                                
  19457921.924   104086772.977    19457922.121    80956396.318    19457921.567  
                                
  21377070.162   114312819.493    21377073.575    88909982.404    21377072.252  
                                
  24152100.194   126920195.151                                                  
  24152103.286    94778108.709  
  22301490.310   117195168.274                                                  
  22301492.436    87515907.307  
  24868373.904   130684171.311                                                  
  24868374.172    97588800.956  
  23631887.209   124186420.720                                                  
  23631890.193    92736632.626  
 21  8 31 18 20 36.0000000  0 17G 5G10G13G15G18G23G29R 3R 4R 5R18R19
                                R20E 5E 9E11E36
  22607512.178   118803301.707    22607510.623    92574004.259    22607509.819  
                                
  24304269.595   127719802.057    24304271.936    99521939.380    24304271.650  
  24304270.864    95375190.442  
  21756542.576   114331436.142                    89089434.791    21756539.753  
                                
  20298714.295   106670516.400    20298712.508    83119897.456    20298711.740  
                                
  20950789.359   110097176.273    20950787.572    85790027.266    20950787.089  
  20950791.878    82215458.868  
  21593762.335   113476031.818    21593760.888    88422902.479    21593760.441  
  21593764.944    84738633.313  
  21006632.092   110390596.944    21006630.538    86018646.302    21006629.769  
                                
  22941678.399   122808633.079    22941677.452    95517828.474    22941677.220  
                                
  19464117.472   104229520.269    19464116.185    81067419.499    19464116.007  
                                
  20103941.712   107467109.292    20103942.909    83585549.747    20103942.820  
                                
  21863762.790   116710238.906    21863765.738    90774628.127    21863766.060  
                                
  19457982.607   104087097.576    19457982.822    80956648.787    19457982.250  
                                
  21376446.372   114309483.795    21376449.785    88907387.978    21376448.463  
                                
  24151746.549   126918336.751                                                  
  24151749.640    94776720.944  
  22301653.937   117196028.067                                                  
  22301656.045    87516549.360  
  24868754.533   130686171.490                                                  
  24868754.801    97590294.594  
  23631932.918   124186660.825                                                  
  23631935.902    92736811.923  
 21  8 31 18 20 37.0000000  0 17G 5G10G13G15G18G23G29R 3R 4R 5R18R19
                                R20E 5E 9E11E36
  22608029.718   118806021.433    22608028.163    92576123.524    22608027.359  
                                
  24303782.146   127717240.427    24303784.487    99519943.305    24303784.183  
  24303783.415    95373277.533  
  21756796.996   114332773.112                    89090476.593    21756794.172  
                                
  20298693.906   106670409.228    20298692.101    83119813.950    20298691.351  
                                
  20950480.618   110095553.887    20950478.849    85788763.072    20950478.348  
  20950483.155    82214247.335  
  21593444.999   113474364.177    21593443.552    88421603.018    21593443.105  
  21593447.608    84737387.992  
  21007039.417   110392737.501    21007037.862    86020314.266    21007037.094  
                                
  22942416.515   122812584.228    22942415.568    95520901.587    22942415.336  
                                
  19464419.637   104231138.248    19464418.351    81068677.925    19464418.154  
                                
  20103511.355   107464808.760    20103512.552    83583760.445    20103512.463  
                                
  21864343.086   116713336.511    21864346.035    90777037.376    21864346.356  
                                
  19458043.469   104087423.146    19458043.666    80956902.010    19458043.112  
                                
  21375822.671   114306148.612    21375826.084    88904793.948    21375824.762  
                                
  24151393.028   126916479.016                                                  
  24151396.137    94775333.677  
  22301817.671   117196888.582                                                  
  22301819.779    87517191.953  
  24869135.232   130688172.156                                                  
  24869135.500    97591788.608  
  23631978.698   124186901.494                                                  
  23631981.700    92736991.643  
 21  8 31 18 20 38.0000000  0 17G 5G10G13G15G18G23G29R 3R 4R 5R18R19
                                R20E 5E 9E11E36
  22608547.294   118808741.247    22608545.740    92578242.860    22608544.936  
                                
  24303294.715   127714678.988    24303297.056    99517947.383    24303296.770  
  24303295.984    95371364.772  
  21757051.540   114334110.745                    89091518.900    21757048.716  
                                
  20298673.643   106670302.793    20298671.856    83119731.011    20298671.088  
                                
  20950171.948   110093931.721    20950170.161    85787499.046    20950169.679  
  20950174.468    82213035.977  
  21593127.717   113472696.844    21593126.269    88420303.798    21593125.823  
  21593130.326    84736142.908  
  21007446.866   110394878.630    21007445.312    86021982.676    21007444.543  
                                
  22943154.667   122816535.482    22943153.720    95523974.778    22943153.487  
                                
  19464721.892   104232756.882    19464720.605    81069936.867    19464720.408  
                                
  20103081.104   107462508.885    20103082.302    83581971.656    20103082.212  
                                
  21864923.454   116716434.567    21864926.420    90779446.970    21864926.742  
                                
  19458104.474   104087749.400    19458104.671    80957155.764    19458104.117  
                                
  21375199.007   114302813.651    21375202.420    88902200.084    21375201.097  
                                
  24151039.596   126914621.657                                                  
  24151042.706    94773946.683  
  22301981.494   117197749.520                                                  
  22301983.620    87517834.863  
  24869516.003   130690173.027                                                  
  24869516.271    97593282.750  
  23632024.550   124187142.427                                                  
  23632027.534    92737171.558  
 21  8 31 18 20 39.0000000  0 17G 5G10G13G15G18G23G29R 3R 4R 5R18R19
                                R20E 5E 9E11E36
  22609064.888   118811461.255    22609063.334    92580362.342    22609062.530  
                                
  24302807.355   127712117.816    24302809.678    99515951.656    24302809.392  
  24302808.606    95369452.198  
  21757306.209   114335449.132                    89092561.792    21757303.386  
                                
  20298653.540   106670197.167    20298651.753    83119648.706    20298650.985  
                                
  20949863.314   110092309.877    20949861.527    85786235.275    20949861.027  
  20949865.834    82211824.872  
  21592810.506   113471029.925    21592809.058    88419004.906    21592808.612  
  21592813.133    84734898.137  
  21007854.441   110397020.434    21007852.886    86023651.616    21007852.118  
                                
  22943892.836   122820486.942    22943891.889    95527048.145    22943891.657  
                                
  19465024.307   104234376.261    19465023.020    81071196.386    19465022.842  
                                
  20102651.015   107460209.736    20102652.212    83580183.433    20102652.123  
                                
  21865503.929   116719533.174    21865506.896    90781857.005    21865507.217  
                                
  19458165.604   104088076.446    19458165.801    80957410.132    19458165.229  
                                
  21374575.432   114299478.961    21374578.845    88899606.448    21374577.522  
                                
  24150686.236   126912764.755                                                  
  24150689.346    94772560.034  
  22302145.442   117198610.980                                                  
  22302147.551    87518478.161  
  24869896.810   130692174.151                                                  
  24869897.078    97594777.111  
  23632070.474   124187383.709                                                  
  23632073.458    92737351.736  
 21  8 31 18 20 40.0000000  0 17G 5G10G13G15G18G23G29R 3R 4R 5R18R19
                                R20E 5E 9E11E36
  22609582.500   118814181.336    22609580.946    92582481.885    22609580.142  
                                
  24302319.996   127709556.806    24302322.319    99513956.068    24302322.033  
  24302321.246    95367539.757  
  21757561.004   114336788.148                    89093605.178    21757558.198  
                                
  20298633.580   106670092.252    20298631.794    83119566.951    20298631.025  
                                
  20949554.734   110090688.251    20949552.965    85784971.668    20949552.465  
  20949557.272    82210613.913  
  21592493.366   113469363.302    21592491.919    88417706.239    21592491.472  
  21592495.975    84733653.581  
  21008262.105   110399162.775    21008260.550    86025320.973    21008259.782  
                                
  22944631.041   122824438.525    22944630.094    95530121.592    22944629.862  
                                
  19465326.830   104235996.294    19465325.543    81072456.412    19465325.364  
                                
  20102221.050   107457911.249    20102222.230    83578395.721    20102222.140  
                                
  21866084.494   116722632.219    21866087.460    90784267.373    21866087.782  
                                
  19458226.859   104088404.155    19458227.074    80957665.019    19458226.502  
                                
  21373951.874   114296144.496    21373955.269    88897012.975    21373953.947  
                                
  24150332.948   126910908.209                                                  
  24150336.057    94771173.650  
  22302309.444   117199472.846                                                  
  22302311.570    87519121.757  
  24870277.652   130694175.471                                                  
  24870277.920    97596271.599  
  23632116.415   124187625.244                                                  
  23632119.417    92737532.101  
 21  8 31 18 20 41.0000000  0 17G 5G10G13G15G18G23G29R 3R 4R 5R18R19
                                R20E 5E 9E11E36
  22610100.112   118816901.400    22610098.558    92584601.415    22610097.754  
                                
  24301832.654   127706995.866    24301834.995    99511960.537    24301834.709  
  24301833.922    95365627.369  
  21757815.923   114338127.720                    89094649.001    21757813.118  
                                
  20298613.746   106669987.932    20298611.959    83119485.665    20298611.191  
                                
  20949246.154   110089066.728    20949244.385    85783708.143    20949243.885  
  20949248.691    82209403.039  
  21592176.245   113467696.881    21592174.815    88416407.730    21592174.351  
  21592178.872    84732409.179  
  21008669.876   110401305.562    21008668.321    86026990.677    21008667.553  
                                
  22945369.228   122828390.099    22945368.281    95533195.031    22945368.049  
                                
  19465629.495   104237616.905    19465628.208    81073716.889    19465628.012  
                                
  20101791.157   107455613.329    20101792.355    83576608.455    20101792.265  
                                
  21866665.112   116725731.584    21866668.078    90786677.985    21866668.400  
                                
  19458288.221   104088732.428    19458288.418    80957920.343    19458287.864  
                                
  21373328.317   114292810.084    21373331.712    88894419.543    21373330.407  
                                
  24149979.695   126909051.906                                                  
  24149982.804    94769787.450  
  22302473.517   117200335.016                                                  
  22302475.626    87519765.588  
  24870658.513   130696176.853                                                  
  24870658.763    97597766.129  
  23632162.428   124187866.919                                                  
  23632165.412    92737712.575  
 21  8 31 18 20 42.0000000  0 17G 5G10G13G15G18G23G29R 3R 4R 5R18R19
                                R20E 5E 9E11E36
  22610617.724   118819621.416    22610616.170    92586720.911    22610615.366  
                                
  24301345.348   127704434.970    24301347.671    99509965.034    24301347.385  
  24301346.598    95363715.020  
  21758070.950   114339467.798                    89095693.215    21758068.126  
                                
  20298594.001   106669884.211    20298592.214    83119404.839    20298591.463  
                                
  20948937.627   110087445.307    20948935.841    85782444.698    20948935.358  
  20948940.147    82208192.234  
  21591859.177   113466030.646    21591857.747    88415109.364    21591857.283  
  21591861.804    84731164.912  
  21009077.718   110403448.789    21009076.164    86028660.724    21009075.395  
                                
  22946107.415   122832341.604    22946106.468    95536268.417    22946106.236  
                                
  19465932.214   104239238.062    19465930.928    81074977.787    19465930.749  
                                
  20101361.407   107453315.970    20101362.587    83574821.618    20101362.497  
                                
  21867245.784   116728831.231    21867248.750    90789088.822    21867249.054  
                                
  19458349.709   104089061.242    19458349.905    80958176.085    19458349.351  
                                
  21372704.777   114289475.779    21372708.190    88891826.193    21372706.868  
                                
  24149626.496   126907195.841                                                  
  24149629.605    94768401.429  
  22302637.626   117201197.485                                                  
  22302639.735    87520409.640  
  24871039.355   130698178.299                                                  
  24871039.623    97599260.728  
  23632208.423   124188108.729                                                  
  23632211.407    92737893.145  
 21  8 31 18 20 43.0000000  0 17G 5G10G13G15G18G23G29R 3R 4R 5R18R19
                                R20E 5E 9E11E36
  22611135.301   118822341.295    22611133.746    92588840.290    22611132.942  
                                
  24300858.024   127701874.018    24300860.347    99507969.489    24300860.061  
  24300859.274    95361802.614  
  21758326.030   114340808.286                    89096737.749    21758323.225  
                                
  20298574.362   106669780.965    20298572.576    83119324.388    20298571.807  
                                
  20948629.065   110085823.872    20948627.296    85781181.240    20948626.796  
  20948631.603    82206981.422  
  21591542.127   113464364.492    21591540.697    88413811.070    21591540.233  
  21591544.754    84729920.706  
  21009485.615   110405592.339    21009484.060    86030331.021    21009483.292  
                                
  22946845.567   122836292.945    22946844.620    95539341.675    22946844.388  
                                
  19466235.023   104240859.606    19466233.736    81076238.988    19466233.557  
                                
  20100931.711   107451019.054    20100932.890    83573035.127    20100932.801  
                                
  21867826.491   116731931.099    21867829.458    90791499.824    21867829.779  
                                
  19458411.250   104089390.496    19458411.446    80958432.173    19458410.892  
                                
  21372081.238   114286141.421    21372084.651    88889232.806    21372083.328  
                                
  24149273.333   126905339.914                                                  
  24149276.424    94767015.508  
  22302801.789   117202060.131                                                  
  22302803.898    87521053.821  
  24871420.233   130700179.702                                                  
  24871420.484    97600755.286  
  23632254.453   124188350.548                                                  
  23632257.437    92738073.725  
 21  8 31 18 20 44.0000000  0 17G 5G10G13G15G18G23G29R 3R 4R 5R18R19
                                R20E 5E 9E11E36
  22611652.948   118825061.584    22611651.394    92590960.003    22611650.590  
                                
  24300370.753   127699313.556    24300373.076    99505974.315    24300372.790  
  24300372.004    95359890.575  
  21758581.289   114342149.766                    89097783.070    21758578.484  
                                
  20298554.903   106669678.762    20298553.116    83119244.749    20298552.366  
                                
  20948320.610   110084202.971    20948318.841    85779918.200    20948318.341  
  20948323.147    82205771.010  
  21591225.184   113462698.970    21591223.737    88412513.251    21591223.290  
  21591227.793    84728676.957  
  21009893.689   110407736.767    21009892.135    86032002.001    21009891.366  
                                
  22947583.772   122840244.677    22947582.825    95542415.273    22947582.593  
                                
  19466538.028   104242482.124    19466536.741    81077500.947    19466536.562  
                                
  20100502.211   107448723.113    20100503.391    83571249.405    20100503.301  
                                
  21868407.360   116735031.733    21868410.326    90793911.430    21868410.630  
                                
  19458472.987   104089720.737    19458473.184    80958689.021    19458472.630  
                                
  21371457.805   114282807.621    21371461.200    88886639.855    21371459.878  
                                
  24148920.277   126903484.639                                                  
  24148923.386    94765630.081  
  22302966.077   117202923.513                                                  
  22302968.203    87521698.559  
  24871801.183   130702181.629                                                  
  24871801.433    97602250.206  
  23632300.573   124188592.943                                                  
  23632303.557    92738254.733  
 21  8 31 18 20 45.0000000  0 17G 5G10G13G15G18G23G29R 3R 4R 5R18R19
                                R20E 5E 9E11E36
  22612170.632   118827781.982    22612169.077    92593079.794    22612168.273  
                                
  24299883.572   127696753.326    24299885.895    99503979.333    24299885.609  
  24299884.823    95357978.715  
  21758836.709   114343491.933                    89098828.914    21758833.903  
                                
  20298535.605   106669577.315    20298533.818    83119165.697    20298533.049  
                                
  20948012.226   110082582.345    20948010.457    85778655.377    20948009.957  
  20948014.764    82204560.803  
  21590908.295   113461033.779    21590906.865    88411215.702    21590906.401  
  21590910.922    84727433.485  
  21010301.872   110409881.804    21010300.335    86033673.456    21010299.566  
                                
  22948322.031   122844196.574    22948321.084    95545488.963    22948320.851  
                                
  19466841.158   104244105.351    19466839.871    81078763.459    19466839.675  
                                
  20100072.836   107446427.838    20100074.016    83569464.191    20100073.926  
                                
  21868988.317   116738132.880    21868991.266    90796323.431    21868991.587  
                                
  19458534.850   104090051.681    19458535.064    80958946.422    19458534.510  
                                
  21370834.409   114279474.087    21370837.804    88884047.111    21370836.499  
                                
  24148567.328   126901629.797                                                  
  24148570.419    94764244.970  
  22303130.472   117203787.368                                                  
  22303132.598    87522343.643  
  24872182.186   130704183.792                                                  
  24872182.454    97603745.319  
  23632346.765   124188835.645                                                  
  23632349.749    92738435.972  
 21  8 31 18 20 46.0000000  0 17G 5G10G13G15G18G23G29R 3R 4R 5R18R19
                                R20E 5E 9E11E36
  22612688.369   118830502.691    22612686.814    92595199.820    22612686.010  
                                
  24299396.463   127694193.472    24299398.786    99501984.643    24299398.500  
  24299397.713    95356067.129  
  21759092.272   114344834.948                    89099875.419    21759089.466  
                                
  20298516.467   106669476.783    20298514.680    83119087.361    20298513.929  
                                
  20947703.914   110080962.136    20947702.127    85777392.872    20947701.627  
  20947706.434    82203350.907  
  21590591.531   113459369.125    21590590.101    88409918.567    21590589.636  
  21590594.157    84726190.391  
  21010710.214   110412027.599    21010708.660    86035345.504    21010707.909  
                                
  22949060.343   122848148.791    22949059.396    95548562.909    22949059.164  
                                
  19467144.449   104245729.469    19467143.162    81080026.662    19467142.966  
                                
  20099643.622   107444133.396    20099644.802    83567679.627    20099644.713  
                                
  21869569.364   116741234.662    21869572.331    90798735.926    21869572.652  
                                
  19458596.873   104090383.503    19458597.087    80959204.506    19458596.516  
                                
  21370211.101   114276140.935    21370214.496    88881454.660    21370213.192  
                                
  24148214.468   126899775.502                                                  
  24148217.559    94762860.275  
  22303294.956   117204651.830                                                  
  22303297.083    87522989.187  
  24872563.261   130706186.312                                                  
  24872563.511    97605240.712  
  23632393.027   124189078.805                                                  
  23632396.012    92738617.548  
 21  8 31 18 20 47.0000000  0 17G 5G10G13G15G18G23G29R 3R 4R 5R18R19
                                R20E 5E 9E11E36
  22613206.106   118833223.400    22613204.551    92597319.848    22613203.747  
                                
  24298909.353   127691633.697    24298911.676    99499990.018    24298911.390  
  24298910.604    95354155.615  
  21759347.959   114346178.532                    89100922.368    21759345.154  
                                
  20298497.454   106669376.892    20298495.667    83119009.526    20298494.917  
                                
  20947395.620   110079342.074    20947393.833    85776130.489    20947393.351  
  20947398.140    82202141.116  
  21590274.802   113457704.691    21590273.355    88408621.608    21590272.908  
  21590277.411    84724947.470  
  21011118.629   110414173.872    21011117.074    86037017.925    21011116.306  
                                
  22949798.673   122852101.061    22949797.726    95551636.895    22949797.494  
                                
  19467447.847   104247354.168    19467446.560    81081290.316    19467446.364  
                                
  20099214.498   107441839.530    20099215.677    83565895.509    20099215.588  
                                
  21870150.501   116744336.810    21870153.467    90801148.708    21870153.789  
                                
  19458659.021   104090715.920    19458659.236    80959463.050    19458658.664  
                                
  21369587.812   114272807.912    21369591.207    88878862.313    21369589.885  
                                
  24147861.662   126897921.494                                                  
  24147864.753    94761475.787  
  22303459.530   117205516.638                                                  
  22303461.656    87523634.979  
  24872944.336   130708188.935                                                  
  24872944.586    97606736.175  
  23632439.344   124189322.127                                                  
  23632442.328    92738799.252  
 21  8 31 18 20 48.0000000  0 17G 5G10G13G15G18G23G29R 3R 4R 5R18R19
                                R20E 5E 9E11E36
  22613723.861   118835944.215    22613722.306    92599439.959    22613721.502  
                                
  24298422.261   127689074.103    24298424.584    99497995.530    24298424.298  
  24298423.494    95352244.241  
  21759603.737   114347522.777                    89101969.829    21759600.931  
                                
  20298478.585   106669277.731    20298476.798    83118932.262    20298476.047  
                                
  20947087.379   110077722.250    20947085.610    85774868.286    20947085.110  
  20947089.917    82200931.507  
  21589958.127   113456040.583    21589956.680    88407324.895    21589956.233  
  21589960.736    84723704.791  
  21011527.168   110416320.727    21011525.614    86038690.796    21011524.845  
                                
  22950537.003   122856053.433    22950536.056    95554710.962    22950535.824  
                                
  19467751.370   104248979.521    19467750.066    81082554.482    19467749.887  
                                
  20098785.498   107439546.365    20098786.678    83564111.934    20098786.588  
                                
  21870731.727   116747439.412    21870734.693    90803561.838    21870735.014  
                                
  19458721.295   104091049.029    19458721.509    80959722.137    19458720.938  
                                
  21368964.558   114269475.142    21368967.953    88876270.156    21368966.631  
                                
  24147508.910   126896067.873                                                  
  24147512.019    94760091.585  
  22303624.193   117206381.878                                                  
  22303626.302    87524281.104  
  24873325.446   130710191.764                                                  
  24873325.697    97608231.802  
  23632485.696   124189565.736                                                  
  23632488.680    92738981.165  
 21  8 31 18 20 49.0000000  0 17G 5G10G13G15G18G23G29R 3R 4R 5R18R19
                                R20E 5E 9E11E36
  22614241.616   118838664.983    22614240.061    92601560.059    22614239.257  
                                
  24297935.205   127686514.566    24297937.528    99496001.085    24297937.242  
  24297936.456    95350332.896  
  21759859.639   114348867.573                    89103017.720    21759856.851  
                                
  20298459.840   106669179.166    20298458.035    83118855.460    20298457.285  
                                
  20946779.157   110076102.508    20946777.388    85773606.156    20946776.887  
  20946781.694    82199721.966  
  21589641.506   113454376.657    21589640.059    88406028.341    21589639.612  
  21589644.115    84722462.260  
  21011935.779   110418468.000    21011934.225    86040363.999    21011933.474  
                                
  22951275.316   122860005.763    22951274.369    95557784.997    22951274.154  
                                
  19468055.000   104250605.409    19468053.714    81083819.059    19468053.517  
                                
  20098356.624   107437253.765    20098357.803    83562328.805    20098357.714  
                                
  21871313.006   116750542.335    21871315.972    90805975.225    21871316.294  
                                
  19458783.676   104091382.671    19458783.872    80959981.634    19458783.318  
                                
  21368341.323   114266142.436    21368344.718    88873678.044    21368343.413  
                                
  24147156.229   126894214.469                                                  
  24147159.320    94758707.559  
  22303788.874   117207247.408                                                  
  22303791.000    87524927.437  
  24873706.611   130712194.663                                                  
  24873706.879    97609727.460  
  23632532.066   124189809.439                                                  
  23632535.068    92739163.164  
 21  8 31 18 20 50.0000000  0 17G 5G10G13G15G18G23G29R 3R 4R 5R18R19
                                R20E 5E 9E11E36
  22614759.335   118841385.683    22614757.780    92603680.085    22614756.976  
                                
  24297448.149   127683955.046    24297450.472    99494006.658    24297450.169  
  24297449.382    95348421.577  
  21760115.648   114350212.838                    89104065.979    21760112.843  
                                
  20298441.185   106669081.158    20298439.380    83118779.088    20298438.629  
                                
  20946470.934   110074482.842    20946469.147    85772344.078    20946468.665  
  20946473.453    82198512.479  
  21589324.885   113452712.895    21589323.438    88404731.901    21589322.991  
  21589327.494    84721219.838  
  21012344.480   110420615.688    21012342.925    86042037.519    21012342.157  
                                
  22952013.646   122863958.010    22952012.699    95560858.969    22952012.466  
                                
  19468358.702   104252231.785    19468357.416    81085084.023    19468357.237  
                                
  20097927.839   107434961.669    20097929.018    83560546.064    20097928.929  
                                
  21871894.339   116753645.530    21871897.305    90808388.823    21871897.627  
                                
  19458846.128   104091716.838    19458846.342    80960241.539    19458845.771  
                                
  21367718.105   114262809.764    21367721.500    88871085.971    21367720.177  
                                
  24146803.584   126892361.292                                                  
  24146806.693    94757323.688  
  22303953.644   117208113.200                                                  
  22303955.771    87525573.972  
  24874087.757   130714197.594                                                  
  24874088.007    97611223.167  
  23632578.454   124190053.280                                                  
  23632581.456    92739345.253  
 21  8 31 18 20 51.0000000  0 17G 5G10G13G15G18G23G29R 3R 4R 5R18R19
                                R20E 5E 9E11E36
  22615277.108   118844106.545    22615275.553    92605800.234    22615274.749  
                                
  24296961.129   127681395.767    24296963.434    99492012.420    24296963.148  
  24296962.362    95346510.423  
  21760371.783   114351558.805                    89105114.782    21760368.978  
                                
  20298422.672   106668983.940    20298420.885    83118703.334    20298420.135  
                                
  20946162.783   110072863.461    20946161.014    85771082.225    20946160.513  
  20946165.320    82197303.197  
  21589008.371   113451049.491    21589006.924    88403435.747    21589006.459  
  21589010.962    84719977.686  
  21012753.287   110422763.995    21012751.732    86043711.522    21012750.982  
                                
  22952751.976   122867910.385    22952751.029    95563933.041    22952750.797  
                                
  19468662.565   104253858.878    19468661.261    81086349.542    19468661.082  
                                
  20097499.197   107432670.292    20097500.376    83558763.884    20097500.287  
                                
  21872475.761   116756749.207    21872478.727    90810802.797    21872479.049  
                                
  19458908.741   104092051.748    19458908.938    80960502.027    19458908.384  
                                
  21367094.922   114259477.404    21367098.318    88868494.133    21367096.995  
                                
  24146451.010   126890508.525                                                  
  24146454.119    94755940.131  
  22304118.504   117208979.472                                                  
  22304120.630    87526220.860  
  24874468.939   130716200.754                                                  
  24874469.189    97612719.040  
  23632624.932   124190297.426                                                  
  23632627.916    92739527.568  
 21  8 31 18 20 52.0000000  0 17G 5G10G13G15G18G23G29R 3R 4R 5R18R19
                                R20E 5E 9E11E36
  22615794.845   118846827.310    22615793.290    92607920.316    22615792.486  
                                
  24296474.109   127678836.491    24296476.414    99490018.181    24296476.128  
  24296475.342    95344599.288  
  21760627.989   114352905.262                    89106163.971    21760625.184  
                                
  20298404.285   106668887.270    20298402.498    83118628.009    20298401.730  
                                
  20945854.631   110071244.138    20945852.862    85769820.415    20945852.362  
  20945857.169    82196093.965  
  21588691.839   113449386.231    21588690.392    88402139.695    21588689.945  
  21588694.448    84718735.644  
  21013162.148   110424912.701    21013160.611    86045385.841    21013159.843  
                                
  22953490.288   122871862.691    22953489.341    95567007.054    22953489.109  
                                
  19468966.499   104255486.456    19468965.195    81087615.434    19468965.016  
                                
  20097070.626   107430379.378    20097071.805    83556982.065    20097071.716  
                                
  21873057.237   116759853.165    21873060.203    90813216.991    21873060.507  
                                
  19458971.443   104092387.146    19458971.640    80960762.890    19458971.086  
                                
  21366471.758   114256145.073    21366475.153    88865902.320    21366473.831  
                                
  24146098.472   126888655.952                                                  
  24146101.581    94754556.716  
  22304283.381   117209845.994                                                  
  22304285.508    87526867.936  
  24874850.157   130718203.993                                                  
  24874850.407    97614214.932  
  23632671.409   124190541.660                                                  
  23632674.393    92739709.951  
 21  8 31 18 20 53.0000000  0 17G 5G10G13G15G18G23G29R 3R 4R 5R18R19
                                R20E 5E 9E11E36
  22616312.618   118849548.206    22616311.063    92610040.497    22616310.259  
                                
  24295987.142   127676277.461    24295989.465    99488024.127    24295989.179  
  24295988.375    95342688.311  
  21760884.356   114354252.409                    89107213.694    21760881.550  
                                
  20298386.023   106668791.358    20298384.236    83118553.272    20298383.486  
                                
  20945546.534   110069625.077    20945544.765    85768558.809    20945544.264  
  20945549.071    82194884.923  
  21588375.414   113447723.326    21588373.967    88400843.925    21588373.502  
  21588378.005    84717493.868  
  21013571.152   110427062.005    21013569.615    86047060.621    21013568.847  
                                
  22954228.654   122875815.159    22954227.707    95570081.196    22954227.475  
                                
  19469270.559   104257114.743    19469269.272    81088881.884    19469269.075  
                                
  20096642.181   107428089.142    20096643.360    83555200.774    20096643.271  
                                
  21873638.802   116762957.605    21873641.768    90815631.553    21873642.072  
                                
  19459034.271   104092723.261    19459034.485    80961024.312    19459033.914  
                                
  21365848.630   114252812.952    21365852.025    88863310.675    21365850.720  
                                
  24145746.023   126886803.796                                                  
  24145749.133    94753173.614  
  22304448.366   117210712.977                                                  
  22304450.492    87527515.360  
  24875231.374   130720207.406                                                  
  24875231.624    97615711.000  
  23632717.922   124190786.182                                                  
  23632720.906    92739892.555  
 21  8 31 18 20 54.0000000  0 17G 5G10G13G15G18G23G29R 3R 4R 5R18R19
                                R20E 5E 9E11E36
  22616830.391   118852269.224    22616828.836    92612160.754    22616828.032  
                                
  24295500.212   127673718.560    24295502.517    99486030.192    24295502.231  
  24295501.445    95340777.464  
  21761140.830   114355600.183                    89108263.901    21761138.042  
                                
  20298367.922   106668696.173    20298366.135    83118479.102    20298365.366  
                                
  20945238.490   110068006.262    20945236.721    85767297.395    20945236.238  
  20945241.027    82193676.066  
  21588059.025   113446060.738    21588057.578    88399548.404    21588057.113  
  21588061.616    84716252.332  
  21013980.264   110429211.896    21013978.727    86048735.864    21013977.958  
                                
  22954967.020   122879767.734    22954966.073    95573155.405    22954965.841  
                                
  19469574.761   104258743.732    19469573.474    81090148.864    19469573.278  
                                
  20096213.878   107425799.586    20096215.057    83553420.002    20096214.968  
                                
  21874220.457   116766062.520    21874223.405    90818046.468    21874223.727  
                                
  19459097.241   104093060.053    19459097.438    80961286.262    19459096.884  
                                
  21365225.572   114249481.099    21365228.950    88860719.234    21365227.645  
                                
  24145393.646   126884951.995                                                  
  24145396.755    94751790.767  
  22304613.440   117211580.386                                                  
  22304615.566    87528163.100  
  24875612.664   130722211.009                                                  
  24875612.914    97617207.206  
  23632764.524   124191030.994                                                  
  23632767.509    92740075.352  
