     2.11           OBSERVATION DATA    M (MIXED)           RINEX VERSION / TYPE
CONVBIN 2.4.3                           20210901 004912 UTC PGM / RUN BY / DATE 
log: logs/21_08_31_18_48_30_moip_SNMO.rtcm                  COMMENT             
format: RTCM 3, station ID: 10                              COMMENT             
0010                                                        MARKER NAME         
                                                            MARKER NUMBER       
                                                            OBSERVER / AGENCY   
1705328             LEICA GR30          4.50                REC # / TYPE / VERS 
                    GPPNULLANTENNA                          ANT # / TYPE        
  -379046.1897 -4940284.4028  4002819.2058                  APPROX POSITION XYZ 
        0.0000        0.0000        0.0000                  ANTENNA: DELTA H/E/N
     1     1                                                WAVELENGTH FACT L1/2
     7    C1    L1    C2    L2    P2    C5    L5            # / TYPES OF OBSERV 
  2021     8    31    18    48   37.0000000     GPS         TIME OF FIRST OBS   
  2021     8    31    19    18   34.0000000     GPS         TIME OF LAST OBS    
                                                            END OF HEADER       
 21  8 31 18 48 37.0000000  0 15G 5G13G15G18G23G29R 4R 5R18R19R20E 5
                                E 9E11E36
  23083693.264   121305626.411    23083692.174    94523857.437    23083691.620  
                                
  21960814.171   115404856.676                    89925853.014    21960811.794  
                                
  20284426.456   106595380.453    20284424.741    83061325.496    20284424.098  
                                
  20393262.029   107167314.946    20393260.367    83506990.844    20393260.046  
  20393264.656    80027550.409  
  21260375.078   111724024.917    21260373.594    87057674.658    21260373.309  
  21260377.615    83430288.127  
  22149690.423   116397408.105    22149689.315    90699272.199    22149688.743  
                                
  19852347.102   106308417.540    19852346.423    82684321.025    19852346.405  
                                
  19757902.829   105617313.417    19757903.472    82146801.748    19757903.544  
                                
  23092273.790   123268125.297    23092277.221    95875222.180    23092277.274  
                                
  19763728.559   105722620.900    19763728.845    82228706.032    19763728.470  
                                
  20245610.132   108262375.413    20245613.009    84204081.573    20245612.008  
                                
  23844062.540   125301395.124                                                  
  23844065.721    93569235.500  
  22406641.970   117747699.024                                                  
  22406644.703    87928485.697  
  25554441.014   134289493.911                                                  
  25554442.444   100281120.809  
  23719318.605   124645861.276                                                  
  23719322.215    93079715.197  
 21  8 31 18 48 38.0000000  0 15G 5G13G15G18G23G29R 4R 5R18R19R20E 5
                                E 9E11E36
  23084225.117   121308421.330    23084224.045    94526035.298    23084223.491  
                                
  21961218.046   115406979.066                    89927506.826    21961215.688  
                                
  20284562.511   106596095.481    20284560.796    83061882.661    20284560.170  
                                
  20393037.505   107166135.028    20393035.825    83506071.427    20393035.504  
  20393040.150    80026669.297  
  21260088.333   111722518.089    21260086.868    87056500.507    21260086.582  
  21260090.889    83429162.894  
  22150291.268   116400565.618    22150290.161    90701732.601    22150289.589  
                                
  19852756.731   106310611.177    19852756.070    82686027.187    19852756.052  
                                
  19757609.455   105615745.230    19757610.099    82145582.049    19757610.188  
                                
  23093019.678   123272106.955    23093023.127    95878319.023    23093023.181  
                                
  19764072.985   105724463.385    19764073.271    82230139.076    19764072.913  
                                
  20245109.442   108259698.091    20245112.319    84201999.217    20245111.318  
                                
  23843782.497   125299923.583                                                  
  23843785.696    93568136.618  
  22406883.898   117748970.432                                                  
  22406886.650    87929435.123  
  25554918.028   134292000.611                                                  
  25554919.457   100282992.689  
  23719488.808   124646755.678                                                  
  23719492.417    93080383.095  
 21  8 31 18 48 39.0000000  0 15G 5G13G15G18G23G29R 4R 5R18R19R20E 5
                                E 9E11E36
  23084756.935   121311216.019    23084755.845    94528212.976    23084755.291  
                                
  21961621.976   115409101.717                    89929160.837    21961619.617  
                                
  20284698.655   106596810.885    20284696.940    83062440.121    20284696.314  
                                
  20392812.981   107164955.177    20392811.301    83505152.063    20392810.979  
  20392815.625    80025788.242  
  21259801.589   111721011.244    21259800.124    87055326.346    21259799.838  
  21259804.127    83428037.655  
  22150892.132   116403723.211    22150891.042    90704193.065    22150890.453  
                                
  19853166.414   106312805.014    19853165.753    82687733.512    19853165.735  
                                
  19757316.153   105614177.356    19757316.797    82144362.599    19757316.868  
                                
  23093765.567   123276088.578    23093769.016    95881415.843    23093769.070  
                                
  19764417.500   105726306.280    19764417.785    82231572.439    19764417.410  
                                
  20244608.823   108257020.972    20244611.700    84199917.020    20244610.699  
                                
  23843502.507   125298452.107                                                  
  23843505.670    93567037.788  
  22407125.863   117750241.893                                                  
  22407128.597    87930384.600  
  25555395.005   134294507.167                                                  
  25555396.435   100284864.476  
  23719659.010   124647650.104                                                  
  23719662.637    93081051.010  
 21  8 31 18 48 40.0000000  0 15G 5G13G15G18G23G29R 4R 5R18R19R20E 5
                                E 9E11E36
  23085288.753   121314010.747    23085287.681    94530390.681    23085287.109  
                                
  21962026.012   115411224.878                    89930815.251    21962023.636  
                                
  20284834.906   106597526.925    20284833.191    83062998.075    20284832.566  
                                
  20392588.528   107163775.646    20392586.848    83504232.948    20392586.527  
  20392591.155    80024907.428  
  21259514.899   111719504.649    21259513.415    87054152.371    21259513.147  
  21259517.436    83426912.597  
  22151493.067   116406881.126    22151491.960    90706653.779    22151491.388  
                                
  19853576.187   106314999.276    19853575.508    82689440.155    19853575.490  
                                
  19757022.976   105612610.070    19757023.602    82143143.598    19757023.691  
                                
  23094511.510   123280070.421    23094514.958    95884512.835    23094515.012  
                                
  19764762.121   105728149.850    19764762.407    82233006.329    19764762.050  
                                
  20244108.276   108254344.310    20244111.153    84197835.172    20244110.152  
                                
  23843222.535   125296980.963                                                  
  23843225.716    93565939.208  
  22407367.881   117751513.669                                                  
  22407370.615    87931334.291  
  25555872.001   134297013.849                                                  
  25555873.431   100286736.358  
  23719829.266   124648544.812                                                  
  23719832.893    93081719.134  
 21  8 31 18 48 41.0000000  0 15G 5G13G15G18G23G29R 4R 5R18R19R20E 5
                                E 9E11E36
  23085820.624   121316805.721    23085819.534    94532568.583    23085818.980  
                                
  21962430.156   115413348.770                    89932470.237    21962427.797  
                                
  20284971.319   106598243.820    20284969.603    83063556.694    20284968.978  
                                
  20392364.164   107162596.658    20392362.485    83503314.256    20392362.163  
  20392366.791    80024027.017  
  21259228.279   111717998.502    21259226.814    87052978.753    21259226.528  
  21259230.817    83425787.888  
  22152094.110   116410039.582    22152093.002    90709114.911    22152092.430  
                                
  19853986.066   106317194.190    19853985.405    82691147.313    19853985.387  
                                
  19756729.924   105611043.605    19756730.567    82141925.234    19756730.639  
                                
  23095257.541   123284052.732    23095260.990    95887610.186    23095261.044  
                                
  19765106.940   105729994.328    19765107.226    82234440.923    19765106.869  
                                
  20243607.836   108251668.326    20243610.713    84195753.850    20243609.712  
                                
  23842942.707   125295510.372                                                  
  23842945.887    93564841.036  
  22407609.970   117752785.969                                                  
  22407612.704    87932284.392  
  25556349.086   134299520.889                                                  
  25556350.534   100288608.494  
  23719999.629   124649440.012                                                  
  23720003.257    93082387.632  
 21  8 31 18 48 42.0000000  0 15G 5G13G15G18G23G29R 4R 5R18R19R20E 5
                                E 9E11E36
  23086352.496   121319600.844    23086351.442    94534746.599    23086350.888  
                                
  21962834.460   115415473.308                    89934125.718    21962832.066  
                                
  20285107.909   106598961.486    20285106.158    83064115.916    20285105.551  
                                
  20392139.890   107161418.143    20392138.229    83502395.932    20392137.925  
  20392142.535    80023146.954  
  21258941.750   111716492.745    21258940.284    87051805.436    21258939.981  
  21258944.287    83424663.462  
  22152695.242   116413198.501    22152694.134    90711576.404    22152693.544  
                                
  19854396.053   106319389.699    19854395.410    82692854.929    19854395.374  
                                
  19756437.033   105609477.901    19756437.658    82140707.462    19756437.766  
                                
  23096003.644   123288035.404    23096007.075    95890707.813    23096007.147  
                                
  19765451.884   105731839.627    19765452.170    82235876.153    19765451.812  
                                
  20243107.521   108248992.948    20243110.416    84193673.001    20243109.416  
                                
  23842662.949   125294040.243                                                  
  23842666.112    93563743.216  
  22407852.167   117754058.716                                                  
  22407854.901    87933234.818  
  25556826.207   134302028.161                                                  
  25556827.654   100290480.808  
  23720170.046   124650335.638                                                  
  23720173.674    93083056.437  
 21  8 31 18 48 43.0000000  0 15G 5G13G15G18G23G29R 4R 5R18R19R20E 5
                                E 9E11E36
  23086884.421   121322396.018    23086883.349    94536924.659    23086882.795  
                                
  21963238.836   115417598.380                    89935781.618    21963236.460  
                                
  20285244.590   106599679.807    20285242.856    83064675.642    20285242.231  
                                
  20391915.688   107160239.962    20391914.008    83501477.869    20391913.686  
  20391918.332    80022267.151  
  21258655.256   111714987.250    21258653.790    87050632.323    21258653.504  
  21258657.793    83423539.222  
  22153296.427   116416357.781    22153295.319    90714038.180    22153294.730  
                                
  19854806.165   106321585.686    19854805.468    82694562.916    19854805.451  
                                
  19756144.249   105607912.838    19756144.892    82139490.194    19756144.982  
                                
  23096749.783   123292018.336    23096753.214    95893805.641    23096753.304  
                                
  19765796.988   105733685.617    19765797.256    82237311.923    19765796.899  
                                
  20242607.314   108246318.051    20242610.191    84191592.527    20242609.190  
                                
  23842383.263   125292570.481                                                  
  23842386.444    93562645.669  
  22408094.417   117755331.800                                                  
  22408097.187    87934185.499  
  25557303.363   134304535.603                                                  
  25557304.811   100292353.226  
  23720340.535   124651231.554                                                  
  23720344.162    93083725.465  
 21  8 31 18 48 44.0000000  0 15G 5G13G15G18G23G29R 4R 5R18R19R20E 5
                                E 9E11E36
  23087416.346   121325191.300    23087415.274    94539102.801    23087414.702  
                                
  21963643.355   115419724.074                    89937437.994    21963640.979  
                                
  20285381.413   106600398.823    20285379.697    83065235.915    20285379.072  
                                
  20391691.592   107159062.239    20391689.931    83500560.160    20391689.609  
  20391694.237    80021387.667  
  21258368.833   111713482.083    21258367.386    87049459.466    21258367.100  
  21258371.388    83422415.227  
  22153897.684   116419517.472    22153896.576    90716500.275    22153896.004  
                                
  19855216.331   106323782.214    19855215.670    82696271.330    19855215.652  
                                
  19755851.626   105606348.505    19755852.251    82138273.490    19755852.323  
                                
  23097495.976   123296001.565    23097499.442    95896903.718    23097499.496  
                                
  19766142.218   105735532.368    19766142.504    82238748.278    19766142.128  
                                
  20242107.214   108243643.724    20242110.090    84189512.488    20242109.072  
                                
  23842103.667   125291101.144                                                  
  23842106.829    93561548.443  
  22408336.775   117756605.263                                                  
  22408339.509    87935136.457  
  25557780.538   134307043.219                                                  
  25557781.985   100294225.801  
  23720511.112   124652127.838                                                  
  23720514.740    93084394.768  
 21  8 31 18 48 45.0000000  0 15G 5G13G15G18G23G29R 4R 5R18R19R20E 5
                                E 9E11E36
  23087948.289   121327986.653    23087947.217    94541280.995    23087946.645  
                                
  21964047.964   115421850.287                    89939094.784    21964045.587  
                                
  20285518.379   106601118.526    20285516.645    83065796.724    20285516.038  
                                
  20391467.533   107157884.826    20391465.853    83499642.694    20391465.531  
  20391470.159    80020508.441  
  21258082.464   111711977.196    21258081.017    87048286.826    21258080.731  
  21258085.001    83421291.450  
  22154499.030   116422677.535    22154497.922    90718962.664    22154497.351  
                                
  19855626.604   106325979.186    19855625.942    82697980.085    19855625.925  
                                
  19755559.110   105604784.780    19755559.718    82137057.262    19755559.807  
                                
  23098242.222   123299985.084    23098245.671    95900002.005    23098245.742  
                                
  19766487.590   105737379.812    19766487.840    82240185.177    19766487.483  
                                
  20241607.167   108240969.871    20241610.044    84187432.830    20241609.043  
                                
  23841824.124   125289632.179                                                  
  23841827.304    93560451.476  
  22408579.168   117757879.077                                                  
  22408581.920    87936087.683  
  25558257.730   134309550.960                                                  
  25558259.160   100296098.500  
  23720681.708   124653024.441                                                  
  23720685.353    93085064.314  
 21  8 31 18 48 46.0000000  0 15G 5G13G15G18G23G29R 4R 5R18R19R20E 5
                                E 9E11E36
  23088480.178   121330781.694    23088479.088    94543458.950    23088478.534  
                                
  21964452.608   115423976.703                    89940751.733    21964450.231  
                                
  20285655.381   106601838.540    20285653.665    83066357.774    20285653.040  
                                
  20391243.473   107156707.441    20391241.829    83498725.246    20391241.507  
  20391246.118    80019629.218  
  21257796.077   111710472.220    21257794.612    87047114.115    21257794.344  
  21257798.615    83420167.611  
  22155100.377   116425837.596    22155099.269    90721425.047    22155098.697  
                                
  19856036.894   106328176.291    19856036.233    82699688.947    19856036.215  
                                
  19755266.630   105603221.327    19755267.255    82135841.243    19755267.345  
                                
  23098988.450   123303968.501    23098991.899    95903100.218    23098991.953  
                                
  19766832.998   105739227.609    19766833.284    82241622.352    19766832.927  
                                
  20241107.174   108238296.151    20241110.051    84185353.265    20241109.050  
                                
  23841544.581   125288163.212                                                  
  23841547.761    93559354.526  
  22408821.561   117759152.886                                                  
  22408824.331    87937038.901  
  25558734.940   134312058.537                                                  
  25558736.370   100297971.028  
  23720852.339   124653921.012                                                  
  23720855.949    93085733.822  
 21  8 31 18 48 47.0000000  0 15G 5G13G15G18G23G29R 4R 5R18R19R20E 5
                                E 9E11E36
  23089012.103   121333577.009    23089011.031    94545637.117    23089010.477  
                                
  21964857.377   115426103.846                    89942409.250    21964855.000  
                                
  20285792.561   106602559.428    20285790.846    83066919.505    20285790.220  
                                
  20391019.538   107155530.601    20391017.859    83497808.230    20391017.537  
  20391022.183    80018750.411  
  21257509.780   111708967.740    21257508.332    87045941.793    21257508.046  
  21257512.317    83419044.127  
  22155701.830   116428998.223    22155700.722    90723887.873    22155700.150  
                                
  19856447.328   106330374.100    19856446.667    82701398.349    19856446.649  
                                
  19754974.311   105601658.730    19754974.936    82134625.888    19754975.025  
                                
  23099734.750   123307952.359    23099738.217    95906198.773    23099738.270  
                                
  19767178.621   105741076.302    19767178.871    82243060.224    19767178.514  
                                
  20240607.306   108235623.164    20240610.183    84183274.276    20240609.182  
                                
  23841265.163   125286694.811                                                  
  23841268.325    93558257.996  
  22409064.062   117760427.244                                                  
  22409066.814    87937990.530  
  25559212.168   134314566.455                                                  
  25559213.598   100299843.815  
  23721023.042   124654818.081                                                  
  23721026.669    93086403.718  
 21  8 31 18 48 48.0000000  0 15G 5G13G15G18G23G29R 4R 5R18R19R20E 5
                                E 9E11E36
  23089544.064   121336372.458    23089542.974    94547815.392    23089542.420  
                                
  21965262.289   115428231.633                    89944067.265    21965259.894  
                                
  20285929.902   106603281.088    20285928.169    83067481.838    20285927.544  
                                
  20390795.693   107154354.230    20390794.013    83496891.582    20390793.692  
  20390798.338    80017871.952  
  21257223.572   111707463.624    21257222.088    87044769.754    21257221.820  
  21257226.091    83417920.927  
  22156303.355   116432159.331    22156302.247    90726351.074    22156301.693  
                                
  19856857.851   106332572.488    19856857.190    82703108.207    19856857.172  
                                
  19754682.134   105600096.871    19754682.777    82133411.110    19754682.849  
                                
  23100481.139   123311936.563    23100484.588    95909297.593    23100484.659  
                                
  19767524.351   105742925.831    19767524.619    82244498.744    19767524.261  
                                
  20240107.563   108232950.754    20240110.440    84181195.737    20240109.439  
                                
  23840985.834   125285226.891                                                  
  23840988.997    93557161.815  
  22409306.652   117761702.033                                                  
  22409309.386    87938942.487  
  25559689.468   134317074.631                                                  
  25559690.897   100301716.816  
  23721193.834   124655715.573                                                  
  23721197.461    93087073.921  
 21  8 31 18 48 49.0000000  0 15G 5G13G15G18G23G29R 4R 5R18R19R20E 5
                                E 9E11E36
  23090076.025   121339168.022    23090074.953    94549993.739    23090074.399  
                                
  21965667.290   115430359.962                    89945725.701    21965664.914  
                                
  20286067.351   106604003.408    20286065.618    83068044.678    20286064.992  
                                
  20390571.901   107153178.221    20390570.222    83495975.209    20390569.900  
  20390574.546    80016993.757  
  21256937.399   111705959.786    21256935.934    87043597.933    21256935.648  
  21256939.919    83416797.925  
  22156904.969   116435320.794    22156903.861    90728814.543    22156903.307  
                                
  19857268.481   106334771.337    19857267.820    82704818.416    19857267.802  
                                
  19754390.065   105598535.627    19754390.708    82132196.807    19754390.798  
                                
  23101227.582   123315921.015    23101231.013    95912396.583    23101231.084  
                                
  19767870.241   105744776.053    19767870.527    82245937.804    19767870.152  
                                
  20239607.891   108230278.837    20239610.768    84179117.572    20239609.767  
                                
  23840706.559   125283759.324                                                  
  23840709.740    93556065.911  
  22409549.313   117762977.153                                                  
  22409552.047    87939894.690  
  25560166.785   134319582.968                                                  
  25560168.215   100303589.875  
  23721364.680   124656613.353                                                  
  23721368.289    93087744.337  
 21  8 31 18 48 50.0000000  0 15G 5G13G15G18G23G29R 4R 5R18R19R20E 5
                                E 9E11E36
  23090608.039   121341963.759    23090606.985    94552172.236    23090606.413  
                                
  21966072.435   115432488.974                    89947384.670    21966070.058  
                                
  20286204.942   106604726.539    20286203.227    83068608.156    20286202.601  
                                
  20390348.199   107152002.698    20390346.520    83495059.220    20390346.198  
  20390350.844    80016115.943  
  21256651.316   111704456.374    21256649.851    87042426.443    21256649.565  
  21256653.854    83415675.248  
  22157506.673   116438482.753    22157505.565    90731278.405    22157504.993  
                                
  19857679.236   106336970.826    19857678.557    82706529.129    19857678.539  
                                
  19754098.174   105596975.203    19754098.782    82130983.144    19754098.889  
                                
  23101974.078   123319905.931    23101977.527    95915495.968    23101977.580  
                                
  19768216.275   105746627.144    19768216.561    82247377.541    19768216.186  
                                
  20239108.345   108227607.559    20239111.240    84177039.911    20239110.239  
                                
  23840427.391   125282292.279                                                  
  23840430.554    93554970.390  
  22409792.046   117764252.773                                                  
  22409794.798    87940847.262  
  25560644.174   134322091.592                                                  
  25560645.586   100305463.199  
  23721535.615   124657511.603                                                  
  23721539.242    93088415.105  
 21  8 31 18 48 51.0000000  0 15G 5G13G15G18G23G29R 4R 5R18R19R20E 5
                                E 9E11E36
  23091140.072   121344759.614    23091139.000    94554350.821    23091138.428  
                                
  21966477.686   115434618.600                    89949044.119    21966475.292  
                                
  20286342.695   106605450.400    20286340.961    83069172.208    20286340.336  
                                
  20390124.586   107150827.610    20390122.907    83494143.569    20390122.585  
  20390127.231    80015238.444  
  21256365.269   111702953.288    21256363.821    87041255.212    21256363.536  
  21256367.788    83414552.826  
  22158108.466   116441645.155    22158107.358    90733742.607    22158106.786  
                                
  19858090.063   106339170.859    19858089.402    82708240.264    19858089.384  
                                
  19753806.373   105595415.475    19753806.999    82129770.025    19753807.106  
                                
  23102720.646   123323891.197    23102724.077    95918595.623    23102724.148  
                                
  19768562.470   105748478.979    19768562.755    82248817.855    19768562.380  
                                
  20238608.923   108224936.860    20238611.800    84174962.701    20238610.800  
                                
  23840148.295   125280825.659                                                  
  23840151.476    93553875.185  
  22410034.850   117765528.797                                                  
  22410037.602    87941800.136  
  25561121.563   134324600.411                                                  
  25561122.992   100307336.671  
  23721706.621   124658410.242                                                  
  23721710.231    93089086.167  
 21  8 31 18 48 52.0000000  0 15G 5G13G15G18G23G29R 4R 5R18R19R20E 5
                                E 9E11E36
  23091672.122   121347555.539    23091671.050    94556529.459    23091670.496  
                                
  21966883.045   115436748.766                    89950703.991    21966880.668  
                                
  20286480.572   106606174.927    20286478.839    83069736.772    20286478.213  
                                
  20389901.045   107149652.883    20389899.383    83493228.195    20389899.061  
  20389903.672    80014361.208  
  21256079.311   111701450.490    21256077.846    87040084.202    21256077.560  
  21256081.830    83413430.605  
  22158710.312   116444807.907    22158709.204    90736207.085    22158708.633  
                                
  19858500.997   106341371.362    19858500.336    82709951.766    19858500.318  
                                
  19753514.715   105593856.371    19753515.341    82128557.391    19753515.448  
                                
  23103467.267   123327876.724    23103470.734    95921695.478    23103470.770  
                                
  19768908.789   105750331.543    19768909.057    82250258.736    19768908.700  
                                
  20238109.574   108222266.639    20238112.450    84172885.862    20238111.450  
                                
  23839869.270   125279359.394                                                  
  23839872.433    93552780.247  
  22410277.744   117766805.159                                                  
  22410280.496    87942753.263  
  25561599.005   134327109.370                                                  
  25561600.435   100309210.256  
  23721877.681   124659309.181                                                  
  23721881.291    93089757.453  
 21  8 31 18 48 53.0000000  0 15G 5G13G15G18G23G29R 4R 5R18R19R20E 5
                                E 9E11E36
  23092204.190   121350351.619    23092203.136    94558708.223    23092202.582  
                                
  21967288.529   115438879.575                    89952364.359    21967286.134  
                                
  20286618.592   106606900.217    20286616.859    83070301.933    20286616.234  
                                
  20389677.593   107148478.613    20389675.913    83492313.177    20389675.591  
  20389680.237    80013484.319  
  21255793.406   111699948.070    21255791.941    87038913.486    21255791.673  
  21255795.926    83412308.663  
  22159312.266   116447971.125    22159311.158    90738671.930    22159310.586  
                                
  19858912.038   106343572.450    19858911.377    82711663.726    19858911.341  
                                
  19753223.200   105592297.998    19753223.807    82127345.325    19753223.915  
                                
  23104213.942   123331862.562    23104217.409    95924795.567    23104217.445  
                                
  19769255.234   105752184.908    19769255.520    82251700.244    19769255.162  
                                
  20237610.331   108219597.021    20237613.226    84170809.495    20237612.225  
                                
  23839590.353   125277893.611                                                  
  23839593.516    93551685.671  
  22410520.709   117768081.970                                                  
  22410523.479    87943706.726  
  25562076.501   134329618.608                                                  
  25562077.931   100311084.026  
  23722048.813   124660208.540                                                  
  23722052.458    93090429.050  
 21  8 31 18 48 54.0000000  0 15G 5G13G15G18G23G29R 4R 5R18R19R20E 5
                                E 9E11E36
  23092736.258   121353147.573    23092735.186    94560886.882    23092734.632  
                                
  21967694.066   115441010.742                    89954025.006    21967691.690  
                                
  20286756.702   106607626.011    20286754.987    83070867.483    20286754.361  
                                
  20389454.176   107147304.543    20389452.497    83491398.320    20389452.175  
  20389456.821    80012607.576  
  21255507.520   111698445.750    21255506.055    87037742.837    21255505.769  
  21255510.057    83411186.798  
  22159914.238   116451134.531    22159913.130    90741136.926    22159912.576  
                                
  19859323.151   106345773.862    19859322.471    82713375.940    19859322.436  
                                
  19752931.756   105590740.073    19752932.382    82126133.611    19752932.471  
                                
  23104960.653   123335848.501    23104964.120    95927895.728    23104964.155  
                                
  19769601.803   105754038.807    19769602.089    82253142.168    19769601.732  
                                
  20237111.160   108216927.666    20237114.037    84168733.330    20237113.036  
                                
  23839311.471   125276428.030                                                  
  23839314.616    93550591.246  
  22410763.710   117769358.939                                                  
  22410766.462    87944660.311  
  25562553.979   134332127.776                                                  
  25562555.409   100312957.780  
  23722219.998   124661108.030                                                  
  23722223.608    93091100.754  
 21  8 31 18 48 55.0000000  0 15G 5G13G15G18G23G29R 4R 5R18R19R20E 5
                                E 9E11E36
  23093268.344   121355943.674    23093267.272    94563065.657    23093266.718  
                                
  21968099.729   115443142.501                    89955686.112    21968097.352  
                                
  20286894.955   106608352.513    20286893.203    83071433.589    20286892.596  
                                
  20389230.831   107146130.864    20389229.152    83490483.762    20389228.830  
  20389233.476    80011731.131  
  21255221.705   111696943.752    21255220.240    87036572.452    21255219.954  
  21255224.224    83410065.177  
  22160516.281   116454298.339    22160515.209    90743602.226    22160514.619  
                                
  19859734.335   106347975.782    19859733.673    82715088.544    19859733.638  
                                
  19752640.455   105589182.844    19752641.063    82124922.434    19752641.152  
                                
  23105707.417   123339834.729    23105710.866    95930996.132    23105710.920  
                                
  19769948.534   105755893.459    19769948.784    82254584.675    19769948.427  
                                
  20236612.078   108214258.896    20236614.955    84166657.622    20236613.954  
                                
  23839032.643   125274962.842                                                  
  23839035.805    93549497.118  
  22411006.782   117770636.304                                                  
  22411009.534    87945614.190  
  25563031.511   134334637.166                                                  
  25563032.905   100314831.680  
  23722391.237   124662007.894                                                  
  23722394.847    93091772.727  
 21  8 31 18 48 56.0000000  0 15G 5G13G15G18G23G29R 4R 5R18R19R20E 5
                                E 9E11E36
  23093800.430   121358739.766    23093799.375    94565244.431    23093798.786  
                                
  21968505.499   115445274.777                    89957347.626    21968503.104  
                                
  20287033.315   106609079.632    20287031.581    83072000.174    20287030.956  
                                
  20389007.540   107144957.516    20389005.878    83489569.465    20389005.557  
  20389010.202    80010854.926  
  21254935.926   111695441.998    21254934.460    87035402.252    21254934.192  
  21254938.463    83408943.729  
  22161118.413   116457462.469    22161117.323    90746067.782    22161116.734  
                                
  19860145.590   106350178.138    19860144.929    82716801.488    19860144.911  
                                
  19752349.244   105587626.235    19752349.869    82123711.736    19752349.941  
                                
  23106454.200   123343821.195    23106457.648    95934096.719    23106457.702  
                                
  19770295.336   105757748.768    19770295.622    82256027.696    19770295.264  
                                
  20236113.086   108211590.604    20236115.980    84164582.284    20236114.980  
                                
  23838753.886   125273497.998                                                  
  23838757.049    93548403.235  
  22411249.908   117771913.960                                                  
  22411252.660    87946568.281  
  25563509.061   134337146.692                                                  
  25563510.490   100316705.663  
  23722562.512   124662908.009                                                  
  23722566.139    93092444.890  
 21  8 31 18 48 57.0000000  0 15G 5G13G15G18G23G29R 4R 5R18R19R20E 5
                                E 9E11E36
  23094332.533   121361535.958    23094331.461    94567423.281    23094330.907  
                                
  21968911.358   115447407.643                    89959009.599    21968908.981  
                                
  20287171.817   106609807.475    20287170.102    83072567.322    20287169.476  
                                
  20388784.356   107143784.573    20388782.676    83488655.483    20388782.355  
  20388786.983    80009979.022  
  21254650.218   111693940.553    21254648.753    87034232.294    21254648.467  
  21254652.737    83407822.524  
  22161720.599   116460627.017    22161719.509    90748533.666    22161718.920  
                                
  19860556.971   106352381.006    19860556.292    82718514.830    19860556.274  
                                
  19752058.193   105586070.325    19752058.801    82122501.586    19752058.890  
                                
  23107201.053   123347807.978    23107204.502    95937197.555    23107204.556  
                                
  19770642.317   105759604.824    19770642.603    82257471.297    19770642.245  
                                
  20235614.218   108208922.861    20235617.095    84162507.378    20235616.094  
                                
  23838475.218   125272033.553                                                  
  23838478.381    93547309.660  
  22411493.123   117773192.018                                                  
  22411495.875    87947522.671  
  25563986.646   134339656.408                                                  
  25563988.040   100318579.806  
  23722733.876   124663808.486                                                  
  23722737.503    93093117.328  
 21  8 31 18 48 58.0000000  0 15G 5G13G15G18G23G29R 4R 5R18R19R20E 5
                                E 9E11E36
  23094864.601   121364332.003    23094863.547    94569602.013    23094862.958  
                                
  21969317.306   115449540.825                    89960671.822    21969314.912  
                                
  20287310.409   106610535.778    20287308.694    83073134.834    20287308.069  
                                
  20388561.154   107142611.768    20388559.474    83487741.609    20388559.153  
  20388563.816    80009103.237  
  21254364.492   111692439.180    21254363.045    87033062.391    21254362.777  
  21254367.030    83406701.373  
  22162322.821   116463791.708    22162321.749    90750999.657    22162321.159  
                                
  19860968.405   106354584.158    19860967.726    82720228.393    19860967.708  
                                
  19751767.196   105584514.842    19751767.804    82121291.768    19751767.911  
                                
  23107947.943   123351794.835    23107951.374    95940298.437    23107951.445  
                                
  19770989.369   105761461.385    19770989.655    82258915.289    19770989.297  
                                
  20235115.386   108206255.405    20235118.263    84160432.692    20235117.263  
                                
  23838196.569   125270569.281                                                  
  23838199.732    93546216.210  
  22411736.356   117774470.217                                                  
  22411739.126    87948477.168  
  25564464.249   134342166.075                                                  
  25564465.643   100320453.899  
  23722905.258   124664709.080                                                  
  23722908.867    93093789.849  
 21  8 31 18 48 59.0000000  0 15G 5G13G15G18G23G29R 4R 5R18R19R20E 5
                                E 9E11E36
  23095396.669   121367128.169    23095395.615    94571780.841    23095395.061  
                                
  21969723.344   115451674.639                    89962334.536    21969720.950  
                                
  20287449.145   106611264.813    20287447.411    83073702.910    20287446.786  
                                
  20388338.059   107141439.391    20388336.380    83486828.071    20388336.058  
  20388340.722    80008227.759  
  21254078.874   111690938.163    21254077.426    87031892.770    21254077.140  
  21254081.393    83405580.477  
  22162925.114   116466956.821    22162924.042    90753465.974    22162923.453  
                                
  19861379.929   106356787.857    19861379.250    82721942.392    19861379.214  
                                
  19751476.342   105582960.066    19751476.968    82120082.510    19751477.039  
                                
  23108694.868   123355781.981    23108698.317    95943399.546    23108698.370  
                                
  19771336.582   105763318.696    19771336.850    82260359.861    19771336.492  
                                
  20234616.662   108203588.513    20234619.539    84158358.443    20234618.538  
                                
  23837918.027   125269105.422                                                  
  23837921.172    93545123.067  
  22411979.661   117775748.791                                                  
  22411982.413    87949431.958  
  25564941.835   134344675.926                                                  
  25564943.246   100322328.134  
  23723076.693   124665610.055                                                  
  23723080.320    93094462.653  
 21  8 31 18 49  0.0000000  0 15G 5G13G15G18G23G29R 4R 5R18R19R20E 5
                                E 9E11E36
  23095928.791   121369924.422    23095927.737    94573959.740    23095927.165  
                                
  21970129.507   115453808.995                    89963997.671    21970127.112  
                                
  20287587.987   106611994.516    20287586.271    83074271.510    20287585.646  
                                
  20388115.054   107140267.402    20388113.374    83485914.835    20388113.052  
  20388117.698    80007352.570  
  21253793.291   111689437.421    21253791.826    87030723.361    21253791.540  
  21253795.811    83404459.805  
  22163527.497   116470122.319    22163526.407    90755932.598    22163525.835  
                                
  19861791.542   106358992.065    19861790.863    82723656.771    19861790.845  
                                
  19751185.595   105581405.923    19751186.221    82118873.734    19751186.292  
                                
  23109441.847   123359769.410    23109445.277    95946500.884    23109445.331  
                                
  19771683.920   105765176.729    19771684.188    82261804.996    19771683.830  
                                
  20234118.045   108200922.150    20234120.922    84156284.605    20234119.921  
                                
  23837639.520   125267641.957                                                  
  23837642.683    93544030.219  
  22412223.019   117777027.744                                                  
  22412225.789    87950387.018  
  25565419.492   134347185.962                                                  
  25565420.885   100324202.494  
  23723248.218   124666511.353                                                  
  23723251.827    93095135.701  
 21  8 31 18 49  1.0000000  0 15G 5G13G15G18G23G29R 4R 5R18R19R20E 5
                                E 9E11E36
  23096460.948   121372720.858    23096459.894    94576138.778    23096459.322  
                                
  21970535.795   115455944.044                    89965661.345    21970533.383  
                                
  20287727.026   106612725.053    20287725.275    83074840.760    20287724.667  
                                
  20387892.120   107139095.926    20387890.458    83485001.994    20387890.136  
  20387894.782    80006477.766  
  21253507.798   111687937.129    21253506.332    87029554.304    21253506.046  
  21253510.317    83403339.461  
  22164129.987   116473288.343    22164128.879    90758399.627    22164128.307  
                                
  19862203.280   106361196.909    19862202.601    82725371.648    19862202.583  
                                
  19750895.009   105579852.577    19750895.635    82117665.576    19750895.724  
                                
  23110188.915   123363757.275    23110192.346    95949602.552    23110192.381  
                                
  19772031.419   105767035.632    19772031.705    82263250.812    19772031.329  
                                
  20233619.535   108198256.417    20233622.412    84154211.257    20233621.411  
                                
  23837361.156   125266179.023                                                  
  23837364.283    93542937.773  
  22412466.503   117778307.193                                                  
  22412469.254    87951342.453  
  25565897.184   134349696.283                                                  
  25565898.596   100326077.100  
  23723419.814   124667413.118                                                  
  23723423.441    93095809.101  
 21  8 31 18 49  2.0000000  0 15G 5G13G15G18G23G29R 4R 5R18R19R20E 5
                                E 9E11E36
  23096993.088   121375517.214    23096992.016    94578317.755    23096991.444  
                                
  21970942.154   115458079.504                    89967325.340    21970939.760  
                                
  20287866.136   106613456.091    20287864.385    83075410.400    20287863.777  
                                
  20387669.240   107137924.658    20387667.560    83484089.316    20387667.238  
  20387671.884    80005603.114  
  21253222.322   111686436.957    21253220.857    87028385.341    21253220.571  
  21253224.842    83402219.200  
  22164732.477   116476454.548    22164731.405    90760866.800    22164730.815  
                                
  19862615.089   106363402.071    19862614.428    82727086.776    19862614.392  
                                
  19750604.512   105578299.739    19750605.138    82116457.818    19750605.209  
                                
  23110935.983   123367745.229    23110939.414    95952704.292    23110939.485  
                                
  19772379.043   105768895.117    19772379.293    82264697.083    19772378.935  
                                
  20233121.078   108195591.036    20233123.955    84152138.185    20233122.973  
                                
  23837082.793   125264716.294                                                  
  23837085.956    93541845.471  
  22412710.004   117779586.830                                                  
  22412712.791    87952298.022  
  25566374.877   134352206.595                                                  
  25566376.271   100327951.699  
  23723591.428   124668315.044                                                  
  23723595.055    93096482.615  
 21  8 31 18 49  3.0000000  0 15G 5G13G15G18G23G29R 4R 5R18R19R20E 5
                                E 9E11E36
  23097525.227   121378313.755    23097524.173    94580496.880    23097523.619  
                                
  21971348.657   115460215.618                    89968989.842    21971346.244  
                                
  20288005.389   106614187.937    20288003.656    83075980.674    20288003.049  
                                
  20387446.449   107136753.863    20387444.769    83483177.011    20387444.447  
  20387449.093    80004728.826  
  21252936.918   111684937.192    21252935.453    87027216.693    21252935.185  
  21252939.438    83401099.242  
  22165335.092   116479621.270    22165334.020    90763334.376    22165333.430  
                                
  19863026.988   106365607.821    19863026.327    82728802.360    19863026.309  
                                
  19750314.177   105576747.676    19750314.802    82115250.653    19750314.873  
                                
  23111683.140   123371733.591    23111686.589    95955806.347    23111686.643  
                                
  19772726.792   105770755.415    19772727.078    82266143.981    19772726.702  
                                
  20232622.747   108192926.291    20232625.642    84150065.603    20232624.641  
                                
  23836804.536   125263254.059                                                  
  23836807.699    93540753.544  
  22412953.612   117780866.942                                                  
  22412956.382    87953253.952  
  25566852.659   134354717.245                                                  
  25566854.052   100329826.510  
  23723763.149   124669217.425                                                  
  23723766.777    93097156.464  
 21  8 31 18 49  4.0000000  0 15G 5G13G15G18G23G29R 4R 5R18R19R20E 5
                                E 9E11E36
  23098057.403   121381110.302    23098056.348    94582676.012    23098055.795  
                                
  21971755.231   115462352.225                    89970654.733    21971752.818  
                                
  20288144.768   106614920.422    20288143.052    83076551.442    20288142.409  
                                
  20387223.711   107135583.406    20387222.031    83482264.964    20387221.710  
  20387226.356    80003854.787  
  21252651.568   111683437.651    21252650.102    87026048.224    21252649.816  
  21252654.087    83399979.470  
  22165937.778   116482788.323    22165936.670    90765802.203    22165936.098  
                                
  19863438.976   106367813.993    19863438.315    82730518.274    19863438.297  
                                
  19750023.948   105575196.208    19750024.555    82114043.949    19750024.645  
                                
  23112430.351   123375722.180    23112433.800    95958908.559    23112433.836  
                                
  19773074.702   105772616.411    19773074.952    82267591.420    19773074.594  
                                
  20232124.523   108190261.976    20232127.400    84147993.359    20232126.399  
                                
  23836526.369   125261792.166                                                  
  23836529.496    93539661.873  
  22413197.256   117782147.376                                                  
  22413200.026    87954210.109  
  25567330.441   134357227.979                                                  
  25567331.834   100331701.401  
  23723934.924   124670120.074                                                  
  23723938.552    93097830.518  
 21  8 31 18 49  5.0000000  0 15G 5G13G15G18G23G29R 4R 5R18R19R20E 5
                                E 9E11E36
  23098589.578   121383906.911    23098588.524    94584855.183    23098587.970  
                                
  21972161.930   115464489.378                    89972320.047    21972159.517  
                                
  20288284.289   106615653.550    20288282.556    83077122.708    20288281.930  
                                
  20387001.063   107134413.300    20386999.383    83481353.191    20386999.062  
  20387003.690    80002980.998  
  21252366.271   111681938.389    21252364.806    87024879.970    21252364.538  
  21252368.790    83398859.877  
  22166540.500   116485955.714    22166539.410    90768270.299    22166538.821  
                                
  19863851.054   106370020.647    19863850.393    82732234.562    19863850.375  
                                
  19749733.826   105573645.378    19749734.452    82112837.746    19749734.523  
                                
  23113177.598   123379711.025    23113181.047    95962010.992    23113181.100  
                                
  19773422.719   105774478.089    19773422.969    82269039.387    19773422.611  
                                
  20231626.370   108187598.175    20231629.265    84145921.513    20231628.265  
                                
  23836248.220   125260330.608                                                  
  23836251.365    93538570.450  
  22413440.990   117783428.116                                                  
  22413443.742    87955166.508  
  25567808.223   134359738.820                                                  
  25567809.616   100333576.379  
  23724106.753   124671023.009                                                  
  23724110.362    93098504.786  
 21  8 31 18 49  6.0000000  0 15G 5G13G15G18G23G29R 4R 5R18R19R20E 5
                                E 9E11E36
  23099121.789   121386703.622    23099120.735    94587034.436    23099120.163  
                                
  21972568.718   115466627.127                    89973985.827    21972566.323  
                                
  20288423.935   106616387.385    20288422.220    83077694.528    20288421.577  
                                
  20386778.487   107133243.606    20386776.807    83480441.740    20386776.485  
  20386781.113    80002107.519  
  21252081.028   111680439.443    21252079.562    87023711.963    21252079.294  
  21252083.547    83397740.539  
  22167143.312   116489123.513    22167142.222    90770738.714    22167141.650  
                                
  19864263.238   106372227.847    19864262.577    82733951.274    19864262.559  
                                
  19749443.848   105572095.211    19749444.455    82111632.063    19749444.527  
                                
  23113924.899   123383700.187    23113928.347    95965113.671    23113928.401  
                                
  19773770.879   105776340.513    19773771.147    82270487.944    19773770.789  
                                
  20231128.325   108184934.888    20231131.202    84143850.067    20231130.201  
                                
  23835970.196   125258869.476                                                  
  23835973.323    93537479.349  
  22413684.777   117784709.253                                                  
  22413687.529    87956123.197  
  25568286.058   134362249.877                                                  
  25568287.470   100335451.519  
  23724278.653   124671926.323                                                  
  23724282.262    93099179.338  
 21  8 31 18 49  7.0000000  0 15G 5G13G15G18G23G29R 4R 5R18R19R20E 5
                                E 9E11E36
  23099653.982   121389500.351    23099652.928    94589213.701    23099652.374  
                                
  21972975.613   115468765.368                    89975651.987    21972973.219  
                                
  20288563.707   106617121.854    20288561.956    83078266.841    20288561.348  
                                
  20386555.946   107132074.222    20386554.266    83479530.530    20386553.944  
  20386558.608    80001234.284  
  21251795.838   111678940.735    21251794.373    87022544.136    21251794.087  
  21251798.358    83396621.376  
  22167746.177   116492291.649    22167745.105    90773207.391    22167744.515  
                                
  19864675.513   106374435.491    19864674.834    82735668.330    19864674.816  
                                
  19749153.977   105570545.638    19749154.566    82110426.842    19749154.656  
                                
  23114672.253   123387689.556    23114675.683    95968216.514    23114675.737  
                                
  19774119.164   105778203.595    19774119.432    82271937.008    19774119.075  
                                
  20230630.369   108182272.057    20230633.264    84141778.977    20230632.263  
                                
  23835692.207   125257408.673                                                  
  23835695.352    93536388.485  
  22413928.618   117785990.688                                                  
  22413931.387    87957080.113  
  25568763.929   134364761.046                                                  
  25568765.305   100337326.743  
  23724450.588   124672829.908                                                  
  23724454.216    93099854.097  
 21  8 31 18 49  8.0000000  0 15G 5G13G15G18G23G29R 4R 5R18R19R20E 5
                                E 9E11E36
  23100186.175   121392297.065    23100185.139    94591392.961    23100184.567  
                                
  21973382.598   115470904.094                    89977318.527    21973380.204  
                                
  20288703.568   106617856.910    20288701.852    83078839.612    20288701.209  
                                
  20386333.476   107130905.141    20386331.797    83478619.558    20386331.475  
  20386336.121    80000361.267  
  21251510.666   111677442.253    21251509.237    87021376.485    21251508.951  
  21251513.186    83395502.374  
  22168349.113   116495460.064    22168348.041    90775676.282    22168347.469  
                                
  19865087.840   106376643.541    19865087.161    82737385.699    19865087.143  
                                
  19748864.195   105568996.647    19748864.802    82109222.069    19748864.892  
                                
  23115419.624   123391679.135    23115423.055    95971319.522    23115423.109  
                                
  19774467.574   105780067.331    19774467.824    82273386.580    19774467.467  
                                
  20230132.502   108179609.677    20230135.361    84139708.237    20230134.361  
                                
  23835414.273   125255948.171                                                  
  23835417.418    93535297.847  
  22414172.530   117787272.402                                                  
  22414175.299    87958037.239  
  25569241.783   134367272.291                                                  
  25569243.177   100339202.021  
  23724622.596   124673733.750                                                  
  23724626.205    93100529.036  
 21  8 31 18 49  9.0000000  0 15G 5G13G15G18G23G29R 4R 5R18R19R20E 5
                                E 9E11E36
  23100718.458   121395094.096    23100717.385    94593572.459    23100716.814  
                                
  21973789.726   115473043.577                    89978985.647    21973787.332  
                                
  20288843.625   106618592.884    20288841.892    83079413.096    20288841.267  
                                
  20386111.114   107129736.640    20386109.435    83477709.040    20386109.131  
  20386113.759    79999488.685  
  21251225.620   111675944.255    21251224.154    87020209.214    21251223.868  
  21251228.139    83394383.750  
  22168952.157   116498629.089    22168951.085    90778145.650    22168950.495  
                                
  19865500.329   106378852.317    19865499.650    82739103.630    19865499.614  
                                
  19748574.591   105567448.534    19748575.181    82108017.976    19748575.270  
                                
  23116167.104   123395669.220    23116170.534    95974422.919    23116170.588  
                                
  19774816.145   105781931.984    19774816.413    82274836.863    19774816.038  
                                
  20229634.761   108176948.026    20229637.637    84137638.071    20229636.637  
                                
  23835136.463   125254488.263                                                  
  23835139.608    93534207.662  
  22414416.531   117788554.680                                                  
  22414419.301    87958994.780  
  25569719.726   134369783.930                                                  
  25569721.137   100341077.584  
  23724794.692   124674638.097                                                  
  23724798.302    93101204.369  
 21  8 31 18 49 10.0000000  0 15G 5G13G15G18G23G29R 4R 5R18R19R20E 5
                                E 9E11E36
  23101250.704   121397891.162    23101249.632    94595751.991    23101249.078  
                                
  21974196.979   115475183.611                    89980653.211    21974194.567  
                                
  20288983.790   106619329.513    20288982.074    83079987.090    20288981.449  
                                
  20385888.824   107128568.513    20385887.144    83476798.811    20385886.822  
  20385891.486    79998616.380  
  21250940.609   111674446.551    21250939.179    87019042.174    21250938.893  
  21250943.146    83393265.323  
  22169555.272   116501798.455    22169554.182    90780615.288    22169553.593  
                                
  19865912.871   106381061.569    19865912.210    82740821.939    19865912.174  
                                
  19748285.113   105565901.065    19748285.703    82106814.391    19748285.792  
                                
  23116914.618   123399659.538    23116918.067    95977526.504    23116918.103  
                                
  19775164.841   105783797.341    19775165.127    82276287.695    19775164.752  
                                
  20229137.090   108174286.877    20229139.985    84135568.290    20229138.985  
                                
  23834858.725   125253028.727                                                  
  23834861.870    93533117.749  
  22414660.604   117789837.310                                                  
  22414663.392    87959952.583  
  25570197.740   134372295.741                                                  
  25570199.134   100342953.268  
  23724966.842   124675542.785                                                  
  23724970.452    93101879.949  
 21  8 31 18 49 11.0000000  0 15G 5G13G15G18G23G29R 4R 5R18R19R20E 5
                                E 9E11E36
  23101782.951   121400688.094    23101781.897    94597931.421    23101781.307  
                                
  21974604.268   115477323.980                    89982321.031    21974601.873  
                                
  20289124.062   106620066.594    20289122.328    83080561.434    20289121.721  
                                
  20385666.569   107127400.535    20385664.889    83475888.696    20385664.567  
  20385669.231    79997744.193  
  21250655.616   111672948.911    21250654.186    87017875.185    21250653.900  
  21250658.135    83392146.965  
  22170158.423   116504967.985    22170157.316    90783085.054    22170156.744  
                                
  19866325.485   106383271.094    19866324.823    82742540.456    19866324.806  
                                
  19747995.707   105564354.042    19747996.314    82105611.146    19747996.386  
                                
  23117662.133   123403649.897    23117665.582    95980630.117    23117665.636  
                                
  19775513.662   105785663.216    19775513.930    82277738.928    19775513.573  
                                
  20228639.510   108171626.020    20228642.387    84133498.733    20228641.386  
                                
  23834581.022   125251569.355                                                  
  23834584.149    93532027.958  
  22414904.713   117791120.063                                                  
  22414907.465    87960910.486  
  25570675.700   134374807.453                                                  
  25570677.076   100344828.908  
  23725139.028   124676447.578                                                  
  23725142.638    93102555.602  
 21  8 31 18 49 12.0000000  0 15G 5G13G15G18G23G29R 4R 5R18R19R20E 5
                                E 9E11E36
  23102315.180   121403485.005    23102314.126    94600110.827    23102313.554  
                                
  21975011.664   115479464.810                    89983989.208    21975009.233  
                                
  20289264.423   106620804.261    20289262.707    83081136.238    20289262.082  
                                
  20385444.367   107126232.842    20385442.688    83474978.807    20385442.366  
  20385447.030    79996872.214  
  21250370.676   111671451.480    21250369.229    87016708.355    21250368.943  
  21250373.196    83391028.746  
  22170761.592   116508137.791    22170760.520    90785555.032    22170759.948  
                                
  19866738.187   106385480.997    19866737.508    82744259.272    19866737.473  
                                
  19747706.407   105562807.561    19747707.015    82104408.330    19747707.086  
                                
  23118409.702   123407640.451    23118413.133    95983733.883    23118413.168  
                                
  19775862.591   105787529.727    19775862.841    82279190.661    19775862.484  
                                
  20228141.982   108168965.593    20228144.877    84131429.514    20228143.877  
                                
  23834303.356   125250110.271                                                  
  23834306.500    93530938.380  
  22415148.857   117792403.086                                                  
  22415151.627    87961868.592  
  25571153.679   134377319.253                                                  
  25571155.073   100346704.598  
  23725311.250   124677352.606                                                  
  23725314.842    93103231.432  
 21  8 31 18 49 13.0000000  0 15G 5G13G15G18G23G29R 4R 5R18R19R20E 5
                                E 9E11E36
  23102847.409   121406281.930    23102846.372    94602290.247    23102845.783  
                                
  21975419.131   115481606.159                    89985657.792    21975416.736  
                                
  20289404.927   106621542.557    20289403.194    83081711.538    20289402.568  
                                
  20385222.220   107125065.480    20385220.540    83474069.173    20385220.218  
  20385224.882    79996000.481  
  21250085.755   111669954.286    21250084.307    87015541.708    21250084.039  
  21250088.274    83389910.723  
  22171364.868   116511307.931    22171363.778    90788025.269    22171363.207  
                                
  19867150.926   106387691.335    19867150.265    82745978.421    19867150.247  
                                
  19747417.215   105561261.678    19747417.805    82103205.976    19747417.912  
                                
  23119157.306   123411631.245    23119160.737    95986837.841    23119160.772  
                                
  19776211.644   105789396.928    19776211.912    82280642.926    19776211.537  
                                
  20227644.562   108166305.620    20227647.439    84129360.646    20227646.439  
                                
  23834025.796   125248651.524                                                  
  23834028.905    93529849.056  
  22415393.055   117793686.417                                                  
  22415395.843    87962826.923  
  25571631.675   134379831.176                                                  
  25571633.051   100348580.383  
  23725483.525   124678257.918                                                  
  23725487.135    93103907.477  
 21  8 31 18 49 14.0000000  0 15G 5G13G15G18G23G29R 4R 5R18R19R20E 5
                                E 9E11E36
  23103379.691   121409079.008    23103378.637    94604469.796    23103378.083  
                                
  21975826.759   115483748.137                    89987326.865    21975824.329  
                                
  20289545.574   106622281.647    20289543.841    83082287.455    20289543.215  
                                
  20385000.179   107123898.593    20384998.500    83473159.913    20384998.178  
  20385002.842    79995129.098  
  21249800.922   111668457.477    21249799.475    87014375.368    21249799.207  
  21249803.442    83388792.976  
  22171968.198   116514478.529    22171967.126    90790495.856    22171966.536  
                                
  19867563.826   106389902.270    19867563.147    82747698.045    19867563.129  
                                
  19747128.166   105559716.549    19747128.773    82102004.219    19747128.845  
                                
  23119904.999   123415622.451    23119908.412    95989942.090    23119908.466  
                                
  19776560.841   105791264.947    19776561.109    82282095.825    19776560.751  
                                
  20227147.250   108163646.265    20227150.144    84127292.261    20227149.108  
                                
  23833748.272   125247193.256                                                  
  23833751.417    93528760.090  
  22415637.361   117794970.215                                                  
  22415640.148    87963785.595  
  25572109.707   134382343.337                                                  
  25572111.101   100350456.345  
  23725655.872   124679163.674                                                  
  23725659.481    93104583.847  
 21  8 31 18 49 15.0000000  0 15G 5G13G15G18G23G29R 4R 5R18R19R20E 5
                                E 9E11E36
  23103912.009   121411876.330    23103910.955    94606649.522    23103910.383  
                                
  21976234.512   115485890.865                    89988996.523    21976232.082  
                                
  20289686.364   106623021.572    20289684.649    83082864.019    20289684.023  
                                
  20384778.210   107122732.238    20384776.531    83472251.060    20384776.209  
  20384780.873    79994258.125  
  21249516.180   111666961.125    21249514.750    87013209.377    21249514.464  
  21249518.699    83387675.566  
  22172571.671   116517649.679    22172570.563    90792966.886    22172569.991  
                                
  19867976.815   106392113.855    19867976.136    82749418.168    19867976.118  
                                
  19746839.259   105558172.212    19746839.867    82100803.070    19746839.938  
                                
  23120652.747   123419614.048    23120656.177    95993046.662    23120656.213  
                                
  19776910.234   105793133.868    19776910.484    82283549.431    19776910.127  
                                
  20226650.062   108160987.609    20226652.939    84125224.418    20226651.938  
                                
  23833470.874   125245735.531                                                  
  23833474.018    93527671.531  
  22415881.773   117796254.520                                                  
  22415884.525    87964744.656  
  25572587.847   134384855.835                                                  
  25572589.205   100352332.567  
  23725828.308   124680069.896                                                  
  23725831.935    93105260.571  
 21  8 31 18 49 16.0000000  0 15G 5G13G15G18G23G29R 4R 5R18R19R20E 5
                                E 9E11E36
  23104444.328   121414673.687    23104443.273    94608829.278    23104442.719  
                                
  21976642.337   115488034.080                    89990666.562    21976639.925  
                                
  20289827.297   106623762.127    20289825.564    83083441.079    20289824.956  
                                
  20384556.331   107121566.203    20384554.651    83471342.459    20384554.329  
  20384558.993    79993387.382  
  21249231.490   111665465.003    21249230.043    87012043.568    21249229.757  
  21249234.010    83386558.334  
  22173175.161   116520821.152    22173174.089    90795438.164    22173173.517  
                                
  19868389.893   106394325.879    19868389.214    82751138.631    19868389.196  
                                
  19746550.460   105556628.484    19746551.068    82099602.391    19746551.139  
                                
  23121400.547   123423605.847    23121403.978    95996151.395    23121404.014  
                                
  19777259.734   105795003.438    19777259.984    82285003.538    19777259.627  
                                
  20226152.964   108158329.376    20226155.840    84123156.904    20226154.840  
                                
  23833193.546   125244278.122                                                  
  23833196.673    93526583.211  
  22416126.221   117797539.122                                                  
  22416128.973    87965703.937  
  25573065.986   134387368.468                                                  
  25573067.362   100354208.860  
  23726000.816   124680976.394                                                  
  23726004.443    93105937.499  
 21  8 31 18 49 17.0000000  0 15G 5G13G15G18G23G29R 4R 5R18R19R20E 5
                                E 9E11E36
  23104976.664   121417471.079    23104975.609    94611009.065    23104975.038  
                                
  21977050.269   115490177.821                    89992337.007    21977047.874  
                                
  20289968.337   106624503.333    20289966.622    83084018.641    20289965.996  
                                
  20384334.505   107120400.514    20384332.825    83470434.130    20384332.503  
  20384337.167    79992516.896  
  21248946.819   111663969.144    21248945.389    87010877.966    21248945.103  
  21248949.338    83385441.297  
  22173778.759   116523992.976    22173777.669    90797909.713    22173777.097  
                                
  19868803.060   106396538.375    19868802.381    82752859.464    19868802.363  
                                
  19746261.804   105555085.388    19746262.411    82098402.207    19746262.483  
                                
  23122148.384   123427597.876    23122151.815    95999256.304    23122151.850  
                                
  19777609.341   105796873.709    19777609.609    82286458.196    19777609.252  
                                
  20225655.955   108155671.637    20225658.849    84121089.773    20225657.849  
                                
  23832916.291   125242821.072                                                  
  23832919.418    93525495.151  
  22416370.723   117798824.043                                                  
  22416373.493    87966663.456  
  25573544.125   134389881.204                                                  
  25573545.519   100356085.263  
  23726173.377   124681883.183                                                  
  23726176.986    93106614.642  
 21  8 31 18 49 18.0000000  0 15G 5G13G15G18G23G29R 4R 5R18R19R20E 5
                                E 9E11E36
  23105509.018   121420268.582    23105507.945    94613188.931    23105507.392  
                                
  21977458.326   115492322.161                    89994007.925    21977455.914  
                                
  20290109.520   106625245.256    20290107.805    83084596.762    20290107.180  
                                
  20384112.768   107119235.250    20384111.088    83469526.130    20384110.767  
  20384115.430    79991646.738  
  21248662.237   111662473.632    21248660.807    87009712.634    21248660.521  
  21248664.756    83384324.516  
  22174382.410   116527165.212    22174381.320    90800381.587    22174380.749  
                                
  19869216.335   106398751.419    19869215.656    82754580.718    19869215.638  
                                
  19745973.273   105553543.003    19745973.862    82097202.577    19745973.952  
                                
  23122896.292   123431590.235    23122899.705    96002361.473    23122899.776  
                                
  19777959.128   105798744.749    19777959.396    82287913.444    19777959.020  
                                
  20225159.053   108153014.477    20225161.948    84119023.093    20225160.947  
                                
  23832639.106   125241364.455                                                  
  23832642.215    93524407.416  
  22416615.315   117800109.385                                                  
  22416618.084    87967623.289  
  25574022.336   134392394.189                                                  
  25574023.694   100357961.836  
  23726346.009   124682790.367                                                  
  23726349.637    93107292.085  
 21  8 31 18 49 19.0000000  0 15G 5G13G15G18G23G29R 4R 5R18R19R20E 5
                                E 9E11E36
  23106041.354   121423066.080    23106040.299    94615368.808    23106039.728  
                                
  21977866.472   115494467.008                    89995679.225    21977864.078  
                                
  20290250.829   106625987.809    20290249.095    83085175.368    20290248.470  
                                
  20383891.085   107118070.280    20383889.405    83468618.368    20383889.083  
  20383893.747    79990776.791  
  21248377.673   111660978.301    21248376.243    87008547.437    21248375.957  
  21248380.192    83383207.875  
  22174986.115   116530337.741    22174985.043    90802853.672    22174984.453  
                                
  19869629.681   106400964.857    19869629.002    82756302.274    19869628.984  
                                
  19745684.849   105552001.236    19745685.456    82096003.420    19745685.528  
                                
  23123644.235   123435582.798    23123647.648    96005466.792    23123647.720  
                                
  19778309.003   105800616.436    19778309.289    82289369.199    19778308.914  
                                
  20224662.240   108150357.711    20224665.099    84116956.724    20224664.099  
                                
  23832361.976   125239908.139                                                  
  23832365.085    93523319.909  
  22416859.959   117801394.987                                                  
  22416862.729    87968583.314  
  25574500.565   134394907.251                                                  
  25574501.941   100359838.464  
  23726518.696   124683697.766                                                  
  23726522.287    93107969.699  
 21  8 31 18 49 20.0000000  0 15G 5G13G15G18G23G29R 4R 5R18R19R20E 5
                                E 9E11E36
  23106573.708   121425863.645    23106572.671    94617548.729    23106572.082  
                                
  21978274.726   115496612.380                    89997350.948    21978272.296  
                                
  20290392.262   106626731.025    20290390.529    83085754.496    20290389.885  
                                
  20383669.473   107116905.700    20383667.793    83467710.900    20383667.454  
  20383672.136    79989907.137  
  21248093.198   111659483.291    21248091.768    87007382.496    21248091.482  
  21248095.699    83382091.469  
  22175589.910   116533510.648    22175588.820    90805326.072    22175588.248  
                                
  19870043.117   106403178.795    19870042.438    82758024.228    19870042.402  
                                
  19745396.550   105550460.087    19745397.140    82094804.748    19745397.211  
                                
  23124392.233   123439575.646    23124395.664    96008572.341    23124395.699  
                                
  19778659.057   105802488.826    19778659.307    82290825.499    19778658.950  
                                
  20224165.499   108147701.497    20224168.376    84114890.775    20224167.376  
                                
  23832084.916   125238452.212                                                  
  23832088.043    93522232.691  
  22417104.658   117802680.950                                                  
  22417107.445    87969543.618  
  25574978.811   134397420.456                                                  
  25574980.187   100361715.206  
  23726691.435   124684605.529                                                  
  23726695.045    93108647.570  
 21  8 31 18 49 21.0000000  0 15G 5G13G15G18G23G29R 4R 5R18R19R20E 5
                                E 9E11E36
  23107106.079   121428661.301    23107105.025    94619728.723    23107104.471  
                                
  21978683.087   115498758.336                    89999023.120    21978680.674  
                                
  20290533.820   106627474.943    20290532.105    83086334.174    20290531.462  
                                
  20383447.933   107115741.508    20383446.253    83466803.740    20383445.932  
  20383450.596    79989037.777  
  21247808.759   111657988.589    21247807.311    87006217.793    21247807.061  
  21247811.278    83380975.295  
  22176193.775   116536683.961    22176192.685    90807798.783    22176192.114  
                                
  19870456.642   106405393.223    19870455.981    82759746.559    19870455.927  
                                
  19745108.376   105548919.624    19745108.948    82093606.615    19745109.037  
                                
  23125140.301   123443568.787    23125143.697    96011678.117    23125143.750  
                                
  19779009.219   105804361.950    19779009.469    82292282.376    19779009.111  
                                
  20223668.883   108145045.800    20223671.760    84112825.233    20223670.760  
                                
  23831807.946   125236996.682                                                  
  23831811.056    93521145.771  
  22417349.445   117803967.292                                                  
  22417352.233    87970504.196  
  25575457.094   134399933.841                                                  
  25575458.452   100363592.102  
  23726864.229   124685513.630                                                  
  23726867.838    93109325.695  
 21  8 31 18 49 22.0000000  0 15G 5G13G15G18G23G29R 4R 5R18R19R20E 5
                                E 9E11E36
  23107638.487   121431459.148    23107637.433    94621908.866    23107636.879  
                                
  21979091.590   115500904.929                    90000695.785    21979089.160  
                                
  20290675.522   106628219.618    20290673.788    83086914.440    20290673.163  
                                
  20383226.482   107114577.773    20383224.803    83465896.936    20383224.463  
  20383229.145    79988168.754  
  21247524.391   111656494.253    21247522.961    87005053.378    21247522.676  
  21247526.911    83379859.397  
  22176797.713   116539857.734    22176796.640    90810271.851    22176796.051  
                                
  19870870.274   106407608.232    19870869.595    82761469.345    19870869.577  
                                
  19744820.328   105547379.890    19744820.917    82092409.044    19744820.989  
                                
  23125888.406   123447562.273    23125891.819    96014784.164    23125891.855  
                                
  19779359.523   105806235.872    19779359.791    82293739.869    19779359.416  
                                
  20223172.375   108142390.724    20223175.234    84110760.176    20223174.233  
                                
  23831531.048   125235541.627                                                  
  23831534.175    93520059.202  
  22417594.305   117805254.077                                                  
  22417597.092    87971465.102  
  25575935.429   134402447.457                                                  
  25575936.788   100365469.142  
  23727037.130   124686422.132                                                  
  23727040.721    93110004.128  
 21  8 31 18 49 23.0000000  0 15G 5G13G15G18G23G29R 4R 5R18R19R20E 5
                                E 9E11E36
  23108170.912   121434257.080    23108169.876    94624089.073    23108169.304  
                                
  21979500.183   115503052.127                    90002368.926    21979497.753  
                                
  20290817.366   106628964.998    20290815.633    83087495.260    20290815.007  
                                
  20383005.121   107113414.452    20383003.441    83464990.454    20383003.102  
  20383007.765    79987300.036  
  21247240.095   111655000.249    21247238.647    87003889.221    21247238.397  
  21247242.614    83378743.745  
  22177401.739   116543031.904    22177400.667    90812745.232    22177400.077  
                                
  19871284.031   106409823.808    19871283.334    82763192.569    19871283.316  
                                
  19744532.422   105545840.839    19744533.012    82091212.007    19744533.101  
                                
  23126636.582   123451556.093    23126640.013    96017890.466    23126640.066  
                                
  19779709.988   105808110.567    19779710.238    82295197.963    19779709.881  
                                
  20222675.955   108139736.180    20222678.832    84108695.529    20222677.832  
                                
  23831254.239   125234086.971                                                  
  23831257.366    93518972.935  
  22417839.253   117806541.247                                                  
  22417842.041    87972426.302  
  25576413.783   134404961.305                                                  
  25576415.141   100367346.364  
  23727210.066   124687331.007                                                  
  23727213.675    93110682.829  
 21  8 31 18 49 24.0000000  0 15G 5G13G15G18G23G29R 4R 5R18R19R20E 5
                                E 9E11E36
  23108703.374   121437055.153    23108702.319    94626269.378    23108701.765  
                                
  21979908.884   115505199.917                    90004042.540    21979906.471  
                                
  20290959.353   106629711.149    20290957.620    83088076.679    20290956.995  
                                
  20382783.831   107112251.562    20382782.151    83464084.304    20382781.812  
  20382786.493    79986431.646  
  21246955.870   111653506.615    21246954.441    87002725.348    21246954.155  
  21246958.372    83377628.369  
  22178005.855   116546206.513    22178004.765    90815218.947    22178004.193  
                                
  19871697.860   106412039.944    19871697.199    82764916.221    19871697.181  
                                
  19744244.641   105544302.520    19744245.231    82090015.525    19744245.320  
                                
  23127384.829   123455550.271    23127388.242    96020997.042    23127388.296  
                                
  19780060.578   105809986.009    19780060.846    82296656.638    19780060.489  
                                
  20222179.643   108137082.221    20222182.520    84106631.340    20222181.520  
                                
  23830977.519   125232632.767                                                  
  23830980.646    93517887.001  
  22418084.273   117807828.842                                                  
  22418087.061    87973387.820  
  25576892.208   134407475.367                                                  
  25576893.584   100369223.744  
  23727383.092   124688240.272                                                  
  23727386.701    93111361.830  
 21  8 31 18 49 25.0000000  0 15G 5G13G15G18G23G29R 4R 5R18R19R20E 5
                                E 9E11E36
  23109235.870   121439853.361    23109234.798    94628449.799    23109234.244  
                                
  21980317.709   115507348.323                    90005716.623    21980315.297  
                                
  20291101.483   106630458.016    20291099.732    83088658.653    20291099.107  
                                
  20382562.612   107111089.122    20382560.933    83463178.506    20382560.593  
  20382565.275    79985563.588  
  21246671.717   111652013.327    21246670.270    87001561.744    21246669.984  
  21246674.219    83376513.247  
  22178610.042   116549381.557    22178608.952    90817693.007    22178608.381  
                                
  19872111.832   106414256.602    19872111.153    82766640.284    19872111.135  
                                
  19743957.004   105542764.899    19743957.575    82088819.600    19743957.665  
                                
  23128133.131   123459544.750    23128136.544    96024103.857    23128136.597  
                                
  19780411.311   105811862.243    19780411.579    82298115.931    19780411.204  
                                
  20221683.456   108134428.850    20221686.315    84104567.605    20221685.315  
                                
  23830700.871   125231179.003                                                  
  23830703.998    93516801.398  
  22418329.383   117809116.847                                                  
  22418332.152    87974349.641  
  25577370.669   134409989.685                                                  
  25577372.027   100371101.325  
  23727556.189   124689149.933                                                  
  23727559.816    93112041.118  
 21  8 31 18 49 26.0000000  0 15G 5G13G15G18G23G29R 4R 5R18R19R20E 5
                                E 9E11E36
  23109768.349   121442651.625    23109767.313    94630630.265    23109766.723  
                                
  21980726.660   115509497.293                    90007391.145    21980724.229  
                                
  20291243.721   106631205.558    20291242.005    83089241.155    20291241.380  
                                
  20382341.483   107109927.033    20382339.786    83462272.983    20382339.464  
  20382344.128    79984695.797  
  21246387.582   111650520.309    21246386.152    87000398.354    21246385.884  
  21246390.101    83375398.331  
  22179214.301   116552556.959    22179213.229    90820167.344    22179212.640  
                                
  19872525.857   106416473.710    19872525.160    82768364.701    19872525.160  
                                
  19743669.455   105541227.910    19743670.063    82087624.164    19743670.134  
                                
  23128881.485   123463539.515    23128884.898    96027210.896    23128884.970  
                                
  19780762.188   105813739.188    19780762.456    82299575.777    19780762.080  
                                
  20221187.359   108131775.978    20221190.236    84102504.260    20221189.235  
                                
  23830424.294   125229725.603                                                  
  23830427.422    93515716.069  
  22418574.528   117810405.196                                                  
  22418577.315    87975311.724  
  25577849.166   134412504.129                                                  
  25577850.524   100372978.986  
  23727729.358   124690059.906                                                  
  23727732.967    93112720.641  
 21  8 31 18 49 27.0000000  0 15G 5G13G15G18G23G29R 4R 5R18R19R20E 5
                                E 9E11E36
  23110300.828   121445449.859    23110299.792    94632810.711    23110299.220  
                                
  21981135.664   115511646.712                    90009066.015    21981133.251  
                                
  20291386.083   106631953.695    20291384.368    83089824.118    20291383.743  
                                
  20382120.390   107108765.238    20382118.692    83461367.685    20382118.370  
  20382123.052    79983828.227  
  21246103.518   111649027.490    21246102.088    86999235.121    21246101.802  
  21246106.019    83374283.568  
  22179818.614   116555732.651    22179817.542    90822641.909    22179816.970  
                                
  19872939.954   106418691.215    19872939.292    82770089.427    19872939.275  
                                
  19743382.050   105539691.468    19743382.640    82086429.154    19743382.729  
                                
  23129629.894   123467534.471    23129633.289    96030318.087    23129633.342  
                                
  19781113.171   105815616.754    19781113.439    82301036.108    19781113.082  
                                
  20220691.332   108129123.518    20220694.209    84100441.238    20220693.209  
                                
  23830147.789   125228272.511                                                  
  23830150.916    93514630.971  
  22418819.762   117811693.812                                                  
  22418822.532    87976274.002  
  25578327.645   134415018.643                                                  
  25578329.003   100374856.703  
  23727902.562   124690970.119                                                  
  23727906.189    93113400.346  
 21  8 31 18 49 28.0000000  0 15G 5G13G15G18G23G29R 4R 5R18R19R20E 5
                                E 9E11E36
  23110833.361   121448248.258    23110832.307    94634991.275    23110831.735  
                                
  21981544.811   115513796.768                    90010741.383    21981542.398  
                                
  20291528.589   106632702.581    20291526.873    83090407.665    20291526.248  
                                
  20381899.403   107107603.895    20381897.706    83460462.745    20381897.384  
  20381902.066    79982960.986  
  21245819.525   111647535.044    21245818.078    86998072.176    21245817.810  
  21245822.027    83373169.075  
  22180423.016   116558908.787    22180421.944    90825116.815    22180421.372  
                                
  19873354.175   106420909.297    19873353.496    82771814.600    19873353.461  
                                
  19743094.770   105538155.767    19743095.359    82085234.717    19743095.449  
                                
  23130378.338   123471529.773    23130381.751    96033425.537    23130381.804  
                                
  19781464.315   105817495.115    19781464.583    82302497.053    19781464.208  
                                
  20220195.413   108126471.667    20220198.290    84098378.687    20220197.290  
                                
  23829871.355   125226819.865                                                  
  23829874.482    93513546.198  
  22419065.050   117812982.854                                                  
  22419067.838    87977236.598  
  25578806.213   134417533.409                                                  
  25578807.571   100376734.611  
  23728075.856   124691880.725                                                  
  23728079.465    93114080.346  
 21  8 31 18 49 29.0000000  0 15G 5G13G15G18G23G29R 4R 5R18R19R20E 5
                                E 9E11E36
  23111365.876   121451046.627    23111364.822    94637171.813    23111364.250  
                                
  21981954.047   115515947.261                    90012417.080    21981951.617  
                                
  20291671.202   106633452.054    20291669.486    83090991.661    20291668.861  
                                
  20381678.453   107106442.804    20381676.755    83459557.994    20381676.434  
  20381681.098    79982093.944  
  21245535.551   111646042.766    21245534.121    86996909.359    21245533.835  
  21245538.053    83372054.705  
  22181027.471   116562085.186    22181026.399    90827591.932    22181025.809  
                                
  19873768.451   106423127.771    19873767.790    82773540.092    19873767.772  
                                
  19742807.597   105536620.611    19742808.168    82084040.719    19742808.240  
                                
  23131126.817   123475525.224    23131130.248    96036533.109    23131130.284  
                                
  19781815.584   105819374.073    19781815.835    82303958.465    19781815.459  
                                
  20219699.584   108123820.222    20219702.461    84096316.462    20219701.460  
                                
  23829594.993   125225367.489                                                  
  23829598.084    93512461.636  
  22419310.392   117814272.116                                                  
  22419313.180    87978199.356  
  25579284.746   134420048.170                                                  
  25579286.104   100378612.514  
  23728249.185   124692791.528                                                  
  23728252.777    93114760.485  
 21  8 31 18 49 30.0000000  0 15G 5G13G15G18G23G29R 4R 5R18R19R20E 5
                                E 9E11E36
  23111898.373   121453844.943    23111897.318    94639352.319    23111896.764  
                                
  21982363.355   115518098.215                    90014093.150    21982360.925  
                                
  20291813.921   106634202.084    20291812.206    83091576.107    20291811.581  
                                
  20381457.538   107105281.992    20381455.859    83458653.470    20381455.519  
  20381460.201    79981227.108  
  21245251.594   111644550.669    21245250.183    86995746.684    21245249.897  
  21245254.114    83370940.490  
  22181631.962   116565261.856    22181630.890    90830067.261    22181630.318  
                                
  19874182.798   106425346.601    19874182.119    82775265.850    19874182.101  
                                
  19742520.513   105535086.011    19742521.085    82082847.143    19742521.174  
                                
  23131875.333   123479520.809    23131878.764    96039640.777    23131878.817  
                                
  19782166.943   105821253.631    19782167.211    82305420.344    19782166.818  
                                
  20219203.826   108121169.171    20219206.703    84094254.536    20219205.702  
                                
  23829318.649   125223915.395                                                  
  23829321.776    93511377.276  
  22419555.805   117815561.650                                                  
  22419558.557    87979162.320  
  25579763.296   134422563.025                                                  
  25579764.672   100380490.503  
  23728422.551   124693702.566                                                  
  23728426.142    93115440.801  
 21  8 31 18 49 31.0000000  0 15G 5G13G15G18G23G29R 4R 5R18R19R20E 5
                                E 9E11E36
  23112430.852   121456643.189    23112429.815    94641532.766    23112429.243  
                                
  21982772.752   115520249.582                    90015769.541    21982770.322  
                                
  20291956.766   106634952.669    20291955.051    83092160.974    20291954.426  
                                
  20381236.713   107104121.441    20381235.015    83457749.142    20381234.694  
  20381239.375    79980360.454  
  21244967.709   111643058.755    21244966.280    86994584.160    21244965.994  
  21244970.211    83369826.393  
  22182236.507   116568438.769    22182235.435    90832542.778    22182234.845  
                                
  19874597.216   106427565.810    19874596.555    82776991.898    19874596.537  
                                
  19742233.536   105533551.963    19742234.126    82081653.995    19742234.215  
                                
  23132623.884   123483516.542    23132627.279    96042748.568    23132627.351  
                                
  19782518.409   105823133.802    19782518.677    82306882.699    19782518.319  
                                
  20218708.121   108118518.520    20218711.016    84092192.916    20218710.015  
                                
  23829042.394   125222463.550                                                  
  23829045.503    93510293.106  
  22419801.218   117816851.411                                                  
  22419803.988    87980125.455  
  25580241.882   134425077.955                                                  
  25580243.276   100382368.534  
  23728595.934   124694613.806                                                  
  23728599.561    93116121.276  
 21  8 31 18 49 32.0000000  0 15G 5G13G15G18G23G29R 4R 5R18R19R20E 5
                                E 9E11E36
  23112963.420   121459441.764    23112962.384    94643713.474    23112961.794  
                                
  21983182.292   115522401.756                    90017446.557    21983179.862  
                                
  20292099.772   106635704.161    20292098.057    83092746.551    20292097.431  
                                
  20381015.977   107102961.492    20381014.279    83456845.290    20381013.958  
  20381018.639    79979494.263  
  21244683.913   111641567.362    21244682.466    86993422.034    21244682.198  
  21244686.415    83368712.689  
  22182841.177   116571616.292    22182840.105    90835018.768    22182839.533  
                                
  19875011.777   106429785.738    19875011.098    82778718.508    19875011.098  
                                
  19741946.739   105532018.802    19741947.310    82080461.536    19741947.400  
                                
  23133372.507   123487512.816    23133375.938    96045856.778    23133375.991  
                                
  19782870.071   105825014.929    19782870.339    82308345.797    19782869.982  
                                
  20218212.595   108115868.610    20218215.454    84090131.877    20218214.454  
                                
  23828766.228   125221012.333                                                  
  23828769.337    93509209.409  
  22420046.774   117818141.764                                                  
  22420049.526    87981089.029  
  25580720.539   134427593.259                                                  
  25580721.915   100384246.823  
  23728769.460   124695525.610                                                  
  23728773.052    93116802.171  
 21  8 31 18 49 33.0000000  0 15G 5G13G15G18G23G29R 4R 5R18R19R20E 5
                                E 9E11E36
  23113495.953   121462240.300    23113494.916    94645894.152    23113494.344  
                                
  21983591.922   115524554.342                    90019123.894    21983589.491  
                                
  20292242.903   106636456.207    20292241.152    83093332.559    20292240.526  
                                
  20380795.312   107101801.798    20380793.597    83455941.633    20380793.257  
  20380797.939    79978628.257  
  21244400.117   111640076.123    21244398.706    86992260.032    21244398.420  
  21244402.619    83367599.101  
  22183445.900   116574794.059    22183444.810    90837494.950    22183444.239  
                                
  19875426.392   106432006.024    19875425.731    82780445.399    19875425.713  
                                
  19741660.012   105530486.154    19741660.602    82079269.474    19741660.673  
                                
  23134121.183   123491509.232    23134124.614    96048965.102    23134124.668  
                                
  19783221.841   105826896.662    19783222.109    82309809.367    19783221.734  
                                
  20217717.123   108113219.098    20217719.982    84088071.147    20217718.981  
                                
  23828490.116   125219561.363                                                  
  23828493.225    93508125.893  
  22420292.348   117819432.343                                                  
  22420295.136    87982052.768  
  25581199.197   134430108.612                                                  
  25581200.573   100386125.180  
  23728943.004   124696437.624                                                  
  23728946.613    93117483.214  
 21  8 31 18 49 34.0000000  0 15G 5G13G15G18G23G29R 4R 5R18R19R20E 5
                                E 9E11E36
  23114028.503   121465038.840    23114027.449    94648074.832    23114026.877  
                                
  21984001.640   115526707.481                    90020801.665    21983999.210  
                                
  20292386.123   106637208.899    20292384.390    83093919.077    20292383.782  
                                
  20380574.683   107100642.465    20380572.986    83455038.256    20380572.664  
  20380577.346    79977762.515  
  21244116.411   111638585.165    21244114.981    86991098.248    21244114.713  
  21244118.913    83366485.723  
  22184050.660   116577972.205    22184049.587    90839971.418    22184049.016  
                                
  19875841.115   106434226.776    19875840.453    82782172.646    19875840.435  
                                
  19741373.429   105528954.130    19741374.001    82078077.900    19741374.090  
                                
  23134869.895   123495505.926    23134873.326    96052073.637    23134873.380  
                                
  19783573.753   105828779.109    19783574.003    82311273.497    19783573.646  
                                
  20217221.740   108110570.053    20217224.617    84086010.768    20217223.598  
                                
  23828214.075   125218110.756                                                  
  23828217.166    93507042.648  
  22420538.012   117820723.254                                                  
  22420540.764    87983016.765  
  25581677.872   134432624.104                                                  
  25581679.266   100388003.616  
  23729116.601   124697349.936                                                  
  23729120.211    93118164.486  
 21  8 31 18 49 35.0000000  0 15G 5G13G15G18G23G29R 4R 5R18R19R20E 5
                                E 9E11E36
  23114561.054   121467837.435    23114560.017    94650255.555    23114559.445  
                                
  21984411.466   115528861.111                    90022479.812    21984409.036  
                                
  20292529.469   106637962.242    20292527.753    83094506.096    20292527.128  
                                
  20380354.144   107099483.460    20380352.429    83454135.131    20380352.125  
  20380356.789    79976897.020  
  21243832.740   111637094.447    21243831.311    86989936.650    21243831.025  
  21243835.224    83365372.525  
  22184655.508   116581150.662    22184654.418    90842448.137    22184653.846  
                                
  19876255.908   106436447.980    19876255.247    82783900.245    19876255.229  
                                
  19741086.953   105527422.718    19741087.524    82076886.802    19741087.614  
                                
  23135618.679   123499502.837    23135622.074    96055182.348    23135622.127  
                                
  19783925.773   105830662.225    19783926.041    82312738.146    19783925.666  
                                
  20216726.446   108107921.481    20216729.305    84083950.770    20216728.305  
                                
  23827938.106   125216660.485                                                  
  23827941.197    93505959.657  
  22420783.729   117822014.479                                                  
  22420786.481    87983980.989  
  25582156.583   134435139.695                                                  
  25582157.959   100389882.157  
  23729290.270   124698262.531                                                  
  23729293.880    93118845.970  
 21  8 31 18 49 36.0000000  0 15G 5G13G15G18G23G29R 4R 5R18R19R20E 5
                                E 9E11E36
  23115093.658   121470636.259    23115092.621    94652436.455    23115092.032  
                                
  21984821.435   115531015.460                    90024158.530    21984818.987  
                                
  20292672.993   106638716.416    20292671.277    83095093.763    20292670.652  
                                
  20380133.694   107098324.996    20380131.996    83453232.432    20380131.657  
  20380136.356    79976031.931  
  21243549.141   111635604.179    21243547.729    86988775.402    21243547.443  
  21243551.643    83364259.667  
  22185260.446   116584329.643    22185259.374    90844925.259    22185258.802  
                                
  19876670.845   106438669.851    19876670.166    82785628.367    19876670.148  
                                
  19740800.602   105525892.120    19740801.191    82075696.342    19740801.263  
                                
  23136367.498   123503500.160    23136370.911    96058291.379    23136370.965  
                                
  19784277.971   105832546.243    19784278.240    82314203.491    19784277.864  
                                
  20216231.260   108105273.605    20216234.137    84081891.313    20216233.136  
                                
  23827662.226   125215210.761                                                  
  23827665.335    93504877.067  
  22421029.535   117823306.214                                                  
  22421032.305    87984945.599  
  25582635.348   134437655.612                                                  
  25582636.724   100391760.915  
  23729464.029   124699175.620                                                  
  23729467.638    93119527.817  
 21  8 31 18 49 37.0000000  0 15G 5G13G15G18G23G29R 4R 5R18R19R20E 5
                                E 9E11E36
  23115626.262   121473435.039    23115625.208    94654617.316    23115624.636  
                                
  21985231.476   115533170.234                    90025837.574    21985229.046  
                                
  20292816.624   106639471.156    20292814.890    83095681.873    20292814.283  
                                
  20379913.279   107097166.772    20379911.582    83452329.917    20379911.260  
  20379915.942    79975167.028  
  21243265.577   111634114.075    21243264.166    86987614.280    21243263.880  
  21243268.079    83363146.927  
  22185865.420   116587508.866    22185864.348    90847402.578    22185863.776  
                                
  19877085.817   106440892.069    19877085.138    82787356.758    19877085.138  
                                
  19740514.376   105524362.052    19740514.965    82074506.286    19740515.055  
                                
  23137116.353   123507497.632    23137119.748    96061400.519    23137119.820  
                                
  19784630.277   105834430.829    19784630.527    82315669.280    19784630.170  
                                
  20215736.163   108102626.083    20215739.022    84079832.130    20215738.021  
                                
  23827386.400   125213761.294                                                  
  23827389.509    93503794.670  
  22421275.377   117824598.184                                                  
  22421278.165    87985910.377  
  25583114.113   134440171.578                                                  
  25583115.471   100393639.687  
  23729637.823   124700088.912                                                  
  23729641.432    93120209.823  
 21  8 31 18 49 38.0000000  0 15G 5G13G15G18G23G29R 4R 5R18R19R20E 5
                                E 9E11E36
  23116158.848   121476233.863    23116157.812    94656798.217    23116157.222  
                                
  21985641.624   115535325.551                    90027517.042    21985639.176  
                                
  20292960.362   106640226.554    20292958.629    83096270.496    20292958.021  
                                
  20379692.954   107096008.924    20379691.257    83451427.698    20379690.935  
  20379695.617    79974302.401  
  21242982.085   111632624.273    21242980.674    86986453.400    21242980.388  
  21242984.587    83362034.412  
  22186470.483   116590688.458    22186469.411    90849880.182    22186468.839  
                                
  19877500.879   106443114.753    19877500.200    82789085.515    19877500.200  
                                
  19740228.275   105522832.657    19740228.864    82073316.759    19740228.936  
                                
  23137865.279   123511495.348    23137868.675    96064509.859    23137868.710  
                                
  19784982.708   105836316.149    19784982.976    82317135.642    19784982.619  
                                
  20215241.173   108099979.100    20215244.032    84077773.367    20215243.032  
                                
  23827110.645   125212312.201                                                  
  23827113.754    93502712.560  
  22421521.308   117825890.504                                                  
  22421524.078    87986875.425  
  25583592.949   134442687.710                                                  
  25583594.307   100395518.629  
  23729811.671   124701002.529                                                  
  23729815.280    93120892.071  
 21  8 31 18 49 39.0000000  0 15G 5G13G15G18G23G29R 4R 5R18R19R20E 5
                                E 9E11E36
  23116691.452   121479032.705    23116690.434    94658979.129    23116689.844  
                                
  21986051.861   115537481.394                    90029196.915    21986049.413  
                                
  20293104.244   106640982.594    20293102.492    83096859.614    20293101.885  
                                
  20379472.683   107094851.389    20379470.985    83450525.728    20379470.646  
  20379475.345    79973438.006  
  21242698.629   111631134.691    21242697.200    86985292.680    21242696.931  
  21242701.131    83360922.056  
  22187075.617   116593868.388    22187074.509    90852358.040    22187073.955  
                                
  19877916.030   106445337.937    19877915.351    82790814.697    19877915.333  
                                
  19739942.281   105521303.890    19739942.853    82072127.753    19739942.942  
                                
  23138614.206   123515493.350    23138617.601    96067619.439    23138617.655  
                                
  19785335.282   105838202.142    19785335.514    82318602.556    19785335.156  
                                
  20214746.255   108097332.707    20214749.132    84075715.101    20214748.131  
                                
  23826834.962   125210863.423                                                  
  23826838.071    93501630.680  
  22421767.275   117827183.116                                                  
  22421770.063    87987840.681  
  25584071.767   134445203.958                                                  
  25584073.125   100397397.645  
  23729985.590   124701916.436                                                  
  23729989.199    93121574.535  
 21  8 31 18 49 40.0000000  0 15G 5G13G15G18G23G29R 4R 5R18R19R20E 5
                                E 9E11E36
  23117224.092   121481831.687    23117223.038    94661160.152    23117222.466  
                                
  21986462.205   115539637.817                    90030877.247    21986459.757  
                                
  20293248.232   106641739.353    20293246.517    83097449.296    20293245.891  
                                
  20379252.501   107093694.287    20379250.785    83449624.087    20379250.482  
  20379255.145    79972573.938  
  21242415.244   111629645.447    21242413.797    86984132.228    21242413.547  
  21242417.728    83359809.955  
  22187680.805   116597048.720    22187679.733    90854836.221    22187679.161  
                                
  19878331.288   106447561.608    19878330.609    82792544.222    19878330.609  
                                
  19739656.412   105519775.764    19739656.984    82070939.208    19739657.073  
                                
  23139363.222   123519491.609    23139366.599    96070729.196    23139366.671  
                                
  19785687.962   105840088.873    19785688.231    82320070.013    19785687.873  
                                
  20214251.462   108094686.781    20214254.339    84073657.160    20214253.338  
                                
  23826559.350   125209415.088                                                  
  23826562.459    93500549.133  
  22422013.332   117828476.137                                                  
  22422016.119    87988806.242  
  25584550.639   134447720.409                                                  
  25584551.997   100399276.805  
  23730159.563   124702830.696                                                  
  23730163.172    93122257.257  
 21  8 31 18 49 41.0000000  0 15G 5G13G15G18G23G29R 4R 5R18R19R20E 5
                                E 9E11E36
  23117756.678   121484630.526    23117755.660    94663341.060    23117755.088  
                                
  21986872.621   115541794.590                    90032557.847    21986870.190  
                                
  20293392.328   106642496.576    20293390.613    83098039.335    20293389.969  
                                
  20379032.337   107092537.357    20379030.639    83448722.579    20379030.317  
  20379034.999    79971709.995  
  21242131.859   111628156.282    21242130.430    86982971.844    21242130.162  
  21242134.361    83358697.923  
  22188286.029   116600229.219    22188284.957    90857314.529    22188284.385  
                                
  19878746.600   106449785.569    19878745.921    82794273.967    19878745.921  
                                
  19739370.615   105518248.047    19739371.205    82069750.986    19739371.276  
                                
  23140112.238   123523489.918    23140115.615    96073838.987    23140115.686  
                                
  19786040.768   105841976.111    19786041.036    82321537.863    19786040.661  
                                
  20213756.722   108092041.150    20213759.581    84071599.445    20213758.580  
                                
  23826283.756   125207966.914                                                  
  23826286.865    93499467.705  
  22422259.406   117829769.284                                                  
  22422262.194    87989771.908  
  25585029.476   134450236.804                                                  
  25585030.869   100401155.924  
  23730333.571   124703745.079                                                  
  23730337.163    93122940.069  
 21  8 31 18 49 42.0000000  0 15G 5G13G15G18G23G29R 4R 5R18R19R20E 5
                                E 9E11E36
  23118289.354   121487429.723    23118288.317    94665522.255    23118287.728  
                                
  21987283.215   115543952.213                    90034239.108    21987280.785  
                                
  20293536.620   106643254.772    20293534.887    83098630.140    20293534.262  
                                
  20378812.315   107091381.096    20378810.618    83447821.596    20378810.278  
  20378814.978    79970846.556  
  21241848.582   111626667.712    21241847.170    86981811.920    21241846.884  
  21241851.083    83357586.323  
  22188891.378   116603410.378    22188890.306    90859793.357    22188889.752  
                                
  19879162.037   106452010.295    19879161.393    82796004.312    19879161.358  
                                
  19739085.015   105516721.301    19739085.586    82068563.517    19739085.676  
                                
  23140861.379   123527488.812    23140864.756    96076949.231    23140864.809  
                                
  19786393.771   105843864.365    19786394.021    82323006.502    19786393.664  
                                
  20213262.125   108089396.346    20213264.984    84069542.380    20213263.984  
                                
  23826008.341   125206519.433                                                  
  23826011.414    93498386.793  
  22422505.606   117831063.097                                                  
  22422508.393    87990738.065  
  25585508.437   134452753.639                                                  
  25585509.795   100403035.392  
  23730507.687   124704660.087                                                  
  23730511.296    93123623.356  
 21  8 31 18 49 43.0000000  0 15G 5G13G15G18G23G29R 4R 5R18R19R20E 5
                                E 9E11E36
  23118822.047   121490228.990    23118821.011    94667703.497    23118820.439  
                                
  21987693.899   115546110.380                    90035920.791    21987691.469  
                                
  20293681.020   106644013.653    20293679.287    83099221.476    20293678.679  
                                
  20378592.348   107090225.223    20378590.650    83446920.918    20378590.311  
  20378595.010    79969983.401  
  21241565.376   111625179.445    21241563.964    86980652.233    21241563.678  
  21241567.877    83356474.959  
  22189496.816   116606591.936    22189495.744    90862272.489    22189495.154  
                                
  19879577.599   106454235.506    19879576.920    82797735.032    19879576.920  
                                
  19738799.521   105515195.238    19738800.111    82067376.579    19738800.182  
                                
  23141610.555   123531488.018    23141613.950    96080059.716    23141613.986  
                                
  19786746.899   105845753.333    19786747.131    82324475.702    19786746.774  
                                
  20212767.618   108086752.050    20212770.477    84067485.705    20212769.476  
                                
  23825732.943   125205072.342                                                  
  23825736.052    93497306.171  
  22422751.877   117832357.265                                                  
  22422754.664    87991704.496  
  25585987.398   134455270.651                                                  
  25585988.738   100404914.988  
  23730681.874   124705575.438                                                  
  23730685.484    93124306.900  
 21  8 31 18 49 44.0000000  0 15G 5G13G15G18G23G29R 4R 5R18R19R20E 5
                                E 9E11E36
  23119354.705   121493028.205    23119353.686    94669884.701    23119353.115  
                                
  21988104.654   115548268.937                    90037602.781    21988102.224  
                                
  20293825.527   106644773.062    20293823.811    83099813.214    20293823.186  
                                
  20378372.451   107089069.572    20378370.754    83446020.411    20378370.414  
  20378375.114    79969120.414  
  21241282.187   111623691.316    21241280.776    86979492.645    21241280.490  
  21241284.689    83355363.691  
  22190102.308   116609773.706    22190101.218    90864751.790    22190100.646  
                                
  19879993.196   106456461.058    19879992.517    82799466.012    19879992.500  
                                
  19738514.153   105513669.676    19738514.725    82066190.033    19738514.796  
                                
  23142359.768   123535487.326    23142363.163    96083170.284    23142363.216  
                                
  19787100.116   105847642.922    19787100.384    82325945.375    19787100.026  
                                
  20212273.182   108084108.067    20212276.059    84065429.279    20212275.058  
                                
  23825457.617   125203625.465                                                  
  23825460.709    93496225.714  
  22422998.201   117833651.641                                                  
  22423000.971    87992671.071  
  25586466.359   134457787.680                                                  
  25586467.718   100406794.585  
  23730856.097   124706490.954                                                  
  23730859.689    93124990.564  
 21  8 31 18 49 45.0000000  0 15G 5G13G15G18G23G29R 4R 5R18R19R20E 5
                                E 9E11E36
  23119887.416   121495827.569    23119886.380    94672066.026    23119885.808  
                                
  21988515.552   115550428.166                    90039285.299    21988513.104  
                                
  20293970.194   106645533.251    20293968.461    83100405.572    20293967.853  
                                
  20378152.627   107087914.403    20378150.911    83445120.277    20378150.590  
  20378155.289    79968257.790  
  21240999.088   111622203.580    21240997.659    86978333.373    21240997.391  
  21241001.572    83354252.722  
  22190707.853   116612955.954    22190706.781    90867231.459    22190706.192  
                                
  19880408.919   106458687.250    19880408.240    82801197.494    19880408.222  
                                
  19738228.892   105512144.882    19738229.464    82065004.082    19738229.553  
                                
  23143109.069   123539487.048    23143112.464    96086281.172    23143112.518  
                                
  19787453.511   105849533.297    19787453.744    82327415.664    19787453.386  
                                
  20211778.871   108081464.765    20211781.730    84063373.377    20211780.730  
                                
  23825182.381   125202179.093                                                  
  23825185.490    93495145.631  
  22423244.597   117834946.481                                                  
  22423247.367    87993637.995  
  25586945.374   134460304.990                                                  
  25586946.750   100408674.395  
  23731030.392   124707406.907                                                  
  23731033.983    93125674.555  
 21  8 31 18 49 46.0000000  0 15G 5G13G15G18G23G29R 4R 5R18R19R20E 5
                                E 9E11E36
  23120420.128   121498627.012    23120419.091    94674247.410    23120418.519  
                                
  21988926.540   115552587.928                    90040968.236    21988924.092  
                                
  20294114.969   106646294.113    20294113.236    83100998.451    20294112.628  
                                
  20377932.874   107086759.595    20377931.158    83444220.427    20377930.836  
  20377935.536    79967395.437  
  21240716.043   111620716.128    21240714.614    86977174.317    21240714.363  
  21240718.545    83353141.956  
  22191313.488   116616138.571    22191312.416    90869711.418    22191311.844  
                                
  19880824.731   106460913.908    19880824.052    82802929.342    19880824.052  
                                
  19737943.756   105510620.699    19737944.328    82063818.611    19737944.417  
                                
  23143858.407   123543487.006    23143861.802    96089392.241    23143861.856  
                                
  19787807.032   105851424.385    19787807.282    82328886.513    19787806.925  
                                
  20211284.650   108078821.953    20211287.527    84061317.859    20211286.526  
                                
  23824907.216   125200733.085                                                  
  23824910.325    93494065.821  
  22423491.064   117836241.656                                                  
  22423493.816    87994605.171  
  25587424.461   134462822.457                                                  
  25587425.819   100410554.314  
  23731204.740   124708323.182                                                  
  23731208.349    93126358.787  
 21  8 31 18 49 47.0000000  0 15G 5G13G15G18G23G29R 4R 5R18R19R20E 5
                                E 9E11E36
  23120952.875   121501426.596    23120951.856    94676428.905    23120951.266  
                                
  21989337.652   115554748.331                    90042651.664    21989335.204  
                                
  20294259.905   106647055.737    20294258.189    83101591.924    20294257.564  
                                
  20377713.210   107085605.251    20377711.494    83443320.942    20377711.173  
  20377715.872    79966533.427  
  21240433.051   111619229.047    21240431.622    86976015.555    21240431.372  
  21240435.553    83352031.473  
  22191919.212   116619321.650    22191918.140    90872191.741    22191917.551  
                                
  19881240.651   106463141.135    19881239.972    82804661.629    19881239.954  
                                
  19737658.763   105509097.236    19737659.335    82062633.696    19737659.424  
                                
  23144607.816   123547487.336    23144611.211    96092503.600    23144611.247  
                                
  19788160.714   105853316.280    19788160.946    82330357.985    19788160.589  
                                
  20210790.554   108076179.756    20210793.413    84059262.812    20210792.412  
                                
  23824632.158   125199287.546                                                  
  23824635.231    93492986.363  
  22423737.603   117837537.268                                                  
  22423740.373    87995572.675  
  25587903.565   134465340.175                                                  
  25587904.923   100412434.420  
  23731379.177   124709239.863                                                  
  23731382.787    93127043.317  
 21  8 31 18 49 48.0000000  0 15G 5G13G15G18G23G29R 4R 5R18R19R20E 5
                                E 9E11E36
  23121485.622   121504226.142    23121484.585    94678610.364    23121483.996  
                                
  21989748.854   115556909.168                    90044335.433    21989746.388  
                                
  20294404.930   106647817.916    20294403.214    83102185.828    20294402.607  
                                
  20377493.581   107084451.176    20377491.884    83442421.661    20377491.544  
  20377496.244    79965671.616  
  21240150.095   111617742.135    21240148.684    86974856.920    21240148.416  
  21240152.597    83350921.119  
  22192524.972   116622504.972    22192523.900    90874672.250    22192523.328  
                                
  19881656.642   106465368.699    19881655.963    82806394.174    19881655.945  
                                
  19737373.859   105507574.292    19737374.449    82061449.184    19737374.520  
                                
  23145357.225   123551487.795    23145360.638    96095615.063    23145360.691  
                                
  19788514.485   105855208.773    19788514.735    82331829.924    19788514.359  
                                
  20210296.529   108073537.947    20210299.388    84057208.072    20210298.387  
                                
  23824357.118   125197842.272                                                  
  23824360.209    93491907.100  
  22423984.196   117838833.114                                                  
  22423986.966    87996540.351  
  25588382.687   134467857.944                                                  
  25588384.045   100414314.563  
  23731553.668   124710156.766                                                  
  23731557.278    93127728.013  
 21  8 31 18 49 49.0000000  0 15G 5G13G15G18G23G29R 4R 5R18R19R20E 5
                                E 9E11E36
  23122018.387   121507025.855    23122017.350    94680791.959    23122016.778  
                                
  21990160.163   115559070.668                    90046019.717    21990157.715  
                                
  20294550.133   106648580.887    20294548.418    83102780.353    20294547.793  
                                
  20377274.061   107083297.580    20377272.363    83441522.757    20377272.023  
  20377276.723    79964810.170  
  21239867.229   111616255.629    21239865.817    86973698.606    21239865.531  
  21239869.713    83349811.070  
  22193130.839   116625688.775    22193129.749    90877153.135    22193129.195  
                                
  19882072.722   106467596.831    19882072.061    82808127.171    19882072.043  
                                
  19737089.116   105506052.131    19737089.688    82060265.283    19737089.777  
                                
  23146106.741   123555488.635    23146110.136    96098726.857    23146110.190  
                                
  19788868.434   105857102.081    19788868.666    82333302.506    19788868.309  
                                
  20209802.593   108070896.771    20209805.488    84055153.829    20209804.487  
                                
  23824082.167   125196397.487                                                  
  23824085.276    93490828.204  
  22424230.878   117840129.445                                                  
  22424233.647    87997508.392  
  25588861.845   134470375.988                                                  
  25588863.221   100416194.928  
  23731728.231   124711074.084                                                  
  23731731.840    93128413.036  
 21  8 31 18 49 50.0000000  0 15G 5G13G15G18G23G29R 4R 5R18R19R20E 5
                                E 9E11E36
  23122551.169   121509825.577    23122550.133    94682973.558    23122549.543  
                                
  21990571.580   115561232.678                    90047704.403    21990569.132  
                                
  20294695.444   106649344.484    20294693.729    83103375.363    20294693.086  
                                
  20377054.593   107082144.303    20377052.896    83440624.100    20377052.556  
  20377057.256    79963948.955  
  21239584.398   111614769.357    21239582.986    86972540.474    21239582.700  
  21239586.882    83348701.194  
  22193736.760   116628872.898    22193735.670    90879634.270    22193735.116  
                                
  19882488.909   106469825.439    19882488.230    82809860.533    19882488.230  
                                
  19736804.498   105504530.599    19736805.052    82059081.869    19736805.142  
                                
  23146856.257   123559489.693    23146859.652    96101838.793    23146859.724  
                                
  19789222.473   105858996.073    19789222.723    82334775.616    19789222.366  
                                
  20209308.765   108068256.067    20209311.660    84053099.950    20209310.659  
                                
  23823807.306   125194953.034                                                  
  23823810.415    93489749.552  
  22424477.613   117841426.063                                                  
  22424480.401    87998476.639  
  25589341.021   134472894.091                                                  
  25589342.361   100418075.338  
  23731902.847   124711991.692                                                  
  23731906.456    93129098.265  
 21  8 31 18 49 51.0000000  0 15G 5G13G15G18G23G29R 4R 5R18R19R20E 5
                                E 9E11E36
  23123083.899   121512625.144    23123082.862    94685155.041    23123082.273  
                                
  21990983.068   115563394.980                    90049389.313    21990980.602  
                                
  20294840.827   106650108.520    20294839.129    83103970.714    20294838.486  
                                
  20376835.179   107080991.165    20376833.482    83439725.553    20376833.142  
  20376837.842    79963087.845  
  21239301.567   111613283.132    21239300.155    86971382.377    21239299.887  
  21239304.051    83347591.353  
  22194342.699   116632057.150    22194341.627    90882115.501    22194341.055  
                                
  19882905.132   106472054.310    19882904.471    82811594.092    19882904.453  
                                
  19736519.934   105503009.491    19736520.506    82057898.787    19736520.577  
                                
  23147605.791   123563490.789    23147609.204    96104950.757    23147609.240  
                                
  19789576.619   105860890.561    19789576.869    82336249.102    19789576.512  
                                
  20208815.008   108065615.635    20208817.885    84051046.281    20208816.884  
                                
  23823532.480   125193508.719                                                  
  23823535.554    93488671.003  
  22424724.366   117842722.787                                                  
  22424727.154    87999444.972  
  25589820.196   134475412.153                                                  
  25589821.537   100419955.707  
  23732077.481   124712909.379                                                  
  23732081.090    93129783.546  
 21  8 31 18 49 52.0000000  0 15G 5G13G15G18G23G29R 4R 5R18R19R20E 5
                                E 9E11E36
  23123616.664   121515424.898    23123615.627    94687336.670    23123615.055  
                                
  21991394.663   115565557.979                    90051074.769    21991392.197  
                                
  20294986.388   106650873.352    20294984.654    83104566.687    20294984.047  
                                
  20376615.837   107079838.540    20376614.122    83438827.404    20376613.782  
  20376618.482    79962227.121  
  21239018.843   111611797.333    21239017.414    86970224.614    21239017.164  
  21239021.327    83346481.828  
  22194948.744   116635241.886    22194947.654    90884597.114    22194947.100  
                                
  19883321.481   106474283.794    19883320.819    82813328.137    19883320.802  
                                
  19736235.531   105501489.177    19736236.103    82056716.316    19736236.192  
                                
  23148355.397   123567492.243    23148358.810    96108063.002    23148358.863  
                                
  19789930.944   105862785.844    19789931.176    82337723.213    19789930.819  
                                
  20208321.358   108062975.838    20208324.217    84048993.103    20208323.217  
                                
  23823257.726   125192064.909                                                  
  23823260.818    93487592.835  
  22424971.227   117844019.995                                                  
  22424973.997    88000413.665  
  25590299.426   134477930.505                                                  
  25590300.766   100421836.290  
  23732252.204   124713827.530                                                  
  23732255.796    93130469.176  
 21  8 31 18 49 53.0000000  0 15G 5G13G15G18G23G29R 4R 5R18R19R20E 5
                                E 9E11E36
  23124149.464   121518224.679    23124148.410    94689518.317    23124147.838  
                                
  21991806.347   115567721.457                    90052760.594    21991803.899  
                                
  20295132.038   106651638.814    20295130.323    83105163.153    20295129.697  
                                
  20376396.566   107078686.226    20376394.851    83437929.499    20376394.511  
  20376399.211    79961366.631  
  21238736.155   111610311.751    21238734.726    86969067.015    21238734.458  
  21238738.621    83345372.464  
  22195554.844   116638426.937    22195553.754    90887078.971    22195553.182  
                                
  19883737.900   106476513.667    19883737.221    82815062.483    19883737.221  
                                
  19735951.235   105499969.457    19735951.806    82055534.317    19735951.896  
                                
  23149105.074   123571493.906    23149108.451    96111175.401    23149108.504  
                                
  19790285.376   105864681.816    19790285.608    82339197.858    19790285.251  
                                
  20207827.798   108060336.478    20207830.657    84046940.268    20207829.656  
                                
  23822983.044   125190621.428                                                  
  23822986.117    93486514.913  
  22425218.141   117845317.491                                                  
  22425220.893    88001382.578  
  25590778.655   134480448.958                                                  
  25590780.013   100423716.957  
  23732426.981   124714745.947                                                  
  23732430.572    93131155.007  
 21  8 31 18 49 54.0000000  0 15G 5G13G15G18G23G29R 4R 5R18R19R20E 5
                                E 9E11E36
  23124682.301   121521024.908    23124681.282    94691700.315    23124680.692  
                                
  21992218.246   115569885.900                    90054447.171    21992215.780  
                                
  20295277.921   106652405.351    20295276.188    83105760.459    20295275.580  
                                
  20376177.439   107077534.705    20376175.723    83437032.212    20376175.384  
  20376180.101    79960506.722  
  21238453.575   111608826.879    21238452.181    86967909.974    21238451.895  
  21238456.058    83344263.622  
  22196161.086   116641612.779    22196159.996    90889561.450    22196159.424  
                                
  19884154.481   106478744.446    19884153.820    82816797.538    19884153.802  
                                
  19735667.135   105498450.791    19735667.725    82054353.127    19735667.796  
                                
  23149854.840   123575496.278    23149858.235    96114288.334    23149858.271  
                                
  19790640.023   105866578.924    19790640.237    82340673.377    19790639.880  
                                
  20207334.381   108057698.109    20207337.258    84044888.205    20207336.257  
                                
  23822708.504   125189178.732                                                  
  23822711.577    93485437.576  
  22425465.180   117846615.750                                                  
  22425467.950    88002352.059  
  25591258.009   134482968.009                                                  
  25591259.350   100425598.057  
  23732601.865   124715665.093                                                  
  23732605.474    93131841.380  
 21  8 31 18 49 55.0000000  0 15G 5G13G15G18G23G29R 4R 5R18R19R20E 5
                                E 9E11E36
  23125215.119   121523824.842    23125214.083    94693882.081    23125213.493  
                                
  21992630.145   115572050.487                    90056133.866    21992627.679  
                                
  20295423.821   106653172.166    20295422.106    83106357.978    20295421.481  
                                
  20375958.293   107076383.151    20375956.595    83436134.897    20375956.256  
  20375960.955    79959646.802  
  21238170.994   111607341.881    21238169.582    86966752.833    21238169.314  
  21238173.460    83343154.702  
  22196767.311   116644798.578    22196766.256    90892043.889    22196765.667  
                                
  19884571.079   106480975.311    19884570.418    82818532.658    19884570.400  
                                
  19735383.089   105496932.340    19735383.661    82053172.112    19735383.732  
                                
  23150604.571   123579498.498    23150607.984    96117401.170    23150608.019  
                                
  19790994.705   105868476.342    19790994.955    82342149.147    19790994.598  
                                
  20206841.017   108055059.818    20206843.894    84042836.199    20206842.893  
                                
  23822433.964   125187736.023                                                  
  23822437.056    93484360.227  
  22425712.238   117847913.965                                                  
  22425714.989    88003321.501  
  25591737.310   134485486.798                                                  
  25591738.668   100427478.963  
  23732776.767   124716584.162                                                  
  23732780.359    93132527.702  
 21  8 31 18 49 56.0000000  0 15G 5G13G15G18G23G29R 4R 5R18R19R20E 5
                                E 9E11E36
  23125747.973   121526625.004    23125746.955    94696064.028    23125746.347  
                                
  21993042.187   115574215.829                    90057821.141    21993039.757  
                                
  20295569.919   106653939.845    20295568.203    83106956.171    20295567.578  
                                
  20375739.254   107075232.166    20375737.557    83435238.024    20375737.217  
  20375741.917    79958787.299  
  21237888.502   111605857.370    21237887.073    86965596.071    21237886.823  
  21237890.968    83342046.143  
  22197373.660   116647984.937    22197372.588    90894526.764    22197372.016  
                                
  19884987.803   106483206.889    19884987.124    82820268.326    19884987.124  
                                
  19735099.186   105495414.736    19735099.758    82051991.754    19735099.829  
                                
  23151354.426   123583501.219    23151357.821    96120514.397    23151357.857  
                                
  19791349.584   105870374.669    19791349.816    82343625.625    19791349.459  
                                
  20206347.778   108052422.252    20206350.637    84040784.759    20206349.637  
                                
  23822159.514   125186293.879                                                  
  23822162.605    93483283.306  
  22425959.366   117849212.719                                                  
  22425962.154    88004291.354  
  25592216.718   134488005.955                                                  
  25592218.076   100429360.138  
  23732951.758   124717503.760                                                  
  23732955.368    93133214.413  
 21  8 31 18 49 57.0000000  0 15G 5G13G15G18G23G29R 4R 5R18R19R20E 5
                                E 9E11E36
  23126280.828   121529425.225    23126279.791    94698246.018    23126279.219  
                                
  21993454.336   115576381.686                    90059508.824    21993451.888  
                                
  20295716.123   106654708.174    20295714.390    83107554.867    20295713.782  
                                
  20375520.323   107074081.522    20375518.590    83434341.422    20375518.250  
  20375522.950    79957928.056  
  21237606.065   111604373.126    21237604.653    86964439.515    21237604.385  
  21237608.549    83340937.774  
  22197980.063   116651171.622    22197978.991    90897009.895    22197978.419  
                                
  19885404.616   106485438.902    19885403.954    82822004.335    19885403.937  
                                
  19734815.408   105493897.771    19734815.980    82050811.892    19734816.051  
                                
  23152104.318   123587504.187    23152107.713    96123627.822    23152107.748  
                                
  19791704.570   105872273.661    19791704.820    82345102.622    19791704.462  
                                
  20205854.629   108049785.155    20205857.488    84038733.686    20205856.487  
                                
  23821885.171   125184852.082                                                  
  23821888.262    93482206.635  
  22426206.584   117850511.785                                                  
  22426209.336    88005261.440  
  25592696.108   134490525.190                                                  
  25592697.449   100431241.390  
  23733126.821   124718423.639                                                  
  23733130.413    93133901.333  
 21  8 31 18 49 58.0000000  0 15G 5G13G15G18G23G29R 4R 5R18R19R20E 5
                                E 9E11E36
  23126813.700   121532225.475    23126812.663    94700428.033    23126812.092  
                                
  21993866.592   115578548.040                    90061196.890    21993864.144  
                                
  20295862.452   106655477.137    20295860.737    83108154.063    20295860.112  
                                
  20375301.410   107072931.204    20375299.712    83433445.068    20375299.373  
  20375304.072    79957069.052  
  21237323.681   111602889.117    21237322.251    86963283.141    21237321.983  
  21237326.129    83339829.581  
  22198586.538   116654358.644    22198585.466    90899493.289    22198584.876  
                                
  19885821.500   106487671.341    19885820.839    82823740.678    19885820.821  
                                
  19734531.755   105492381.430    19734532.309    82049632.518    19734532.381  
                                
  23152854.245   123591507.358    23152857.622    96126741.399    23152857.676  
                                
  19792059.717   105874173.359    19792059.949    82346580.164    19792059.591  
                                
  20205361.551   108047148.557    20205364.428    84036683.000    20205363.445  
                                
  23821610.863   125183410.628                                                  
  23821613.955    93481130.225  
  22426453.856   117851811.161                                                  
  22426456.607    88006231.747  
  25593175.534   134493044.564                                                  
  25593176.892   100433122.730  
  23733301.902   124719343.814                                                  
  23733305.511    93134588.473  
 21  8 31 18 49 59.0000000  0 15G 5G13G15G18G23G29R 4R 5R18R19R20E 5
                                E 9E11E36
  23127346.572   121535025.661    23127345.535    94702609.985    23127344.946  
                                
  21994278.920   115580714.825                    90062885.298    21994276.472  
                                
  20296008.889   106656246.641    20296007.156    83108753.672    20296006.548  
                                
  20375082.568   107071781.164    20375080.852    83432548.935    20375080.513  
  20375085.212    79956210.254  
  21237041.296   111601405.269    21237039.885    86962126.903    21237039.617  
  21237043.780    83338721.524  
  22199193.048   116657545.883    22199191.994    90901976.849    22199191.404  
                                
  19886238.456   106489904.117    19886237.795    82825477.282    19886237.795  
                                
  19734248.174   105490865.624    19734248.746    82048453.557    19734248.835  
                                
  23153604.190   123595510.661    23153607.585    96129855.062    23153607.621  
                                
  19792414.971   105876073.648    19792415.185    82348058.157    19792414.828  
                                
  20204868.581   108044512.344    20204871.440    84034632.601    20204870.439  
                                
  23821336.628   125181969.438                                                  
  23821339.701    93480054.014  
  22426701.145   117853110.785                                                  
  22426703.897    88007202.256  
  25593654.960   134495563.967                                                  
  25593656.300   100435004.122  
  23733477.036   124720264.183                                                  
  23733480.646    93135275.775  
 21  8 31 18 50  0.0000000  0 15G 5G13G15G18G23G29R 4R 5R18R19R20E 5
                                E 9E11E36
  23127879.444   121537825.934    23127878.425    94704792.016    23127877.818  
                                
  21994691.355   115582882.170                    90064574.137    21994688.907  
                                
  20296155.451   106657016.843    20296153.735    83109353.831    20296153.110  
                                
  20374863.779   107070631.494    20374862.064    83431653.093    20374861.742  
  20374866.442    79955351.738  
  21236758.984   111599921.729    21236757.572    86960970.896    21236757.304  
  21236761.467    83337613.684  
  22199799.648   116660733.531    22199798.576    90904460.726    22199797.986  
                                
  19886655.519   106492137.396    19886654.858    82827214.279    19886654.840  
                                
  19733964.717   105489350.438    19733965.307    82047275.082    19733965.379  
                                
  23154354.188   123599514.237    23154357.584    96132968.958    23154357.619  
                                
  19792770.332   105877974.651    19792770.546    82349536.718    19792770.189  
                                
  20204375.682   108041876.666    20204378.576    84032582.633    20204377.576  
                                
  23821062.427   125180528.627                                                  
  23821065.519    93478978.086  
  22426948.524   117854410.763                                                  
  22426951.293    88008173.013  
  25594134.422   134498083.561                                                  
  25594135.780   100436885.663  
  23733652.260   124721184.890                                                  
  23733655.851    93135963.311  
 21  8 31 18 50  1.0000000  0 15G 5G13G15G18G23G29R 4R 5R18R19R20E 5
                                E 9E11E36
  23128412.370   121540626.405    23128411.333    94706974.201    23128410.726  
                                
  21995103.932   115585050.211                    90066263.519    21995101.467  
                                
  20296302.173   106657787.863    20296300.458    83109954.627    20296299.832  
                                
  20374645.116   107069482.358    20374643.401    83430757.663    20374643.079  
  20374647.779    79954493.615  
  21236476.760   111598438.615    21236475.349    86959815.223    21236475.081  
  21236479.244    83336506.163  
  22200406.337   116663921.680    22200405.265    90906944.993    22200404.675  
                                
  19887072.689   106494371.323    19887072.010    82828951.773    19887072.010  
                                
  19733681.422   105487836.023    19733681.994    82046097.208    19733682.065  
                                
  23155104.259   123603518.231    23155107.654    96136083.175    23155107.689  
                                
  19793125.872   105879876.526    19793126.086    82351015.949    19793125.729  
                                
  20203882.943   108039241.623    20203885.802    84030533.154    20203884.802  
                                
  23820788.370   125179088.341                                                  
  23820791.444    93477902.545  
  22427195.992   117855711.222                                                  
  22427198.762    88009144.142  
  25594613.937   134500603.457                                                  
  25594615.277   100438767.394  
  23733827.555   124722106.063                                                  
  23733831.147    93136651.205  
 21  8 31 18 50  2.0000000  0 15G 5G13G15G18G23G29R 4R 5R18R19R20E 5
                                E 9E11E36
  23128945.278   121543426.843    23128944.241    94709156.358    23128943.634  
                                
  21995516.564   115587218.689                    90067953.245    21995514.098  
                                
  20296449.003   106658559.438    20296447.288    83110555.852    20296446.662  
                                
  20374426.507   107068333.480    20374424.791    83429862.433    20374424.452  
  20374429.151    79953635.685  
  21236194.573   111596955.680    21236193.161    86958659.691    21236192.893  
  21236197.039    83335398.774  
  22201013.062   116667110.081    22201011.990    90909429.464    22201011.418  
                                
  19887489.931   106496605.627    19887489.269    82830689.563    19887489.252  
                                
  19733398.234   105486322.159    19733398.788    82044919.759    19733398.877  
                                
  23155854.400   123607522.391    23155857.760    96139197.524    23155857.795  
                                
  19793481.501   105881778.983    19793481.733    82352495.638    19793481.376  
                                
  20203390.241   108036606.969    20203393.100    84028483.983    20203392.099  
                                
  23820514.349   125177648.316                                                  
  23820517.404    93476827.206  
  22427443.514   117857011.923                                                  
  22427446.265    88010115.444  
  25595093.488   134503123.411                                                  
  25595094.828   100440649.161  
  23734002.886   124723027.460                                                  
  23734006.495    93137339.251  
 21  8 31 18 50  3.0000000  0 15G 5G13G15G18G23G29R 4R 5R18R19R20E 5
                                E 9E11E36
  23129478.150   121546227.275    23129477.131    94711338.518    23129476.542  
                                
  21995929.303   115589387.658                    90069643.350    21995926.855  
                                
  20296595.940   106659331.638    20296594.207    83111157.566    20296593.599  
                                
  20374207.933   107067184.905    20374206.217    83428967.440    20374205.878  
  20374210.595    79952777.983  
  21235912.439   111595472.964    21235911.009    86957504.331    21235910.759  
  21235914.887    83334291.552  
  22201619.858   116670298.797    22201618.786    90911914.173    22201618.214  
                                
  19887907.244   106498840.309    19887906.583    82832427.651    19887906.565  
                                
  19733115.135   105484808.899    19733115.707    82043742.778    19733115.778  
                                
  23156604.542   123611526.797    23156607.937    96142312.062    23156607.973  
                                
  19793837.273   105883682.092    19793837.488    82353975.832    19793837.130  
                                
  20202897.627   108033972.774    20202900.486    84026435.162    20202899.486  
                                
  23820240.381   125176208.617                                                  
  23820243.436    93475752.104  
  22427691.071   117858312.907                                                  
  22427693.841    88011086.956  
  25595573.021   134505643.457                                                  
  25595574.379   100442531.009  
  23734178.270   124723949.099                                                  
  23734181.862    93138027.496  
 21  8 31 18 50  4.0000000  0 15G 5G13G15G18G23G29R 4R 5R18R19R20E 5
                                E 9E11E36
  23130011.111   121549027.889    23130010.057    94713520.819    23130009.485  
                                
  21996342.184   115591557.245                    90071333.937    21996339.700  
                                
  20296743.020   106660104.622    20296741.305    83111759.895    20296740.679  
                                
  20373989.466   107066036.811    20373987.733    83428072.819    20373987.393  
  20373992.111    79951920.637  
  21235630.340   111593990.660    21235628.911    86956349.288    21235628.661  
  21235632.824    83333184.645  
  22202226.744   116673487.979    22202225.654    90914399.257    22202225.082  
                                
  19888324.646   106501075.513    19888323.985    82834166.152    19888323.967  
                                
  19732832.197   105483296.391    19732832.751    82042566.385    19732832.822  
                                
  23157354.773   123615531.547    23157358.168    96145426.835    23157358.186  
                                
  19794193.189   105885586.010    19794193.439    82355456.659    19794193.046  
                                
  20202405.121   108031339.213    20202407.998    84024386.846    20202406.998  
                                
  23819966.484   125174769.391                                                  
  23819969.576    93474677.355  
  22427938.736   117859614.338                                                  
  22427941.505    88012058.795  
  25596052.644   134508163.787                                                  
  25596054.002   100444413.041  
  23734353.744   124724871.194                                                  
  23734357.336    93138716.057  
 21  8 31 18 50  5.0000000  0 15G 5G13G15G18G23G29R 4R 5R18R19R20E 5
                                E 9E11E36
  23130544.073   121551828.612    23130543.036    94715703.200    23130542.429  
                                
  21996755.155   115593727.478                    90073025.028    21996752.689  
                                
  20296890.261   106660878.330    20296888.545    83112362.787    20296887.920  
                                
  20373771.071   107064889.151    20373769.338    83427178.538    20373768.998  
  20373773.733    79951063.621  
  21235348.332   111592508.690    21235346.920    86955194.504    21235346.670  
  21235350.797    83332077.977  
  22202833.683   116676677.595    22202832.629    90916884.672    22202832.057  
                                
  19888742.156   106503311.330    19888741.495    82835905.124    19888741.495  
                                
  19732549.384   105481784.599    19732549.938    82041390.547    19732550.027  
                                
  23158105.057   123619536.620    23158108.434    96148541.887    23158108.470  
                                
  19794549.265   105887490.714    19794549.479    82356938.093    19794549.122  
                                
  20201912.740   108028706.219    20201915.600    84022338.960    20201914.599  
                                
  23819692.713   125173330.598                                                  
  23819695.769    93473602.941  
  22428186.472   117860916.189                                                  
  22428189.224    88013030.958  
  25596532.284   134510684.302                                                  
  25596533.642   100446295.237  
  23734529.271   124725793.659                                                  
  23734532.863    93139404.911  
 21  8 31 18 50  6.0000000  0 15G 5G13G15G18G23G29R 4R 5R18R19R20E 5
                                E 9E11E36
  23131076.998   121554629.193    23131075.962    94717885.472    23131075.372  
                                
  21997168.198   115595898.034                    90074716.368    21997165.732  
                                
  20297037.591   106661652.514    20297035.875    83112966.045    20297035.250  
                                
  20373552.711   107063741.658    20373550.996    83426284.388    20373550.656  
  20373555.374    79950206.723  
  21235066.358   111591026.794    21235064.929    86954039.780    21235064.679  
  21235068.806    83330971.364  
  22203440.694   116679867.349    22203439.622    90919370.193    22203439.032  
                                
  19889159.755   106505547.447    19889159.094    82837644.323    19889159.076  
                                
  19732266.642   105480273.249    19732267.232    82040215.058    19732267.285  
                                
  23158855.342   123623541.726    23158858.719    96151656.965    23158858.773  
                                
  19794905.412   105889395.944    19794905.644    82358419.939    19794905.287  
                                
  20201420.431   108026073.550    20201423.290    84020291.328    20201422.289  
                                
  23819418.942   125171891.982                                                  
  23819421.997    93472528.649  
  22428434.244   117862218.174                                                  
  22428436.996    88014003.218  
  25597011.906   134513204.768                                                  
  25597013.264   100448177.398  
  23734704.852   124726716.232                                                  
  23734708.444    93140093.843  
 21  8 31 18 50  7.0000000  0 15G 5G13G15G18G23G29R 4R 5R18R19R20E 5
                                E 9E11E36
  23131609.960   121557429.896    23131608.924    94720067.835    23131608.316  
                                
  21997581.365   115598069.185                    90076408.172    21997578.881  
                                
  20297185.046   106662427.399    20297183.313    83113569.852    20297182.705  
                                
  20373334.423   107062594.571    20373332.690    83425390.551    20373332.351  
  20373337.068    79949350.133  
  21234784.403   111589545.220    21234782.991    86952885.311    21234782.723  
  21234786.869    83329865.003  
  22204047.776   116683057.508    22204046.686    90921856.029    22204046.114  
                                
  19889577.426   106507784.098    19889576.764    82839383.939    19889576.764  
                                
  19731984.061   105478762.586    19731984.615    82039040.097    19731984.687  
                                
  23159605.698   123627547.126    23159609.075    96154772.274    23159609.093  
                                
  19795261.720   105891301.905    19795261.953    82359902.353    19795261.577  
                                
  20200928.211   108023441.437    20200931.070    84018244.127    20200930.069  
                                
  23819145.260   125170453.785                                                  
  23819148.333    93471454.671  
  22428682.069   117863520.550                                                  
  22428684.821    88014975.775  
  25597491.582   134515725.456                                                  
  25597492.923   100450059.728  
  23734880.451   124727639.174                                                  
  23734884.061    93140783.053  
 21  8 31 18 50  8.0000000  0 15G 5G13G15G18G23G29R 4R 5R18R19R20E 5
                                E 9E11E36
  23132142.921   121560230.636    23132141.885    94722250.230    23132141.277  
                                
  21997994.604   115600240.847                    90078100.371    21997992.156  
                                
  20297332.608   106663202.936    20297330.911    83114174.166    20297330.285  
                                
  20373116.207   107061447.835    20373114.474    83424496.989    20373114.134  
  20373118.869    79948493.809  
  21234502.519   111588063.913    21234501.108    86951731.047    21234500.840  
  21234504.985    83328758.828  
  22204654.894   116686248.023    22204653.822    90924342.148    22204653.232  
                                
  19889995.185   106510021.187    19889994.524    82841123.899    19889994.506  
                                
  19731701.570   105477252.537    19731702.124    82037865.617    19731702.195  
                                
  23160356.089   123631552.819    23160359.467    96157887.811    23160359.502  
                                
  19795618.154   105893208.593    19795618.386    82361385.337    19795618.011  
                                
  20200436.080   108020809.841    20200438.939    84016197.332    20200437.956  
                                
  23818871.649   125169015.947                                                  
  23818874.705    93470380.959  
  22428929.966   117864823.260                                                  
  22428932.718    88015948.574  
  25597971.276   134518246.270                                                  
  25597972.616   100451942.153  
  23735056.157   124728562.419                                                  
  23735059.749    93141472.492  
 21  8 31 18 50  9.0000000  0 15G 5G13G15G18G23G29R 4R 5R18R19R20E 5
                                E 9E11E36
  23132675.919   121563031.631    23132674.882    94724432.815    23132674.310  
                                
  21998408.022   115602413.263                    90079793.161    21998405.556  
                                
  20297480.367   106663979.332    20297478.634    83114779.146    20297478.026  
                                
  20372898.098   107060301.684    20372896.364    83423603.888    20372896.025  
  20372900.742    79947637.919  
  21234220.725   111586583.094    21234219.313    86950577.159    21234219.045  
  21234223.191    83327653.021  
  22205262.155   116689439.094    22205261.065    90926828.689    22205260.493  
                                
  19890413.070   106512258.918    19890412.409    82842864.349    19890412.391  
                                
  19731419.257   105475743.360    19731419.811    82036691.809    19731419.883  
                                
  23161106.606   123635558.986    23161109.966    96161003.707    23161109.984  
                                
  19795974.766   105895116.155    19795974.980    82362868.997    19795974.623  
                                
  20199944.110   108018178.952    20199946.969    84014151.085    20199945.969  
                                
  23818598.146   125167578.692                                                  
  23818601.220    93469307.686  
  22429177.952   117866126.519                                                  
  22429180.722    88016921.796  
  25598451.042   134520767.407                                                  
  25598452.400   100453824.844  
  23735231.953   124729486.192                                                  
  23735235.545    93142162.324  
 21  8 31 18 50 10.0000000  0 15G 5G13G15G18G23G29R 4R 5R18R19R20E 5
                                E 9E11E36
  23133209.005   121565832.932    23133207.969    94726615.651    23133207.361  
                                
  21998821.565   115604586.463                    90081486.566    21998819.081  
                                
  20297628.287   106664756.659    20297626.572    83115384.855    20297625.946  
                                
  20372680.113   107059156.154    20372678.398    83422711.263    20372678.058  
  20372682.776    79946782.480  
  21233939.055   111585102.800    21233937.626    86949423.687    21233937.376  
  21233941.503    83326547.602  
  22205869.505   116692630.765    22205868.415    90929315.700    22205867.861  
                                
  19890831.080   106514497.378    19890830.419    82844605.376    19890830.419  
                                
  19731137.088   105474235.067    19731137.659    82035518.689    19731137.713  
                                
  23161857.177   123639565.668    23161860.572    96164120.013    23161860.590  
                                
  19796331.539   105897024.712    19796331.753    82364353.428    19796331.396  
                                
  20199452.247   108015548.824    20199455.124    84012105.430    20199454.124  
                                
  23818324.768   125166142.042                                                  
  23818327.824    93468234.863  
  22429426.082   117867430.362                                                  
  22429428.833    88017895.438  
  25598930.879   134523288.973                                                  
  25598932.237   100455707.831  
  23735407.838   124730410.517                                                  
  23735411.447    93142852.563  
 21  8 31 18 50 11.0000000  0 15G 5G13G15G18G23G29R 4R 5R18R19R20E 5
                                E 9E11E36
  23133742.056   121568634.089    23133741.002    94728798.368    23133740.412  
                                
  21999235.161   115606759.988                    90083180.222    21999232.713  
                                
  20297776.278   106665534.428    20297774.581    83115990.909    20297773.955  
                                
  20372462.147   107058010.763    20372460.432    83421818.748    20372460.092  
  20372464.810    79945927.153  
  21233657.350   111583622.567    21233655.956    86948270.257    21233655.688  
  21233659.816    83325442.234  
  22206476.873   116695822.567    22206475.819    90931802.819    22206475.229  
                                
  19891249.144   106516736.123    19891248.483    82846346.620    19891248.483  
                                
  19730855.007   105472727.198    19730855.561    82034345.907    19730855.650  
                                
  23162607.783   123643572.357    23162611.160    96167236.326    23162611.178  
                                
  19796688.419   105898933.736    19796688.633    82365838.223    19796688.276  
                                
  20198960.456   108012918.960    20198963.315    84010059.978    20198962.315  
                                
  23818051.390   125164705.547                                                  
  23818054.481    93467162.163  
  22429674.211   117868734.322                                                  
  22429676.981    88018869.175  
  25599410.698   134525810.462                                                  
  25599412.038   100457590.755  
  23735583.758   124731334.948                                                  
  23735587.350    93143542.891  
 21  8 31 18 50 12.0000000  0 15G 5G13G15G18G23G29R 4R 5R18R19R20E 5
                                E 9E11E36
  23134275.089   121571435.278    23134274.053    94730981.115    23134273.445  
                                
  21999648.865   115608934.033                    90084874.278    21999646.417  
                                
  20297924.413   106666312.841    20297922.715    83116597.464    20297922.090  
                                
  20372244.252   107056865.715    20372242.537    83420926.505    20372242.197  
  20372246.915    79945072.096  
  21233375.734   111582142.599    21233374.323    86947117.035    21233374.055  
  21233378.200    83324337.063  
  22207084.331   116699014.710    22207083.241    90934290.207    22207082.669  
                                
  19891667.315   106518975.329    19891666.654    82848088.227    19891666.636  
                                
  19730573.052   105471219.973    19730573.624    82033173.623    19730573.695  
                                
  23163358.425   123647579.227    23163361.784    96170352.783    23163361.820  
                                
  19797045.442   105900843.461    19797045.656    82367323.561    19797045.281  
                                
  20198468.754   108010289.606    20198471.613    84008014.925    20198470.613  
                                
  23817778.119   125163269.410                                                  
  23817781.192    93466089.714  
  22429922.412   117870038.611                                                  
  22429925.163    88019843.152  
  25599890.552   134528332.069                                                  
  25599891.892   100459473.782  
  23735759.732   124732259.677                                                  
  23735763.324    93144233.434  
 21  8 31 18 50 13.0000000  0 15G 5G13G15G18G23G29R 4R 5R18R19R20E 5
                                E 9E11E36
  23134808.193   121574236.676    23134807.139    94733164.020    23134806.549  
                                
  22000062.694   115611108.729                    90086568.851    22000060.245  
                                
  20298072.708   106667092.048    20298070.974    83117204.636    20298070.367  
                                
  20372026.465   107055721.165    20372024.713    83420034.649    20372024.392  
  20372029.091    79944217.402  
  21233094.190   111580663.026    21233092.761    86945964.121    21233092.510  
  21233096.638    83323232.194  
  22207691.859   116702207.334    22207690.787    90936777.964    22207690.198  
                                
  19892085.575   106521215.126    19892084.914    82849830.294    19892084.896  
                                
  19730291.239   105469713.518    19730291.811    82032001.936    19730291.883  
                                
  23164109.103   123651586.461    23164112.480    96173469.518    23164112.498  
                                
  19797402.590   105902754.022    19797402.805    82368809.555    19797402.429  
                                
  20197977.178   108007660.885    20197980.037    84005970.362    20197979.036  
                                
  23817504.937   125161833.770                                                  
  23817507.993    93465017.651  
  22430170.702   117871343.367                                                  
  22430173.471    88020817.483  
  25600370.443   134530853.975                                                  
  25600371.801   100461357.021  
  23735935.778   124733184.850                                                  
  23735939.387    93144924.305  
 21  8 31 18 50 14.0000000  0 15G 5G13G15G18G23G29R 4R 5R18R19R20E 5
                                E 9E11E36
  23135341.244   121577038.009    23135340.208    94735346.873    23135339.618  
                                
  22000476.629   115613283.878                    90088263.765    22000474.164  
                                
  20298221.092   106667871.799    20298219.376    83117812.239    20298218.751  
                                
  20371808.713   107054576.877    20371806.979    83419142.996    20371806.640  
  20371811.357    79943362.897  
  21232812.664   111579183.636    21232811.252    86944811.352    21232810.984  
  21232815.129    83322127.452  
  22208299.424   116705400.252    22208298.370    90939265.952    22208297.798  
                                
  19892503.907   106523455.270    19892503.246    82851572.630    19892503.246  
                                
  19730009.534   105468207.607    19730010.088    82030830.665    19730010.178  
                                
  23164859.816   123655593.862    23164863.193    96176586.404    23164863.211  
                                
  19797759.846   105904665.149    19797760.060    82370295.994    19797759.703  
                                
  20197485.672   108005032.549    20197488.531    84003926.112    20197487.531  
                                
  23817231.791   125160398.390                                                  
  23817234.847    93463945.775  
  22430419.028   117872648.336                                                  
  22430421.779    88021791.984  
  25600850.369   134533375.961                                                  
  25600851.709   100463240.285  
  23736111.877   124734110.226                                                  
  23736115.469    93145615.343  
 21  8 31 18 50 15.0000000  0 15G 5G13G15G18G23G29R 4R 5R18R19R20E 5
                                E 9E11E36
  23135874.349   121579839.392    23135873.294    94737529.769    23135872.705  
                                
  22000890.637   115615459.551                    90089959.097    22000888.171  
                                
  20298369.601   106668652.224    20298367.868    83118420.360    20298367.261  
                                
  20371591.032   107053432.950    20371589.299    83418251.624    20371588.959  
  20371593.677    79942508.663  
  21232531.191   111577704.504    21232529.779    86943658.779    21232529.511  
  21232533.657    83321022.909  
  22208907.078   116708593.472    22208906.006    90941754.177    22208905.434  
                                
  19892922.328   106525695.890    19892921.667    82853315.335    19892921.667  
                                
  19729727.918   105466702.326    19729728.508    82029659.895    19729728.562  
                                
  23165610.601   123659601.537    23165613.960    96179703.487    23165613.978  
                                
  19798117.244   105906577.007    19798117.458    82371782.994    19798117.101  
                                
  20196994.238   108002404.727    20196997.115    84001882.253    20196996.115  
                                
  23816958.699   125158963.374                                                  
  23816961.773    93462874.170  
  22430667.425   117873953.655                                                  
  22430670.177    88022766.731  
  25601330.313   134535898.066                                                  
  25601331.671   100465123.658  
  23736288.030   124735035.918                                                  
  23736291.639    93146306.602  
 21  8 31 18 50 16.0000000  0 15G 5G13G15G18G23G29R 4R 5R18R19R20E 5
                                E 9E11E36
  23136407.471   121582640.963    23136406.435    94739712.808    23136405.827  
                                
  22001304.769   115617635.882                    90091654.942    22001302.303  
                                
  20298518.236   106669433.433    20298516.538    83119029.094    20298515.931  
                                
  20371373.441   107052289.513    20371371.708    83417360.634    20371371.350  
  20371376.086    79941654.802  
  21232249.789   111576225.791    21232248.378    86942506.536    21232248.110  
  21232252.255    83319918.680  
  22209514.839   116711787.196    22209513.767    90944242.792    22209513.178  
                                
  19893340.874   106527937.155    19893340.213    82855058.541    19893340.213  
                                
  19729446.481   105465197.808    19729447.053    82028489.715    19729447.107  
                                
  23166361.439   123663609.644    23166364.816    96182820.901    23166364.834  
                                
  19798474.803   105908489.686    19798475.017    82373270.632    19798474.660  
                                
  20196502.947   107999777.564    20196505.806    83999838.902    20196504.806  
                                
  23816685.732   125157528.869                                                  
  23816688.805    93461802.951  
  22430915.911   117875259.450                                                  
  22430918.663    88023741.837  
  25601810.311   134538420.465                                                  
  25601811.669   100467007.265  
  23736464.272   124735962.048                                                  
  23736467.846    93146998.197  
 21  8 31 18 50 17.0000000  0 15G 5G13G15G18G23G29R 4R 5R18R19R20E 5
                                E 9E11E36
  23136940.575   121585442.469    23136939.539    94741895.798    23136938.931  
                                
  22001718.991   115619812.620                    90093351.095    22001716.525  
                                
  20298667.013   106670215.190    20298665.316    83119638.254    20298664.690  
                                
  20371155.904   107051146.322    20371154.152    83416469.833    20371153.813  
  20371158.530    79940801.116  
  21231968.442   111574747.228    21231967.012    86941354.411    21231966.762  
  21231970.890    83318814.552  
  22210122.618   116714981.144    22210121.528    90946731.580    22210120.957  
                                
  19893759.474   106530178.741    19893758.813    82856801.997    19893758.795  
                                
  19729165.116   105463693.799    19729165.688    82027319.927    19729165.759  
                                
  23167112.313   123667617.894    23167115.673    96185938.429    23167115.709  
                                
  19798832.487   105910402.972    19798832.702    82374758.743    19798832.326  
                                
  20196011.728   107997150.757    20196014.587    83997795.837    20196013.586  
                                
  23816412.800   125156094.587                                                  
  23816415.856    93460731.898  
  22431164.434   117876565.449                                                  
  22431167.186    88024717.099  
  25602290.326   134540942.850                                                  
  25602291.667   100468890.871  
  23736640.532   124736888.374                                                  
  23736644.142    93147689.934  
 21  8 31 18 50 18.0000000  0 15G 5G13G15G18G23G29R 4R 5R18R19R20E 5
                                E 9E11E36
  23137473.680   121588243.919    23137472.626    94744078.746    23137472.036  
                                
  22002133.320   115621989.817                    90095047.609    22002130.836  
                                
  20298815.880   106670997.520    20298814.183    83120247.859    20298813.557  
                                
  20370938.420   107050003.404    20370936.669    83415579.248    20370936.329  
  20370941.064    79939947.635  
  21231687.112   111573268.844    21231685.700    86940202.428    21231685.432  
  21231689.560    83317710.566  
  22210730.451   116718175.359    22210729.397    90949220.576    22210728.807  
                                
  19894178.127   106532420.670    19894177.484    82858545.719    19894177.484  
                                
  19728883.875   105462190.335    19728884.429    82026150.569    19728884.518  
                                
  23167863.241   123671626.300    23167866.601    96189056.080    23167866.619  
                                
  19799190.261   105912316.864    19799190.475    82376247.323    19799190.118  
                                
  20195520.580   107994524.374    20195523.439    83995753.092    20195522.438  
                                
  23816139.923   125154660.604                                                  
  23816142.996    93459661.062  
  22431413.010   117877871.702                                                  
  22431415.744    88025692.542  
  25602770.324   134543465.301                                                  
  25602771.682   100470774.513  
  23736816.846   124737814.923                                                  
  23736820.455    93148381.835  
 21  8 31 18 50 19.0000000  0 15G 5G13G15G18G23G29R 4R 5R18R19R20E 5
                                E 9E11E36
  23138006.784   121591045.437    23138005.748    94746261.750    23138005.158  
                                
  22002547.721   115624167.544                    90096744.540    22002545.255  
                                
  20298964.890   106671780.499    20298963.175    83120857.974    20298962.549  
                                
  20370720.972   107048860.842    20370719.256    83414688.940    20370718.917  
  20370723.634    79939094.429  
  21231405.835   111571790.751    21231404.424    86939050.658    21231404.156  
  21231408.283    83316606.787  
  22211338.373   116721369.899    22211337.283    90951709.821    22211336.711  
                                
  19894596.870   106534663.045    19894596.209    82860289.786    19894596.209  
                                
  19728602.742   105460687.498    19728603.296    82024981.696    19728603.367  
                                
  23168614.205   123675634.958    23168617.564    96192173.898    23168617.582  
                                
  19799548.177   105914231.425    19799548.374    82377736.420    19799548.017  
                                
  20195029.521   107991898.493    20195032.380    83993710.738    20195031.380  
                                
  23815867.098   125153226.980                                                  
  23815870.172    93458590.503  
  22431661.639   117879178.294                                                  
  22431664.391    88026668.242  
  25603250.340   134545987.903                                                  
  25603251.698   100472658.278  
  23736993.231   124738741.809                                                  
  23736996.823    93149073.984  
 21  8 31 18 50 20.0000000  0 15G 5G13G15G18G23G29R 4R 5R18R19R20E 5
                                E 9E11E36
  23138539.907   121593847.002    23138538.870    94748444.789    23138538.263  
                                
  22002962.211   115626345.782                    90098441.875    22002959.762  
                                
  20299113.989   106672564.125    20299112.292    83121468.595    20299111.666  
                                
  20370503.631   107047718.634    20370501.897    83413798.910    20370501.558  
  20370506.275    79938241.477  
  21231124.613   111570312.898    21231123.201    86937899.086    21231122.951  
  21231127.061    83315503.193  
  22211946.349   116724564.800    22211945.259    90954199.355    22211944.687  
                                
  19895015.720   106536905.878    19895015.059    82862034.212    19895015.059  
                                
  19728321.716   105459185.276    19728322.270    82023813.301    19728322.359  
                                
  23169365.186   123679643.799    23169368.546    96195291.883    23169368.564  
                                
  19799906.219   105916146.680    19799906.433    82379226.064    19799906.058  
                                
  20194538.552   107989273.108    20194541.411    83991668.776    20194540.410  
                                
  23815594.363   125151793.695                                                  
  23815597.419    93457520.193  
  22431910.323   117880485.195                                                  
  22431913.074    88027644.175  
  25603730.409   134548510.622                                                  
  25603731.767   100474542.131  
  23737169.652   124739668.957                                                  
  23737173.261    93149766.333  
 21  8 31 18 50 21.0000000  0 15G 5G13G15G18G23G29R 4R 5R18R19R20E 5
                                E 9E11E36
  23139073.047   121596648.714    23139072.010    94750627.937    23139071.403  
                                
  22003376.843   115628524.663                    90100139.704    22003374.377  
                                
  20299263.267   106673348.515    20299261.569    83122079.810    20299260.944  
                                
  20370286.361   107046576.887    20370284.628    83412909.237    20370284.288  
  20370289.006    79937388.878  
  21230843.462   111568835.430    21230842.050    86936747.810    21230841.782  
  21230845.910    83314399.893  
  22212554.396   116727760.147    22212553.324    90956689.236    22212552.734  
                                
  19895434.677   106539149.323    19895434.016    82863779.111    19895433.998  
                                
  19728040.850   105457683.810    19728041.404    82022645.496    19728041.458  
                                
  23170116.239   123683652.967    23170119.581    96198410.125    23170119.599  
                                
  19800264.404   105918062.743    19800264.618    82380716.329    19800264.261  
                                
  20194047.708   107986648.340    20194050.567    83989627.290    20194049.566  
                                
  23815321.700   125150360.901                                                  
  23815324.756    93456450.249  
  22432159.131   117881792.550                                                  
  22432161.865    88028620.442  
  25604210.514   134551033.617                                                  
  25604211.872   100476426.179  
  23737346.180   124740596.539                                                  
  23737349.772    93150459.008  
 21  8 31 18 50 22.0000000  0 15G 5G13G15G18G23G29R 4R 5R18R19R20E 5
                                E 9E11E36
  23139606.187   121599450.311    23139605.150    94752810.999    23139604.543  
                                
  22003791.530   115630703.917                    90101837.824    22003789.082  
                                
  20299412.634   106674133.413    20299410.919    83122691.418    20299410.311  
                                
  20370069.145   107045435.343    20370067.412    83412019.722    20370067.073  
  20370071.790    79936536.426  
  21230562.328   111567358.073    21230560.917    86935596.621    21230560.648  
  21230564.776    83313296.672  
  22213162.497   116730955.694    22213161.424    90959179.270    22213160.835  
                                
  19895853.670   106541393.059    19895853.009    82865524.237    19895853.009  
                                
  19727760.057   105456182.830    19727760.611    82021478.070    19727760.682  
                                
  23170867.310   123687662.252    23170870.669    96201528.457    23170870.687  
                                
  19800622.695   105919979.330    19800622.892    82382207.010    19800622.534  
                                
  20193556.935   107984023.943    20193559.794    83987586.095    20193558.794  
                                
  23815049.090   125148928.289                                                  
  23815052.164    93455380.443  
  22432407.939   117883100.064                                                  
  22432410.673    88029596.837  
  25604690.636   134553556.600                                                  
  25604691.995   100478310.218  
  23737522.708   124741524.262                                                  
  23737526.300    93151151.788  
 21  8 31 18 50 23.0000000  0 15G 5G13G15G18G23G29R 4R 5R18R19R20E 5
                                E 9E11E36
  23140139.291   121602251.811    23140138.237    94754993.984    23140137.647  
                                
  22004206.323   115632883.543                    90103536.229    22004203.840  
                                
  20299562.073   106674918.797    20299560.375    83123303.406    20299559.750  
                                
  20369851.947   107044294.004    20369850.214    83411130.369    20369849.875  
  20369854.574    79935684.123  
  21230281.213   111565880.836    21230279.801    86934445.527    21230279.551  
  21230283.661    83312193.539  
  22213770.615   116734151.402    22213769.561    90961669.427    22213768.971  
                                
  19896272.734   106543637.076    19896272.073    82867269.581    19896272.073  
                                
  19727479.352   105454682.333    19727479.906    82020311.014    19727479.978  
                                
  23171618.416   123691671.659    23171621.776    96204646.883    23171621.776  
                                
  19800981.076   105921896.466    19800981.291    82383698.116    19800980.916  
                                
  20193066.216   107981399.868    20193069.075    83985545.148    20193068.074  
                                
  23814776.516   125147495.887                                                  
  23814779.572    93454310.795  
  22432656.783   117884407.754                                                  
  22432659.517    88030573.359  
  25605170.741   134556079.562                                                  
  25605172.099   100480194.258  
  23737699.272   124742452.138                                                  
  23737702.881    93151844.680  
 21  8 31 18 50 24.0000000  0 15G 5G13G15G18G23G29R 4R 5R18R19R20E 5
                                E 9E11E36
  23140672.449   121605053.593    23140671.413    94757177.191    23140670.823  
                                
  22004621.242   115635063.917                    90105235.222    22004618.758  
                                
  20299711.708   106675705.068    20299709.993    83123916.087    20299709.385  
                                
  20369634.857   107043153.251    20369633.123    83410241.469    20369632.784  
  20369637.501    79934832.272  
  21230000.204   111564404.078    21229998.793    86933294.818    21229998.525  
  21230002.652    83311090.778  
  22214378.859   116737347.703    22214377.805    90964160.052    22214377.215  
                                
  19896691.906   106545881.786    19896691.244    82869015.469    19896691.244  
                                
  19727198.808   105453182.694    19727199.380    82019144.628    19727199.434  
                                
  23172369.594   123695681.581    23172372.954    96207765.698    23172372.972  
                                
  19801339.636   105923814.555    19801339.851    82385189.963    19801339.493  
                                
  20192575.658   107978776.537    20192578.517    83983504.765    20192577.516  
                                
  23814504.049   125146064.088                                                  
  23814507.105    93453241.592  
  22432905.734   117885716.002                                                  
  22432908.450    88031550.303  
  25605650.936   134558601.207                                                  
  25605652.294   100482077.514  
  23737875.943   124743380.542                                                  
  23737879.552    93152537.970  
 21  8 31 18 50 25.0000000  0 15G 5G13G15G18G23G29R 4R 5R18R19R20E 5
                                E 9E11E36
  23141205.625   121607855.434    23141204.589    94759360.441    23141203.963  
                                
  22005036.250   115637244.855                    90106934.654    22005033.766  
                                
  20299861.468   106676492.026    20299859.753    83124529.301    20299859.127  
                                
  20369417.855   107042012.887    20369416.104    83409352.875    20369415.765  
  20369420.500    79933980.707  
  21229719.250   111562927.628    21229717.838    86932144.340    21229717.570  
  21229721.698    83309988.236  
  22214987.156   116740544.374    22214986.102    90966650.962    22214985.512  
                                
  19897111.184   106548127.005    19897110.523    82870761.748    19897110.523  
                                
  19726918.408   105451683.725    19726918.944    82017978.766    19726919.033  
                                
  23173120.844   123699691.796    23173124.203    96210884.751    23173124.221  
                                
  19801698.339   105925733.349    19801698.553    82386682.358    19801698.178  
                                
  20192085.153   107976153.746    20192088.030    83981464.817    20192087.029  
                                
  23814231.672   125144632.661                                                  
  23814234.727    93452172.670  
  22433154.757   117887024.619                                                  
  22433157.473    88032527.518  
  25606131.112   134561124.703                                                  
  25606132.470   100483961.933  
  23738052.685   124744309.292                                                  
  23738056.277    93153231.522  
 21  8 31 18 50 26.0000000  0 15G 5G13G15G18G23G29R 4R 5R18R19R20E 5
                                E 9E11E36
  23141738.801   121610657.307    23141737.765    94761543.719    23141737.157  
                                
  22005451.348   115639426.283                    90108634.473    22005448.900  
                                
  20300011.336   106677279.602    20300009.638    83125142.997    20300009.013  
                                
  20369200.925   107040872.856    20369199.192    83408464.542    20369198.852  
  20369203.570    79933129.377  
  21229438.331   111561451.410    21229436.919    86930994.037    21229436.669  
  21229440.779    83308885.863  
  22215595.543   116743741.362    22215594.453    90969142.121    22215593.881  
                                
  19897530.535   106550372.684    19897529.873    82872508.387    19897529.873  
                                
  19726638.096   105450185.345    19726638.650    82016813.359    19726638.740  
                                
  23173872.129   123703702.193    23173875.488    96214003.948    23173875.506  
                                
  19802057.149   105927652.795    19802057.381    82388175.260    19802056.988  
                                
  20191594.774   107973531.392    20191597.633    83979425.210    20191596.632  
                                
  23813959.330   125143201.580                                                  
  23813962.386    93451104.008  
  22433403.833   117888333.524                                                  
  22433406.567    88033504.946  
  25606611.360   134563648.300                                                  
  25606612.718   100485846.426  
  23738229.481   124745238.309                                                  
  23738233.073    93153925.264  
 21  8 31 18 50 27.0000000  0 15G 5G13G15G18G23G29R 4R 5R18R19R20E 5
                                E 9E11E36
  23142271.977   121613459.165    23142270.941    94763726.985    23142270.333  
                                
  22005866.570   115641608.186                    90110334.657    22005864.086  
                                
  20300161.310   106678067.789    20300159.613    83125757.166    20300158.987  
                                
  20368984.031   107039733.122    20368982.298    83407576.438    20368981.958  
  20368986.676    79932278.277  
  21229157.448   111559975.408    21229156.054    86929843.907    21229155.786  
  21229159.914    83307783.654  
  22216203.965   116746938.631    22216202.875    90971633.499    22216202.303  
                                
  19897949.992   106552618.767    19897949.331    82874255.340    19897949.313  
                                
  19726357.910   105448687.550    19726358.464    82015648.408    19726358.553  
                                
  23174623.450   123707712.765    23174626.792    96217123.285    23174626.827  
                                
  19802416.102   105929572.900    19802416.316    82389668.673    19802415.959  
                                
  20191104.465   107970909.512    20191107.324    83977385.970    20191106.342  
                                
  23813687.060   125141770.802                                                  
  23813690.133    93450035.563  
  22433652.963   117889642.704                                                  
  22433655.697    88034482.577  
  25607091.590   134566171.981                                                  
  25607092.966   100487730.999  
  23738406.313   124746167.572                                                  
  23738409.905    93154619.195  
 21  8 31 18 50 28.0000000  0 15G 5G13G15G18G23G29R 4R 5R18R19R20E 5
                                E 9E11E36
  23142805.171   121616261.117    23142804.134    94765910.320    23142803.527  
                                
  22006281.864   115643790.682                    90112035.301    22006279.398  
                                
  20300311.446   106678856.680    20300309.731    83126371.887    20300309.123  
                                
  20368767.226   107038593.796    20368765.493    83406688.651    20368765.153  
  20368769.871    79931427.484  
  21228876.636   111558499.724    21228875.224    86928694.023    21228874.974  
  21228879.084    83306681.687  
  22216812.441   116750136.314    22216811.369    90974125.198    22216810.797  
                                
  19898369.503   106554865.307    19898368.842    82876002.647    19898368.842  
                                
  19726077.831   105447190.424    19726078.403    82014483.971    19726078.474  
                                
  23175374.807   123711723.579    23175378.148    96220242.807    23175378.166  
                                
  19802775.180   105931493.731    19802775.394    82391162.650    19802775.037  
                                
  20190614.264   107968288.172    20190617.124    83975347.150    20190616.123  
                                
  23813414.861   125140340.426                                                  
  23813417.934    93448967.431  
  22433902.165   117890952.267                                                  
  22433904.899    88035460.492  
  25607571.856   134568695.847                                                  
  25607573.214   100489615.716  
  23738583.199   124747097.199                                                  
  23738586.808    93155313.399  
 21  8 31 18 50 29.0000000  0 15G 5G13G15G18G23G29R 4R 5R18R19R20E 5
                                E 9E11E36
  23143338.472   121619063.565    23143337.435    94768094.041    23143336.828  
                                
  22006697.390   115645974.132                    90113736.683    22006694.906  
                                
  20300461.760   106679646.669    20300460.063    83126987.460    20300459.437  
                                
  20368550.582   107037455.269    20368548.849    83405801.485    20368548.509  
  20368553.227    79930577.282  
  21228595.949   111557024.776    21228594.556    86927544.715    21228594.288  
  21228598.415    83305580.267  
  22217421.096   116753334.752    22217420.024    90976617.487    22217419.434  
                                
  19898789.193   106557112.741    19898788.532    82877750.645    19898788.532  
                                
  19725797.966   105445694.348    19725798.538    82013320.355    19725798.592  
                                
  23176126.288   123715735.132    23176129.630    96223362.890    23176129.648  
                                
  19803134.472   105933415.754    19803134.705    82392657.555    19803134.312  
                                
  20190124.224   107965667.755    20190127.083    83973309.051    20190126.119  
                                
  23813142.823   125138910.845                                                  
  23813145.878    93447899.896  
  22434151.527   117892262.603                                                  
  22434154.243    88036438.993  
  25608052.264   134571220.274                                                  
  25608053.622   100491500.820  
  23738760.263   124748027.578                                                  
  23738763.855    93156008.160  
 21  8 31 18 50 30.0000000  0 15G 5G13G15G18G23G29R 4R 5R18R19R20E 5
                                E 9E11E36
  23143871.755   121621866.049    23143870.719    94770277.794    23143870.129  
                                
  22007112.970   115648158.119                    90115438.489    22007110.504  
                                
  20300612.235   106680437.312    20300610.502    83127603.546    20300609.912  
                                
  20368333.992   107036317.087    20368332.258    83404914.592    20368331.919  
  20368336.636    79929727.341  
  21228315.334   111555550.067    21228313.923    86926395.591    21228313.672  
  21228317.764    83304479.023  
  22218029.804   116756533.544    22218028.732    90979110.046    22218028.142  
                                
  19899208.990   106559360.651    19899208.329    82879499.022    19899208.311  
                                
  19725518.227   105444198.908    19725518.781    82012157.235    19725518.834  
                                
  23176877.842   123719746.900    23176881.183    96226483.156    23176881.183  
                                
  19803493.908   105935338.440    19803494.122    82394152.978    19803493.765  
                                
  20189634.292   107963047.825    20189637.151    83971271.327    20189636.150  
                                
  23812870.856   125137481.630                                                  
  23812873.930    93446832.616  
  22434400.925   117893573.254                                                  
  22434403.641    88037417.726  
  25608532.673   134573744.853                                                  
  25608534.031   100493386.069  
  23738937.345   124748958.250                                                  
  23738940.954    93156703.138  
 21  8 31 18 50 31.0000000  0 15G 5G13G15G18G23G29R 4R 5R18R19R20E 5
                                E 9E11E36
  23144405.056   121624668.470    23144404.002    94772461.502    23144403.394  
                                
  22007528.639   115650342.472                    90117140.585    22007526.173  
                                
  20300762.764   106681228.475    20300761.066    83128220.038    20300760.459  
                                
  20368117.437   107035179.137    20368115.704    83404027.876    20368115.364  
  20368120.082    79928877.576  
  21228034.719   111554075.503    21228033.307    86925246.585    21228033.075  
  21228037.167    83303377.892  
  22218638.566   116759732.562    22218637.476    90981602.780    22218636.904  
                                
  19899628.840   106561608.932    19899628.179    82881247.682    19899628.179  
                                
  19725238.559   105442703.994    19725239.113    82010994.528    19725239.202  
                                
  23177629.413   123723758.805    23177632.754    96229603.526    23177632.754  
                                
  19803853.450   105937261.682    19803853.647    82395648.832    19803853.290  
                                
  20189144.430   107960428.295    20189147.289    83969233.913    20189146.288  
                                
  23812598.943   125136052.651                                                  
  23812601.999    93445765.526  
  22434650.376   117894884.113                                                  
  22434653.093    88038396.612  
  25609013.100   134576269.483                                                  
  25609014.458   100495271.313  
  23739114.498   124749889.101                                                  
  23739118.108    93157398.250  
 21  8 31 18 50 32.0000000  0 15G 5G13G15G18G23G29R 4R 5R18R19R20E 5
                                E 9E11E36
  23144938.321   121627470.828    23144937.267    94774645.157    23144936.659  
                                
  22007944.416   115652527.280                    90118843.031    22007941.932  
                                
  20300913.435   106682020.198    20300911.720    83128836.965    20300911.113  
                                
  20367900.954   107034041.460    20367899.221    83403141.374    20367898.881  
  20367903.598    79928028.008  
  21227754.158   111552601.119    21227752.746    86924097.718    21227752.514  
  21227756.606    83302276.889  
  22219247.364   116762931.821    22219246.291    90984095.712    22219245.702  
                                
  19900048.745   106563857.557    19900048.083    82882996.610    19900048.083  
                                
  19724958.998   105441209.631    19724959.570    82009832.244    19724959.641  
                                
  23178381.002   123727770.888    23178384.343    96232724.036    23178384.361  
                                
  19804213.082   105939185.533    19804213.297    82397145.159    19804212.922  
                                
  20188654.640   107957809.151    20188657.499    83967196.802    20188656.499  
                                
  23812327.066   125134623.938                                                  
  23812330.122    93444698.626  
  22434899.864   117896195.213                                                  
  22434902.598    88039375.682  
  25609493.526   134578794.121                                                  
  25609494.884   100497156.608  
  23739291.670   124750820.175                                                  
  23739295.279    93158093.537  
 21  8 31 18 50 33.0000000  0 15G 5G13G15G18G23G29R 4R 5R18R19R20E 5
                                E 9E11E36
  23145471.622   121630273.302    23145470.568    94776828.901    23145469.960  
                                
  22008360.264   115654712.673                    90120545.934    22008357.798  
                                
  20301064.232   106682812.637    20301062.517    83129454.450    20301061.909  
                                
  20367684.542   107032904.194    20367682.809    83402255.193    20367682.451  
  20367687.187    79927178.753  
  21227473.668   111551127.063    21227472.238    86922949.101    21227472.006  
  21227476.098    83301176.128  
  22219856.250   116766131.497    22219855.178    90986588.961    22219854.589  
                                
  19900468.756   106566106.675    19900468.095    82884745.926    19900468.095  
                                
  19724679.598   105439715.962    19724680.152    82008670.496    19724680.223  
                                
  23179132.680   123731783.291    23179136.022    96235844.786    23179136.022  
                                
  19804572.875   105941110.146    19804573.090    82398642.078    19804572.714  
                                
  20188164.957   107955190.573    20188167.817    83965160.131    20188166.816  
                                
  23812055.260   125133195.637                                                  
  23812058.316    93443632.045  
  22435149.440   117897506.697                                                  
  22435152.156    88040355.037  
  25609973.988   134581318.982                                                  
  25609975.346   100499042.034  
  23739468.930   124751751.604                                                  
  23739472.504    93158789.084  
 21  8 31 18 50 34.0000000  0 15G 5G13G15G18G23G29R 4R 5R18R19R20E 5
                                E 9E11E36
  23146004.923   121633075.838    23146003.869    94779012.693    23146003.279  
                                
  22008776.237   115656898.590                    90122249.253    22008773.753  
                                
  20301215.154   106683605.739    20301213.439    83130072.450    20301212.831  
                                
  20367468.202   107031767.304    20367466.451    83401369.304    20367466.111  
  20367470.829    79926329.774  
  21227193.195   111549653.289    21227191.802    86921800.702    21227191.551  
  21227195.643    83300075.581  
  22220465.191   116769331.522    22220464.119    90989082.489    22220463.529  
                                
  19900888.857   106568356.274    19900888.195    82886495.610    19900888.195  
                                
  19724400.287   105438222.925    19724400.841    82007509.245    19724400.930  
                                
  23179884.376   123735795.929    23179887.700    96238965.706    23179887.736  
                                
  19804932.793   105943035.443    19804932.990    82400139.528    19804932.632  
                                
  20187675.346   107952572.507    20187678.205    83963123.852    20187677.223  
                                
  23811783.544   125131767.725                                                  
  23811786.600    93442565.744  
  22435399.071   117898818.507                                                  
  22435401.805    88041334.640  
  25610454.504   134583843.943                                                  
  25610455.862   100500927.585  
  23739646.209   124752683.362                                                  
  23739649.819    93159484.882  
 21  8 31 18 50 35.0000000  0 15G 5G13G15G18G23G29R 4R 5R18R19R20E 5
                                E 9E11E36
  23146538.242   121635878.404    23146537.188    94781196.513    23146536.580  
                                
  22009192.299   115659085.039                    90123952.977    22009189.833  
                                
  20301366.201   106684399.495    20301364.503    83130690.959    20301363.878  
                                
  20367251.915   107030630.760    20367250.182    83400483.686    20367249.825  
  20367254.560    79925481.058  
  21226912.795   111548179.768    21226911.401    86920652.505    21226911.133  
  21226915.243    83298975.226  
  22221074.203   116772531.866    22221073.131    90991576.266    22221072.559  
                                
  19901309.029   106570606.343    19901308.386    82888245.664    19901308.386  
                                
  19724121.102   105436730.509    19724121.655    82006348.482    19724121.745  
                                
  23180636.126   123739808.805    23180639.468    96242086.830    23180639.485  
                                
  19805292.836   105944961.439    19805293.032    82401637.525    19805292.675  
                                
  20187185.860   107949954.965    20187188.719    83961087.987    20187187.736  
                                
  23811511.881   125130340.151                                                  
  23811514.937    93441499.703  
  22435648.754   117900130.664                                                  
  22435651.488    88042314.495  
  25610934.984   134586369.059                                                  
  25610936.342   100502813.246  
  23739823.595   124753615.411                                                  
  23739827.187    93160180.888  
 21  8 31 18 50 36.0000000  0 15G 5G13G15G18G23G29R 4R 5R18R19R20E 5
                                E 9E11E36
  23147071.615   121638681.313    23147070.560    94783380.598    23147069.953  
                                
  22009608.522   115661272.295                    90125657.330    22009606.038  
                                
  20301517.426   106685194.191    20301515.729    83131310.202    20301515.103  
                                
  20367035.771   107029494.861    20367034.038    83399598.570    20367033.663  
  20367038.416    79924632.820  
  21226632.519   111546706.816    21226631.090    86919504.750    21226630.857  
  21226634.949    83297875.292  
  22221683.322   116775732.856    22221682.268    90994070.542    22221681.678  
                                
  19901729.362   106572857.138    19901728.701    82889996.278    19901728.701  
                                
  19723842.095   105435239.030    19723842.649    82005188.440    19723842.738  
                                
  23181387.983   123743822.195    23181391.307    96245208.350    23181391.307  
                                
  19805653.058   105946888.424    19805653.254    82403136.289    19805652.897  
                                
  20186696.499   107947338.195    20186699.358    83959052.723    20186698.393  
                                
  23811240.344   125128913.229                                                  
  23811243.399    93440434.146  
  22435898.563   117901443.433                                                  
  22435901.297    88043294.807  
  25611415.590   134588894.636                                                  
  25611416.948   100504699.224  
  23740001.052   124754548.049                                                  
  23740004.662    93160877.347  
 21  8 31 18 50 37.0000000  0 15G 5G13G15G18G23G29R 4R 5R18R19R20E 5
                                E 9E11E36
  23147604.987   121641484.227    23147603.915    94785564.685    23147603.325  
                                
  22010024.835   115663460.035                    90127362.062    22010022.351  
                                
  20301668.759   106685989.497    20301667.062    83131929.919    20301666.436  
                                
  20366819.681   107028359.282    20366817.912    83398713.706    20366817.573  
  20366822.290    79923784.825  
  21226352.261   111545234.081    21226350.850    86918357.165    21226350.599  
  21226354.691    83296775.527  
  22222292.513   116778934.161    22222291.441    90996565.065    22222290.869  
                                
  19902149.749   106575108.359    19902149.105    82891747.229    19902149.087  
                                
  19723563.177   105433748.133    19723563.749    82004028.854    19723563.820  
                                
  23182139.840   123747835.793    23182143.182    96248330.035    23182143.217  
                                
  19806013.422   105948816.075    19806013.619    82404635.570    19806013.261  
                                
  20186207.245   107944721.896    20186210.104    83957017.826    20186209.121  
                                
  23810968.877   125127486.644                                                  
  23810971.915    93439368.837  
  22436148.444   117902756.484                                                  
  22436151.178    88044275.337  
  25611896.231   134591420.322                                                  
  25611897.589   100506585.271  
  23740178.599   124755480.966                                                  
  23740182.173    93161574.004  
 21  8 31 18 50 38.0000000  0 15G 5G13G15G18G23G29R 4R 5R18R19R20E 5
                                E 9E11E36
  23148138.449   121644287.565    23148137.395    94787749.103    23148136.787  
                                
  22010441.326   115665648.687                    90129067.508    22010438.842  
                                
  20301820.306   106686785.812    20301818.609    83132550.427    20301817.983  
                                
  20366603.716   107027224.432    20366601.965    83397829.406    20366601.626  
  20366606.343    79922937.376  
  21226072.129   111543761.985    21226070.735    86917210.075    21226070.467  
  21226074.577    83295676.232  
  22222901.829   116782136.166    22222900.775    90999060.132    22222900.167  
                                
  19902570.314   106577360.434    19902569.653    82893498.841    19902569.653  
                                
  19723284.474   105432258.224    19723285.010    82002870.041    19723285.099  
                                
  23182891.858   123751850.025    23182895.199    96251452.212    23182895.217  
                                
  19806373.965   105950744.801    19806374.180    82406135.693    19806373.822  
                                
  20185718.134   107942106.462    20185721.011    83954983.598    20185720.011  
                                
  23810697.536   125126060.772                                                  
  23810700.592    93438304.060  
  22436398.449   117904070.240                                                  
  22436401.165    88045256.384  
  25612376.943   134593946.503                                                  
  25612378.319   100508471.707  
  23740356.253   124756414.552                                                  
  23740359.844    93162271.164  
 21  8 31 18 50 39.0000000  0 15G 5G13G15G18G23G29R 4R 5R18R19R20E 5
                                E 9E11E36
  23148671.857   121647090.682    23148670.821    94789933.348    23148670.195  
                                
  22010857.853   115667837.612                    90130773.157    22010855.405  
                                
  20301971.925   106687582.559    20301970.227    83133171.271    20301969.602  
                                
  20366387.787   107026089.716    20366386.036    83396945.212    20366385.696  
  20366390.432    79922090.021  
  21225792.014   111542289.922    21225790.602    86916063.015    21225790.352  
  21225794.444    83294576.967  
  22223511.180   116785338.295    22223510.108    91001555.295    22223509.519  
                                
  19902990.897   106579612.710    19902990.254    82895250.611    19902990.236  
                                
  19723005.824   105430768.710    19723006.396    82001711.525    19723006.468  
                                
  23183643.876   123755864.297    23183647.217    96254574.425    23183647.217  
                                
  19806734.616   105952674.002    19806734.830    82407636.176    19806734.455  
                                
  20185229.095   107939491.340    20185231.972    83952949.619    20185230.971  
                                
  23810426.231   125124635.041                                                  
  23810429.269    93437239.397  
  22436648.455   117905384.095                                                  
  22436651.189    88046237.510  
  25612857.638   134596472.676                                                  
  25612858.996   100510358.107  
  23740533.924   124757348.234                                                  
  23740537.516    93162968.379  
 21  8 31 18 50 40.0000000  0 15G 5G13G15G18G23G29R 4R 5R18R19R20E 5
                                E 9E11E36
  23149205.283   121649893.852    23149204.247    94792117.634    23149203.639  
                                
  22011274.487   115670027.043                    90132479.209    22011272.021  
                                
  20302123.669   106688379.934    20302121.953    83133792.602    20302121.346  
                                
  20366171.929   107024955.328    20366170.178    83396061.271    20366169.839  
  20366174.556    79921242.909  
  21225511.917   111540818.097    21225510.523    86914916.138    21225510.273  
  21225514.365    83293477.874  
  22224120.586   116788540.729    22224119.513    91004050.696    22224118.924  
                                
  19903411.587   106581865.422    19903410.926    82897002.718    19903410.926  
                                
  19722727.300   105429279.777    19722727.836    82000553.464    19722727.925  
                                
  23184395.911   123759878.768    23184399.253    96257696.790    23184399.271  
                                
  19807095.374   105954603.845    19807095.570    82409137.163    19807095.213  
                                
  20184740.145   107936876.683    20184743.004    83950915.994    20184742.021  
                                
  23810154.979   125123209.638                                                  
  23810158.035    93436174.971  
  22436898.532   117906698.241                                                  
  22436901.266    88047218.850  
  25613338.332   134598998.852                                                  
  25613339.672   100512244.550  
  23740711.632   124758282.178                                                  
  23740715.223    93163665.805  
 21  8 31 18 50 41.0000000  0 15G 5G13G15G18G23G29R 4R 5R18R19R20E 5
                                E 9E11E36
  23149738.727   121652696.954    23149737.655    94794301.868    23149737.065  
                                
  22011691.228   115672216.889                    90134185.583    22011688.744  
                                
  20302275.484   106689177.849    20302273.786    83134414.351    20302273.197  
                                
  20365956.107   107023821.187    20365954.338    83395177.523    20365953.999  
  20365958.716    79920395.994  
  21225231.874   111539346.438    21225230.462    86913769.391    21225230.212  
  21225234.322    83292378.917  
  22224730.044   116791743.407    22224728.954    91006546.291    22224728.383  
                                
  19903832.331   106584118.460    19903831.670    82898755.081    19903831.670  
                                
  19722448.865   105427791.385    19722449.419    81999395.828    19722449.490  
                                
  23185147.983   123763893.392    23185151.324    96260819.270    23185151.360  
                                
  19807456.256   105956534.283    19807456.453    82410638.614    19807456.096  
                                
  20184251.284   107934262.430    20184254.143    83948882.686    20184253.142  
                                
  23809883.781   125121784.488                                                  
  23809886.837    93435110.738  
  22437148.662   117908012.621                                                  
  22437151.378    88048200.372  
  25613819.063   134601525.083                                                  
  25613820.421   100514131.021  
  23740889.393   124759216.328                                                  
  23740893.002    93164363.386  
 21  8 31 18 50 42.0000000  0 15G 5G13G15G18G23G29R 4R 5R18R19R20E 5
                                E 9E11E36
  23150272.171   121655500.218    23150271.099    94796486.227    23150270.491  
                                
  22012108.059   115674407.364                    90135892.449    22012105.575  
                                
  20302427.496   106689976.523    20302425.762    83135036.693    20302425.173  
                                
  20365740.392   107022687.510    20365738.623    83394294.138    20365738.284  
  20365743.001    79919549.411  
  21224951.902   111537875.153    21224950.490    86912622.935    21224950.240  
  21224954.332    83291280.226  
  22225339.557   116794946.527    22225338.485    91009042.236    22225337.913  
                                
  19904253.165   106586372.075    19904252.504    82900507.893    19904252.504  
                                
  19722170.573   105426303.745    19722171.127    81998238.774    19722171.216  
                                
  23185900.126   123767908.319    23185903.467    96263941.991    23185903.485  
                                
  19807817.282   105958465.500    19807817.479    82412140.668    19807817.121  
                                
  20183762.513   107931648.773    20183765.372    83946849.840    20183764.371  
                                
  23809612.672   125120359.793                                                  
  23809615.746    93434046.844  
  22437398.847   117909327.419                                                  
  22437401.563    88049182.204  
  25614299.829   134604051.561                                                  
  25614301.187   100516017.655  
  23741067.225   124760150.876                                                  
  23741070.835    93165061.263  
 21  8 31 18 50 43.0000000  0 15G 5G13G15G18G23G29R 4R 5R18R19R20E 5
                                E 9E11E36
  23150805.579   121658303.324    23150804.507    94798670.465    23150803.917  
                                
  22012524.943   115676598.185                    90137599.580    22012522.477  
                                
  20302579.543   106690775.670    20302577.846    83135659.409    20302577.220  
                                
  20365524.695   107021554.003    20365522.926    83393410.888    20365522.587  
  20365527.304    79918702.956  
  21224671.948   111536403.961    21224670.554    86911476.548    21224670.286  
  21224674.396    83290181.602  
  22225949.141   116798149.821    22225948.051    91011538.307    22225947.479  
                                
  19904674.070   106588625.975    19904673.408    82902260.926    19904673.391  
                                
  19721892.370   105424816.568    19721892.924    81997082.081    19721892.995  
                                
  23186652.269   123771923.294    23186655.610    96267064.745    23186655.628  
                                
  19808178.415   105960397.273    19808178.612    82413643.158    19808178.254  
                                
  20183273.795   107929035.445    20183276.654    83944817.252    20183275.653  
                                
  23809341.599   125118935.277                                                  
  23809344.655    93432983.084  
  22437649.084   117910642.374                                                  
  22437651.783    88050164.147  
  25614780.630   134606577.992                                                  
  25614781.989   100517904.280  
  23741245.111   124761085.557                                                  
  23741248.703    93165759.239  
 21  8 31 18 50 44.0000000  0 15G 5G13G15G18G23G29R 4R 5R18R19R20E 5
                                E 9E11E36
  23151339.023   121661106.640    23151337.987    94800854.867    23151337.361  
                                
  22012941.971   115678789.667                    90139307.225    22012939.487  
                                
  20302731.769   106691575.598    20302730.072    83136282.734    20302729.446  
                                
  20365309.070   107020420.977    20365307.319    83392528.009    20365306.979  
  20365311.697    79917856.866  
  21224392.065   111534933.157    21224390.654    86910330.473    21224390.403  
  21224394.495    83289083.285  
  22226558.778   116801353.590    22226557.706    91014034.739    22226557.116  
                                
  19905095.082   106590880.457    19905094.421    82904014.403    19905094.421  
                                
  19721614.292   105423330.124    19721614.864    81995925.958    19721614.917  
                                
  23187404.483   123775938.639    23187407.825    96270187.777    23187407.825  
                                
  19808539.673   105962329.808    19808539.870    82415146.238    19808539.512  
                                
  20182785.202   107926422.703    20182788.061    83942785.114    20182787.078  
                                
  23809070.598   125117511.247                                                  
  23809073.653    93431919.688  
  22437899.394   117911957.788                                                  
  22437902.092    88051146.438  
  25615261.432   134609104.746                                                  
  25615262.790   100519791.126  
  23741423.051   124762020.660                                                  
  23741426.643    93166457.541  
 21  8 31 18 50 45.0000000  0 15G 5G13G15G18G23G29R 4R 5R18R19R20E 5
                                E 9E11E36
  23151872.485   121663909.975    23151871.431    94803039.279    23151870.823  
                                
  22013359.105   115680981.664                    90141015.266    22013356.621  
                                
  20302884.103   106692376.177    20302882.405    83136906.560    20302881.816  
                                
  20365093.534   107019288.304    20365091.765    83391645.408    20365091.407  
  20365096.161    79917011.051  
  21224112.218   111533462.617    21224110.825    86909184.598    21224110.557  
  21224114.666    83287985.159  
  22227168.487   116804557.676    22227167.433    91016531.427    22227166.825  
                                
  19905516.147   106593135.397    19905515.522    82905768.243    19905515.504  
                                
  19721336.322   105421844.293    19721336.893    81994770.310    19721336.965  
                                
  23188156.751   123779954.246    23188160.093    96273311.022    23188160.111  
                                
  19808901.056   105964263.057    19808901.289    82416649.876    19808900.895  
                                
  20182296.699   107923810.495    20182299.576    83940753.396    20182298.575  
                                
  23808799.703   125116087.594                                                  
  23808802.759    93430856.563  
  22438149.774   117913273.521                                                  
  22438152.473    88052128.975  
  25615742.288   134611631.585                                                  
  25615743.646   100521678.051  
  23741601.044   124762956.086                                                  
  23741604.654    93167156.072  
 21  8 31 18 50 46.0000000  0 15G 5G13G15G18G23G29R 4R 5R18R19R20E 5
                                E 9E11E36
  23152405.929   121666713.250    23152404.875    94805223.650    23152404.267  
                                
  22013776.311   115683174.079                    90142723.644    22013773.827  
                                
  20303036.561   106693177.290    20303034.864    83137530.806    20303034.238  
                                
  20364878.033   107018155.883    20364876.282    83390763.002    20364875.943  
  20364880.660    79916165.412  
  21223832.407   111531992.235    21223831.014    86908038.848    21223830.763  
  21223834.855    83286887.142  
  22227778.267   116807762.000    22227777.177    91019028.307    22227776.606  
                                
  19905937.320   106595390.672    19905936.677    82907522.345    19905936.659  
                                
  19721058.458   105420358.955    19721059.030    81993615.046    19721059.102  
                                
  23188909.037   123783969.999    23188912.379    96276434.383    23188912.379  
                                
  19809262.582   105966196.909    19809262.779    82418153.983    19809262.422  
                                
  20181808.285   107921198.672    20181811.144    83938721.981    20181810.161  
                                
  23808528.827   125114664.175                                                  
  23808531.882    93429793.621  
  22438400.191   117914589.472                                                  
  22438402.889    88053111.659  
  25616223.143   134614158.435                                                  
  25616224.501   100523564.983  
  23741779.091   124763891.685                                                  
  23741782.683    93167854.737  
 21  8 31 18 50 47.0000000  0 15G 5G13G15G18G23G29R 4R 5R18R19R20E 5
                                E 9E11E36
  23152939.355   121669516.435    23152938.301    94807407.950    23152937.693  
                                
  22014193.570   115685366.881                    90144432.316    22014191.105  
                                
  20303189.109   106693978.944    20303187.412    83138155.469    20303186.786  
                                
  20364662.604   107017023.699    20364660.835    83389880.781    20364660.478  
  20364665.213    79915319.946  
  21223552.632   111530521.995    21223551.238    86906893.208    21223550.970  
  21223555.062    83285789.240  
  22228388.048   116810966.550    22228386.994    91021525.354    22228386.422  
                                
  19906358.529   106597646.300    19906357.886    82909276.725    19906357.868  
                                
  19720780.720   105418874.150    19720781.256    81992460.201    19720781.345  
                                
  23189661.341   123787985.853    23189664.682    96279557.821    23189664.682  
                                
  19809624.198   105968131.307    19809624.394    82419658.518    19809624.037  
                                
  20181319.942   107918587.225    20181322.801    83936690.856    20181321.819  
                                
  23808258.004   125113241.003                                                  
  23808261.059    93428730.865  
  22438650.643   117915905.622                                                  
  22438653.341    88054094.500  
  25616703.945   134616685.286                                                  
  25616705.303   100525451.932  
  23741957.174   124764827.480                                                  
  23741960.766    93168553.539  
 21  8 31 18 50 48.0000000  0 15G 5G13G15G18G23G29R 4R 5R18R19R20E 5
                                E 9E11E36
  23153472.799   121672319.714    23153471.745    94809592.323    23153471.137  
                                
  22014610.955   115687560.249                    90146141.434    22014608.471  
                                
  20303341.782   106694781.272    20303340.085    83138780.657    20303339.477  
                                
  20364447.211   107015891.914    20364445.460    83388998.871    20364445.121  
  20364449.838    79914474.780  
  21223272.928   111529052.059    21223271.499    86905747.799    21223271.266  
  21223275.341    83284691.558  
  22228997.953   116814171.469    22228996.863    91024022.694    22228996.291  
                                
  19906779.845   106599902.421    19906779.219    82911031.486    19906779.183  
                                
  19720503.071   105417390.024    19720503.625    81991305.882    19720503.697  
                                
  23190413.716   123792001.988    23190417.040    96282681.481    23190417.040  
                                
  19809985.938   105970066.459    19809986.135    82421163.635    19809985.777  
                                
  20180831.689   107915976.346    20180834.548    83934660.172    20180833.565  
                                
  23807987.270   125111818.221                                                  
  23807990.326    93427668.397  
  22438901.185   117917222.141                                                  
  22438903.883    88055077.616  
  25617184.836   134619212.348                                                  
  25617186.194   100527339.004  
  23742135.292   124765763.613                                                  
  23742138.902    93169252.598  
 21  8 31 18 50 49.0000000  0 15G 5G13G15G18G23G29R 4R 5R18R19R20E 5
                                E 9E11E36
  23154006.261   121675123.086    23154005.206    94811776.769    23154004.617  
                                
  22015028.447   115689754.192                    90147851.007    22015025.981  
                                
  20303494.598   106695584.319    20303492.900    83139406.408    20303492.275  
                                
  20364231.907   107014760.526    20364230.156    83388117.272    20364229.817  
  20364234.534    79913629.912  
  21222993.260   111527582.440    21222991.866    86904602.644    21222991.598  
  21222995.690    83283594.113  
  22229607.877   116817376.782    22229606.822    91026520.336    22229606.215  
                                
  19907201.268   106602159.041    19907200.607    82912786.640    19907200.607  
                                
  19720225.565   105415906.595    19720226.119    81990152.105    19720226.191  
                                
  23191166.127   123796018.397    23191169.468    96285805.352    23191169.468  
                                
  19810347.840   105972002.378    19810348.054    82422669.352    19810347.697  
                                
  20180343.525   107913365.962    20180346.402    83932629.885    20180345.402  
                                
  23807716.590   125110395.850                                                  
  23807719.646    93426606.237  
  22439151.762   117918539.037                                                  
  22439154.478    88056061.005  
  25617665.745   134621739.562                                                  
  25617667.139   100529226.231  
  23742313.536   124766700.107                                                  
  23742317.110    93169951.930  
 21  8 31 18 50 50.0000000  0 15G 5G13G15G18G23G29R 4R 5R18R19R20E 5
                                E 9E11E36
  23154539.758   121677926.538    23154538.686    94813961.279    23154538.079  
                                
  22015446.046   115691948.690                    90149561.012    22015443.580  
                                
  20303647.539   106696388.044    20303645.841    83140032.689    20303645.234  
                                
  20364016.693   107013629.540    20364014.942    83387235.984    20364014.602  
  20364019.337    79912785.340  
  21222713.664   111526113.127    21222712.252    86903457.727    21222712.020  
  21222716.094    83282496.897  
  22230217.907   116820582.476    22230216.835    91029018.279    22230216.228  
                                
  19907622.762   106604416.149    19907622.101    82914542.170    19907622.101  
                                
  19719948.202   105414423.860    19719948.738    81988998.864    19719948.828  
                                
  23191918.591   123800035.106    23191921.933    96288929.453    23191921.933  
                                
  19810709.884   105973939.029    19810710.080    82424175.637    19810709.723  
                                
  20179855.487   107910756.146    20179858.363    83930600.025    20179857.381  
                                
  23807446.000   125108973.872                                                  
  23807449.073    93425544.368  
  22439402.447   117919856.287                                                  
  22439405.145    88057044.668  
  25618146.708   134624266.985                                                  
  25618148.066   100531113.593  
  23742491.779   124767636.933                                                  
  23742495.389    93170651.509  
 21  8 31 18 50 51.0000000  0 15G 5G13G15G18G23G29R 4R 5R18R19R20E 5
                                E 9E11E36
  23155073.238   121680729.995    23155072.148    94816145.789    23155071.558  
                                
  22015863.734   115694143.690                    90151271.399    22015861.251  
                                
  20303800.623   106697192.388    20303798.907    83140659.449    20303798.300  
                                
  20363801.550   107012498.873    20363799.799    83386354.948    20363799.441  
  20363804.177    79911941.015  
  21222434.103   111524644.042    21222432.691    86902312.988    21222432.441  
  21222436.533    83281399.857  
  22230827.991   116823788.475    22230826.901    91031516.463    22230826.330  
                                
  19908044.346   106606673.691    19908043.703    82916298.034    19908043.685  
                                
  19719670.929   105412941.730    19719671.465    81987846.101    19719671.554  
                                
  23192671.092   123804052.022    23192674.433    96292053.711    23192674.451  
                                
  19811072.035   105975876.313    19811072.250    82425682.411    19811071.857  
                                
  20179367.519   107908146.807    20179370.396    83928570.542    20179369.396  
                                
  23807175.463   125107552.220                                                  
  23807178.536    93424482.745  
  22439653.149   117921173.843                                                  
  22439655.847    88058028.553  
  25618627.670   134626794.531                                                  
  25618629.064   100533001.050  
  23742670.112   124768574.040                                                  
  23742673.722    93171351.297  
 21  8 31 18 50 52.0000000  0 15G 5G13G15G18G23G29R 4R 5R18R19R20E 5
                                E 9E11E36
  23155606.718   121683533.567    23155605.663    94818330.393    23155605.056  
                                
  22016281.548   115696339.264                    90152982.232    22016279.082  
                                
  20303953.814   106697997.448    20303952.099    83141286.775    20303951.491  
                                
  20363586.478   107011368.635    20363584.709    83385474.238    20363584.352  
  20363589.087    79911097.004  
  21222154.613   111523175.295    21222153.202    86901168.507    21222152.952  
  21222157.044    83280303.068  
  22231438.129   116826994.874    22231437.057    91034014.960    22231436.449  
                                
  19908466.019   106608931.729    19908465.376    82918054.288    19908465.358  
                                
  19719393.780   105411460.278    19719394.352    81986693.858    19719394.423  
                                
  23193423.681   123808069.245    23193427.023    96295178.211    23193427.023  
                                
  19811434.330   105977814.326    19811434.526    82427189.754    19811434.169  
                                
  20178879.659   107905538.003    20178882.518    83926541.470    20178881.535  
                                
  23806905.015   125106130.981                                                  
  23806908.071    93423421.437  
  22439903.941   117922491.789                                                  
  22439906.657    88059012.733  
  25619108.687   134629322.271                                                  
  25619110.045   100534888.622  
  23742848.499   124769511.508                                                  
  23742852.108    93172051.353  
 21  8 31 18 50 53.0000000  0 15G 5G13G15G18G23G29R 4R 5R18R19R20E 5
                                E 9E11E36
  23156140.215   121686337.128    23156139.161    94820514.985    23156138.535  
                                
  22016699.451   115698535.312                    90154693.436    22016696.967  
                                
  20304107.112   106698803.089    20304105.415    83141914.545    20304104.789  
                                
  20363371.442   107010238.691    20363369.691    83384593.764    20363369.334  
  20363374.069    79910253.217  
  21221875.142   111521706.756    21221873.748    86900024.191    21221873.498  
  21221877.572    83279206.429  
  22232048.356   116830201.551    22232047.266    91036513.669    22232046.677  
                                
  19908887.764   106611190.158    19908887.103    82919810.839    19908887.103  
                                
  19719116.757   105409979.363    19719117.311    81985542.035    19719117.382  
                                
  23194176.271   123812086.652    23194179.630    96298302.849    23194179.630  
                                
  19811796.731   105979752.972    19811796.946    82428697.590    19811796.588  
                                
  20178391.889   107902929.674    20178394.765    83924512.770    20178393.765  
                                
  23806634.621   125104710.059                                                  
  23806637.676    93422360.351  
  22440154.804   117923809.996                                                  
  22440157.502    88059997.111  
  25619589.738   134631850.075                                                  
  25619591.097   100536776.272  
  23743026.957   124770449.229                                                  
  23743030.548    93172751.601  
 21  8 31 18 50 54.0000000  0 15G 5G13G15G18G23G29R 4R 5R18R19R20E 5
                                E 9E11E36
  23156673.748   121689140.838    23156672.676    94822699.690    23156672.087  
                                
  22017117.443   115700731.928                    90156405.080    22017114.995  
                                
  20304260.572   106699609.469    20304258.874    83142542.891    20304258.249  
                                
  20363156.514   107009109.166    20363154.745    83383713.615    20363154.387  
  20363159.123    79909409.738  
  21221595.760   111520238.549    21221594.366    86898880.134    21221594.098  
  21221598.190    83278110.041  
  22232658.619   116833408.642    22232657.565    91039012.692    22232656.975  
                                
  19909309.616   106613449.132    19909308.955    82921567.824    19909308.937  
                                
  19718839.858   105408499.117    19718840.394    81984390.735    19718840.484  
                                
  23194928.932   123816104.393    23194932.292    96301427.775    23194932.292  
                                
  19812159.294   105981692.407    19812159.490    82430206.042    19812159.133  
                                
  20177904.225   107900321.927    20177907.084    83922484.524    20177906.101  
                                
  23806364.316   125103289.555                                                  
  23806367.372    93421299.588  
  22440405.739   117925128.599                                                  
  22440408.437    88060981.771  
  25620070.773   134634378.073                                                  
  25620072.131   100538664.059  
  23743205.468   124771387.302                                                  
  23743209.060    93173452.096  
 21  8 31 18 50 55.0000000  0 15G 5G13G15G18G23G29R 4R 5R18R19R20E 5
                                E 9E11E36
  23157207.282   121691944.615    23157206.227    94824884.449    23157205.620  
                                
  22017535.578   115702929.117                    90158117.180    22017533.094  
                                
  20304414.138   106700416.522    20304412.440    83143171.763    20304411.815  
                                
  20362941.639   107007980.046    20362939.888    83382833.779    20362939.548  
  20362944.266    79908566.562  
  21221316.431   111518770.641    21221315.019    86897736.311    21221314.769  
  21221318.861    83277013.880  
  22233269.007   116836616.123    22233267.917    91041512.024    22233267.327  
                                
  19909731.557   106615708.605    19909730.896    82923325.187    19909730.896  
                                
  19718563.067   105407019.539    19718563.603    81983239.952    19718563.692  
                                
  23195681.665   123820122.400    23195684.988    96304552.887    23195685.024  
                                
  19812521.999   105983632.562    19812522.178    82431715.049    19812521.821  
                                
  20177416.669   107897714.703    20177419.528    83920456.683    20177418.545  
                                
  23806094.083   125101869.449                                                  
  23806097.139    93420239.120  
  22440656.727   117926447.566                                                  
  22440659.425    88061966.712  
  25620551.896   134636906.247                                                  
  25620553.272   100540551.968  
  23743384.033   124772325.738                                                  
  23743387.643    93174152.877  
 21  8 31 18 50 56.0000000  0 15G 5G13G15G18G23G29R 4R 5R18R19R20E 5
                                E 9E11E36
  23157740.869   121694748.551    23157739.814    94827069.336    23157739.189  
                                
  22017953.803   115705126.925                    90159829.760    22017951.319  
                                
  20304567.865   106701224.334    20304566.150    83143801.228    20304565.542  
                                
  20362726.853   107006851.378    20362725.102    83381954.299    20362724.762  
  20362729.480    79907723.723  
  21221037.156   111517303.108    21221035.762    86896592.780    21221035.512  
  21221039.586    83275917.991  
  22233879.431   116839824.018    22233878.359    91044011.680    22233877.769  
                                
  19910153.606   106617968.647    19910152.944    82925082.999    19910152.944  
                                
  19718286.419   105405540.723    19718286.973    81982089.764    19718287.044  
                                
  23196434.415   123824140.755    23196437.792    96307678.265    23196437.792  
                                
  19812884.830   105985573.493    19812885.026    82433224.662    19812884.669  
                                
  20176929.220   107895108.075    20176932.079    83918429.306    20176931.096  
                                
  23805823.921   125100449.789                                                  
  23805826.977    93419178.982  
  22440907.787   117927766.947                                                  
  22440910.467    88062951.968  
  25621033.019   134639434.665                                                  
  25621034.413   100542440.056  
  23743562.706   124773264.565                                                  
  23743566.280    93174853.945  
 21  8 31 18 50 57.0000000  0 15G 5G13G15G18G23G29R 4R 5R18R19R20E 5
                                E 9E11E36
  23158274.420   121697552.390    23158273.348    94829254.144    23158272.740  
                                
  22018372.099   115707325.150                    90161542.662    22018369.615  
                                
  20304721.664   106702032.681    20304719.966    83144431.106    20304719.377  
                                
  20362512.139   107005722.950    20362510.370    83381075.007    20362510.013  
  20362514.748    79906881.073  
  21220757.935   111515835.720    21220756.523    86895449.362    21220756.273  
  21220760.365    83274822.221  
  22234489.926   116843032.160    22234488.854    91046511.532    22234488.282  
                                
  19910575.725   106620229.005    19910575.064    82926841.053    19910575.064  
                                
  19718009.878   105404062.438    19718010.414    81980939.987    19718010.503  
                                
  23197187.237   123828159.215    23197190.597    96310803.722    23197190.597  
                                
  19813247.785   105987515.022    19813247.982    82434734.740    19813247.625  
                                
  20176441.824   107892501.839    20176444.683    83916402.232    20176443.718  
                                
  23805553.795   125099030.388                                                  
  23805556.869    93418119.046  
  22441158.900   117929086.548                                                  
  22441161.598    88063937.384  
  25621514.179   134641963.103                                                  
  25621515.537   100544328.191  
  23743741.396   124774203.597                                                  
  23743745.006    93175555.172  
 21  8 31 18 50 58.0000000  0 15G 5G13G15G18G23G29R 4R 5R18R19R20E 5
                                E 9E11E36
  23158807.989   121700356.282    23158806.935    94831438.995    23158806.309  
                                
  22018790.502   115709523.903                    90163255.974    22018788.036  
                                
  20304875.623   106702841.694    20304873.926    83145061.505    20304873.300  
                                
  20362297.461   107004594.896    20362295.709    83380196.004    20362295.370  
  20362300.087    79906038.690  
  21220478.749   111514368.616    21220477.355    86894306.167    21220477.087  
  21220481.161    83273726.654  
  22235100.493   116846240.645    22235099.403    91049011.651    22235098.813  
                                
  19910997.881   106622489.800    19910997.256    82928599.449    19910997.220  
                                
  19717733.462   105402584.810    19717733.998    81979790.720    19717734.069  
                                
  23197940.077   123832177.889    23197943.418    96313929.351    23197943.436  
                                
  19813610.848   105989457.247    19813611.045    82436245.362    19813610.687  
                                
  20175954.554   107889896.123    20175957.413    83914375.563    20175956.430  
                                
  23805283.794   125097611.362                                                  
  23805286.850    93417059.375  
  22441410.067   117930406.492                                                  
  22441412.783    88064923.059  
  25621995.356   134644491.699                                                  
  25621996.714   100546216.420  
  23743920.140   124775142.941                                                  
  23743923.732    93176256.628  
 21  8 31 18 50 59.0000000  0 15G 5G13G15G18G23G29R 4R 5R18R19R20E 5
                                E 9E11E36
  23159341.576   121703160.279    23159340.504    94833623.923    23159339.896  
                                
  22019209.030   115711723.239                    90164969.741    22019206.564  
                                
  20305029.708   106703651.367    20305028.010    83145692.429    20305027.403  
                                
  20362082.889   107003467.243    20362081.120    83379317.313    20362080.763  
  20362085.498    79905196.616  
  21220199.617   111512901.800    21220198.223    86893163.193    21220197.955  
  21220202.029    83272631.311  
  22235711.131   116849449.514    22235710.041    91051512.070    22235709.451  
                                
  19911420.180   106624751.094    19911419.519    82930358.236    19911419.519  
                                
  19717457.153   105401107.850    19717457.707    81978641.974    19717457.796  
                                
  23198692.970   123836196.870    23198696.312    96317055.232    23198696.330  
                                
  19813974.072   105991400.228    19813974.268    82437756.560    19813973.911  
                                
  20175467.373   107887291.004    20175470.250    83912349.362    20175469.249  
                                
  23805013.829   125096192.735                                                  
  23805016.885    93416000.017  
  22441661.323   117931726.812                                                  
  22441664.022    88065909.012  
  25622476.568   134647020.519                                                  
  25622477.927   100548104.798  
  23744098.955   124776082.636                                                  
  23744102.565    93176958.359  
 21  8 31 18 51  0.0000000  0 15G 5G13G15G18G23G29R 4R 5R18R19R20E 5
                                E 9E11E36
  23159875.180   121705964.368    23159874.108    94835808.920    23159873.483  
                                
  22019627.665   115713923.154                    90166683.960    22019625.182  
                                
  20305183.935   106704461.791    20305182.220    83146323.926    20305181.612  
                                
  20361868.372   107002340.018    20361866.621    83378438.954    20361866.263  
  20361870.998    79904354.860  
  21219920.574   111511435.347    21219919.163    86892020.503    21219918.913  
  21219922.987    83271536.226  
  22236321.823   116852658.785    22236320.768    91054012.797    22236320.161  
                                
  19911842.568   106627012.935    19911841.907    82932117.448    19911841.907  
                                
  19717180.987   105399631.583    19717181.541    81977493.766    19717181.631  
                                
  23199445.917   123840216.153    23199449.277    96320181.334    23199449.277  
                                
  19814337.421   105993343.967    19814337.635    82439268.357    19814337.260  
                                
  20174980.299   107884686.416    20174983.158    83910323.576    20174982.193  
                                
  23804743.953   125094774.537                                                  
  23804747.009    93414940.971  
  22441912.651   117933047.516                                                  
  22441915.331    88066895.252  
  25622957.835   134649549.485                                                  
  25622959.193   100549993.314  
  23744277.842   124777022.696                                                  
  23744281.434    93177660.350  
 21  8 31 18 51  1.0000000  0 15G 5G13G15G18G23G29R 4R 5R18R19R20E 5
                                E 9E11E36
  23160408.821   121708768.665    23160407.749    94837994.089    23160407.123  
                                
  22020046.426   115716123.724                    90168398.685    22020043.942  
                                
  20305338.288   106705273.005    20305336.590    83146956.042    20305335.965  
                                
  20361653.961   107001213.293    20361652.210    83377560.989    20361651.853  
  20361656.588    79903513.471  
  21219641.585   111509969.288    21219640.174    86890878.119    21219639.924  
  21219643.998    83270441.446  
  22236932.621   116855868.546    22236931.567    91056513.905    22236930.960  
                                
  19912265.045   106629275.384    19912264.420    82933877.128    19912264.402  
                                
  19716904.965   105398156.065    19716905.519    81976346.141    19716905.608  
                                
  23200198.954   123844235.846    23200202.295    96323307.762    23200202.313  
                                
  19814700.966   105995288.534    19814701.162    82440780.795    19814700.805  
                                
  20174493.350   107882082.476    20174496.227    83908298.292    20174495.226  
                                
  23804474.185   125093356.828                                                  
  23804477.240    93413882.293  
  22442164.068   117934368.693                                                  
  22442166.767    88067881.845  
  25623439.119   134652078.751                                                  
  25623440.531   100551882.051  
  23744456.818   124777963.204                                                  
  23744460.428    93178362.675  
 21  8 31 18 51  2.0000000  0 15G 5G13G15G18G23G29R 4R 5R18R19R20E 5
                                E 9E11E36
  23160942.444   121711572.888    23160941.389    94840179.196    23160940.764  
                                
  22020465.240   115718324.710                    90170113.741    22020462.774  
                                
  20305492.766   106706084.746    20305491.068    83147588.569    20305490.443  
                                
  20361439.622   107000086.811    20361437.835    83376683.208    20361437.496  
  20361442.213    79902672.265  
  21219362.650   111508503.402    21219361.256    86889735.870    21219360.988  
  21219365.062    83269346.784  
  22237543.456   116859078.534    22237542.384    91059015.196    22237541.812  
                                
  19912687.630   106631538.164    19912686.968    82935637.069    19912686.968  
                                
  19716629.031   105396681.063    19716629.585    81975198.920    19716629.657  
                                
  23200952.008   123848255.686    23200955.367    96326434.302    23200955.367  
                                
  19815064.565   105997233.686    19815064.761    82442293.689    19815064.404  
                                
  20174006.455   107879478.904    20174009.332    83906273.291    20174008.331  
                                
  23804204.434   125091939.378                                                  
  23804207.507    93412823.807  
  22442415.503   117935690.084                                                  
  22442418.219    88068868.594  
  25623920.421   134654608.002                                                  
  25623921.779   100553770.786  
  23744635.830   124778903.909                                                  
  23744639.422    93179065.147  
 21  8 31 18 51  3.0000000  0 15G 5G13G15G18G23G29R 4R 5R18R19R20E 5
                                E 9E11E36
  23161476.084   121714377.197    23161475.030    94842364.369    23161474.404  
                                
  22020884.197   115720526.265                    90171829.239    22020881.713  
                                
  20305647.386   106706897.207    20305645.671    83148221.653    20305645.063  
                                
  20361225.337   106998960.752    20361223.550    83375805.762    20361223.211  
  20361227.928    79901831.385  
  21219083.732   111507037.818    21219082.339    86888593.857    21219082.071  
  21219086.163    83268252.365  
  22238154.380   116862288.920    22238153.308    91061516.793    22238152.700  
                                
  19913110.268   106633801.456    19913109.624    82937397.409    19913109.607  
                                
  19716353.241   105395206.742    19716353.777    81974052.226    19716353.848  
                                
  23201705.116   123852275.845    23201708.475    96329561.094    23201708.475  
                                
  19815428.342   105999179.594    19815428.539    82443807.178    19815428.181  
                                
  20173519.703   107876875.905    20173522.562    83904248.736    20173521.579  
                                
  23803934.790   125090522.345                                                  
  23803937.846    93411765.639  
  22442667.046   117937011.856                                                  
  22442669.726    88069855.634  
  25624401.759   134657137.479                                                  
  25624403.135   100555659.684  
  23744814.895   124779844.975                                                  
  23744818.505    93179767.891  
 21  8 31 18 51  4.0000000  0 15G 5G13G15G18G23G29R 4R 5R18R19R20E 5
                                E 9E11E36
  23162009.742   121717181.508    23162008.652    94844549.551    23162008.045  
                                
  22021303.226   115722728.334                    90173545.143    22021300.742  
                                
  20305802.096   106707710.296    20305800.399    83148855.224    20305799.791  
                                
  20361011.105   106997835.000    20361009.318    83374928.555    20361008.979  
  20361013.714    79900990.727  
  21218804.886   111505572.460    21218803.493    86887452.019    21218803.224  
  21218807.299    83267158.107  
  22238765.358   116865499.600    22238764.286    91064018.631    22238763.678  
                                
  19913532.995   106636065.181    19913532.352    82939158.082    19913532.352  
                                
  19716077.557   105393733.015    19716078.093    81972905.994    19716078.165  
                                
  23202458.259   123856296.203    23202461.619    96332688.033    23202461.637  
                                
  19815792.227   106001126.168    19815792.424    82445321.180    19815792.066  
                                
  20173033.004   107874273.353    20173035.863    83902224.520    20173034.881  
                                
  23803665.182   125089105.634                                                  
  23803668.256    93410707.702  
  22442918.624   117938333.916                                                  
  22442921.304    88070842.886  
  25624883.133   134659667.047                                                  
  25624884.509   100557548.636  
  23744994.032   124780786.302                                                  
  23744997.624    93180470.841  
 21  8 31 18 51  5.0000000  0 15G 5G13G15G18G23G29R 4R 5R18R19R20E 5
                                E 9E11E36
  23162543.401   121719985.937    23162542.347    94846734.818    23162541.721  
                                
  22021722.380   115724930.963                    90175261.480    22021719.896  
                                
  20305956.967   106708524.077    20305955.270    83149489.343    20305954.644  
                                
  20360796.963   106996709.678    20360795.194    83374051.678    20360794.837  
  20360799.572    79900150.384  
  21218526.112   111504107.440    21218524.718    86886310.445    21218524.450  
  21218528.542    83266064.094  
  22239376.407   116868710.687    22239375.317    91066520.775    22239374.727  
                                
  19913955.830   106638329.430    19913955.169    82940919.159    19913955.169  
                                
  19715801.981   105392260.014    19715802.535    81971760.328    19715802.607  
                                
  23203211.457   123860316.824    23203214.834    96335815.175    23203214.834  
                                
  19816156.273   106003073.468    19816156.469    82446835.744    19816156.112  
                                
  20172546.413   107871671.376    20172549.290    83900200.760    20172548.307  
                                
  23803395.664   125087689.343                                                  
  23803398.755    93409650.080  
  22443170.273   117939656.357                                                  
  22443172.953    88071830.426  
  25625364.524   134662196.829                                                  
  25625365.918   100559437.768  
  23745173.241   124781728.004                                                  
  23745176.832    93181174.052  
 21  8 31 18 51  6.0000000  0 15G 5G13G15G18G23G29R 4R 5R18R19R20E 5
                                E 9E11E36
  23163077.131   121722790.686    23163076.059    94848920.339    23163075.433  
                                
  22022141.676   115727134.414                    90176978.457    22022139.192  
                                
  20306111.999   106709338.809    20306110.301    83150124.195    20306109.676  
                                
  20360582.946   106995584.991    20360581.159    83373175.297    20360580.819  
  20360585.537    79899310.528  
  21218247.426   111502642.968    21218246.033    86885169.298    21218245.765  
  21218249.839    83264970.497  
  22239987.581   116871922.418    22239986.509    91069023.420    22239985.901  
                                
  19914378.807   106640594.399    19914378.146    82942680.805    19914378.146  
                                
  19715526.620   105390787.964    19715527.156    81970615.401    19715527.245  
                                
  23203964.761   123864337.945    23203968.138    96338942.712    23203968.156  
                                
  19816520.479   106005021.742    19816520.676    82448351.066    19816520.318  
                                
  20172059.982   107869070.192    20172062.859    83898177.619    20172061.859  
                                
  23803126.288   125086273.692                                                  
  23803129.362    93408592.940  
  22443422.048   117940979.415                                                  
  22443424.728    88072818.422  
  25625846.023   134664727.045                                                  
  25625847.399   100561327.204  
  23745352.556   124782670.297                                                  
  23745356.148    93181877.718  
 21  8 31 18 51  7.0000000  0 15G 5G13G15G18G23G29R 4R 5R18R19R20E 5
                                E 9E11E36
  23163610.896   121725595.596    23163609.806    94851105.981    23163609.199  
                                
  22022561.098   115729338.466                    90178695.896    22022558.614  
                                
  20306267.173   106710154.275    20306265.476    83150759.625    20306264.868  
                                
  20360369.018   106994460.763    20360367.231    83372299.280    20360366.891  
  20360371.609    79898471.002  
  21217968.830   111501178.869    21217967.419    86884028.442    21217967.169  
  21217971.261    83263877.172  
  22240598.827   116875134.571    22240597.755    91071526.391    22240597.147  
                                
  19914801.857   106642859.919    19914801.231    82944442.875    19914801.213  
                                
  19715251.383   105389316.628    19715251.919    81969471.029    19715251.973  
                                
  23204718.119   123868359.436    23204721.478    96342070.536    23204721.496  
                                
  19816884.829   106006970.795    19816885.025    82449866.994    19816884.668  
                                
  20171573.659   107866469.632    20171576.518    83896154.966    20171575.553  
                                
  23802856.984   125084858.504                                                  
  23802860.058    93407536.142  
  22443673.911   117942302.895                                                  
  22443676.592    88073806.735  
  25626327.539   134667257.499                                                  
  25626328.951   100563216.813  
  23745531.944   124783612.977                                                  
  23745535.517    93182581.670  
 21  8 31 18 51  8.0000000  0 15G 5G13G15G18G23G29R 4R 5R18R19R20E 5
                                E 9E11E36
  23164144.608   121728400.312    23164143.518    94853291.477    23164142.911  
                                
  22022980.573   115731542.839                    90180413.589    22022978.089  
                                
  20306422.437   106710970.181    20306420.740    83151395.393    20306420.114  
                                
  20360155.090   106993336.682    20360153.321    83371423.372    20360152.981  
  20360157.717    79897631.589  
  21217690.217   111499714.811    21217688.823    86882887.618    21217688.555  
  21217692.647    83262783.882  
  22241210.108   116878346.835    22241209.036    91074029.454    22241208.428  
                                
  19915224.959   106645125.656    19915224.334    82946205.116    19915224.298  
                                
  19714976.200   105387845.683    19714976.736    81968326.963    19714976.826  
                                
  23205471.495   123872380.951    23205474.854    96345198.376    23205474.872  
                                
  19817249.267   106008920.317    19817249.464    82451383.287    19817249.106  
                                
  20171087.389   107863869.360    20171090.248    83894132.532    20171089.283  
                                
  23802587.698   125083443.452                                                  
  23802590.772    93406479.451  
  22443925.775   117943626.487                                                  
  22443928.456    88074795.131  
  25626809.038   134669787.848                                                  
  25626810.414   100565106.359  
  23745711.331   124784555.765                                                  
  23745714.922    93183285.698  
 21  8 31 18 51  9.0000000  0 15G 5G13G15G18G23G29R 4R 5R18R19R20E 5
                                E 9E11E36
  23164678.320   121731205.014    23164677.248    94855476.945    23164676.623  
                                
  22023400.120   115733747.633                    90182131.611    22023397.654  
                                
  20306577.809   106711786.623    20306576.111    83152031.580    20306575.486  
                                
  20359941.251   106992212.873    20359939.464    83370547.675    20359939.125  
  20359943.860    79896792.383  
  21217411.674   111498250.938    21217410.245    86881746.940    21217410.012  
  21217414.069    83261690.730  
  22241821.425   116881559.363    22241820.353    91076532.726    22241819.746  
                                
  19915648.169   106647391.792    19915647.508    82947967.652    19915647.508  
                                
  19714701.142   105386375.264    19714701.678    81967183.303    19714701.750  
                                
  23206224.889   123876402.597    23206228.248    96348326.335    23206228.266  
                                
  19817613.831   106010870.446    19817614.028    82452900.061    19817613.670  
                                
  20170601.209   107861269.490    20170604.068    83892110.409    20170603.085  
                                
  23802318.483   125082028.675                                                  
  23802321.557    93405422.964  
  22444177.693   117944950.323                                                  
  22444180.373    88075783.705  
  25627290.573   134672318.249                                                  
  25627291.966   100566995.962  
  23745890.807   124785498.779                                                  
  23745894.381    93183989.890  
 21  8 31 18 51 10.0000000  0 15G 5G13G15G18G23G29R 4R 5R18R19R20E 5
                                E 9E11E36
  23165212.104   121734010.027    23165211.014    94857662.672    23165210.388  
                                
  22023819.845   115735953.232                    90183850.257    22023817.362  
                                
  20306733.341   106712604.008    20306731.643    83152668.506    20306731.018  
                                
  20359727.520   106991089.689    20359725.733    83369672.469    20359725.393  
  20359730.111    79895953.642  
  21217133.203   111496787.602    21217131.774    86880606.678    21217131.542  
  21217135.616    83260597.985  
  22242432.868   116884772.502    22242431.795    91079036.470    22242431.188  
                                
  19916071.486   106649658.651    19916070.825    82949730.762    19916070.825  
                                
  19714426.210   105384905.725    19714426.746    81966040.330    19714426.835  
                                
  23206978.372   123880424.768    23206981.749    96351454.683    23206981.749  
                                
  19817978.574   106012821.549    19817978.770    82454417.582    19817978.413  
                                
  20170115.171   107858670.441    20170118.031    83890088.922    20170117.066  
                                
  23802049.376   125080614.543                                                  
  23802052.449    93404366.952  
  22444429.735   117946274.754                                                  
  22444432.416    88076772.728  
  25627772.179   134674849.079                                                  
  25627773.572   100568885.863  
  23746070.355   124786442.366                                                  
  23746073.929    93184694.517  
 21  8 31 18 51 11.0000000  0 15G 5G13G15G18G23G29R 4R 5R18R19R20E 5
                                E 9E11E36
  23165745.905   121736815.210    23165744.833    94859848.528    23165744.207  
                                
  22024239.678   115738159.483                    90185569.415    22024237.194  
                                
  20306889.033   106713422.194    20306887.336    83153306.053    20306886.728  
                                
  20359513.878   106989967.013    20359512.091    83368797.654    20359511.733  
  20359516.487    79895115.280  
  21216854.804   111495324.680    21216853.410    86879466.740    21216853.142  
  21216857.216    83259505.541  
  22243044.417   116887986.140    22243043.345    91081540.599    22243042.737  
                                
  19916494.911   106651926.117    19916494.268    82951494.349    19916494.250  
                                
  19714151.455   105383436.962    19714151.992    81964897.957    19714152.063  
                                
  23207731.944   123884447.377    23207735.304    96354583.372    23207735.321  
                                
  19818343.477   106014773.523    19818343.691    82455935.785    19818343.316  
                                
  20169629.259   107856072.029    20169632.118    83888067.937    20169631.118  
                                
  23801780.376   125079200.893                                                  
  23801783.431    93403311.307  
  22444681.832   117947599.645                                                  
  22444684.512    88077762.098  
  25628253.820   134677380.173                                                  
  25628255.214   100570775.964  
  23746249.992   124787386.390                                                  
  23746253.584    93185399.474  
 21  8 31 18 51 12.0000000  0 15G 5G13G15G18G23G29R 4R 5R18R19R20E 5
                                E 9E11E36
  23166279.742   121739620.572    23166278.670    94862034.523    23166278.045  
                                
  22024659.636   115740366.390                    90187289.081    22024657.152  
                                
  20307044.887   106714241.154    20307043.189    83153944.204    20307042.564  
                                
  20359300.325   106988844.813    20359298.538    83367923.214    20359298.199  
  20359302.952    79894277.271  
  21216576.494   111493862.142    21216575.082    86878327.101    21216574.832  
  21216578.906    83258413.389  
  22243656.020   116891200.224    22243654.966    91084045.080    22243654.358  
                                
  19916918.442   106654194.145    19916917.817    82953258.371    19916917.781  
                                
  19713876.844   105381968.978    19713877.380    81963756.194    19713877.470  
                                
  23208485.588   123888470.296    23208488.947    96357712.302    23208488.965  
                                
  19818708.541   106016726.314    19818708.738    82457454.617    19818708.380  
                                
  20169143.454   107853474.225    20169146.313    83886047.421    20169145.330  
                                
  23801511.465   125077787.736                                                  
  23801514.520    93402256.023  
  22444934.035   117948924.989                                                  
  22444936.715    88078751.798  
  25628735.551   134679911.569                                                  
  25628736.963   100572666.274  
  23746429.701   124788330.851                                                  
  23746433.311    93186104.751  
 21  8 31 18 51 13.0000000  0 15G 5G13G15G18G23G29R 4R 5R18R19R20E 5
                                E 9E11E36
  23166813.597   121742425.975    23166812.525    94864220.551    23166811.899  
                                
  22025079.683   115742573.771                    90189009.120    22025077.199  
                                
  20307200.830   106715060.722    20307199.132    83154582.829    20307198.543  
                                
  20359086.844   106987722.941    20359085.075    83367049.028    20359084.717  
  20359089.453    79893439.512  
  21216298.238   111492399.839    21216296.826    86877187.644    21216296.576  
  21216300.650    83257321.407  
  22244267.712   116894414.610    22244266.622    91086549.796    22244266.033  
                                
  19917342.063   106656462.574    19917341.420    82955022.702    19917341.402  
                                
  19713602.340   105380501.600    19713602.876    81962614.900    19713602.966  
                                
  23209239.268   123892493.489    23209242.645    96360841.447    23209242.645  
                                
  19819073.712   106018679.740    19819073.909    82458973.949    19819073.552  
                                
  20168657.738   107850876.914    20168660.597    83884027.290    20168659.614  
                                
  23801242.607   125076374.911                                                  
  23801245.663    93401200.997  
  22445186.310   117950250.629                                                  
  22445188.990    88079741.726  
  25629217.282   134682443.056                                                  
  25629218.676   100574556.664  
  23746609.499   124789275.576                                                  
  23746613.073    93186810.228  
 21  8 31 18 51 14.0000000  0 15G 5G13G15G18G23G29R 4R 5R18R19R20E 5
                                E 9E11E36
  23167347.416   121745231.176    23167346.344    94866406.419    23167345.737  
                                
  22025499.802   115744781.515                    90190729.431    22025497.318  
                                
  20307356.898   106715880.775    20307355.200    83155221.830    20307354.593  
                                
  20358873.398   106986601.254    20358871.611    83366174.987    20358871.254  
  20358875.989    79892601.893  
  21216019.981   111490937.626    21216018.570    86876048.255    21216018.319  
  21216022.411    83256229.499  
  22244879.405   116897629.154    22244878.333    91089054.631    22244877.725  
                                
  19917765.738   106658731.311    19917765.077    82956787.273    19917765.077  
                                
  19713327.926   105379034.679    19713328.462    81961473.962    19713328.533  
                                
  23209992.965   123896516.688    23209996.325    96363970.609    23209996.343  
                                
  19819438.973   106020633.710    19819439.187    82460493.706    19819438.830  
                                
  20168172.112   107848279.947    20168174.971    83882007.431    20168173.970  
                                
  23800973.768   125074962.268                                                  
  23800976.859    93400146.101  
  22445438.620   117951576.436                                                  
  22445441.301    88080731.777  
  25629698.995   134684974.472                                                  
  25629700.389   100576447.001  
  23746789.280   124790220.448                                                  
  23746792.889    93187515.812  
 21  8 31 18 51 15.0000000  0 15G 5G13G15G18G23G29R 4R 5R18R19R20E 5
                                E 9E11E36
  23167881.218   121748036.332    23167880.145    94868592.251    23167879.520  
                                
  22025919.992   115746989.646                    90192450.053    22025917.508  
                                
  20307513.055   106716701.355    20307511.358    83155861.244    20307510.732  
                                
  20358660.006   106985479.808    20358658.202    83365301.130    20358657.862  
  20358662.598    79891764.447  
  21215741.778   111489475.570    21215740.349    86874908.988    21215740.117  
  21215744.173    83255137.697  
  22245491.151   116900843.916    22245490.097    91091559.640    22245489.471  
                                
  19918189.466   106661000.377    19918188.823    82958552.104    19918188.805  
                                
  19713053.601   105377568.259    19713054.137    81960333.411    19713054.208  
                                
  23210746.663   123900540.034    23210750.040    96367099.875    23210750.040  
                                
  19819804.359   106022588.260    19819804.555    82462013.909    19819804.198  
                                
  20167686.503   107845683.329    20167689.380    83879987.839    20167688.397  
                                
  23800705.018   125073549.871                                                  
  23800708.074    93399091.389  
  22445690.931   117952902.425                                                  
  22445693.593    88081721.968  
  25630180.708   134687505.936                                                  
  25630182.120   100578337.371  
  23746969.113   124791165.478                                                  
  23746972.723    93188221.523  
 21  8 31 18 51 16.0000000  0 15G 5G13G15G18G23G29R 4R 5R18R19R20E 5
                                E 9E11E36
  23168415.037   121750841.568    23168413.982    94870778.149    23168413.357  
                                
  22026340.307   115749198.341                    90194171.111    22026337.823  
                                
  20307669.320   106717522.619    20307667.622    83156501.190    20307667.033  
                                
  20358446.668   106984358.754    20358444.863    83364427.584    20358444.524  
  20358449.259    79890927.299  
  21215463.593   111488013.804    21215462.182    86873769.949    21215461.932  
  21215466.024    83254046.125  
  22246102.986   116904059.071    22246101.896    91094064.954    22246101.306  
                                
  19918613.301   106663269.942    19918612.640    82960317.322    19918612.640  
                                
  19712779.400   105376102.499    19712779.936    81959193.375    19712780.008  
                                
  23211500.414   123904563.638    23211503.809    96370229.343    23211503.809  
                                
  19820169.870   106024543.499    19820170.084    82463534.648    19820169.709  
                                
  20167201.038   107843087.279    20167203.915    83877968.687    20167202.914  
                                
  23800436.304   125072137.858                                                  
  23800439.395    93398036.967  
  22445943.349   117954228.787                                                  
  22445945.993    88082712.433  
  25630662.457   134690037.540                                                  
  25630663.851   100580227.859  
  23747149.019   124792110.875                                                  
  23747152.628    93188927.494  
 21  8 31 18 51 17.0000000  0 15G 5G13G15G18G23G29R 4R 5R18R19R20E 5
                                E 9E11E36
  23168948.910   121753647.007    23168947.820    94872964.205    23168947.212  
                                
  22026760.711   115751407.696                    90195892.687    22026758.245  
                                
  20307825.745   106718344.661    20307824.048    83157141.737    20307823.458  
                                
  20358233.419   106983238.200    20358231.650    83363554.427    20358231.293  
  20358236.028    79890090.517  
  21215185.516   111486552.451    21215184.104    86872631.238    21215183.836  
  21215187.928    83252954.853  
  22246714.911   116907274.689    22246713.839    91096570.633    22246713.231  
                                
  19919037.208   106665540.058    19919036.565    82962082.967    19919036.547  
                                
  19712505.325   105374637.501    19712505.879    81958053.932    19712505.951  
                                
  23212254.237   123908587.594    23212257.632    96373359.078    23212257.649  
                                
  19820535.524   106026499.572    19820535.738    82465056.039    19820535.381  
                                
  20166715.679   107840491.861    20166718.556    83875950.033    20166717.555  
                                
  23800167.714   125070726.336                                                  
  23800170.770    93396982.910  
  22446195.820   117955555.604                                                  
  22446198.483    88083703.236  
  25631144.260   134692569.418                                                  
  25631145.653   100582118.555  
  23747329.013   124793056.698                                                  
  23747332.587    93189633.793  
 21  8 31 18 51 18.0000000  0 15G 5G13G15G18G23G29R 4R 5R18R19R20E 5
                                E 9E11E36
  23169482.782   121756452.527    23169481.692    94875150.323    23169481.085  
                                
  22027181.277   115753617.641                    90197614.719    22027178.793  
                                
  20307982.314   106719167.430    20307980.616    83157782.858    20307980.027  
                                
  20358020.260   106982118.065    20358018.491    83362681.593    20358018.133  
  20358022.869    79889254.057  
  21214907.492   111485091.433    21214906.080    86871492.780    21214905.830  
  21214909.904    83251863.834  
  22247326.907   116910490.713    22247325.817    91099076.623    22247325.227  
                                
  19919461.240   106667810.694    19919460.597    82963849.017    19919460.597  
                                
  19712231.411   105373173.206    19712231.947    81956915.036    19712232.036  
                                
  23213008.148   123912611.914    23213011.526    96376489.093    23213011.544  
                                
  19820901.356   106028456.419    19820901.553    82466578.033    19820901.195  
                                
  20166230.446   107837897.035    20166233.305    83873931.833    20166232.322  
                                
  23799899.196   125069315.256                                                  
  23799902.252    93395929.179  
  22446448.381   117956882.823                                                  
  22446451.043    88084694.338  
  25631626.116   134695101.541                                                  
  25631627.510   100584009.412  
  23747509.062   124794002.902                                                  
  23747512.671    93190340.376  
 21  8 31 18 51 19.0000000  0 15G 5G13G15G18G23G29R 4R 5R18R19R20E 5
                                E 9E11E36
  23170016.691   121759258.230    23170015.601    94877336.582    23170014.993  
                                
  22027601.949   115755828.237                    90199337.262    22027599.465  
                                
  20308139.043   106719990.992    20308137.345    83158424.595    20308136.738  
                                
  20357807.207   106980998.438    20357805.420    83361809.156    20357805.063  
  20357809.816    79888417.976  
  21214629.539   111483630.818    21214628.127    86870354.642    21214627.877  
  21214631.951    83250773.123  
  22247938.975   116913707.217    22247937.885    91101582.988    22247937.295  
                                
  19919885.379   106670081.927    19919884.736    82965615.525    19919884.718  
                                
  19711957.622   105371709.703    19711958.176    81955776.760    19711958.247  
                                
  23213762.114   123916636.571    23213765.509    96379619.370    23213765.509  
                                
  19821267.331   106030414.099    19821267.528    82468100.670    19821267.171  
                                
  20165745.302   107835302.812    20165748.179    83871914.101    20165747.214  
                                
  23799630.768   125067904.664                                                  
  23799633.824    93394875.822  
  22446701.031   117958210.493                                                  
  22446703.694    88085685.790  
  25632108.025   134697634.044                                                  
  25632109.419   100585900.566  
  23747689.217   124794949.552                                                  
  23747692.791    93191047.299  
 21  8 31 18 51 20.0000000  0 15G 5G13G15G18G23G29R 4R 5R18R19R20E 5
                                E 9E11E36
  23170550.564   121762063.812    23170549.492    94879522.754    23170548.866  
                                
  22028022.658   115758039.188                    90201060.081    22028020.192  
                                
  20308295.861   106720815.041    20308294.164    83159066.709    20308293.556  
                                
  20357594.191   106979879.011    20357592.404    83360936.873    20357592.046  
  20357596.782    79887582.033  
  21214351.622   111482170.316    21214350.210    86869216.587    21214349.960  
  21214354.034    83249682.480  
  22248551.096   116916923.901    22248550.024    91104089.492    22248549.416  
                                
  19920309.572   106672353.481    19920308.929    82967382.290    19920308.929  
                                
  19711683.940   105370246.674    19711684.494    81954638.847    19711684.565  
                                
  23214516.097   123920661.344    23214519.493    96382749.737    23214519.510  
                                
  19821633.378   106032372.284    19821633.575    82469623.703    19821633.218  
                                
  20165260.247   107832708.977    20165263.124    83869896.669    20165262.141  
                                
  23799362.375   125066494.271                                                  
  23799365.431    93393822.606  
  22446953.717   117959538.331                                                  
  22446956.379    88086677.355  
  25632589.917   134700166.411                                                  
  25632591.311   100587791.615  
  23747869.390   124795896.343                                                  
  23747872.964    93191754.311  
