     2.11           OBSERVATION DATA    M (MIXED)           RINEX VERSION / TYPE
CONVBIN 2.4.3                           20210901 005128 UTC PGM / RUN BY / DATE 
log: logs/21_08_31_21_54_02_garf_VZ.rtcm                    COMMENT             
format: RTCM 3, station ID: 1665                            COMMENT             
1665                                                        MARKER NAME         
                                                            MARKER NUMBER       
                                                            OBSERVER / AGENCY   
                    LEICA GR50          4.40/7.701          REC # / TYPE / VERS 
                    GPPNULLANTENNA                          ANT # / TYPE        
   714359.8994 -4741697.3024  4191881.7925                  APPROX POSITION XYZ 
        0.0000        0.0000        0.0000                  ANTENNA: DELTA H/E/N
     1     1                                                WAVELENGTH FACT L1/2
     7    C1    L1    C2    L2    P2    C5    L5            # / TYPES OF OBSERV 
  2021     8    31    21    54   21.0000000     GPS         TIME OF FIRST OBS   
  2021     8    31    22    24    6.0000000     GPS         TIME OF LAST OBS    
                                                            END OF HEADER       
 21  8 31 21 54 21.0000000  0 17G10G12G18G23G24G32R 5R 7R15R16R21R22
                                E 3E 5E 9E15E24
  20417802.112   107296303.592    20417801.970    83607523.837    20417801.844  
  20417800.165    80123874.846  
  24430138.135   128381237.395    24430138.332   100037332.345    24430137.313  
                                
  23501772.810   123502616.631    23501772.935    96235792.574    23501772.596  
  23501776.974    92225979.147  
  20773677.982   109166421.247    20773676.481    85064738.789    20773676.124  
  20773680.037    81520390.939  
  21655452.760   113800216.440    21655453.207    88675505.435    21655452.635  
  21655453.690    84980704.140  
  21448710.988   112713775.130    21448711.417    87828933.633    21448710.916  
  21448709.773    84169393.807  
  21063178.955   112594764.151    21063179.991    87573712.769    21063179.920  
                                
  23348483.933   124986270.819    23348485.255    97211553.651    23348485.184  
                                
  20888597.386   111622366.890    20888598.619    86817421.572    20888598.672  
                                
  21335965.029   113972938.763    21335965.744    88645624.332    21335966.709  
                                
  21268243.595   113810688.231    21268244.006    88519427.696    21268243.916  
                                
  22064517.403   117781903.909    22064519.762    91608136.354    22064518.958  
                                
  24248113.582   127424732.393                                                  
  24248115.851    95154863.246  
  24027615.038   126265973.559                                                  
  24027617.308    94289537.661  
  25956854.610   136404163.371                                                  
  25956858.720   101860249.580  
  24577856.827   129157526.043                                                  
  24577860.151    96448830.082  
  26522349.719   139375913.341                                                  
  26522351.577   104079439.767  
 21  8 31 21 54 22.0000000  0 17G10G12G18G23G24G32R 5R 7R15R16R21R22
                                E 3E 5E 9E15E24
  20417640.076   107295451.977    20417639.933    83606860.243    20417639.808  
  20417638.111    80123238.899  
  24429623.901   128378535.038    24429624.079   100035226.612    24429623.061  
                                
  23502487.393   123506371.700    23502487.500    96238718.598    23502487.160  
  23502491.538    92228783.258  
  20773955.685   109167880.545    20773954.184    85065875.900    20773953.826  
  20773957.757    81521480.677  
  21655912.548   113802632.653    21655912.995    88677388.194    21655912.423  
  21655913.477    84982508.457  
  21448395.189   112712115.673    21448395.618    87827640.547    21448395.117  
  21448393.974    84168154.598  
  21063542.590   112596707.900    21063543.626    87575224.580    21063543.537  
                                
  23347951.168   124983418.815    23347952.490    97209335.423    23347952.419  
                                
  20888661.518   111622709.612    20888662.751    86817688.134    20888662.804  
                                
  21335292.940   113969348.608    21335293.655    88642831.989    21335294.619  
                                
  21268655.511   113812892.540    21268655.940    88521142.161    21268655.851  
                                
  22064269.184   117780578.937    22064271.561    91607105.818    22064270.739  
                                
  24247914.610   127423686.887                                                  
  24247916.897    95154082.509  
  24027820.568   126267053.618                                                  
  24027822.819    94290344.199  
  25957274.031   136406367.444                                                  
  25957278.123   101861895.492  
  24577886.079   129157679.661                                                  
  24577889.403    96448944.793  
  26522068.478   139374435.494                                                  
  26522070.336   104078336.175  
 21  8 31 21 54 23.0000000  0 17G10G12G18G23G24G32R 5R 7R15R16R21R22
                                E 3E 5E 9E15E24
  20417478.076   107294600.696    20417477.933    83606196.906    20417477.808  
  20417476.110    80122603.203  
  24429109.684   128375832.801    24429109.863   100033120.982    24429108.844  
                                
  23503201.975   123510126.832    23503202.082    96241644.670    23503201.760  
  23503206.138    92231587.412  
  20774233.459   109169340.201    20774231.958    85067013.294    20774231.600  
  20774235.514    81522570.678  
  21656372.425   113805049.300    21656372.872    88679271.298    21656372.300  
  21656373.355    84984313.095  
  21448079.461   112710456.415    21448079.872    87826347.622    21448079.372  
  21448078.246    84166915.546  
  21063906.206   112598651.780    21063907.243    87576736.485    21063907.171  
                                
  23347418.385   124980566.745    23347419.690    97207117.145    23347419.618  
                                
  20888725.810   111623053.152    20888727.025    86817955.334    20888727.097  
                                
  21334620.922   113965758.855    21334621.654    88640039.964    21334622.601  
                                
  21269067.571   113815097.537    21269067.982    88522857.158    21269067.911  
                                
  22064021.127   117779254.755    22064023.503    91606075.899    22064022.681  
                                
  24247715.674   127422641.449                                                  
  24247717.962    95153301.827  
  24028026.115   126268133.730                                                  
  24028028.367    94291150.776  
  25957693.435   136408571.464                                                  
  25957697.545   101863541.336  
  24577915.384   129157833.702                                                  
  24577918.708    96449059.821  
  26521787.327   139372957.961                                                  
  26521789.185   104077232.816  
 21  8 31 21 54 24.0000000  0 16G10G12G18G23G24G32R 5R 7R15R16R21R22
                                E 3E 5E15E24
  20417316.200   107293750.064    20417316.057    83605534.075    20417315.932  
  20417314.235    80121967.991  
  24428595.556   128373131.028    24428595.735   100031015.727    24428594.716  
                                
  23503916.629   123513882.333    23503916.736    96244571.049    23503916.414  
  23503920.792    92234391.865  
  20774511.340   109170800.532    20774509.839    85068151.222    20774509.481  
  20774513.395    81523661.193  
  21656832.428   113807466.702    21656832.874    88681154.987    21656832.303  
  21656833.357    84986118.301  
  21447763.823   112708797.695    21447764.233    87825055.119    21447763.733  
  21447762.607    84165676.900  
  21064269.948   112600596.120    21064270.985    87578248.738    21064270.913  
                                
  23346885.656   124977714.986    23346886.961    97204899.108    23346886.889  
                                
  20888790.300   111623397.832    20888791.533    86818223.416    20888791.586  
                                
  21333949.064   113962169.850    21333949.779    88637248.516    21333950.744  
                                
  21269479.827   113817303.555    21269480.238    88524572.946    21269480.149  
                                
  22063773.265   117777931.673    22063775.642    91605046.830    22063774.820  
                                
  24247516.810   127421596.415                                                  
  24247519.079    95152521.445  
  24028231.716   126269214.217                                                  
  24028233.968    94291957.633  
  24577944.832   129157988.495                                                  
  24577948.156    96449175.413  
  26521506.265   139371481.048                                                  
  26521508.141   104076129.935  
 21  8 31 21 54 25.0000000  0 16G10G12G18G23G24G32R 5R 7R15R16R21R22
                                E 3E 5E15E24
  20417154.432   107292899.969    20417154.289    83604871.664    20417154.164  
  20417152.484    80121333.184  
  24428081.500   128370429.669    24428081.679   100028910.770    24428080.660  
                                
  23504631.336   123517638.113    23504631.461    96247497.619    23504631.121  
  23504635.499    92237196.506  
  20774789.328   109172261.430    20774787.827    85069289.581    20774787.470  
  20774791.401    81524752.123  
  21657292.573   113809884.725    21657293.020    88683039.164    21657292.448  
  21657293.502    84987923.968  
  21447448.238   112707139.385    21447448.667    87823762.932    21447448.166  
  21447447.023    84164438.548  
  21064633.744   112602540.782    21064634.780    87579761.248    21064634.709  
                                
  23346352.945   124974863.385    23346354.267    97202681.196    23346354.178  
                                
  20888855.003   111623743.547    20888856.218    86818492.308    20888856.290  
                                
  21333277.314   113958581.502    21333278.029    88634457.572    21333278.994  
                                
  21269892.226   113819510.449    21269892.637    88526289.415    21269892.548  
                                
  22063525.601   117776609.581    22063527.977    91604018.536    22063527.155  
                                
  24247317.999   127420551.670                                                  
  24247320.287    95151741.279  
  24028437.389   126270294.951                                                  
  24028439.640    94292764.679  
  24577974.423   129158143.924                                                  
  24577977.747    96449291.480  
  26521225.328   139370004.671                                                  
  26521227.204   104075027.441  
 21  8 31 21 54 26.0000000  0 16G10G12G18G23G24G32R 5R 7R15R16R21R22
                                E 3E 5E15E24
  20416992.699   107292050.056    20416992.556    83604209.394    20416992.431  
  20416990.752    80120698.504  
  24427567.426   128367728.230    24427567.605   100026805.759    24427566.586  
                                
  23505346.025   123521393.808    23505346.150    96250424.125    23505345.811  
  23505350.189    92240001.068  
  20775067.388   109173722.527    20775065.887    85070428.098    20775065.530  
  20775069.443    81525843.196  
  21657752.754   113812303.022    21657753.200    88684923.551    21657752.647  
  21657753.701    84989729.841  
  21447132.689   112705481.114    21447133.100    87822470.773    21447132.617  
  21447131.474    84163200.232  
  21064997.521   112604485.424    21064998.558    87581273.747    21064998.468  
                                
  23345820.233   124972011.606    23345821.538    97200463.147    23345821.466  
                                
  20888919.832   111624089.964    20888921.047    86818761.746    20888921.119  
                                
  21332605.617   113954993.411    21332606.332    88631666.839    21332607.297  
                                
  21270304.733   113821717.878    21270305.162    88528006.306    21270305.072  
                                
  22063278.043   117775288.099    22063280.420    91602990.717    22063279.616  
                                
  24247119.189   127419506.839                                                  
  24247121.476    95150961.051  
  24028643.007   126271375.591                                                  
  24028645.277    94293571.646  
  24578004.050   129158299.617                                                  
  24578007.356    96449407.744  
  26520944.391   139368528.429                                                  
  26520946.268   104073925.059  
 21  8 31 21 54 27.0000000  0 16G10G12G18G23G24G32R 5R 7R15R16R21R22
                                E 3E 5E15E24
  20416831.038   107291200.571    20416830.913    83603547.462    20416830.788  
  20416829.091    80120064.155  
  24427053.406   128365027.070    24427053.585   100024700.971    24427052.566  
                                
  23506060.733   123525149.664    23506060.858    96253350.769    23506060.518  
  23506064.896    92242805.759  
  20775345.502   109175184.085    20775344.001    85071566.975    20775343.643  
  20775347.574    81526934.625  
  21658213.042   113814721.855    21658213.489    88686808.354    21658212.917  
  21658213.971    84991536.107  
  21446817.175   112703823.159    21446817.604    87821178.860    21446817.104  
  21446815.960    84161962.147  
  21065361.370   112606430.340    21065362.407    87582786.459    21065362.317  
                                
  23345287.486   124969159.859    23345288.791    97198245.124    23345288.719  
                                
  20888984.840   111624437.338    20888986.055    86819031.930    20888986.108  
                                
  21331934.010   113951405.827    21331934.725    88628876.495    21331935.690  
                                
  21270717.382   113823926.105    21270717.793    88529723.816    21270717.722  
                                
  22063030.629   117773967.512    22063033.005    91601963.599    22063032.201  
                                
  24246920.396   127418462.210                                                  
  24246922.665    95150180.971  
  24028848.680   126272456.393                                                  
  24028850.949    94294378.738  
  24578033.784   129158455.858                                                  
  24578037.108    96449524.418  
  26520663.562   139367052.619                                                  
  26520665.420   104072822.987  
 21  8 31 21 54 28.0000000  0 16G10G12G18G23G24G32R 5R 7R15R16R21R22
                                E 3E 5E15E24
  20416669.431   107290351.295    20416669.288    83602885.684    20416669.163  
  20416667.483    80119429.951  
  24426539.386   128362325.922    24426539.564   100022596.187    24426538.546  
                                
  23506775.440   123528905.435    23506775.565    96256277.341    23506775.226  
  23506779.603    92245610.387  
  20775623.669   109176645.860    20775622.168    85072706.018    20775621.810  
  20775625.741    81528026.204  
  21658673.384   113817140.979    21658673.848    88688693.385    21658673.276  
  21658674.331    84993342.593  
  21446501.698   112702165.266    21446502.127    87819886.998    21446501.626  
  21446500.483    84160724.115  
  21065725.202   112608375.253    21065726.220    87584299.172    21065726.149  
                                
  23344754.739   124966307.911    23344756.026    97196026.948    23344755.954  
                                
  20889049.972   111624785.369    20889051.187    86819302.619    20889051.241  
                                
  21331262.474   113947818.484    21331263.189    88626086.340    21331264.154  
                                
  21271130.174   113826134.843    21271130.585    88531441.723    21271130.496  
                                
  22062783.375   117772647.593    22062785.752    91600936.995    22062784.948  
                                
  24246721.603   127417417.506                                                  
  24246723.872    95149400.832  
  24029054.335   126273537.091                                                  
  24029056.604    94295185.753  
  24578063.554   129158612.379                                                  
  24578066.878    96449641.303  
  26520382.768   139365576.973                                                  
  26520384.626   104071721.041  
 21  8 31 21 54 29.0000000  0 16G10G12G18G23G24G32R 5R 7R15R16R21R22
                                E 3E 5E15E24
  20416507.913   107289502.503    20416507.770    83602224.287    20416507.645  
  20416505.947    80118796.113  
  24426025.437   128359625.079    24426025.616   100020491.625    24426024.597  
                                
  23507490.183   123532661.400    23507490.308    96259204.067    23507489.969  
  23507494.364    92248415.168  
  20775901.925   109178108.139    20775900.424    85073845.454    20775900.067  
  20775903.998    81529118.166  
  21659133.851   113819560.670    21659134.297    88690578.861    21659133.725  
  21659134.780    84995149.514  
  21446186.274   112700507.746    21446186.703    87818595.417    21446186.202  
  21446185.059    84159486.349  
  21066089.086   112610320.470    21066090.123    87585812.123    21066090.051  
                                
  23344221.974   124963455.991    23344223.261    97193808.811    23344223.190  
                                
  20889115.266   111625134.370    20889116.499    86819574.064    20889116.552  
                                
  21330591.010   113944231.702    21330591.743    88623296.630    21330592.690  
                                
  21271543.056   113828344.385    21271543.485    88533160.253    21271543.396  
                                
  22062536.282   117771328.657    22062538.659    91599911.153    22062537.855  
                                
  24246522.846   127416373.053                                                  
  24246525.115    95148620.888  
  24029260.025   126274618.010                                                  
  24029262.294    94295992.933  
  24578093.449   129158769.483                                                  
  24578096.773    96449758.619  
  26520102.046   139364101.793                                                  
  26520103.904   104070619.466  
 21  8 31 21 54 30.0000000  0 16G10G12G18G23G24G32R 5R 7R15R16R21R22
                                E 3E 5E15E24
  20416346.466   107288654.168    20416346.341    83601563.248    20416346.216  
  20416344.518    80118162.616  
  24425511.542   128356924.515    24425511.702   100018387.287    24425510.684  
                                
  23508204.962   123536417.568    23508205.087    96262130.944    23508204.747  
  23508209.143    92251220.094  
  20776180.289   109179570.903    20776178.788    85074985.270    20776178.430  
  20776182.344    81530210.488  
  21659594.407   113821980.929    21659594.853    88692464.775    21659594.282  
  21659595.336    84996956.844  
  21445870.921   112698850.543    21445871.350    87817304.092    21445870.850  
  21445869.706    84158248.832  
  21066453.025   112612265.947    21066454.061    87587325.268    21066453.990  
                                
  23343689.245   124960604.223    23343690.532    97191590.778    23343690.460  
                                
  20889180.756   111625484.317    20889181.989    86819846.245    20889182.042  
                                
  21329919.653   113940645.460    21329920.386    88620507.330    21329921.333  
                                
  21271956.116   113830554.766    21271956.527    88534879.436    21271956.438  
                                
  22062289.368   117770010.576    22062291.763    91598885.975    22062290.941  
                                
  24246324.142   127415328.798                                                  
  24246326.412    95147841.080  
  24029465.751   126275699.096                                                  
  24029468.020    94296800.233  
  24578123.469   129158927.142                                                  
  24578126.775    96449876.354  
  26519821.413   139362627.060                                                  
  26519823.271   104069518.197  
 21  8 31 21 54 31.0000000  0 16G10G12G18G23G24G32R 5R 7R15R16R21R22
                                E 3E 5E15E24
  20416185.109   107287806.195    20416184.966    83600902.491    20416184.841  
  20416183.161    80117529.387  
  24424997.664   128354224.127    24424997.825   100016283.096    24424996.807  
                                
  23508919.776   123540173.808    23508919.901    96265057.880    23508919.562  
  23508923.940    92254025.070  
  20776458.724   109181034.043    20776457.223    85076125.379    20776456.865  
  20776460.797    81531303.090  
  21660055.052   113824401.626    21660055.517    88694351.035    21660054.945  
  21660055.999    84998764.501  
  21445555.622   112697193.583    21445556.033    87816012.954    21445555.533  
  21445554.407    84157011.485  
  21066816.999   112614211.583    21066818.017    87588838.542    21066817.946  
                                
  23343156.480   124957752.419    23343157.785    97189372.709    23343157.695  
                                
  20889246.424   111625835.141    20889247.639    86820119.105    20889247.693  
                                
  21329248.385   113937059.656    21329249.100    88617718.372    21329250.065  
                                
  21272369.338   113832765.903    21272369.749    88536599.209    21272369.659  
                                
  22062042.597   117768693.313    22062044.991    91597861.432    22062044.169  
                                
  24246125.439   127414284.650                                                  
  24246127.708    95147061.360  
  24029671.495   126276780.261                                                  
  24029673.746    94297607.599  
  24578153.543   129159085.259                                                  
  24578156.866    96449994.421  
  26519540.851   139361152.649                                                  
  26519542.709   104068417.176  
 21  8 31 21 54 32.0000000  0 16G10G12G18G23G24G32R 5R 7R15R16R21R22
                                E 3E 5E15E24
  20416023.805   107286958.544    20416023.680    83600241.984    20416023.555  
  20416021.857    80116896.397  
  24424483.823   128351523.818    24424483.983   100014178.957    24424482.965  
                                
  23509634.573   123543930.108    23509634.698    96267984.860    23509634.359  
  23509638.754    92256830.094  
  20776737.213   109182497.531    20776735.712    85077265.759    20776735.354  
  20776739.285    81532395.952  
  21660515.769   113826822.743    21660516.234    88696237.615    21660515.662  
  21660516.716    85000572.473  
  21445240.341   112695536.802    21445240.770    87814721.956    21445240.270  
  21445239.126    84155774.283  
  21067180.991   112616157.334    21067182.027    87590351.904    21067181.956  
                                
  23342623.733   124954900.571    23342625.020    97187154.611    23342624.948  
                                
  20889312.218   111626186.776    20889313.433    86820392.602    20889313.505  
                                
  21328577.189   113933474.255    21328577.904    88614929.729    21328578.869  
                                
  21272782.666   113834977.671    21272783.077    88538319.478    21272782.988  
                                
  22061795.987   117767376.839    22061798.381    91596837.503    22061797.559  
                                
  24245926.735   127413240.562                                                  
  24245929.022    95146281.686  
  24029877.221   126277861.465                                                  
  24029879.490    94298414.991  
  24578183.723   129159243.790                                                  
  24578187.029    96450112.811  
  26519260.325   139359678.549                                                  
  26519262.184   104067316.383  
 21  8 31 21 54 33.0000000  0 16G10G12G18G23G24G32R 5R 7R15R16R21R22
                                E 3E 5E15E24
  20415862.609   107286111.413    20415862.466    83599581.882    20415862.341  
  20415860.643    80116263.808  
  24423970.035   128348823.888    24423970.195   100012075.124    24423969.159  
                                
  23510349.405   123547686.639    23510349.548    96270912.030    23510349.209  
  23510353.587    92259635.307  
  20777015.808   109183961.563    20777014.307    85078406.561    20777013.950  
  20777017.881    81533489.227  
  21660976.611   113829244.473    21660977.076    88698124.672    21660976.504  
  21660977.558    85002380.916  
  21444925.132   112693880.418    21444925.561    87813431.271    21444925.060  
  21444923.917    84154537.381  
  21067545.054   112618103.427    21067546.073    87591865.532    21067546.001  
                                
  23342091.022   124952048.844    23342092.291    97184936.602    23342092.219  
                                
  20889378.226   111626539.423    20889379.441    86820666.885    20889379.495  
                                
  21327906.118   113929889.475    21327906.833    88612141.564    21327907.798  
                                
  21273196.137   113837190.281    21273196.548    88540040.402    21273196.459  
                                
  22061549.555   117766061.355    22061551.931    91595814.349    22061551.127  
                                
  24245728.121   127412196.761                                                  
  24245730.408    95145502.222  
  24030083.018   126278942.912                                                  
  24030085.288    94299222.569  
  24578213.993   129159402.940                                                  
  24578217.317    96450231.659  
  26518979.907   139358204.952                                                  
  26518981.765   104066215.973  
 21  8 31 21 54 34.0000000  0 16G10G12G18G23G24G32R 5R 7R15R16R21R22
                                E 3E 5E15E24
  20415701.484   107285264.704    20415701.341    83598922.109    20415701.216  
  20415699.536    80115631.523  
  24423456.300   128346124.251    24423456.461   100009971.529    24423455.442  
                                
  23511064.273   123551443.329    23511064.416    96273839.327    23511064.077  
  23511068.455    92262440.627  
  20777294.494   109185426.052    20777292.975    85079547.726    20777292.617  
  20777296.549    81534582.839  
  21661437.561   113831666.731    21661438.007    88700012.155    21661437.454  
  21661438.490    85004189.743  
  21444610.011   112692224.338    21444610.422    87812140.817    21444609.922  
  21444608.778    84153300.692  
  21067909.154   112620049.766    21067910.172    87593379.354    21067910.101  
                                
  23341558.293   124949197.142    23341559.561    97182718.621    23341559.490  
                                
  20889444.377   111626892.986    20889445.592    86820941.879    20889445.664  
                                
  21327235.136   113926305.216    21327235.851    88609353.817    21327236.816  
                                
  21273609.752   113839403.639    21273610.163    88541761.904    21273610.073  
                                
  22061303.284   117764746.664    22061305.661    91594791.830    22061304.856  
                                
  24245529.525   127411153.113                                                  
  24245531.794    95144722.879  
  24030288.852   126280024.505                                                  
  24030291.121    94300030.251  
  24578244.389   129159562.618                                                  
  24578247.694    96450350.888  
  26518699.577   139356731.765                                                  
  26518701.436   104065115.860  
 21  8 31 21 54 35.0000000  0 16G10G12G18G23G24G32R 5R 7R15R16R21R22
                                E 3E 5E15E24
  20415540.448   107284418.451    20415540.305    83598262.691    20415540.180  
  20415538.500    80114999.578  
  24422942.602   128343424.823    24422942.762   100007868.081    24422941.744  
                                
  23511779.195   123555200.189    23511779.338    96276766.743    23511778.999  
  23511783.394    92265246.072  
  20777573.250   109186891.011    20777571.749    85080689.250    20777571.392  
  20777575.323    81535676.802  
  21661898.582   113834089.526    21661899.046    88701900.047    21661898.474  
  21661899.529    85005998.978  
  21444294.909   112690568.573    21444295.338    87810850.613    21444294.838  
  21444293.694    84152064.246  
  21068273.306   112621996.354    21068274.343    87594893.371    21068274.253  
                                
  23341025.581   124946345.557    23341026.850    97180500.725    23341026.779  
                                
  20889510.725   111627247.483    20889511.940    86821217.599    20889512.012  
                                
  21326564.262   113922721.507    21326564.994    88606566.489    21326565.941  
                                
  21274023.509   113841617.806    21274023.920    88543484.037    21274023.830  
                                
  22061057.156   117763432.924    22061059.550    91593770.028    22061058.746  
                                
  24245330.946   127410109.673                                                  
  24245333.233    95143943.686  
  24030494.703   126281106.263                                                  
  24030496.972    94300838.051  
  24578274.891   129159722.842                                                  
  24578278.197    96450470.538  
  26518419.320   139355258.991                                                  
  26518421.178   104064016.072  
 21  8 31 21 54 36.0000000  0 16G10G12G18G23G24G32R 5R 7R15R16R21R22
                                E 3E 5E15E24
  20415379.502   107283572.634    20415379.359    83597603.615    20415379.234  
  20415377.536    80114367.964  
  24422428.956   128340725.650    24422429.117   100005764.831    24422428.099  
                                
  23512494.135   123558957.219    23512494.278    96279694.292    23512493.938  
  23512498.334    92268051.647  
  20777852.132   109188356.425    20777850.631    85081831.129    20777850.274  
  20777854.205    81536771.104  
  21662359.745   113836512.843    21662360.210    88703788.344    21662359.638  
  21662360.692    85007808.591  
  21443979.914   112688913.127    21443980.325    87809560.658    21443979.825  
  21443978.681    84150828.037  
  21068637.513   112623943.201    21068638.531    87596407.583    21068638.460  
                                
  23340492.906   124943494.043    23340494.175    97178282.886    23340494.103  
                                
  20889577.233   111627602.906    20889578.449    86821494.038    20889578.520  
                                
  21325893.476   113919138.322    21325894.209    88603779.568    21325895.156  
                                
  21274437.445   113843832.786    21274437.874    88545206.799    21274437.784  
                                
  22060811.225   117762120.105    22060813.619    91592748.946    22060812.797  
                                
  24245132.439   127409066.418                                                  
  24245134.708    95143164.634  
  24030700.590   126282188.171                                                  
  24030702.859    94301645.973  
  24578305.465   129159883.597                                                  
  24578308.771    96450590.578  
  26518139.151   139353786.641                                                  
  26518141.010   104062916.583  
 21  8 31 21 54 37.0000000  0 16G10G12G18G23G24G32R 5R 7R15R16R21R22
                                E 3E 5E15E24
  20415218.627   107282727.240    20415218.484    83596944.866    20415218.359  
  20415216.661    80113736.672  
  24421915.383   128338026.726    24421915.526   100003661.778    24421914.507  
                                
  23513209.110   123562714.398    23513209.235    96282621.967    23513208.896  
  23513213.292    92270857.328  
  20778131.068   109189822.284    20778129.567    85082973.359    20778129.209  
  20778133.141    81537865.740  
  21662820.980   113838936.677    21662821.427    88705677.046    21662820.873  
  21662821.928    85009618.603  
  21443664.937   112687257.975    21443665.348    87808270.924    21443664.847  
  21443663.704    84149592.046  
  21069001.737   112625890.255    21069002.773    87597921.960    21069002.684  
                                
  23339960.212   124940642.565    23339961.481    97176065.074    23339961.410  
                                
  20889643.903   111627959.253    20889645.118    86821771.197    20889645.189  
                                
  21325222.798   113915555.627    21325223.513    88600993.027    21325224.478  
                                
  21274851.506   113846048.540    21274851.935    88546930.161    21274851.845  
                                
  22060565.454   117760808.135    22060567.849    91591728.527    22060567.044  
                                
  24244933.932   127408023.327                                                  
  24244936.219    95142385.705  
  24030906.494   126283270.240                                                  
  24030908.764    94302454.009  
  24578336.164   129160044.868                                                  
  24578339.470    96450711.010  
  26517859.054   139352314.704                                                  
  26517860.913   104061817.407  
 21  8 31 21 54 38.0000000  0 16G10G12G18G23G24G32R 5R 7R15R16R21R22
                                E 3E 5E15E24
  20415057.788   107281882.019    20415057.645    83596286.255    20415057.520  
  20415055.840    80113105.496  
  24421401.774   128335327.794    24421401.934   100001558.716    24421400.916  
                                
  23513924.050   123566471.458    23513924.193    96285549.551    23513923.853  
  23513928.249    92273662.929  
  20778410.057   109191288.335    20778408.538    85084115.734    20778408.181  
  20778412.130    81538960.518  
  21663282.269   113841360.784    21663282.734    88707565.960    21663282.162  
  21663283.216    85011428.802  
  21443349.977   112685602.855    21443350.388    87806981.223    21443349.888  
  21443348.744    84148356.078  
  21069365.961   112627837.251    21069366.998    87599436.291    21069366.908  
                                
  23339427.483   124937790.845    23339428.752    97173847.075    23339428.680  
                                
  20889710.715   111628316.277    20889711.948    86822048.881    20889712.002  
                                
  21324552.138   113911973.125    21324552.853    88598206.637    21324553.818  
                                
  21275265.674   113848264.772    21275266.085    88548653.894    21275265.996  
                                
  22060319.791   117759496.809    22060322.185    91590708.605    22060321.381  
                                
  24244735.425   127406980.163                                                  
  24244737.695    95141606.719  
  24031112.381   126284352.168                                                  
  24031114.651    94303261.947  
  24578366.899   129160206.401                                                  
  24578370.204    96450831.637  
  26517578.975   139350842.884                                                  
  26517580.816   104060718.332  
 21  8 31 21 54 39.0000000  0 16G10G12G18G23G24G32R 5R 7R15R16R21R22
                                E 3E 5E15E24
  20414897.038   107281037.344    20414896.895    83595628.064    20414896.770  
  20414895.090    80112474.732  
  24420888.254   128332629.193    24420888.414    99999455.913    24420887.396  
                                
  23514639.043   123570228.796    23514639.186    96288477.347    23514638.846  
  23514643.242    92276468.745  
  20778689.135   109192754.952    20778687.634    85085258.552    20778687.277  
  20778691.208    81540055.721  
  21663743.665   113843785.495    21663744.130    88709455.344    21663743.558  
  21663744.612    85013239.472  
  21443035.107   112683948.149    21443035.518    87805691.846    21443035.018  
  21443033.874    84147120.430  
  21069730.257   112629784.621    21069731.294    87600950.905    21069731.204  
                                
  23338894.790   124934939.283    23338896.059    97171629.184    23338895.987  
                                
  20889777.724   111628674.334    20889778.939    86822327.372    20889779.011  
                                
  21323881.603   113908391.253    21323882.336    88595420.737    21323883.301  
                                
  21275680.003   113850481.930    21275680.414    88550378.346    21275680.325  
                                
  22060074.324   117758186.562    22060076.718    91589689.524    22060075.914  
                                
  24244536.990   127405937.289                                                  
  24244539.259    95140827.945  
  24031318.322   126285434.381                                                  
  24031320.591    94304070.095  
  24578397.758   129160368.582                                                  
  24578401.064    96450952.742  
  26517298.986   139349371.622                                                  
  26517300.844   104059619.645  
 21  8 31 21 54 40.0000000  0 16G10G12G18G23G24G32R 5R 7R15R16R21R22
                                E 3E 5E15E24
  20414736.449   107280193.411    20414736.306    83594970.454    20414736.181  
  20414734.502    80111844.516  
  24420374.823   128329931.129    24420374.984    99997353.523    24420373.965  
                                
  23515354.126   123573986.612    23515354.269    96291405.508    23515353.929  
  23515358.325    92279274.889  
  20778968.374   109194222.334    20778966.856    85086401.970    20778966.498  
  20778970.447    81541151.489  
  21664205.258   113846211.057    21664205.705    88711345.392    21664205.151  
  21664206.205    85015050.766  
  21442720.327   112682294.056    21442720.755    87804402.942    21442720.255  
  21442719.111    84145885.233  
  21070094.660   112631732.537    21070095.679    87602465.951    21070095.607  
                                
  23338362.150   124932088.047    23338363.419    97169411.561    23338363.347  
                                
  20889844.965   111629033.618    20889846.180    86822606.814    20889846.252  
                                
  21323211.229   113904810.213    21323211.944    88592635.486    21323212.908  
                                
  21276094.529   113852700.164    21276094.940    88552103.639    21276094.850  
                                
  22059829.107   117756877.478    22059831.502    91588671.345    22059830.680  
                                
  24244338.626   127404894.908                                                  
  24244340.895    95140049.542  
  24031524.352   126286517.037                                                  
  24031526.621    94304878.570  
  24578428.797   129160531.590                                                  
  24578432.103    96451074.467  
  26517019.157   139347901.067                                                  
  26517020.997   104058521.501  
 21  8 31 21 54 41.0000000  0 16G10G12G18G23G24G32R 5R 7R15R16R21R22
                                E 3E 5E15E24
  20414575.968   107279350.024    20414575.825    83594313.270    20414575.700  
  20414574.002    80111214.719  
  24419861.482   128327233.449    24419861.642    99995251.433    24419860.606  
                                
  23516069.262   123577744.664    23516069.405    96294333.867    23516069.065  
  23516073.461    92282081.243  
  20779247.703   109195690.283    20779246.202    85087545.826    20779245.845  
  20779249.776    81542247.689  
  21664666.958   113848637.268    21664667.404    88713235.944    21664666.851  
  21664667.905    85016862.543  
  21442405.653   112680640.401    21442406.064    87803114.379    21442405.564  
  21442404.420    84144650.356  
  21070459.117   112633680.814    21070460.153    87603981.277    21070460.064  
                                
  23337829.546   124929237.003    23337830.797    97167194.091    23337830.725  
                                
  20889912.403   111629393.946    20889913.618    86822887.069    20889913.671  
                                
  21322540.962   113901229.788    21322541.694    88589850.713    21322542.659  
                                
  21276509.233   113854919.295    21276509.644    88553829.628    21276509.554  
                                
  22059584.052   117755569.390    22059586.446    91587653.948    22059585.624  
                                
  24244140.315   127403852.807                                                  
  24244142.585    95139271.349  
  24031730.399   126287599.969                                                  
  24031732.687    94305687.251  
  24578459.925   129160695.242                                                  
  24578463.231    96451196.678  
  26516739.417   139346431.041                                                  
  26516741.275   104057423.750  
 21  8 31 21 54 42.0000000  0 16G10G12G18G23G24G32R 5R 7R15R16R21R22
                                E 3E 5E15E24
  20414415.557   107278507.078    20414415.414    83593656.428    20414415.289  
  20414413.610    80110585.248  
  24419348.194   128324536.043    24419348.337    99993149.562    24419347.318  
                                
  23516784.434   123581502.912    23516784.577    96297262.369    23516784.237  
  23516788.633    92284887.723  
  20779527.157   109197158.708    20779525.656    85088690.053    20779525.298  
  20779529.229    81543344.238  
  21665128.747   113851064.022    21665129.212    88715126.920    21665128.640  
  21665129.694    85018674.724  
  21442091.033   112678987.050    21442091.462    87801826.054    21442090.962  
  21442089.818    84143415.715  
  21070823.645   112635629.372    21070824.663    87605496.822    21070824.592  
                                
  23337296.960   124926386.045    23337298.210    97164976.686    23337298.139  
                                
  20889980.001   111629755.210    20889981.234    86823168.053    20889981.288  
                                
  21321870.802   113897649.899    21321871.535    88587066.355    21321872.499  
                                
  21276924.062   113857139.205    21276924.473    88555556.225    21276924.384  
                                
  22059339.157   117754262.189    22059341.569    91586637.234    22059340.747  
                                
  24243942.041   127402810.904                                                  
  24243944.310    95138493.307  
  24031936.519   126288683.065                                                  
  24031938.788    94306496.058  
  24578491.160   129160859.444                                                  
  24578494.466    96451319.298  
  26516459.767   139344961.431                                                  
  26516461.607   104056326.318  
 21  8 31 21 54 43.0000000  0 16G10G12G18G23G24G32R 5R 7R15R16R21R22
                                E 3E 5E15E24
  20414255.219   107277664.530    20414255.076    83592999.900    20414254.951  
  20414253.253    80109956.077  
  24418834.906   128321838.824    24418835.067    99991047.838    24418834.031  
                                
  23517499.641   123585261.286    23517499.766    96300190.975    23517499.427  
  23517503.823    92287694.294  
  20779806.664   109198627.555    20779805.163    85089834.604    20779804.806  
  20779808.737    81544441.104  
  21665590.625   113853491.242    21665591.072    88717018.263    21665590.518  
  21665591.572    85020487.270  
  21441776.449   112677333.976    21441776.878    87800537.947    21441776.378  
  21441775.234    84142181.276  
  21071188.191   112637578.129    21071189.227    87607012.520    21071189.138  
                                
  23336764.373   124923535.156    23336765.624    97162759.337    23336765.553  
                                
  20890047.778   111630117.376    20890048.994    86823449.738    20890049.065  
                                
  21321200.731   113894070.512    21321201.446    88584282.387    21321202.411  
                                
  21277339.052   113859359.863    21277339.481    88557283.403    21277339.392  
                                
  22059094.423   117752955.847    22059096.835    91585621.195    22059096.013  
                                
  24243743.819   127401769.157                                                  
  24243746.089    95137715.373  
  24032142.638   126289766.273                                                  
  24032144.925    94307304.945  
  24578522.520   129161024.135                                                  
  24578525.826    96451442.278  
  26516180.170   139343492.191                                                  
  26516182.029   104055229.163  
 21  8 31 21 54 44.0000000  0 17G10G12G18G23G24G32R 5R 7R15R16R21R22
                                E 3E 5E15E24E31
  20414094.969   107276822.411    20414094.826    83592343.703    20414094.701  
  20414093.022    80109327.221  
  24418321.690   128319141.825    24418321.851    99988946.289    24418320.814  
                                
  23518214.867   123589019.798    23518215.010    96303119.686    23518214.670  
  23518219.066    92290500.982  
  20780086.261   109200096.836    20780084.760    85090979.501    20780084.402  
  20780088.333    81545538.294  
  21666052.611   113855919.002    21666053.076    88718910.027    21666052.504  
  21666053.558    85022300.208  
  21441461.936   112675681.186    21441462.347    87799250.056    21441461.865  
  21441460.703    84140947.055  
  21071552.790   112639527.087    21071553.809    87608528.379    21071553.737  
                                
  23336231.823   124920684.338    23336233.074    97160542.012    23336233.002  
                                
  20890115.717   111630480.470    20890116.932    86823732.146    20890117.003  
                                
  21320530.750   113890491.647    21320531.483    88581498.837    21320532.448  
                                
  21277754.168   113861581.285    21277754.579    88559011.178    21277754.507  
                                
  22058849.867   117751650.331    22058852.262    91584605.798    22058851.457  
                                
  24243545.616   127400727.566                                                  
  24243547.886    95136937.566  
  24032348.811   126290849.627                                                  
  24032351.080    94308113.943  
  24578553.952   129161189.347                                                  
  24578557.257    96451565.653  
  26515900.663   139342023.355                                                  
  26515902.504   104054132.323  
  27644523.092   145272963.032                                                  
  27644527.774   108483070.025  
 21  8 31 21 54 45.0000000  0 17G10G12G18G23G24G32R 5R 7R15R16R21R22
                                E 3E 5E15E24E31
  20413934.827   107275980.893    20413934.684    83591687.977    20413934.559  
  20413932.879    80108698.813  
  24417808.545   128316445.255    24417808.688    99986845.073    24417807.670  
                                
  23518930.146   123592778.644    23518930.271    96306048.655    23518929.949  
  23518934.327    92293307.895  
  20780365.982   109201566.742    20780364.463    85092124.880    20780364.106  
  20780368.055    81546635.947  
  21666514.722   113858347.446    21666515.187    88720802.321    21666514.633  
  21666515.687    85024113.647  
  21441147.531   112674028.877    21441147.942    87797962.545    21441147.459  
  21441146.298    84139713.183  
  21071917.461   112641476.448    21071918.480    87610044.550    21071918.408  
                                
  23335699.308   124917833.709    23335700.559    97158324.860    23335700.488  
                                
  20890183.869   111630844.662    20890185.102    86824015.407    20890185.156  
                                
  21319860.912   113886913.453    21319861.627    88578715.797    21319862.592  
                                
  21278169.497   113863803.664    21278169.908    88560739.692    21278169.819  
                                
  22058605.490   117750345.870    22058607.885    91583591.217    22058607.081  
                                
  24243347.467   127399686.330                                                  
  24243349.736    95136160.019  
  24032555.019   126291933.289                                                  
  24032557.288    94308923.170  
  24578585.526   129161355.243                                                  
  24578588.832    96451689.541  
  26515621.281   139340555.113                                                  
  26515623.121   104053035.899  
  27644670.297   145273736.729                                                  
  27644674.979   108483647.792  
 21  8 31 21 54 46.0000000  0 17G10G12G18G23G24G32R 5R 7R15R16R21R22
                                E 3E 5E15E24E31
  20413774.774   107275139.728    20413774.631    83591032.521    20413774.506  
  20413772.809    80108070.668  
  24417295.436   128313748.881    24417295.579    99984744.002    24417294.561  
                                
  23519645.443   123596537.558    23519645.586    96308977.674    23519645.246  
  23519649.642    92296114.870  
  20780645.758   109203037.021    20780644.257    85093270.552    20780643.899  
  20780647.830    81547733.881  
  21666976.940   113860776.324    21666977.405    88722694.953    21666976.833  
  21666977.887    85025927.418  
  21440833.143   112672376.783    21440833.554    87796675.197    21440833.054  
  21440831.910    84138479.479  
  21072282.150   112643425.961    21072283.187    87611560.838    21072283.097  
                                
  23335166.758   124914983.012    23335168.009    97156107.651    23335167.937  
                                
  20890252.182   111631209.672    20890253.397    86824299.301    20890253.469  
                                
  21319191.145   113883335.670    21319191.860    88575933.079    21319192.825  
                                
  21278584.934   113866026.721    21278585.345    88562468.737    21278585.256  
                                
  22058361.257   117749042.166    22058363.669    91582577.228    22058362.847  
                                
  24243149.335   127398645.176                                                  
  24243151.604    95135382.534  
  24032761.263   126293017.022                                                  
  24032763.533    94309732.448  
  24578617.172   129161521.591                                                  
  24578620.496    96451813.758  
  26515341.934   139339087.190                                                  
  26515343.793   104051939.723  
  27644817.609   145274510.830                                                  
  27644822.291   108484225.864  
 21  8 31 21 54 47.0000000  0 17G10G12G18G23G24G32R 5R 7R15R16R21R22
                                E 3E 5E15E24E31
  20413614.757   107274298.885    20413614.614    83590377.319    20413614.489  
  20413612.792    80107442.766  
  24416782.363   128311052.595    24416782.506    99982643.005    24416781.470  
                                
  23520360.758   123600296.510    23520360.901    96311906.721    23520360.579  
  23520364.957    92298921.877  
  20780925.604   109204507.646    20780924.103    85094416.494    20780923.746  
  20780927.677    81548832.075  
  21667439.212   113863205.625    21667439.676    88724587.912    21667439.122  
  21667440.177    85027741.508  
  21440518.791   112670724.882    21440519.202    87795388.003    21440518.702  
  21440517.558    84137245.916  
  21072646.875   112645375.608    21072647.911    87613077.233    21072647.822  
                                
  23334634.207   124912132.239    23334635.458    97153890.383    23334635.387  
                                
  20890320.656   111631575.490    20890321.871    86824583.826    20890321.925  
                                
  21318521.450   113879758.272    21318522.165    88573150.659    21318523.130  
                                
  21279000.478   113868250.447    21279000.889    88564198.299    21279000.800  
                                
  22058117.184   117747739.261    22058119.578    91581563.857    22058118.774  
                                
  24242951.221   127397604.101                                                  
  24242953.490    95134605.112  
  24032967.472   126294100.796                                                  
  24032969.759    94310541.762  
  24578648.908   129161688.356                                                  
  24578652.213    96451938.294  
  26515062.659   139337619.570                                                  
  26515064.500   104050843.777  
  27644965.011   145275285.331                                                  
  27644969.675   108484804.212  
 21  8 31 21 54 48.0000000  0 17G10G12G18G23G24G32R 5R 7R15R16R21R22
                                E 3E 5E15E24E31
  20413454.811   107273458.406    20413454.686    83589722.398    20413454.561  
  20413452.864    80106815.138  
  24416269.308   128308356.533    24416269.433    99980542.182    24416268.414  
                                
  23521076.090   123604055.559    23521076.233    96314835.836    23521075.894  
  23521080.290    92301728.953  
  20781205.523   109205978.647    20781204.022    85095562.728    20781203.664  
  20781207.613    81549930.556  
  21667901.573   113865635.369    21667902.037    88726481.217    21667901.483  
  21667902.537    85029555.932  
  21440204.475   112669073.219    21440204.904    87794100.996    21440204.404  
  21440203.260    84136012.534  
  21073011.635   112647325.428    21073012.654    87614593.760    21073012.582  
                                
  23334101.657   124909281.467    23334102.908    97151673.116    23334102.836  
                                
  20890389.256   111631942.162    20890390.471    86824869.013    20890390.524  
                                
  21317851.826   113876181.283    21317852.559    88570368.554    21317853.506  
                                
  21279416.165   113870474.876    21279416.576    88565928.408    21279416.487  
                                
  22057873.254   117746437.188    22057875.666    91580551.131    22057874.844  
                                
  24242753.143   127396563.135                                                  
  24242755.412    95133827.761  
  24033173.734   126295184.646                                                  
  24033176.003    94311351.131  
  24578680.732   129161855.581                                                  
  24578684.038    96452063.170  
  26514783.456   139336152.293                                                  
  26514785.297   104049748.077  
  27645112.466   145276060.231                                                  
  27645117.148   108485382.869  
 21  8 31 21 54 49.0000000  0 17G10G12G18G23G24G32R 5R 7R15R16R21R22
                                E 3E 5E15E24E31
  20413294.937   107272618.203    20413294.794    83589067.699    20413294.669  
  20413292.972    80106187.714  
  24415756.270   128305660.520    24415756.413    99978441.395    24415755.395  
                                
  23521791.423   123607814.573    23521791.566    96317764.942    23521791.227  
  23521795.622    92304536.017  
  20781485.512   109207449.956    20781483.993    85096709.203    20781483.636  
  20781487.585    81551029.259  
  21668364.023   113868065.482    21668364.487    88728374.812    21668363.916  
  21668364.970    85031370.625  
  21439890.195   112667421.696    21439890.624    87792814.097    21439890.123  
  21439888.980    84134779.256  
  21073376.396   112649275.365    21073377.414    87616110.370    21073377.343  
                                
  23333569.088   124906430.551    23333570.339    97149455.735    23333570.268  
                                
  20890458.016   111632309.615    20890459.248    86825154.808    20890459.302  
                                
  21317182.274   113872604.703    21317183.007    88567586.769    21317183.972  
                                
  21279831.960   113872699.956    21279832.371    88567659.028    21279832.281  
                                
  22057629.466   117745135.893    22057631.879    91579539.003    22057631.057  
                                
  24242555.047   127395522.189                                                  
  24242557.316    95133050.438  
  24033379.996   126296268.491                                                  
  24033382.265    94312160.493  
  24578712.629   129162023.179                                                  
  24578715.934    96452188.318  
  26514504.288   139334685.259                                                  
  26514506.129   104048652.571  
  27645259.975   145276835.445                                                  
  27645264.657   108485961.775  
 21  8 31 21 54 50.0000000  0 17G10G12G18G23G24G32R 5R 7R15R16R21R22
                                E 3E 5E15E24E31
  20413135.099   107271778.226    20413134.956    83588413.169    20413134.849  
  20413133.151    80105560.454  
  24415243.251   128302964.557    24415243.376    99976340.647    24415242.357  
                                
  23522506.738   123611573.543    23522506.881    96320693.998    23522506.559  
  23522510.955    92307343.044  
  20781765.556   109208921.512    20781764.055    85097855.869    20781763.697  
  20781767.628    81552128.143  
  21668826.509   113870495.913    21668826.974    88730268.656    21668826.420  
  21668827.474    85033185.559  
  21439575.968   112665770.286    21439576.379    87791527.281    21439575.879  
  21439574.735    84133546.060  
  21073741.174   112651225.296    21073742.192    87617626.985    21073742.121  
                                
  23333036.502   124903579.542    23333037.753    97147238.283    23333037.664  
                                
  20890526.936   111632677.791    20890528.151    86825441.164    20890528.205  
                                
  21316512.793   113869028.453    21316513.526    88564805.247    21316514.491  
                                
  21280247.879   113874925.576    21280248.290    88569390.062    21280248.219  
                                
  22057385.822   117743835.274    22057388.217    91578527.416    22057387.413  
                                
  24242356.969   127394481.220                                                  
  24242359.238    95132273.086  
  24033586.223   126297352.285                                                  
  24033588.492    94312969.818  
  24578744.578   129162191.100                                                  
  24578747.884    96452313.709  
  26514225.156   139333218.431                                                  
  26514226.997   104047557.213  
  27645407.555   145277610.940                                                  
  27645412.237   108486540.875  
 21  8 31 21 54 51.0000000  0 17G10G12G18G23G24G32R 5R 7R15R16R21R22
                                E 3E 5E15E24E31
  20412975.332   107270938.718    20412975.207    83587759.008    20412975.082  
  20412973.384    80104933.553  
  24414730.267   128300268.879    24414730.392    99974240.123    24414729.373  
                                
  23523222.089   123615332.727    23523222.250    96323623.225    23523221.910  
  23523226.306    92310150.216  
  20782045.670   109210393.557    20782044.169    85099002.916    20782043.812  
  20782047.743    81553227.400  
  21669289.102   113872926.913    21669289.585    88732162.942    21669289.013  
  21669290.067    85035000.907  
  21439261.777   112664119.212    21439262.188    87790240.731    21439261.688  
  21439260.544    84132313.116  
  21074105.988   112653175.498    21074107.024    87619143.812    21074106.935  
                                
  23332503.934   124900728.620    23332505.167    97145020.900    23332505.095  
                                
  20890596.018   111633046.942    20890597.233    86825728.280    20890597.305  
                                
  21315843.420   113865452.771    21315844.152    88562024.160    21315845.099  
                                
  21280663.959   113877151.998    21280664.370    88571121.723    21280664.281  
                                
  22057142.339   117742535.585    22057144.751    91577516.551    22057143.929  
                                
  24242158.909   127393440.453                                                  
  24242161.178    95131495.895  
  24033792.503   126298436.253                                                  
  24033794.772    94313779.277  
  24578776.635   129162359.576                                                  
  24578779.959    96452439.525  
  26513946.114   139331752.064                                                  
  26513947.936   104046462.203  
  27645555.225   145278386.970                                                  
  27645559.906   108487120.368  
 21  8 31 21 54 52.0000000  0 17G10G12G18G23G24G32R 5R 7R15R16R21R22
                                E 3E 5E15E24E31
  20412815.637   107270099.545    20412815.494    83587105.107    20412815.386  
  20412813.689    80104306.902  
  24414217.318   128297573.356    24414217.444    99972139.725    24414216.425  
                                
  23523937.439   123619091.966    23523937.600    96326552.499    23523937.261  
  23523941.656    92312957.436  
  20782325.857   109211865.961    20782324.356    85100150.245    20782323.998  
  20782327.947    81554326.918  
  21669751.785   113875358.309    21669752.249    88734057.536    21669751.695  
  21669752.750    85036816.564  
  21438947.622   112662468.336    21438948.033    87788954.338    21438947.532  
  21438946.389    84131080.320  
  21074470.855   112655125.832    21074471.874    87620660.740    21074471.802  
                                
  23331971.348   124897877.653    23331972.598    97142803.481    23331972.509  
                                
  20890665.243   111633416.899    20890666.458    86826016.024    20890666.511  
                                
  21315174.117   113861877.455    21315174.832    88559243.359    21315175.797  
                                
  21281080.111   113879379.086    21281080.522    88572853.903    21281080.451  
                                
  22056898.999   117741236.648    22056901.411    91576506.267    22056900.607  
                                
  24241960.866   127392399.789                                                  
  24241963.136    95130718.774  
  24033998.765   126299520.279                                                  
  24034001.052    94314588.781  
  24578808.782   129162528.485                                                  
  24578812.088    96452565.655  
  26513667.142   139330286.020                                                  
  26513668.983   104045367.416  
  27645702.948   145279163.348                                                  
  27645707.630   108487700.154  
 21  8 31 21 54 53.0000000  0 17G10G12G18G23G24G32R 5R 7R15R16R21R22
                                E 3E 5E15E24E31
  20412656.048   107269260.857    20412655.923    83586451.583    20412655.798  
  20412654.101    80103680.604  
  24413704.442   128294878.130    24413704.549    99970039.560    24413703.530  
                                
  23524652.843   123622851.379    23524653.004    96329481.907    23524652.665  
  23524657.061    92315764.803  
  20782606.132   109213338.857    20782604.631    85101297.957    20782604.274  
  20782608.223    81555426.810  
  21670214.593   113877790.300    21670215.057    88735952.594    21670214.503  
  21670215.557    85038632.657  
  21438633.520   112660817.814    21438633.949    87787668.215    21438633.449  
  21438632.305    84129847.786  
  21074835.741   112657076.461    21074836.777    87622177.892    21074836.688  
                                
  23331438.779   124895026.767    23331440.012    97140586.127    23331439.941  
                                
  20890734.664   111633787.835    20890735.879    86826304.530    20890735.932  
                                
  21314504.905   113858302.679    21314505.619    88556462.980    21314506.584  
                                
  21281496.477   113881607.020    21281496.888    88574586.740    21281496.799  
                                
  22056655.855   117739938.673    22056658.267    91575496.733    22056657.445  
                                
  24241762.877   127391359.331                                                  
  24241765.147    95129941.810  
  24034205.098   126300604.505                                                  
  24034207.368    94315398.426  
  24578841.035   129162697.970                                                  
  24578844.341    96452692.216  
  26513388.225   139328820.412                                                  
  26513390.065   104044272.984  
  27645850.814   145279940.285                                                  
  27645855.478   108488280.322  
 21  8 31 21 54 54.0000000  0 17G10G12G18G23G24G32R 5R 7R15R16R21R22
                                E 3E 5E15E24E31
  20412496.514   107268422.496    20412496.371    83585798.318    20412496.263  
  20412494.566    80103054.560  
  24413191.583   128292183.097    24413191.708    99967939.530    24413190.689  
                                
  23525368.248   123626610.898    23525368.391    96332411.422    23525368.069  
  23525372.465    92318572.249  
  20782886.497   109214812.118    20782884.978    85102445.954    20782884.621  
  20782888.570    81556526.977  
  21670677.472   113880222.694    21670677.936    88737847.966    21670677.364  
  21670678.419    85040449.059  
  21438319.472   112659167.504    21438319.901    87786382.261    21438319.401  
  21438318.257    84128615.420  
  21075200.680   112659027.210    21075201.716    87623695.134    21075201.627  
                                
  23330906.193   124892175.830    23330907.444    97138368.725    23330907.372  
                                
  20890804.228   111634159.597    20890805.461    86826593.678    20890805.514  
                                
  21313835.781   113854728.312    21313836.496    88553682.912    21313837.461  
                                
  21281912.933   113883835.602    21281913.344    88576320.075    21281913.272  
                                
  22056412.836   117738641.461    22056415.248    91574487.777    22056414.444  
                                
  24241564.907   127390318.978                                                  
  24241567.176    95129164.919  
  24034411.414   126301688.778                                                  
  24034413.701    94316208.110  
  24578873.378   129162867.890                                                  
  24578876.684    96452819.104  
  26513109.397   139327355.136                                                  
  26513111.237   104043178.774  
  27645998.734   145280717.623                                                  
  27646003.398   108488860.794  
 21  8 31 21 54 55.0000000  0 17G10G12G18G23G24G32R 5R 7R15R16R21R22
                                E 3E 5E15E24E31
  20412337.140   107267584.955    20412336.997    83585145.690    20412336.872  
  20412335.174    80102429.121  
  24412678.849   128289488.666    24412678.956    99965839.978    24412677.956  
                                
  23526083.759   123630370.909    23526083.902    96335341.301    23526083.563  
  23526087.976    92321380.048  
  20783167.005   109216286.211    20783165.486    85103594.601    20783165.129  
  20783169.078    81557627.757  
  21671140.494   113882656.003    21671140.958    88739744.049    21671140.404  
  21671141.459    85042266.137  
  21438005.567   112657517.866    21438005.996    87785096.833    21438005.495  
  21438004.334    84127383.545  
  21075565.726   112660978.583    21075566.745    87625212.870    21075566.673  
                                
  23330373.696   124889325.294    23330374.929    97136151.648    23330374.858  
                                
  20890874.042   111634532.670    20890875.257    86826883.843    20890875.329  
                                
  21313166.801   113851154.831    21313167.533    88550903.543    21313168.498  
                                
  21282329.638   113886065.367    21282330.049    88578054.336    21282329.960  
                                
  22056170.068   117737345.522    22056172.480    91573479.827    22056171.658  
                                
  24241367.043   127389279.156                                                  
  24241369.312    95128388.426  
  24034617.855   126302773.579                                                  
  24034620.142    94317018.191  
  24578905.882   129163038.710                                                  
  24578909.188    96452946.662  
  26512830.711   139325890.630                                                  
  26512832.552   104042085.153  
  27646146.797   145281495.786                                                  
  27646151.460   108489441.896  
 21  8 31 21 54 56.0000000  0 17G10G12G18G23G24G32R 5R 7R15R16R21R22
                                E 3E 5E15E24E31
  20412177.837   107266747.848    20412177.695    83584493.399    20412177.569  
  20412175.890    80101804.007  
  24412166.151   128286794.479    24412166.258    99963740.615    24412165.240  
                                
  23526799.288   123634131.091    23526799.449    96338271.317    23526799.110  
  23526803.505    92324187.982  
  20783447.602   109217760.763    20783446.101    85104743.600    20783445.726  
  20783449.675    81558728.885  
  21671603.659   113885089.858    21671604.123    88741640.559    21671603.570  
  21671604.624    85044083.621  
  21437691.715   112655868.547    21437692.144    87783811.648    21437691.644  
  21437690.500    84126151.911  
  21075930.826   112662930.203    21075931.844    87626730.793    21075931.773  
                                
  23329841.199   124886474.835    23329842.432    97133934.632    23329842.361  
                                
  20890944.035   111634906.700    20890945.268    86827174.753    20890945.322  
                                
  21312497.945   113847581.929    21312498.660    88548124.623    21312499.625  
                                
  21282746.451   113888295.915    21282746.862    88579789.205    21282746.773  
                                
  22055927.460   117736050.487    22055929.890    91572472.579    22055929.068  
                                
  24241169.197   127388239.540                                                  
  24241171.484    95127612.089  
  24034824.314   126303858.541                                                  
  24034826.601    94317828.386  
  24578938.493   129163210.079                                                  
  24578941.799    96453074.628  
  26512552.115   139324426.560                                                  
  26512553.938   104040991.848  
  27646294.984   145282274.471                                                  
  27646299.666   108490023.366  
 21  8 31 21 54 57.0000000  0 17G10G12G18G23G24G32R 5R 7R15R16R21R22
                                E 3E 5E15E24E31
  20412018.553   107265910.796    20412018.410    83583841.151    20412018.285  
  20412016.605    80101178.934  
  24411653.435   128284100.144    24411653.542    99961641.129    24411652.542  
                                
  23527514.800   123637891.052    23527514.943    96341201.151    23527514.603  
  23527519.017    92326995.732  
  20783728.218   109219235.382    20783726.699    85105892.651    20783726.341  
  20783730.290    81559830.057  
  21672066.806   113887523.830    21672067.289    88743537.161    21672066.717  
  21672067.771    85045901.200  
  21437377.846   112654219.135    21437378.275    87782526.391    21437377.775  
  21437376.631    84124920.207  
  21076295.872   112664881.659    21076296.909    87628248.590    21076296.819  
                                
  23329308.649   124883624.039    23329309.882    97131717.350    23329309.810  
                                
  20891014.135   111635281.243    20891015.368    86827466.065    20891015.422  
                                
  21311829.126   113844009.175    21311829.841    88545345.817    21311830.805  
                                
  21283163.353   113890526.813    21283163.782    88581524.345    21283163.693  
                                
  22055684.959   117734755.964    22055687.372    91571465.730    22055686.550  
                                
  24240971.333   127387199.697                                                  
  24240973.603    95126835.584  
  24035030.736   126304943.260                                                  
  24035033.024    94318638.401  
  24578971.122   129163381.556                                                  
  24578974.428    96453202.686  
  26512273.519   139322962.496                                                  
  26512275.342   104039898.555  
  27646443.190   145283053.233                                                  
  27646447.854   108490604.902  
 21  8 31 21 54 58.0000000  0 17G10G12G18G23G24G32R 5R 7R15R16R21R22
                                E 3E 5E15E24E31
  20411859.358   107265074.173    20411859.215    83583189.239    20411859.108  
  20411857.410    80100554.187  
  24411140.773   128281406.089    24411140.880    99959541.868    24411139.880  
                                
  23528230.329   123641651.178    23528230.490    96344131.112    23528230.150  
  23528234.564    92329803.610  
  20784008.904   109220710.470    20784007.403    85107042.069    20784007.046  
  20784010.995    81560931.580  
  21672530.096   113889958.337    21672530.561    88745434.179    21672530.007  
  21672531.061    85047719.176  
  21437064.030   112652570.045    21437064.459    87781241.387    21437063.959  
  21437062.797    84123688.748  
  21076660.990   112666833.369    21076662.026    87629766.589    21076661.937  
                                
  23328776.098   124880773.329    23328777.349    97129500.132    23328777.260  
                                
  20891084.396   111635656.720    20891085.629    86827758.102    20891085.683  
                                
  21311160.395   113840436.965    21311161.110    88542567.434    21311162.075  
                                
  21283580.398   113892758.506    21283580.809    88583260.104    21283580.720  
                                
  22055442.602   117733462.344    22055445.032    91570459.579    22055444.210  
                                
  24240773.488   127386160.049                                                  
  24240775.757    95126059.225  
  24035237.177   126306028.141                                                  
  24035239.465    94319448.541  
  24579003.858   129163553.591                                                  
  24579007.164    96453331.151  
  26511994.995   139321498.858                                                  
  26511996.818   104038805.587  
  27646591.467   145283832.470                                                  
  27646596.131   108491186.807  
 21  8 31 21 54 59.0000000  0 17G10G12G18G23G24G32R 5R 7R15R16R21R22
                                E 3E 5E15E24E31
  20411700.252   107264238.040    20411700.109    83582537.705    20411699.984  
  20411698.287    80099929.804  
  24410628.164   128278712.271    24410628.272    99957442.791    24410627.271  
                                
  23528945.894   123645411.501    23528946.037    96347061.222    23528945.715  
  23528950.111    92332611.632  
  20784289.698   109222186.043    20784288.197    85108191.873    20784287.840  
  20784291.789    81562033.484  
  21672993.476   113892393.413    21672993.940    88747331.641    21672993.386  
  21672994.441    85049537.583  
  21436750.286   112650921.311    21436750.715    87779956.663    21436750.214  
  21436749.053    84122457.555  
  21077026.143   112668785.371    21077027.180    87631284.813    21077027.091  
                                
  23328243.583   124877922.724    23328244.816    97127282.997    23328244.745  
                                
  20891154.854   111636033.150    20891156.069    86828050.878    20891156.140  
                                
  21310491.772   113836865.327    21310492.487    88539789.486    21310493.452  
                                
  21283997.604   113894991.050    21283998.015    88584996.523    21283997.944  
                                
  22055200.441   117732169.675    22055202.853    91569454.170    22055202.049  
                                
  24240575.695   127385120.629                                                  
  24240577.965    95125283.030  
  24035443.672   126307113.215                                                  
  24035445.959    94320258.826  
  24579036.701   129163726.186                                                  
  24579040.007    96453460.038  
  26511716.560   139320035.692                                                  
  26511718.382   104037712.957  
  27646739.852   145284612.244                                                  
  27646744.515   108491769.114  
 21  8 31 21 55  0.0000000  0 17G10G12G18G23G24G32R 5R 7R15R16R21R22
                                E 3E 5E15E24E31
  20411541.164   107263402.001    20411541.021    83581886.246    20411540.914  
  20411539.216    80099305.478  
  24410115.538   128276018.421    24410115.645    99955343.692    24410114.644  
                                
  23529661.423   123649171.630    23529661.566    96349991.190    23529661.245  
  23529665.640    92335419.516  
  20784570.528   109223661.751    20784569.009    85109341.770    20784568.651  
  20784572.600    81563135.460  
  21673456.891   113894828.673    21673457.356    88749229.246    21673456.802  
  21673457.856    85051356.109  
  21436436.542   112649272.526    21436436.953    87778671.896    21436436.452  
  21436435.309    84121226.318  
  21077391.297   112670737.281    21077392.333    87632802.962    21077392.244  
                                
  23327711.015   124875071.823    23327712.248    97125065.631    23327712.177  
                                
  20891225.401   111636410.199    20891226.634    86828344.139    20891226.687  
                                
  21309823.167   113833293.797    21309823.900    88537011.632    21309824.865  
                                
  21284414.900   113897224.028    21284415.311    88586733.279    21284415.221  
                                
  22054958.387   117730877.567    22054960.817    91568449.194    22054959.995  
                                
  24240377.885   127384081.042                                                  
  24240380.155    95124506.711  
  24035650.113   126308198.101                                                  
  24035652.400    94321068.966  
  24579069.598   129163898.981                                                  
  24579072.904    96453589.073  
  26511438.143   139318572.582                                                  
  26511439.965   104036620.379  
  27646888.272   145285392.158                                                  
  27646892.935   108492351.514  
 21  8 31 21 55  1.0000000  0 17G10G12G18G23G24G32R 5R 7R15R16R21R22
                                E 3E 5E15E24E31
  20411382.112   107262566.241    20411381.969    83581235.002    20411381.862  
  20411380.164    80098681.381  
  24409602.929   128273324.668    24409603.036    99953244.672    24409602.018  
                                
  23530376.971   123652931.776    23530377.114    96352921.172    23530376.792  
  23530381.188    92338227.404  
  20784851.393   109225137.755    20784849.892    85110491.901    20784849.535  
  20784853.484    81564237.671  
  21673920.360   113897264.303    21673920.842    88751127.140    21673920.270  
  21673921.325    85053174.930  
  21436122.815   112647623.909    21436123.226    87777387.257    21436122.744  
  21436121.582    84119995.205  
  21077756.450   112672689.269    21077757.469    87634321.173    21077757.397  
                                
  23327178.411   124872220.763    23327179.644    97122848.143    23327179.572  
                                
  20891296.108   111636788.022    20891297.341    86828637.999    20891297.395  
                                
  21309154.633   113829722.609    21309155.348    88534234.049    21309156.313  
                                
  21284832.302   113899457.588    21284832.713    88588470.494    21284832.624  
                                
  22054716.458   117729586.123    22054718.871    91567444.740    22054718.049  
                                
  24240180.057   127383041.490                                                  
  24240182.327    95123730.431  
  24035856.553   126309282.987                                                  
  24035858.841    94321879.108  
  24579102.548   129164072.152                                                  
  24579105.854    96453718.389  
  26511159.779   139317109.747                                                  
  26511161.602   104035528.005  
  27647036.745   145286172.411                                                  
  27647041.409   108492934.172  
 21  8 31 21 55  2.0000000  0 17G10G12G18G23G24G32R 5R 7R15R16R21R22
                                E 3E 5E15E24E31
  20411223.221   107261731.247    20411223.078    83580584.357    20411222.953  
  20411221.273    80098057.846  
  24409090.428   128270631.478    24409090.535    99951146.081    24409089.534  
                                
  23531092.571   123656692.377    23531092.732    96355851.516    23531092.393  
  23531096.806    92341035.659  
  20785132.419   109226614.540    20785130.918    85111642.644    20785130.561  
  20785134.492    81565340.469  
  21674384.025   113899700.782    21674384.490    88753025.695    21674383.936  
  21674384.972    85054994.383  
  21435809.214   112645975.914    21435809.625    87776103.107    21435809.124  
  21435807.981    84118764.562  
  21078121.729   112674641.847    21078122.765    87635839.847    21078122.676  
                                
  23326645.896   124869370.113    23326647.129    97120630.964    23326647.058  
                                
  20891367.048   111637167.089    20891368.281    86828932.832    20891368.353  
                                
  21308486.260   113826152.260    21308486.975    88531457.110    21308487.940  
                                
  21285249.901   113901692.251    21285250.312    88590208.563    21285250.223  
                                
  22054474.762   117728295.934    22054477.192    91566441.263    22054476.370  
                                
  24239982.319   127382002.449                                                  
  24239984.588    95122954.523  
  24036063.119   126310368.366                                                  
  24036065.389    94322689.616  
  24579135.642   129164246.179                                                  
  24579138.948    96453848.348  
  26510881.540   139315647.653                                                  
  26510883.381   104034436.177  
  27647185.380   145286953.487                                                  
  27647190.044   108493517.439  
 21  8 31 21 55  3.0000000  0 17G10G12G18G23G24G32R 5R 7R15R16R21R22
                                E 3E 5E15E24E31
  20411064.365   107260896.461    20411064.222    83579933.876    20411064.115  
  20411062.417    80097434.471  
  24408577.926   128267938.303    24408578.033    99949047.507    24408577.015  
                                
  23531808.172   123660452.929    23531808.333    96358781.822    23531807.993  
  23531812.407    92343843.858  
  20785413.481   109228091.553    20785411.980    85112793.562    20785411.622  
  20785415.572    81566443.432  
  21674847.709   113902137.560    21674848.191    88754924.485    21674847.619  
  21674848.673    85056814.057  
  21435495.612   112644327.995    21435496.041    87774819.015    21435495.541  
  21435494.380    84117533.975  
  21078486.990   112676594.429    21078488.026    87637358.522    21078487.937  
                                
  23326113.328   124866519.311    23326114.561    97118413.675    23326114.489  
                                
  20891438.114   111637546.849    20891439.347    86829228.200    20891439.400  
                                
  21307817.923   113822582.209    21307818.638    88528680.409    21307819.621  
                                
  21285667.590   113903927.464    21285668.001    88591947.062    21285667.929  
                                
  22054233.191   117727006.383    22054235.603    91565438.278    22054234.781  
                                
  24239784.598   127380963.363                                                  
  24239786.867    95122178.579  
  24036269.632   126311453.657                                                  
  24036271.919    94323500.059  
  24579168.825   129164420.515                                                  
  24579172.130    96453978.528  
  26510603.355   139314185.734                                                  
  26510605.178   104033344.493  
  27647334.086   145287734.814                                                  
  27647338.750   108494100.890  
 21  8 31 21 55  4.0000000  0 17G10G12G18G23G24G32R 5R 7R15R16R21R22
                                E 3E 5E15E24E25
  20410905.581   107260062.077    20410905.456    83579283.705    20410905.331  
  20410903.633    80096811.388  
  24408065.478   128265245.404    24408065.586    99946949.135    24408064.567  
                                
  23532523.809   123664213.592    23532523.952    96361712.195    23532523.630  
  23532528.026    92346652.121  
  20785694.632   109229568.983    20785693.131    85113944.808    20785692.774  
  20785696.723    81567546.710  
  21675311.517   113904574.821    21675311.999    88756823.645    21675311.445  
  21675312.500    85058634.079  
  21435182.083   112642680.358    21435182.511    87773535.144    21435182.011  
  21435180.850    84116303.597  
  21078852.286   112678547.198    21078853.323    87638877.333    21078853.233  
                                
  23325580.795   124863668.514    23325582.028    97116196.403    23325581.957  
                                
  20891509.357   111637927.506    20891510.572    86829524.267    20891510.644  
                                
  21307149.711   113819012.684    21307150.426    88525904.102    21307151.391  
                                
  21286085.439   113906163.427    21286085.850    88593686.137    21286085.778  
                                
  22053991.762   117725717.643    22053994.175    91564435.923    22053993.353  
                                
  24239586.895   127379924.410                                                  
  24239589.164    95121402.737  
  24036476.180   126312539.051                                                  
  24036478.449    94324310.582  
  24579202.097   129164595.332                                                  
  24579205.403    96454109.075  
  26510325.224   139312724.200                                                  
  26510327.047   104032253.083  
  27520699.697   144622257.106                                                  
  27520705.826   107997158.532  
 21  8 31 21 55  5.0000000  0 17G10G12G18G23G24G32R 5R 7R15R16R21R22
                                E 3E 5E15E24E25
  20410746.958   107259228.532    20410746.815    83578634.189    20410746.707  
  20410745.010    80096188.933  
  24407553.156   128262553.138    24407553.263    99944851.273    24407552.244  
                                
  23533239.552   123667974.833    23533239.713    96364643.016    23533239.374  
  23533243.787    92349460.825  
  20785975.944   109231047.288    20785974.443    85115096.730    20785974.086  
  20785978.035    81568650.630  
  21675775.486   113907013.014    21675775.969    88758723.537    21675775.415  
  21675776.451    85060454.807  
  21434868.678   112641033.425    21434869.107    87772251.822    21434868.606  
  21434867.463    84115073.745  
  21079217.708   112680500.615    21079218.744    87640396.658    21079218.673  
                                
  23325048.334   124860818.208    23325049.567    97113979.494    23325049.496  
                                
  20891580.833   111638309.515    20891582.049    86829821.390    20891582.120  
                                
  21306481.660   113815444.097    21306482.375    88523128.537    21306483.339  
                                
  21286503.485   113908400.564    21286503.913    88595426.135    21286503.824  
                                
  22053750.584   117724430.277    22053753.014    91563434.638    22053752.192  
                                
  24239389.299   127378886.050                                                  
  24239391.569    95120627.338  
  24036682.817   126313625.017                                                  
  24036685.104    94325121.529  
  24579235.530   129164771.085                                                  
  24579238.836    96454240.319  
  26510047.254   139311263.484                                                  
  26510049.076   104031162.295  
  27520146.472   144619350.015                                                  
  27520152.602   107994987.668  
 21  8 31 21 55  6.0000000  0 17G10G12G18G23G24G32R 5R 7R15R16R21R22
                                E 3E 5E15E24E25
  20410588.406   107258395.375    20410588.281    83577984.976    20410588.156  
  20410586.458    80095566.770  
  24407040.869   128259861.058    24407040.976    99942753.550    24407039.957  
                                
  23533955.332   123671736.150    23533955.475    96367573.908    23533955.153  
  23533959.567    92352269.614  
  20786257.345   109232525.992    20786255.827    85116248.962    20786255.469  
  20786259.418    81569754.854  
  21676239.545   113909451.684    21676240.027    88760623.800    21676239.473  
  21676240.510    85062275.892  
  21434555.327   112639386.760    21434555.755    87770968.704    21434555.255  
  21434554.112    84113844.089  
  21079583.183   112682454.194    21079584.219    87641916.110    21079584.130  
                                
  23324515.873   124857967.887    23324517.106    97111762.575    23324517.034  
                                
  20891652.488   111638692.417    20891653.721    86830119.202    20891653.793  
                                
  21305813.698   113811875.985    21305814.413    88520353.339    21305815.395  
                                
  21286921.691   113910638.427    21286922.102    88597166.696    21286922.013  
                                
  22053509.567   117723143.755    22053511.997    91562434.009    22053511.175  
                                
  24239191.722   127377847.821                                                  
  24239193.991    95119852.038  
  24036889.490   126314711.082                                                  
  24036891.777    94325932.547  
  24579269.070   129164947.319                                                  
  24579272.376    96454371.924  
  26509769.372   139309803.121                                                  
  26509771.195   104030071.762  
  27519593.283   144616442.913                                                  
  27519599.412   107992816.780  
 21  8 31 21 55  7.0000000  0 17G10G12G18G23G24G32R 5R 7R15R16R21R22
                                E 3E 5E15E24E25
  20410429.925   107257562.511    20410429.800    83577335.993    20410429.675  
  20410427.978    80094944.829  
  24406528.599   128257169.056    24406528.707    99940655.886    24406527.688  
                                
  23534671.075   123675497.482    23534671.236    96370504.812    23534670.915  
  23534675.310    92355078.399  
  20786538.783   109234004.992    20786537.282    85117401.434    20786536.906  
  20786540.855    81570859.307  
  21676703.675   113911890.715    21676704.157    88762524.346    21676703.603  
  21676704.640    85064097.249  
  21434242.011   112637740.232    21434242.440    87769685.695    21434241.940  
  21434240.778    84112614.544  
  21079948.658   112684407.880    21079949.694    87643435.641    21079949.605  
                                
  23323983.394   124855117.440    23323984.627    97109545.561    23323984.555  
                                
  20891724.286   111639076.076    20891725.501    86830417.601    20891725.573  
                                
  21305145.807   113808308.225    21305146.540    88517578.417    21305147.505  
                                
  21287340.023   113912876.924    21287340.434    88598907.749    21287340.345  
                                
  22053268.692   117721857.915    22053271.122    91561433.909    22053270.300  
                                
  24238994.162   127376809.625                                                  
  24238996.431    95119076.766  
  24037096.181   126315797.145                                                  
  24037098.468    94326743.573  
  24579302.699   129165123.940                                                  
  24579306.005    96454503.813  
  26509491.545   139308343.053                                                  
  26509493.350   104028981.448  
  27519040.058   144613535.690                                                  
  27519046.170   107990645.818  
 21  8 31 21 55  8.0000000  0 17G10G12G18G23G24G32R 5R 7R15R16R21R22
                                E 3E 5E15E24E25
  20410271.517   107256730.025    20410271.374    83576687.301    20410271.266  
  20410269.569    80094323.167  
  24406016.366   128254477.307    24406016.473    99938558.420    24406015.473  
                                
  23535386.855   123679258.931    23535387.034    96373435.804    23535386.694  
  23535391.108    92357887.265  
  20786820.309   109235484.418    20786818.808    85118554.233    20786818.433  
  20786822.382    81571964.064  
  21677167.912   113914330.237    21677168.394    88764425.274    21677167.840  
  21677168.877    85065918.969  
  21433928.749   112636093.980    21433929.160    87768402.901    21433928.660  
  21433927.516    84111385.193  
  21080314.169   112686361.769    21080315.205    87644955.332    21080315.116  
                                
  23323450.897   124852267.015    23323452.130    97107328.558    23323452.059  
                                
  20891796.245   111639460.619    20891797.477    86830716.690    20891797.549  
                                
  21304477.988   113804740.913    21304478.721    88514803.845    21304479.686  
                                
  21287758.480   113915116.164    21287758.891    88600649.378    21287758.801  
                                
  22053027.979   117720572.960    22053030.409    91560434.496    22053029.569  
                                
  24238796.638   127375771.567                                                  
  24238798.907    95118301.586  
  24037302.872   126316883.311                                                  
  24037305.141    94327554.673  
  24579336.383   129165301.034                                                  
  24579339.688    96454636.060  
  26509213.771   139306883.339                                                  
  26509215.576   104027891.399  
  27518486.815   144610628.456                                                  
  27518492.927   107988474.829  
 21  8 31 21 55  9.0000000  0 17G10G12G18G23G24G32R 5R 7R15R16R21R22
                                E 3E 5E15E24E25
  20410113.268   107255898.400    20410113.125    83576039.283    20410113.018  
  20410111.321    80093702.150  
  24405504.258   128251786.154    24405504.365    99936461.429    24405503.364  
                                
  23536102.742   123683020.953    23536102.902    96376367.275    23536102.581  
  23536106.977    92360696.584  
  20787101.996   109236964.703    20787100.495    85119707.702    20787100.138  
  20787104.087    81573069.481  
  21677632.328   113916770.700    21677632.792    88766326.930    21677632.238  
  21677633.293    85067741.387  
  21433615.613   112634448.432    21433616.024    87767120.661    21433615.523  
  21433614.380    84110156.384  
  21080679.805   112688316.338    21080680.841    87646475.553    21080680.752  
                                
  23322918.507   124849417.076    23322919.740    97105111.951    23322919.669  
                                
  20891868.453   111639846.528    20891869.686    86831016.839    20891869.758  
                                
  21303810.366   113801174.537    21303811.081    88512030.006    21303812.046  
                                
  21288177.169   113917356.606    21288177.580    88602391.944    21288177.490  
                                
  22052787.515   117719289.329    22052789.945    91559436.118    22052789.123  
                                
  24238599.203   127374734.093                                                  
  24238601.472    95117526.855  
  24037509.670   126317970.057                                                  
  24037511.940    94328366.200  
  24579370.262   129165479.085                                                  
  24579373.568    96454769.023  
  26508936.140   139305424.445                                                  
  26508937.963   104026801.979  
  27517933.680   144607721.700                                                  
  27517939.809   107986304.188  
 21  8 31 21 55 10.0000000  0 17G10G12G18G23G24G32R 5R 7R15R16R21R22
                                E 3E 5E15E24E25
  20409955.074   107255067.156    20409954.931    83575391.563    20409954.824  
  20409953.126    80093081.416  
  24404992.203   128249095.279    24404992.310    99934364.641    24404991.310  
                                
  23536818.646   123686783.054    23536818.807    96379298.782    23536818.485  
  23536822.881    92363505.954  
  20787383.773   109238445.399    20787382.254    85120861.489    20787381.897  
  20787385.846    81574175.191  
  21678096.797   113919211.624    21678097.280    88768228.948    21678096.726  
  21678097.780    85069564.159  
  21433302.512   112632803.146    21433302.940    87765838.622    21433302.440  
  21433301.279    84108927.767  
  21081045.476   112690271.090    21081046.513    87647995.916    21081046.423  
                                
  23322386.136   124846567.135    23322387.369    97102895.328    23322387.279  
                                
  20891940.841   111640233.279    20891942.074    86831317.648    20891942.145  
                                
  21303142.815   113797608.659    21303143.548    88509256.546    21303144.513  
                                
  21288595.983   113919597.760    21288596.394    88604135.058    21288596.305  
                                
  22052547.195   117718006.521    22052549.625    91558438.374    22052548.803  
                                
  24238401.804   127373696.760                                                  
  24238404.073    95116752.221  
  24037716.486   126319056.895                                                  
  24037718.774    94329177.804  
  24579404.231   129165657.602                                                  
  24579407.537    96454902.331  
  26508658.598   139303965.916                                                  
  26508660.403   104025712.817  
  27517380.544   144604814.909                                                  
  27517386.655   107984133.530  
 21  8 31 21 55 11.0000000  0 17G10G12G18G23G24G32R 5R 7R15R16R21R22
                                E 3E 5E15E24E25
  20409796.933   107254236.076    20409796.790    83574743.966    20409796.683  
  20409794.985    80092460.800  
  24404480.148   128246404.337    24404480.256    99932267.808    24404479.255  
                                
  23537534.551   123690545.084    23537534.711    96382230.234    23537534.372  
  23537538.786    92366315.238  
  20787665.567   109239926.283    20787664.066    85122015.423    20787663.691  
  20787667.640    81575281.042  
  21678561.356   113921652.807    21678561.821    88770131.171    21678561.267  
  21678562.321    85071387.118  
  21432989.428   112631157.906    21432989.839    87764556.619    21432989.339  
  21432988.195    84107699.175  
  21081411.148   112692225.779    21081412.167    87649516.231    21081412.095  
                                
  23321853.692   124843716.978    23321854.925    97100678.534    23321854.836  
                                
  20892013.335   111640620.662    20892014.568    86831618.946    20892014.622  
                                
  21302475.318   113794043.014    21302476.050    88506483.268    21302477.015  
                                
  21289014.869   113921839.397    21289015.280    88605878.552    21289015.208  
                                
  22052306.999   117716724.288    22052309.429    91557441.079    22052308.607  
                                
  24238204.404   127372659.323                                                  
  24238206.674    95115977.514  
  24037923.285   126320143.609                                                  
  24037925.554    94329989.307  
  24579438.272   129165836.386                                                  
  24579441.577    96455035.836  
  26508381.074   139302507.536                                                  
  26508382.879   104024623.767  
  27516827.337   144601907.865                                                  
  27516833.448   107981962.697  
 21  8 31 21 55 12.0000000  0 17G10G12G18G23G24G32R 5R 7R15R16R21R22
                                E 3E 5E15E24E25
  20409638.882   107253405.462    20409638.739    83574096.737    20409638.631  
  20409636.916    80091840.539  
  24403968.129   128243713.704    24403968.237    99930171.217    24403967.236  
                                
  23538250.473   123694307.293    23538250.634    96385161.815    23538250.312  
  23538254.708    92369124.660  
  20787947.469   109241407.649    20787945.950    85123169.736    20787945.593  
  20787949.542    81576387.256  
  21679025.986   113924094.543    21679026.469    88772033.820    21679025.915  
  21679026.969    85073210.488  
  21432676.417   112629512.980    21432676.828    87763274.859    21432676.327  
  21432675.184    84106470.821  
  21081776.855   112694180.736    21081777.892    87651036.754    21081777.803  
                                
  23321321.285   124840866.911    23321322.518    97098461.813    23321322.428  
                                
  20892085.991   111641008.979    20892087.224    86831920.968    20892087.295  
                                
  21301807.927   113790477.900    21301808.642    88503710.409    21301809.607  
                                
  21289433.933   113924081.826    21289434.344    88607622.663    21289434.255  
                                
  22052066.983   117715443.026    22052069.413    91556444.543    22052068.573  
                                
  24238007.005   127371622.110                                                  
  24238009.275    95115202.970  
  24038130.118   126321230.505                                                  
  24038132.388    94330800.950  
  24579472.384   129166015.719                                                  
  24579475.689    96455169.756  
  26508103.640   139301049.602                                                  
  26508105.445   104023535.048  
  27516274.166   144599000.901                                                  
  27516280.277   107979791.912  
 21  8 31 21 55 13.0000000  0 17G10G12G18G23G24G32R 5R 7R15R16R21R22
                                E 3E 5E15E24E25
  20409480.884   107252575.295    20409480.759    83573449.854    20409480.634  
  20409478.936    80091220.605  
  24403456.164   128241023.337    24403456.271    99928074.829    24403455.270  
                                
  23538966.431   123698069.626    23538966.592    96388093.500    23538966.270  
  23538970.666    92371934.197  
  20788229.442   109242889.472    20788227.941    85124324.405    20788227.584  
  20788231.533    81577493.812  
  21679490.742   113926536.794    21679491.224    88773936.877    21679490.670  
  21679491.707    85075034.244  
  21432363.459   112627868.381    21432363.870    87761993.352    21432363.369  
  21432362.226    84105242.711  
  21082142.617   112696135.960    21082143.653    87652557.483    21082143.581  
                                
  23320788.877   124838016.874    23320790.110    97096245.115    23320790.021  
                                
  20892158.861   111641398.278    20892160.094    86832223.756    20892160.147  
                                
  21301140.627   113786913.302    21301141.341    88500937.948    21301142.306  
                                
  21289853.122   113926325.038    21289853.533    88609367.381    21289853.444  
                                
  22051827.109   117714162.606    22051829.539    91555448.660    22051828.699  
                                
  24237809.678   127370585.073                                                  
  24237811.947    95114428.557  
  24038336.970   126322317.563                                                  
  24038339.258    94331612.711  
  24579506.603   129166195.589                                                  
  24579509.909    96455304.077  
  26507826.277   139299592.071                                                  
  26507828.082   104022446.643  
  27515720.994   144596093.954                                                  
  27515727.106   107977621.140  
 21  8 31 21 55 14.0000000  0 17G10G12G18G23G24G32R 5R 7R15R16R21R22
                                E 3E 5E15E24E25
  20409323.011   107251745.554    20409322.868    83572803.302    20409322.743  
  20409321.045    80090600.997  
  24402944.252   128238333.190    24402944.342    99925978.620    24402943.341  
                                
  23539682.407   123701832.135    23539682.568    96391025.314    23539682.246  
  23539686.642    92374743.842  
  20788511.523   109244371.761    20788510.004    85125479.434    20788509.646  
  20788513.596    81578600.715  
  21679955.587   113928979.570    21679956.069    88775840.334    21679955.515  
  21679956.552    85076858.395  
  21432050.554   112626224.080    21432050.965    87760712.077    21432050.465  
  21432049.321    84104014.827  
  21082508.431   112698091.422    21082509.468    87654078.391    21082509.396  
                                
  23320256.470   124835166.884    23320257.703    97094028.473    23320257.613  
                                
  20892231.873   111641788.535    20892233.106    86832527.290    20892233.178  
                                
  21300473.415   113783349.262    21300474.148    88498165.908    21300475.113  
                                
  21290272.473   113928569.033    21290272.883    88611112.709    21290272.794  
                                
  22051587.432   117712883.112    22051589.862    91554453.505    22051589.022  
                                
  24237612.368   127369548.209                                                  
  24237614.620    95113654.276  
  24038543.858   126323404.753                                                  
  24038546.145    94332424.576  
  24579540.947   129166375.990                                                  
  24579544.253    96455438.781  
  26507548.985   139298134.976                                                  
  26507550.790   104021358.546  
  27515167.823   144593187.025                                                  
  27515173.934   107975450.410  
 21  8 31 21 55 15.0000000  0 17G10G12G18G23G24G32R 5R 7R15R16R21R22
                                E 3E 5E15E24E25
  20409165.192   107250916.322    20409165.067    83572157.145    20409164.942  
  20409163.244    80089981.768  
  24402432.376   128235643.366    24402432.483    99923882.656    24402431.483  
                                
  23540398.437   123705594.860    23540398.598    96393957.308    23540398.276  
  23540402.672    92377553.674  
  20788793.692   109245854.570    20788792.174    85126634.869    20788791.816  
  20788795.765    81579708.007  
  21680420.539   113931422.932    21680421.021    88777744.253    21680420.467  
  21680421.504    85078682.988  
  21431737.721   112624580.164    21431738.150    87759431.106    21431737.650  
  21431736.488    84102787.225  
  21082874.299   112700047.200    21082875.336    87655599.552    21082875.264  
                                
  23319724.098   124832317.023    23319725.313    97091811.922    23319725.242  
                                
  20892305.101   111642179.789    20892306.352    86832831.595    20892306.405  
                                
  21299806.329   113779785.815    21299807.044    88495394.343    21299808.009  
                                
  21290691.984   113930813.880    21290692.395    88612858.700    21290692.305  
                                
  22051347.915   117711604.623    22051350.345    91553459.122    22051349.523  
                                
  24237415.112   127368511.616                                                  
  24237417.381    95112880.191  
  24038750.799   126324492.186                                                  
  24038753.068    94333236.618  
  24579575.399   129166556.990                                                  
  24579578.704    96455573.943  
  26507271.819   139296678.369                                                  
  26507273.624   104020270.813  
  27514614.652   144590280.231                                                  
  27514620.781   107973279.750  
 21  8 31 21 55 16.0000000  0 17G10G12G18G23G24G32R 5R 7R15R16R21R22
                                E 3E 5E15E24E25
  20409007.462   107250087.399    20409007.337    83571511.234    20409007.212  
  20409005.514    80089362.767  
  24401920.554   128232953.697    24401920.661    99921786.812    24401919.660  
                                
  23541114.449   123709357.610    23541114.627    96396889.318    23541114.288  
  23541118.701    92380363.520  
  20789075.916   109247337.705    20789074.415    85127790.557    20789074.057  
  20789078.006    81580815.549  
  21680885.580   113933866.709    21680886.062    88779648.497    21680885.508  
  21680886.545    85080507.882  
  21431424.942   112622936.427    21431425.353    87758150.271    21431424.852  
  21431423.691    84101559.763  
  21083240.203   112702003.077    21083241.240    87657120.787    21083241.150  
                                
  23319191.708   124829467.100    23319192.941    97089595.312    23319192.852  
                                
  20892378.471   111642571.815    20892379.704    86833136.507    20892379.757  
                                
  21299139.314   113776222.774    21299140.047    88492623.091    21299141.012  
                                
  21291111.602   113933059.363    21291112.013    88614605.185    21291111.941  
                                
  22051108.542   117710326.885    22051110.972    91552465.326    22051110.150  
                                
  24237217.856   127367475.066                                                  
  24237220.107    95112106.146  
  24038957.722   126325579.637                                                  
  24038959.992    94334048.673  
  24579609.904   129166738.398                                                  
  24579613.209    96455709.412  
  26506994.671   139295222.031                                                  
  26506996.475   104019183.297  
  27514061.498   144587373.351                                                  
  27514067.627   107971109.021  
 21  8 31 21 55 17.0000000  0 17G10G12G18G23G24G32R 5R 7R15R16R21R22
                                E 3E 5E15E24E25
  20408849.768   107249258.785    20408849.643    83570865.557    20408849.518  
  20408847.820    80088743.994  
  24401408.749   128230264.155    24401408.839    99919691.067    24401407.856  
                                
  23541830.496   123713120.406    23541830.675    96399821.358    23541830.353  
  23541834.749    92383173.380  
  20789358.211   109248821.172    20789356.710    85128946.507    20789356.352  
  20789360.301    81581923.324  
  21681350.693   113936310.864    21681351.175    88781553.029    21681350.621  
  21681351.658    85082333.058  
  21431112.162   112621292.857    21431112.591    87756869.568    21431112.091  
  21431110.930    84100332.417  
  21083606.107   112703959.055    21083607.144    87658642.102    21083607.072  
                                
  23318659.283   124826617.107    23318660.516    97087378.659    23318660.444  
                                
  20892451.966   111642964.596    20892453.199    86833441.999    20892453.253  
                                
  21298472.371   113772660.109    21298473.103    88489852.131    21298474.068  
                                
  21291531.345   113935305.464    21291531.756    88616352.155    21291531.667  
                                
  22050869.311   117709049.880    22050871.759    91551472.100    22050870.919  
                                
  24237020.617   127366438.569                                                  
  24237022.887    95111332.139  
  24039164.663   126326667.099                                                  
  24039166.933    94334860.742  
  24579644.498   129166920.198                                                  
  24579647.804    96455845.174  
  26506717.593   139293765.984                                                  
  26506719.398   104018095.990  
  27513508.327   144584466.363                                                  
  27513514.438   107968938.219  
 21  8 31 21 55 18.0000000  0 17G10G12G18G23G24G32R 5R 7R15R16R21R22
                                E 3E 5E15E24E25
  20408692.145   107248430.387    20408692.002    83570220.057    20408691.895  
  20408690.197    80088125.394  
  24400896.945   128227574.619    24400897.034    99917595.329    24400896.033  
                                
  23542546.526   123716883.111    23542546.704    96402753.334    23542546.365  
  23542550.779    92385983.202  
  20789640.559   109250304.873    20789639.040    85130102.635    20789638.683  
  20789642.632    81583031.287  
  21681815.841   113938755.327    21681816.324    88783457.805    21681815.770  
  21681816.806    85084158.480  
  21430799.419   112619649.381    21430799.848    87755588.937    21430799.347  
  21430798.186    84099105.153  
  21083972.029   112705915.055    21083973.066    87660163.432    21083972.976  
                                
  23318126.857   124823766.945    23318128.090    97085161.865    23318128.001  
                                
  20892525.604   111643358.076    20892526.837    86833748.039    20892526.909  
                                
  21297805.499   113769097.730    21297806.213    88487081.397    21297807.178  
                                
  21291951.178   113937552.154    21291951.589    88618099.578    21291951.517  
                                
  22050630.224   117707773.549    22050632.672    91550479.396    22050631.832  
                                
  24236823.361   127365402.030                                                  
  24236825.631    95110558.103  
  24039371.587   126327754.512                                                  
  24039373.874    94335672.773  
  24579679.182   129167102.319                                                  
  24579682.488    96455981.165  
  26506440.570   139292310.128                                                  
  26506442.375   104017008.820  
  27512955.102   144581559.194                                                  
  27512961.213   107966767.291  
 21  8 31 21 55 19.0000000  0 17G10G12G18G23G24G32R 5R 7R15R16R21R22
                                E 3E 5E15E24E25
  20408534.576   107247602.400    20408534.451    83569574.868    20408534.326  
  20408532.628    80087507.086  
  24400385.194   128224885.352    24400385.283    99915499.797    24400384.300  
                                
  23543262.555   123720645.934    23543262.734    96405685.412    23543262.394  
  23543266.808    92388793.093  
  20789922.979   109251788.991    20789921.460    85131259.091    20789921.103  
  20789925.052    81584139.555  
  21682281.115   113941200.288    21682281.615    88785362.972    21682281.061  
  21682282.098    85085984.252  
  21430486.729   112618006.166    21430487.158    87754308.510    21430486.657  
  21430485.496    84097878.070  
  21084337.969   112707871.242    21084339.005    87661684.911    21084338.934  
                                
  23317594.432   124820916.785    23317595.647    97082945.067    23317595.576  
                                
  20892599.403   111643752.472    20892600.636    86834054.793    20892600.708  
                                
  21297138.680   113765535.823    21297139.413    88484311.013    21297140.378  
                                
  21292371.189   113939799.559    21292371.600    88619847.555    21292371.511  
                                
  22050391.279   117706498.077    22050393.727    91549487.369    22050392.887  
                                
  24236626.159   127364365.636                                                  
  24236628.428    95109784.172  
  24039578.546   126328842.027                                                  
  24039580.815    94336484.870  
  24579713.919   129167284.915                                                  
  24579717.225    96456117.528  
  26506163.600   139290854.656                                                  
  26506165.405   104015921.950  
  27512401.877   144578652.015                                                  
  27512408.006   107964596.344  
 21  8 31 21 55 20.0000000  0 17G10G12G18G23G24G32R 5R 7R15R16R21R22
                                E 3E 5E15E24E25
  20408377.078   107246774.798    20408376.953    83568929.985    20408376.828  
  20408375.131    80086889.075  
  24399873.478   128222196.233    24399873.568    99913404.377    24399872.567  
                                
  23543978.639   123724408.859    23543978.799    96408617.555    23543978.478  
  23543982.891    92391603.080  
  20790205.470   109253273.522    20790203.969    85132415.868    20790203.612  
  20790207.561    81585248.136  
  21682746.460   113943645.702    21682746.942    88787268.487    21682746.388  
  21682747.425    85087810.382  
  21430174.092   112616363.218    21430174.521    87753028.293    21430174.021  
  21430172.859    84096651.200  
  21084703.944   112709827.650    21084704.981    87663206.564    21084704.909  
                                
  23317062.007   124818066.652    23317063.240    97080728.295    23317063.150  
                                
  20892673.363   111644147.765    20892674.614    86834362.242    20892674.668  
                                
  21296471.969   113761974.383    21296472.684    88481541.014    21296473.649  
                                
  21292791.290   113942047.695    21292791.701    88621596.103    21292791.612  
                                
  22050152.495   117705223.403    22050154.926    91548495.954    22050154.104  
                                
  24236428.956   127363329.380                                                  
  24236431.226    95109010.346  
  24039785.505   126329929.651                                                  
  24039787.792    94337297.063  
  24579748.746   129167468.004                                                  
  24579752.052    96456254.252  
  26505886.702   139289399.566                                                  
  26505888.507   104014835.348  
  27511848.670   144575744.834                                                  
  27511854.781   107962425.410  
 21  8 31 21 55 21.0000000  0 17G10G12G18G23G24G32R 5R 7R15R16R21R22
                                E 3E 5E15E24E25
  20408219.706   107245947.650    20408219.563    83568285.457    20408219.456  
  20408217.740    80086271.394  
  24399361.799   128219507.424    24399361.906    99911309.201    24399360.906  
                                
  23544694.740   123728171.973    23544694.918    96411549.847    23544694.579  
  23544698.992    92394413.189  
  20790488.069   109254758.541    20790486.550    85133573.026    20790486.193  
  20790490.142    81586357.065  
  21683211.912   113946091.668    21683212.395    88789174.437    21683211.841  
  21683212.877    85089636.905  
  21429861.527   112614720.593    21429861.938    87751748.326    21429861.438  
  21429860.294    84095424.560  
  21085069.991   112711784.309    21085071.028    87664728.410    21085070.938  
                                
  23316529.581   124815216.582    23316530.814    97078511.574    23316530.725  
                                
  20892747.538   111644544.020    20892748.771    86834670.442    20892748.842  
                                
  21295805.365   113758413.493    21295806.080    88478771.430    21295807.045  
                                
  21293211.569   113944296.621    21293211.980    88623345.265    21293211.891  
                                
  22049913.872   117703949.626    22049916.303    91547505.248    22049915.481  
                                
  24236231.807   127362293.320                                                  
  24236234.077    95108236.663  
  24039992.500   126331017.443                                                  
  24039994.787    94338109.373  
  24579783.698   129167651.639                                                  
  24579787.004    96456391.380  
  26505609.893   139287944.887                                                  
  26505611.680   104013749.070  
  27511295.463   144572837.708                                                  
  27511301.592   107960254.485  
 21  8 31 21 55 22.0000000  0 17G10G12G18G23G24G32R 5R 7R15R16R21R22
                                E 3E 5E15E24E25
  20408062.333   107245120.746    20408062.208    83567641.116    20408062.083  
  20408060.386    80085653.905  
  24398850.137   128216818.633    24398850.227    99909214.044    24398849.244  
                                
  23545410.841   123731935.053    23545411.019    96414482.111    23545410.680  
  23545415.094    92397223.277  
  20790770.703   109256243.809    20790769.202    85134730.375    20790768.827  
  20790772.776    81587466.198  
  21683677.418   113948537.962    21683677.919    88791080.638    21683677.347  
  21683678.401    85091463.690  
  21429548.945   112613078.080    21429549.373    87750468.445    21429548.873  
  21429547.712    84094198.013  
  21085436.038   112713741.010    21085437.075    87666250.289    21085436.985  
                                
  23315997.156   124812366.351    23315998.371    97076294.723    23315998.299  
                                
  20892821.819   111644941.006    20892823.052    86834979.209    20892823.124  
                                
  21295138.833   113754852.961    21295139.548    88476002.127    21295140.513  
                                
  21293631.956   113946546.141    21293632.367    88625094.894    21293632.278  
                                
  22049675.375   117702676.565    22049677.823    91546515.089    22049676.983  
                                
  24236034.641   127361257.257                                                  
  24236036.910    95107462.984  
  24040199.494   126332105.193                                                  
  24040201.782    94338921.658  
  24579818.721   129167835.620                                                  
  24579822.027    96456528.766  
  26505333.119   139286490.442                                                  
  26505334.906   104012662.955  
  27510742.238   144569930.429                                                  
  27510748.349   107958083.472  
 21  8 31 21 55 23.0000000  0 17G10G12G18G23G24G32R 5R 7R15R16R21R22
                                E 3E 5E15E24E25
  20407905.068   107244294.305    20407904.925    83566997.134    20407904.818  
  20407903.120    80085036.755  
  24398338.547   128214130.167    24398338.637    99907119.140    24398337.654  
                                
  23546126.960   123735698.299    23546127.156    96417414.503    23546126.817  
  23546131.230    92400033.491  
  20791053.427   109257729.550    20791051.908    85135888.095    20791051.551  
  20791055.500    81588575.680  
  21684143.049   113950984.799    21684143.532    88792987.266    21684142.978  
  21684144.014    85093290.869  
  21429236.451   112611435.898    21429236.880    87749188.823    21429236.380  
  21429235.218    84092971.704  
  21085802.103   112715697.977    21085803.139    87667772.374    21085803.068  
                                
  23315464.712   124809516.194    23315465.945    97074077.934    23315465.856  
                                
  20892896.279   111645338.926    20892897.512    86835288.702    20892897.584  
                                
  21294472.390   113751292.953    21294473.105    88473233.237    21294474.069  
                                
  21294052.468   113948796.467    21294052.879    88626845.144    21294052.789  
                                
  22049437.055   117701404.396    22049439.504    91545525.628    22049438.664  
                                
  24235837.527   127360221.376                                                  
  24235839.779    95106689.435  
  24040406.525   126333193.122                                                  
  24040408.812    94339734.066  
  24579853.834   129168020.144                                                  
  24579857.139    96456666.560  
  26505056.418   139285036.429                                                  
  26505058.222   104011577.170  
  27510188.959   144567023.174                                                  
  27510195.071   107955912.489  
 21  8 31 21 55 24.0000000  0 17G10G12G18G23G24G32R 5R 7R15R16R21R22
                                E 3E 5E15E24E25
  20407747.892   107243468.302    20407747.767    83566353.500    20407747.642  
  20407745.945    80084419.935  
  24397826.975   128211441.916    24397827.064    99905024.411    24397826.082  
                                
  23546843.114   123739461.702    23546843.293    96420347.032    23546842.971  
  23546847.367    92402843.835  
  20791336.240   109259215.766    20791334.721    85137046.183    20791334.364  
  20791338.313    81589685.514  
  21684608.752   113953432.167    21684609.234    88794894.306    21684608.680  
  21684609.717    85095118.449  
  21428924.011   112609794.039    21428924.440    87747909.450    21428923.940  
  21428922.778    84091745.642  
  21086168.257   112717655.188    21086169.294    87669294.647    21086169.204  
                                
  23314932.305   124806666.106    23314933.520    97071861.218    23314933.449  
                                
  20892970.936   111645737.782    20892972.169    86835598.921    20892972.241  
                                
  21293806.036   113747733.468    21293806.751    88470464.746    21293807.716  
                                
  21294473.140   113951047.565    21294473.551    88628595.997    21294473.462  
                                
  22049198.915   117700133.183    22049201.363    91544536.891    22049200.523  
                                
  24235640.450   127359185.701                                                  
  24235642.701    95105916.045  
  24040613.573   126334281.201                                                  
  24040615.860    94340546.592  
  24579889.036   129168205.208                                                  
  24579892.341    96456804.759  
  26504779.823   139283582.858                                                  
  26504781.610   104010491.701  
  27509635.752   144564115.999                                                  
  27509641.864   107953741.542  
 21  8 31 21 55 25.0000000  0 17G10G12G18G23G24G32R 5R 7R15R16R21R22
                                E 3E 5E15E24E25
  20407590.752   107242642.493    20407590.609    83565710.010    20407590.502  
  20407588.786    80083803.261  
  24397315.421   128208753.703    24397315.510    99902929.699    24397314.527  
                                
  23547559.233   123743225.015    23547559.412    96423279.488    23547559.090  
  23547563.486    92405654.099  
  20791619.107   109260702.184    20791617.588    85138204.429    20791617.230  
  20791621.179    81590795.500  
  21685074.526   113955879.808    21685075.026    88796801.559    21685074.472  
  21685075.508    85096946.231  
  21428611.589   112608152.227    21428612.018    87746630.115    21428611.518  
  21428610.356    84090519.611  
  21086534.394   112719612.408    21086535.430    87670816.925    21086535.358  
                                
  23314399.844   124803815.844    23314401.059    97069644.350    23314400.987  
                                
  20893045.700   111646137.337    20893046.951    86835909.682    20893047.005  
                                
  21293139.754   113744174.248    21293140.469    88467696.467    21293141.433  
                                
  21294893.920   113953299.156    21294894.331    88630347.237    21294894.242  
                                
  22048960.900   117698862.593    22048963.330    91543548.657    22048962.490  
                                
  24235443.355   127358149.946                                                  
  24235445.606    95105142.590  
  24040820.622   126335369.186                                                  
  24040822.909    94341359.049  
  24579924.309   129168390.548                                                  
  24579927.615    96456943.158  
  26504503.246   139282129.426                                                  
  26504505.051   104009406.354  
  27509082.492   144561208.597                                                  
  27509088.603   107951570.435  
 21  8 31 21 55 26.0000000  0 17G10G12G18G23G24G32R 5R 7R15R16R21R22
                                E 3E 5E15E24E25
  20407433.665   107241817.020    20407433.523    83565066.785    20407433.415  
  20407431.700    80083186.837  
  24396803.920   128206065.640    24396804.009    99900835.107    24396803.026  
                                
  23548275.388   123746988.389    23548275.567    96426211.978    23548275.245  
  23548279.641    92408464.400  
  20791902.027   109262188.958    20791900.508    85139362.956    20791900.151  
  20791904.100    81591905.759  
  21685540.389   113958327.880    21685540.889    88798709.148    21685540.335  
  21685541.372    85098774.335  
  21428299.203   112606510.608    21428299.614    87745350.935    21428299.114  
  21428297.952    84089293.732  
  21086900.548   112721569.775    21086901.584    87672339.321    21086901.513  
                                
  23313867.383   124800965.532    23313868.616    97067427.443    23313868.526  
                                
  20893120.625   111646537.710    20893121.858    86836221.082    20893121.929  
                                
  21292473.525   113740615.461    21292474.240    88464928.523    21292475.205  
                                
  21295314.789   113955551.419    21295315.200    88632098.993    21295315.111  
                                
  22048723.027   117697592.840    22048725.457    91542561.071    22048724.618  
                                
  24235246.259   127357114.288                                                  
  24235248.529    95104369.209  
  24041027.670   126336457.232                                                  
  24041029.957    94342171.549  
  24579959.672   129168576.328                                                  
  24579962.978    96457081.888  
  26504226.723   139280676.323                                                  
  26504228.528   104008321.249  
  27508529.213   144558301.113                                                  
  27508535.324   107949399.269  
 21  8 31 21 55 27.0000000  0 17G10G12G18G23G24G32R 5R 7R15R16R21R22
                                E 3E 5E15E24E25
  20407276.650   107240991.959    20407276.525    83564423.878    20407276.400  
  20407274.703    80082570.720  
  24396292.437   128203377.800    24396292.526    99898740.683    24396291.543  
                                
  23548991.561   123750751.890    23548991.757    96429144.569    23548991.418  
  23548995.831    92411274.815  
  20792185.036   109263676.171    20792183.518    85140521.826    20792183.160  
  20792187.109    81593016.341  
  21686006.324   113960776.446    21686006.806    88800617.116    21686006.252  
  21686007.289    85100602.816  
  21427986.870   112604869.283    21427987.281    87744071.980    21427986.781  
  21427985.620    84088068.071  
  21087266.773   112723527.356    21087267.810    87673861.882    21087267.720  
                                
  23313334.922   124798115.268    23313336.154    97065210.575    23313336.065  
                                
  20893195.711   111646938.971    20893196.944    86836533.175    20893197.015  
                                
  21291807.422   113737057.201    21291808.136    88462160.993    21291809.101  
                                
  21295735.837   113957804.447    21295736.230    88633851.345    21295736.141  
                                
  22048485.316   117696323.934    22048487.746    91541574.142    22048486.924  
                                
  24235049.218   127356078.786                                                  
  24235051.487    95103595.946  
  24041234.736   126337545.402                                                  
  24041237.023    94342984.147  
  24579995.124   129168762.618                                                  
  24579998.430    96457221.003  
  26503950.289   139279223.633                                                  
  26503952.094   104007236.441  
  27507975.952   144555393.680                                                  
  27507982.064   107947228.126  
 21  8 31 21 55 28.0000000  0 17G10G12G18G23G24G32R 5R 7R15R16R21R22
                                E 3E 5E15E24E25
  20407119.778   107240167.629    20407119.653    83563781.544    20407119.528  
  20407117.831    80081955.150  
  24395781.043   128200690.485    24395781.133    99896646.669    24395780.150  
                                
  23549707.823   123754515.828    23549708.019    96432077.505    23549707.680  
  23549712.093    92414085.539  
  20792468.189   109265164.124    20792466.670    85141681.268    20792466.313  
  20792470.262    81594127.475  
  21686472.437   113963225.801    21686472.920    88802525.707    21686472.366  
  21686473.402    85102431.881  
  21427674.645   112603228.563    21427675.056    87742793.494    21427674.556  
  21427673.394    84086842.856  
  21087633.070   112725485.442    21087634.107    87675384.840    21087634.017  
                                
  23312802.532   124795265.362    23312803.747    97062993.980    23312803.675  
                                
  20893271.046   111647341.447    20893272.279    86836846.210    20893272.351  
                                
  21291141.443   113733499.750    21291142.158    88459394.089    21291143.123  
                                
  21296157.063   113960058.542    21296157.474    88635604.530    21296157.385  
                                
  22048247.836   117695056.221    22048250.266    91540588.143    22048249.427  
                                
  24234852.265   127355043.742                                                  
  24234854.517    95102823.024  
  24041441.910   126338634.006                                                  
  24041444.179    94343797.064  
  24580030.719   129168949.707                                                  
  24580034.025    96457360.716  
  26503673.981   139277771.618                                                  
  26503675.785   104006152.142  
  27507422.727   144552486.533                                                  
  27507428.839   107945057.218  
 21  8 31 21 55 29.0000000  0 17G10G12G18G23G24G32R 5R 7R15R16R21R22
                                E 3E 5E15E24E25
  20406962.978   107239343.638    20406962.852    83563139.472    20406962.727  
  20406961.030    80081339.831  
  24395269.703   128198003.378    24395269.793    99894552.834    24395268.828  
                                
  23550424.084   123758279.839    23550424.281    96435010.496    23550423.959  
  23550428.355    92416896.320  
  20792751.395   109266652.438    20792749.876    85142840.996    20792749.519  
  20792753.468    81595238.878  
  21686938.604   113965675.607    21686939.105    88804434.647    21686938.551  
  21686939.569    85104261.276  
  21427362.473   112601588.042    21427362.884    87741515.171    21427362.384  
  21427361.222    84085617.798  
  21087999.403   112727443.668    21088000.440    87676907.897    21088000.350  
                                
  23312270.142   124792415.427    23312271.357    97060777.363    23312271.286  
                                
  20893346.507   111647744.759    20893347.758    86837159.896    20893347.830  
                                
  21290475.572   113729942.765    21290476.287    88456627.540    21290477.252  
                                
  21296578.415   113962313.288    21296578.826    88637358.215    21296578.737  
                                
  22048010.482   117693789.309    22048012.912    91539602.772    22048012.090  
                                
  24234655.313   127354008.782                                                  
  24234657.564    95102050.158  
  24041649.047   126339722.660                                                  
  24041651.335    94344610.020  
  24580066.404   129169137.245                                                  
  24580069.709    96457500.750  
  26503397.726   139276319.911                                                  
  26503399.512   104005068.091  
  27506869.520   144549579.355                                                  
  27506875.632   107942886.256  
 21  8 31 21 55 30.0000000  0 17G10G12G18G23G24G32R 5R 7R15R16R21R22
                                E 3E 5E15E24E25
  20406806.248   107238519.956    20406806.105    83562497.642    20406805.998  
  20406804.301    80080724.742  
  24394758.381   128195316.400    24394758.471    99892459.087    24394757.506  
                                
  23551140.382   123762043.865    23551140.561    96437943.506    23551140.239  
  23551144.635    92419707.112  
  20793034.691   109268141.084    20793033.172    85144000.982    20793032.797  
  20793036.746    81596350.527  
  21687404.879   113968125.795    21687405.361    88806343.889    21687404.807  
  21687405.843    85106090.964  
  21427050.301   112599947.694    21427050.730    87740236.978    21427050.230  
  21427049.068    84084392.859  
  21088365.736   112729401.993    21088366.772    87678431.039    21088366.683  
                                
  23311737.735   124789565.381    23311738.932    97058560.665    23311738.860  
                                
  20893422.129   111648148.883    20893423.380    86837474.215    20893423.451  
                                
  21289809.736   113726386.110    21289810.451    88453861.255    21289811.416  
                                
  21296999.874   113964568.665    21297000.285    88639112.397    21297000.195  
                                
  22047773.289   117692523.101    22047775.719    91538617.948    22047774.879  
                                
  24234458.360   127352973.873                                                  
  24234460.630    95101277.336  
  24041856.239   126340811.340                                                  
  24041858.526    94345422.995  
  24580102.177   129169325.176                                                  
  24580105.483    96457641.088  
  26503121.524   139274868.512                                                  
  26503123.329   104003984.247  
  27506316.278   144546672.053                                                  
  27506322.371   107940715.228  
 21  8 31 21 55 31.0000000  0 17G10G12G18G23G24G32R 5R 7R15R16R21R22
                                E 3E 5E15E24E25
  20406649.555   107237696.515    20406649.412    83561855.999    20406649.305  
  20406647.589    80080109.838  
  24394247.077   128192629.455    24394247.166    99890365.359    24394246.201  
                                
  23551856.644   123765807.838    23551856.823    96440876.467    23551856.501  
  23551860.915    92422517.869  
  20793318.004   109269629.988    20793316.485    85145161.164    20793316.110  
  20793320.059    81597462.366  
  21687871.171   113970576.297    21687871.671    88808253.371    21687871.117  
  21687872.136    85107920.889  
  21426738.183   112598307.472    21426738.612    87738958.885    21426738.112  
  21426736.950    84083168.018  
  21088732.105   112731360.365    21088733.141    87679954.217    21088733.052  
                                
  23311205.273   124786715.188    23311206.489    97056343.849    23311206.399  
                                
  20893497.894   111648553.734    20893499.145    86837789.097    20893499.198  
                                
  21289143.990   113722829.777    21289144.705    88451095.221    21289145.670  
                                
  21297421.475   113966824.649    21297421.886    88640867.048    21297421.797  
                                
  22047536.220   117691257.602    22047538.633    91537633.673    22047537.793  
                                
  24234261.444   127351938.963                                                  
  24234263.695    95100504.518  
  24042063.394   126341899.988                                                  
  24042065.664    94346235.947  
  24580138.005   129169513.441                                                  
  24580141.311    96457781.676  
  26502845.394   139273417.322                                                  
  26502847.181   104002900.582  
  27505763.017   144543764.610                                                  
  27505769.128   107938544.083  
 21  8 31 21 55 32.0000000  0 17G10G12G18G23G24G32R 5R 7R15R16R21R22
                                E 3E 5E15E24E25
  20406492.951   107236873.605    20406492.826    83561214.768    20406492.701  
  20406491.003    80079495.325  
  24393735.844   128189942.821    24393735.934    99888271.875    24393734.951  
                                
  23552572.960   123769572.066    23552573.156    96443809.621    23552572.817  
  23552577.230    92425328.819  
  20793601.442   109271119.450    20793599.924    85146321.784    20793599.548  
  20793603.497    81598574.627  
  21688337.606   113973027.433    21688338.088    88810163.345    21688337.534  
  21688338.571    85109751.278  
  21426426.154   112596667.649    21426426.565    87737681.099    21426426.065  
  21426424.903    84081943.475  
  21089098.509   112733319.084    21089099.563    87681477.665    21089099.474  
                                
  23310672.884   124783865.136    23310674.081    97054127.139    23310674.010  
                                
  20893573.837   111648959.606    20893575.088    86838104.777    20893575.159  
                                
  21288478.351   113719274.063    21288479.066    88448329.667    21288480.031  
                                
  21297843.220   113969081.507    21297843.613    88642622.385    21297843.524  
                                
  22047299.313   117689993.060    22047301.743    91536650.145    22047300.903  
                                
  24234064.545   127350904.321                                                  
  24234066.814    95099731.893  
  24042270.586   126342988.877                                                  
  24042272.873    94347049.078  
  24580173.957   129169702.346                                                  
  24580177.263    96457922.737  
  26502569.336   139271966.668                                                  
  26502571.140   104001817.293  
  27505209.774   144540857.299                                                  
  27505215.885   107936373.042  
 21  8 31 21 55 33.0000000  0 17G10G12G18G23G24G32R 5R 7R15R16R21R22
                                E 3E 5E15E24E25
  20406336.418   107236051.014    20406336.293    83560573.793    20406336.168  
  20406334.470    80078881.055  
  24393224.612   128187256.371    24393224.701    99886178.545    24393223.736  
                                
  23553289.275   123773336.329    23553289.472    96446742.804    23553289.132  
  23553293.546    92428139.777  
  20793884.934   109272609.228    20793883.416    85147482.650    20793883.058  
  20793887.007    81599687.124  
  21688804.130   113975478.971    21688804.631    88812073.632    21688804.077  
  21688805.113    85111581.961  
  21426114.125   112595027.994    21426114.554    87736403.448    21426114.036  
  21426112.892    84080719.059  
  21089464.949   112735277.916    21089465.985    87683001.204    21089465.914  
                                
  23310140.441   124781015.021    23310141.656    97051910.385    23310141.566  
                                
  20893649.941   111649366.292    20893651.192    86838421.089    20893651.264  
                                
  21287812.784   113715718.711    21287813.481    88445564.397    21287814.445  
                                
  21298265.090   113971339.006    21298265.501    88644378.213    21298265.412  
                                
  22047062.584   117688729.302    22047065.014    91535667.223    22047064.174  
                                
  24233867.664   127349869.737                                                  
  24233869.933    95098959.316  
  24042477.813   126344077.792                                                  
  24042480.100    94347862.227  
  24580209.963   129169891.630                                                  
  24580213.269    96458064.089  
  26502293.331   139270516.291                                                  
  26502295.135   104000734.219  
  27504656.513   144537949.895                                                  
  27504662.625   107934201.930  
 21  8 31 21 55 34.0000000  0 17G10G12G18G23G24G32R 5R 7R15R16R21R22
                                E 3E 5E15E24E25
  20406179.957   107235228.749    20406179.832    83559933.065    20406179.707  
  20406178.009    80078267.020  
  24392713.432   128184570.048    24392713.522    99884085.318    24392712.557  
                                
  23554005.591   123777100.622    23554005.805    96449676.028    23554005.466  
  23554009.879    92430950.782  
  20794168.498   109274099.358    20794166.979    85148643.788    20794166.622  
  20794170.571    81600799.879  
  21689270.708   113977930.897    21689271.209    88813984.221    21689270.655  
  21689271.691    85113412.947  
  21425802.150   112593388.538    21425802.579    87735125.952    21425802.079  
  21425800.917    84079494.784  
  21089831.425   112737236.870    21089832.461    87684524.837    21089832.390  
                                
  23309607.997   124778164.810    23309609.212    97049693.550    23309609.123  
                                
  20893726.224   111649773.791    20893727.475    86838738.032    20893727.529  
                                
  21287147.288   113712163.775    21287148.002    88442799.448    21287148.967  
                                
  21298687.085   113973597.135    21298687.496    88646134.542    21298687.406  
                                
  22046825.998   117687466.355    22046828.428    91534684.933    22046827.588  
                                
  24233670.819   127348835.212                                                  
  24233673.070    95098186.777  
  24042685.040   126345166.740                                                  
  24042687.309    94348675.402  
  24580246.059   129170081.336                                                  
  24580249.365    96458205.762  
  26502017.379   139269066.201                                                  
  26502019.166   103999651.372  
  27504103.235   144535042.396                                                  
  27504109.346   107932030.753  
 21  8 31 21 55 35.0000000  0 17G10G12G18G23G24G32R 5R 7R15R16R21R22
                                E 3E 5E15E24E25
  20406023.585   107234407.019    20406023.460    83559292.755    20406023.335  
  20406021.637    80077653.392  
  24392202.307   128181884.083    24392202.378    99881992.360    24392201.413  
                                
  23554721.978   123780865.167    23554722.174    96452609.429    23554721.853  
  23554726.248    92433761.972  
  20794452.169   109275590.041    20794450.650    85149805.359    20794450.293  
  20794454.242    81601913.057  
  21689737.429   113980383.459    21689737.912    88815895.306    21689737.358  
  21689738.394    85115244.401  
  21425490.246   112591749.496    21425490.675    87733848.774    21425490.175  
  21425489.013    84078270.828  
  21090197.936   112739196.150    21090198.991    87686048.719    21090198.901  
                                
  23309075.590   124775314.752    23309076.787    97047476.838    23309076.698  
                                
  20893802.668   111650182.321    20893803.919    86839055.780    20893803.972  
                                
  21286481.917   113708609.489    21286482.631    88440035.008    21286483.596  
                                
  21299109.223   113975856.151    21299109.634    88647891.550    21299109.544  
                                
  22046589.573   117686204.427    22046592.003    91533703.431    22046591.163  
                                
  24233473.992   127347800.977                                                  
  24233476.261    95097414.461  
  24042892.302   126346255.939                                                  
  24042894.572    94349488.763  
  24580282.297   129170271.676                                                  
  24580285.585    96458347.897  
  26501741.553   139267616.639                                                  
  26501743.340   103998568.903  
  27503549.974   144532135.042                                                  
  27503556.085   107929859.687  
 21  8 31 21 55 36.0000000  0 17G10G12G18G23G24G32R 5R 7R15R16R21R22
                                E 3E 5E15E24E25
  20405867.356   107233586.013    20405867.231    83558653.008    20405867.106  
  20405865.409    80077040.299  
  24391691.289   128179198.652    24391691.378    99879899.816    24391690.413  
                                
  23555438.436   123784630.167    23555438.651    96455543.195    23555438.311  
  23555442.725    92436573.479  
  20794735.982   109277081.474    20794734.464    85150967.515    20794734.106  
  20794738.055    81603026.783  
  21690204.293   113982836.825    21690204.794    88817807.020    21690204.240  
  21690205.258    85117076.458  
  21425178.467   112590111.047    21425178.896    87732572.056    21425178.396  
  21425177.235    84077047.304  
  21090564.555   112741155.964    21090565.609    87687573.019    21090565.520  
                                
  23308543.254   124772465.053    23308544.451    97045260.408    23308544.362  
                                
  20893879.344   111650592.072    20893880.595    86839374.478    20893880.648  
                                
  21285816.707   113705056.053    21285817.421    88437271.222    21285818.386  
                                
  21299531.593   113978116.258    21299532.004    88649649.411    21299531.914  
                                
  22046353.398   117684943.659    22046355.828    91532722.829    22046354.989  
                                
  24233277.272   127346767.215                                                  
  24233279.523    95096642.498  
  24043099.672   126347345.591                                                  
  24043101.942    94350302.462  
  24580318.661   129170462.841                                                  
  24580321.984    96458490.647  
  26501465.834   139266167.779                                                  
  26501467.621   103997486.968  
  27502996.785   144529228.028                                                  
  27503002.896   107927688.858  
 21  8 31 21 55 37.0000000  0 17G10G12G18G23G24G32R 5R 7R15R16R21R22
                                E 3E 5E15E24E25
  20405711.217   107232765.585    20405711.092    83558013.714    20405710.984  
  20405709.269    80076427.646  
  24391180.324   128176513.626    24391180.413    99877807.597    24391179.448  
                                
  23556154.948   123788395.452    23556155.163    96458477.176    23556154.823  
  23556159.237    92439385.215  
  20795019.903   109278573.500    20795018.402    85152130.130    20795018.027  
  20795021.976    81604140.963  
  21690671.282   113985290.854    21690671.765    88819719.248    21690671.211  
  21690672.247    85118909.017  
  21424866.760   112588473.032    21424867.189    87731295.685    21424866.671  
  21424865.509    84075824.115  
  21090931.263   112743116.149    21090932.300    87689097.609    21090932.210  
                                
  23308010.935   124769615.569    23308012.133    97043044.147    23308012.043  
                                
  20893956.216   111651002.892    20893957.467    86839694.004    20893957.539  
                                
  21285151.622   113701503.270    21285152.336    88434507.949    21285153.301  
                                
  21299954.124   113980377.297    21299954.517    88651407.997    21299954.427  
                                
  22046117.420   117683683.914    22046119.850    91531743.022    22046118.992  
                                
  24233080.641   127345733.770                                                  
  24233082.892    95095870.767  
  24043307.060   126348435.521                                                  
  24043309.348    94351116.371  
  24580355.167   129170654.671                                                  
  24580358.473    96458633.902  
  26501190.240   139264719.496                                                  
  26501192.045   103996405.446  
  27502443.631   144526321.175                                                  
  27502449.725   107925518.165  
 21  8 31 21 55 38.0000000  0 17G10G12G18G23G24G32R 5R 7R15R16R21R22
                                E 3E 5E15E24E25
  20405555.149   107231945.430    20405555.024    83557374.630    20405554.916  
  20405553.201    80075815.188  
  24390669.413   128173828.685    24390669.484    99875715.438    24390668.537  
                                
  23556871.460   123792160.696    23556871.675    96461411.125    23556871.335  
  23556875.749    92442196.927  
  20795303.878   109280065.814    20795302.359    85153292.974    20795301.984  
  20795305.933    81605255.342  
  21691138.325   113987745.218    21691138.825    88821631.737    21691138.271  
  21691139.290    85120741.816  
  21424555.089   112586835.161    21424555.518    87730019.422    21424555.017  
  21424553.856    84074601.023  
  21091297.971   112745076.411    21091299.026    87690622.255    21091298.936  
                                
  23307478.599   124766765.983    23307479.797    97040827.807    23307479.707  
                                
  20894033.232   111651414.442    20894034.483    86840014.101    20894034.536  
                                
  21284486.608   113697950.815    21284487.305    88431744.926    21284488.270  
                                
  21300376.744   113982638.919    21300377.155    88653167.037    21300377.065  
                                
  22045881.531   117682424.847    22045883.961    91530763.751    22045883.121  
                                
  24232883.974   127344700.330                                                  
  24232886.226    95095099.043  
  24043514.466   126349525.426                                                  
  24043516.753    94351930.258  
  24580391.727   129170846.851                                                  
  24580395.033    96458777.411  
  26500914.682   139263271.428                                                  
  26500916.469   103995324.105  
  27501890.442   144523414.190                                                  
  27501896.553   107923347.363  
 21  8 31 21 55 39.0000000  0 17G10G12G18G23G24G32R 5R 7R15R16R21R22
                                E 3E 5E15E24E25
  20405399.134   107231125.496    20405399.009    83556735.722    20405398.884  
  20405397.187    80075202.902  
  24390158.466   128171143.749    24390158.555    99873623.283    24390157.590  
                                
  23557587.954   123795925.901    23557588.187    96464345.054    23557587.847  
  23557592.261    92445008.611  
  20795587.906   109281558.374    20795586.387    85154456.006    20795586.012  
  20795589.961    81606369.921  
  21691605.439   113990199.917    21691605.922    88823544.489    21691605.368  
  21691606.404    85122574.875  
  21424243.417   112585197.386    21424243.846    87728743.232    21424243.346  
  21424242.184    84073378.012  
  21091664.679   112747036.696    21091665.734    87692146.931    21091665.644  
                                
  23306946.228   124763916.218    23306947.425    97038611.337    23306947.335  
                                
  20894110.390   111651826.735    20894111.641    86840334.774    20894111.695  
                                
  21283821.630   113694398.659    21283822.345    88428982.150    21283823.310  
                                
  21300799.489   113984901.076    21300799.900    88654926.492    21300799.811  
                                
  22045645.821   117681166.497    22045648.251    91529785.033    22045647.393  
                                
  24232687.326   127343666.862                                                  
  24232689.577    95094327.297  
  24043721.854   126350615.297                                                  
  24043724.141    94352744.123  
  24580428.376   129171039.369                                                  
  24580431.682    96458921.169  
  26500639.159   139261823.586                                                  
  26500640.946   103994242.922  
  27501337.253   144520507.023                                                  
  27501343.346   107921176.442  
 21  8 31 21 55 40.0000000  0 17G10G12G18G23G24G32R 5R 7R15R16R21R22
                                E 3E 5E15E24E25
  20405243.156   107230305.799    20405243.030    83556096.997    20405242.905  
  20405241.208    80074590.792  
  24389647.573   128168458.926    24389647.662    99871531.215    24389646.697  
                                
  23558304.449   123799691.057    23558304.663    96467278.944    23558304.324  
  23558308.737    92447820.251  
  20795871.970   109283051.187    20795870.469    85155619.237    20795870.094  
  20795874.043    81607484.679  
  21692072.607   113992654.917    21692073.089    88825457.479    21692072.535  
  21692073.572    85124408.152  
  21423931.799   112583559.709    21423932.210    87727467.119    21423931.710  
  21423930.549    84072155.078  
  21092031.405   112748997.048    21092032.460    87693671.647    21092032.370  
                                
  23306413.838   124761066.333    23306415.035    97036394.767    23306414.946  
                                
  20894187.674   111652239.748    20894188.925    86840656.006    20894188.978  
                                
  21283156.688   113690846.801    21283157.403    88426219.593    21283158.368  
                                
  21301222.342   113987163.762    21301222.735    88656686.363    21301222.646  
                                
  22045410.218   117679908.814    22045412.648    91528806.835    22045411.790  
                                
  24232490.659   127342633.384                                                  
  24232492.911    95093555.540  
  24043929.260   126351705.093                                                  
  24043931.529    94353557.936  
  24580465.079   129171232.206                                                  
  24580468.385    96459065.169  
  26500363.691   139260375.952                                                  
  26500365.477   103993161.903  
  27500783.992   144517599.698                                                  
  27500790.103   107919005.389  
 21  8 31 21 55 41.0000000  0 17G10G12G18G23G24G32R 5R 7R15R16R21R22
                                E 3E 5E15E24E25
  20405087.248   107229486.600    20405087.123    83555458.663    20405086.998  
  20405085.301    80073979.056  
  24389136.715   128165774.387    24389136.805    99869439.368    24389135.840  
                                
  23559020.961   123803456.412    23559021.175    96470212.977    23559020.854  
  23559025.267    92450632.044  
  20796156.159   109284544.519    20796154.640    85156782.867    20796154.265  
  20796158.214    81608599.828  
  21692539.882   113995110.499    21692540.364    88827370.917    21692539.810  
  21692540.847    85126241.870  
  21423620.217   112581922.401    21423620.646    87726191.295    21423620.128  
  21423618.984    84070932.406  
  21092398.185   112750957.707    21092399.239    87695196.601    21092399.150  
                                
  23305881.484   124758216.517    23305882.681    97034178.248    23305882.592  
                                
  20894265.136   111652653.733    20894266.387    86840977.992    20894266.458  
                                
  21282491.907   113687295.536    21282492.622    88423457.499    21282493.586  
                                
  21301645.337   113989427.294    21301645.730    88658446.886    21301645.641  
                                
  22045174.775   117678652.114    22045177.205    91527829.405    22045176.366  
                                
  24232294.029   127341600.121                                                  
  24232296.280    95092783.949  
  24044136.683   126352795.114                                                  
  24044138.953    94354371.909  
  24580501.872   129171425.624                                                  
  24580505.177    96459209.605  
  26500088.311   139258928.802                                                  
  26500090.098   103992081.233  
  27500230.749   144514692.469                                                  
  27500236.861   107916834.416  
 21  8 31 21 55 42.0000000  0 17G10G12G18G23G24G32R 5R 7R15R16R21R22
                                E 3E 5E15E24E25
  20404931.484   107228667.960    20404931.359    83554820.759    20404931.234  
  20404929.536    80073367.729  
  24388625.947   128163090.200    24388626.019    99867347.787    24388625.071  
                                
  23559737.544   123807222.054    23559737.777    96473147.244    23559737.437  
  23559741.851    92453444.035  
  20796440.437   109286038.411    20796438.918    85157946.939    20796438.561  
  20796442.510    81609715.399  
  21693007.282   113997566.717    21693007.782    88829284.856    21693007.228  
  21693008.247    85128076.057  
  21423308.707   112580285.507    21423309.135    87724915.795    21423308.635  
  21423307.474    84069710.057  
  21092765.036   112752918.718    21092766.090    87696721.832    21092766.001  
                                
  23305349.148   124755366.886    23305350.345    97031961.874    23305350.256  
                                
  20894342.813   111653068.745    20894344.063    86841300.779    20894344.117  
                                
  21281827.233   113683744.946    21281827.930    88420695.933    21281828.912  
                                
  21302068.494   113991691.727    21302068.887    88660208.110    21302068.797  
                                
  22044939.547   117677396.381    22044941.978    91526852.721    22044941.120  
                                
  24232097.469   127340567.171                                                  
  24232099.721    95092012.593  
  24044344.143   126353885.388                                                  
  24044346.430    94355186.076  
  24580538.807   129171619.697                                                  
  24580542.113    96459354.525  
  26499813.021   139257482.161                                                  
  26499814.808   103991000.955  
  27499677.542   144511785.376                                                  
  27499683.654   107914663.536  
 21  8 31 21 55 43.0000000  0 17G10G12G18G23G24G32R 5R 7R15R16R21R22
                                E 3E 5E15E24E25
  20404775.756   107227849.677    20404775.630    83554183.136    20404775.505  
  20404773.808    80072756.678  
  24388115.197   128160406.212    24388115.286    99865256.375    24388114.321  
                                
  23560454.128   123810987.753    23560454.342    96476081.557    23560454.021  
  23560458.434    92456256.093  
  20796724.769   109287532.691    20796723.268    85159111.313    20796722.893  
  20796726.842    81610831.264  
  21693474.771   114000023.390    21693475.272    88831199.147    21693474.718  
  21693475.754    85129910.581  
  21422997.285   112578648.860    21422997.714    87723640.486    21422997.196  
  21422996.052    84068487.883  
  21093131.923   112754879.908    21093132.977    87698247.200    21093132.888  
                                
  23304816.794   124752517.196    23304817.991    97029745.455    23304817.902  
                                
  20894420.632   111653484.616    20894421.883    86841624.232    20894421.954  
                                
  21281162.630   113680194.827    21281163.345    88417934.734    21281164.310  
                                
  21302491.775   113993956.863    21302492.186    88661969.882    21302492.097  
                                
  22044704.445   117676141.493    22044706.875    91525876.700    22044706.035  
                                
  24231900.910   127339534.319                                                  
  24231903.162    95091241.314  
  24044551.638   126354975.756                                                  
  24044553.925    94356000.307  
  24580575.814   129171814.228                                                  
  24580579.119    96459499.791  
  26499537.820   139256035.885                                                  
  26499539.607   103989920.940  
  27499124.353   144508878.267                                                  
  27499130.447   107912492.648  
 21  8 31 21 55 44.0000000  0 18G10G12G18G23G24G32R 5R 7R15R16R21R22
                                E 3E 5E15E24E25E31
  20404620.098   107227031.638    20404619.973    83553545.705    20404619.848  
  20404618.151    80072145.800  
  24387604.446   128157722.272    24387604.536    99863164.998    24387603.589  
                                
  23561170.711   123814753.422    23561170.944    96479015.854    23561170.604  
  23561175.000    92459068.106  
  20797009.172   109289027.250    20797007.671    85160275.909    20797007.296  
  20797011.245    81611947.326  
  21693942.332   114002480.375    21693942.814    88833113.682    21693942.261  
  21693943.297    85131745.349  
  21422685.846   112577012.312    21422686.275    87722365.258    21422685.775  
  21422684.613    84067265.792  
  21093498.809   112756841.101    21093499.846    87699772.577    21093499.774  
                                
  23304284.404   124749667.344    23304285.602    97027528.901    23304285.512  
                                
  20894498.595   111653901.222    20894499.846    86841948.258    20894499.917  
                                
  21280498.099   113676645.075    21280498.814    88415173.814    21280499.779  
                                
  21302915.182   113996222.561    21302915.592    88663732.089    21302915.503  
                                
  22044469.503   117674887.274    22044471.933    91524901.198    22044471.075  
                                
  24231704.369   127338501.472                                                  
  24231706.620    95090470.024  
  24044759.115   126356066.070                                                  
  24044761.402    94356814.506  
  24580612.928   129172009.084                                                  
  24580616.233    96459645.303  
  26499262.619   139254589.818                                                  
  26499264.406   103988841.089  
  27498571.110   144505970.995                                                  
  27498577.204   107910321.627  
  27653506.368   145320170.463                                                  
  27653511.014   108518322.308  
 21  8 31 21 55 45.0000000  0 18G10G12G18G23G24G32R 5R 7R15R16R21R22
                                E 3E 5E15E24E25E31
  20404464.567   107226214.373    20404464.441    83552908.873    20404464.316  
  20404462.601    80071535.512  
  24387093.839   128155038.939    24387093.928    99861074.082    24387092.981  
                                
  23561887.384   123818519.561    23561887.599    96481950.503    23561887.277  
  23561891.673    92461880.495  
  20797293.737   109290522.583    20797292.218    85161441.104    20797291.860  
  20797295.809    81613063.971  
  21694410.036   114004938.213    21694410.518    88835028.881    21694409.964  
  21694411.001    85133580.752  
  21422374.550   112575376.407    21422374.979    87721090.525    21422374.478  
  21422373.317    84066044.177  
  21093865.803   112758802.862    21093866.840    87701298.391    21093866.751  
                                
  23303752.104   124746817.905    23303753.283    97025312.677    23303753.212  
                                
  20894576.790   111654319.098    20894578.040    86842273.278    20894578.112  
                                
  21279833.747   113673096.188    21279834.461    88412413.568    21279835.426  
                                
  21303338.802   113998489.377    21303339.196    88665495.168    21303339.106  
                                
  22044234.775   117673634.289    22044237.188    91523926.656    22044236.348  
                                
  24231507.917   127337469.130                                                  
  24231510.150    95089699.119  
  24044966.682   126357156.864                                                  
  24044968.969    94357629.061  
  24580650.149   129172204.803                                                  
  24580653.455    96459791.463  
  26498987.597   139253144.515                                                  
  26498989.384   103987761.804  
  27498017.939   144503064.092                                                  
  27498024.032   107908150.896  
  27653658.755   145320971.245                                                  
  27653663.383   108518920.297  
 21  8 31 21 55 46.0000000  0 18G10G12G18G23G24G32R 5R 7R15R16R21R22
                                E 3E 5E15E24E25E31
  20404309.106   107225397.402    20404308.981    83552272.275    20404308.856  
  20404307.158    80070925.438  
  24386583.214   128152355.715    24386583.303    99858983.267    24386582.356  
                                
  23562604.075   123822285.726    23562604.290    96484885.177    23562603.950  
  23562608.364    92464692.885  
  20797578.354   109292018.224    20797576.835    85162606.539    20797576.460  
  20797580.427    81614180.850  
  21694877.829   114007396.442    21694878.311    88836944.381    21694877.758  
  21694878.794    85135416.436  
  21422063.271   112573740.666    21422063.700    87719815.926    21422063.200  
  21422062.038    84064822.682  
  21094232.815   112760764.727    21094233.852    87702824.286    21094233.762  
                                
  23303219.786   124743968.415    23303220.983    97023096.412    23303220.894  
                                
  20894655.127   111654737.765    20894656.396    86842598.906    20894656.468  
                                
  21279169.448   113669547.665    21279170.163    88409653.606    21279171.128  
                                
  21303762.531   114000756.808    21303762.924    88667258.725    21303762.834  
                                
  22044000.191   117672382.084    22044002.621    91522952.722    22044001.763  
                                
  24231311.465   127336436.818                                                  
  24231313.716    95088928.238  
  24045174.266   126358247.680                                                  
  24045176.553    94358443.628  
  24580687.477   129172400.906                                                  
  24580690.765    96459937.904  
  26498712.611   139251699.475                                                  
  26498714.398   103986682.713  
  27497464.750   144500157.096                                                  
  27497470.843   107905980.083  
  27653811.214   145321772.367                                                  
  27653815.842   108519518.528  
 21  8 31 21 55 47.0000000  0 18G10G12G18G23G24G32R 5R 7R15R16R21R22
                                E 3E 5E15E24E25E31
  20404153.717   107224580.822    20404153.592    83551635.978    20404153.467  
  20404151.751    80070315.647  
  24386072.660   128149672.690    24386072.750    99856892.612    24386071.785  
                                
  23563320.766   123826051.987    23563320.998    96487819.926    23563320.659  
  23563325.054    92467505.346  
  20797863.026   109293514.280    20797861.507    85163772.296    20797861.149  
  20797865.099    81615298.032  
  21695345.694   114009855.125    21695346.194    88838860.241    21695345.640  
  21695346.676    85137252.463  
  21421752.047   112572105.181    21421752.475    87718541.524    21421751.975  
  21421750.814    84063601.376  
  21094599.863   112762726.788    21094600.917    87704350.329    21094600.828  
                                
  23302687.485   124741118.933    23302688.665    97020880.151    23302688.593  
                                
  20894733.644   111655157.295    20894734.913    86842925.206    20894734.966  
                                
  21278505.256   113665999.565    21278505.953    88406893.970    21278506.918  
                                
  21304186.384   114003024.965    21304186.795    88669022.847    21304186.705  
                                
  22043765.767   117671130.697    22043768.179    91521979.425    22043767.340  
                                
  24231115.048   127335404.643                                                  
  24231117.300    95088157.459  
  24045381.868   126359338.585                                                  
  24045384.138    94359258.262  
  24580724.877   129172597.493                                                  
  24580728.183    96460084.704  
  26498437.696   139250254.805                                                  
  26498439.483   103985603.903  
  27496911.561   144497250.058                                                  
  27496917.654   107903809.252  
  27653963.726   145322573.900                                                  
  27653968.354   108520117.089  
 21  8 31 21 55 48.0000000  0 18G10G12G18G23G24G32R 5R 7R15R16R21R22
                                E 3E 5E15E24E25E31
  20403998.453   107223764.845    20403998.328    83551000.153    20403998.203  
  20403996.487    80069706.315  
  24385562.178   128146990.105    24385562.267    99854802.279    24385561.320  
                                
  23564037.510   123829818.560    23564037.743    96490754.918    23564037.403  
  23564041.799    92470318.038  
  20798147.840   109295010.945    20798146.321    85164938.531    20798145.946  
  20798149.895    81616415.670  
  21695813.701   114012314.495    21695814.202    88840776.628    21695813.648  
  21695814.684    85139089.004  
  21421440.929   112570470.162    21421441.358    87717267.481    21421440.858  
  21421439.696    84062380.420  
  21094966.982   112764689.253    21094968.036    87705876.688    21094967.947  
                                
  23302155.221   124738269.656    23302156.400    97018664.051    23302156.311  
                                
  20894812.357   111655577.916    20894813.626    86843252.357    20894813.679  
                                
  21277841.154   113662452.125    21277841.869    88404134.850    21277842.834  
                                
  21304610.416   114005294.048    21304610.827    88670787.692    21304610.737  
                                
  22043531.540   117669880.370    22043533.970    91521006.949    22043533.112  
                                
  24230918.703   127334372.803                                                  
  24230920.955    95087386.927  
  24045589.506   126360429.798                                                  
  24045591.794    94360073.133  
  24580762.420   129172794.768                                                  
  24580765.726    96460232.017  
  26498162.888   139248810.698                                                  
  26498164.675   103984525.514  
  27496358.407   144494343.234                                                  
  27496364.500   107901638.567  
  27654116.381   145323376.087                                                  
  27654121.009   108520716.134  
 21  8 31 21 55 49.0000000  0 18G10G12G18G23G24G32R 5R 7R15R16R21R22
                                E 3E 5E15E24E25E31
  20403843.296   107222949.559    20403843.171    83550364.864    20403843.064  
  20403841.349    80069097.497  
  24385051.803   128144308.019    24385051.892    99852712.361    24385050.927  
                                
  23564754.344   123833585.529    23564754.576    96493690.207    23564754.237  
  23564758.633    92473131.028  
  20798432.780   109296508.327    20798431.261    85166105.320    20798430.903  
  20798434.852    81617533.838  
  21696281.852   114014774.637    21696282.352    88842693.620    21696281.798  
  21696282.835    85140926.131  
  21421129.901   112568835.715    21421130.330    87715993.889    21421129.829  
  21421128.668    84061159.887  
  21095334.173   112766652.214    21095335.227    87707403.435    21095335.137  
                                
  23301623.010   124735420.739    23301624.189    97016448.229    23301624.118  
                                
  20894891.302   111655999.731    20894892.553    86843580.433    20894892.625  
                                
  21277177.195   113658905.448    21277177.910    88401376.333    21277178.874  
                                
  21305034.644   114007564.157    21305035.055    88672553.328    21305034.966  
                                
  22043297.527   117668631.257    22043299.957    91520035.405    22043299.100  
                                
  24230722.430   127333341.403                                                  
  24230724.682    95086616.732  
  24045797.252   126361521.430                                                  
  24045799.521    94360888.313  
  24580800.088   129172992.834                                                  
  24580803.394    96460379.930  
  26497888.205   139247367.278                                                  
  26497889.992   103983447.642  
  27495805.307   144491436.690                                                  
  27495811.383   107899468.109  
  27654269.179   145324179.046                                                  
  27654273.807   108521315.733  
 21  8 31 21 55 50.0000000  0 18G10G12G18G23G24G32R 5R 7R15R16R21R22
                                E 3E 5E15E24E25E31
  20403688.193   107222134.489    20403688.068    83549729.743    20403687.943  
  20403686.228    80068488.843  
  24384541.410   128141625.974    24384541.499    99850622.458    24384540.552  
                                
  23565471.178   123837352.451    23565471.392    96496625.469    23565471.071  
  23565475.466    92475943.983  
  20798717.773   109298005.946    20798716.254    85167272.296    20798715.896  
  20798719.845    81618652.194  
  21696750.056   114017235.090    21696750.556    88844610.860    21696750.002  
  21696751.021    85142763.480  
  21420818.890   112567201.342    21420819.301    87714720.356    21420818.801  
  21420817.640    84059939.423  
  21095701.399   112768615.210    21095702.453    87708930.210    21095702.364  
                                
  23301090.763   124732571.608    23301091.943    97014232.236    23301091.871  
                                
  20894970.373   111656422.278    20894971.641    86843909.080    20894971.695  
                                
  21276513.325   113655359.108    21276514.040    88398618.071    21276515.005  
                                
  21305458.980   114009834.821    21305459.373    88674319.395    21305459.266  
                                
  22043063.657   117667382.791    22043066.070    91519064.376    22043065.212  
                                
  24230526.157   127332309.956                                                  
  24230528.408    95085846.500  
  24046004.961   126362612.989                                                  
  24046007.248    94361703.436  
  24580837.863   129173191.223                                                  
  24580841.169    96460528.074  
  26497613.576   139245924.052                                                  
  26497615.363   103982369.913  
  27495252.190   144488529.972                                                  
  27495258.265   107897297.510  
  27654422.013   145324982.257                                                  
  27654426.641   108521915.531  
 21  8 31 21 55 51.0000000  0 18G10G12G18G23G24G32R 5R 7R15R16R21R22
                                E 3E 5E15E24E25E31
  20403533.162   107221319.737    20403533.036    83549094.873    20403532.911  
  20403531.196    80067880.424  
  24384031.071   128138944.065    24384031.160    99848532.660    24384030.195  
                                
  23566187.994   123841119.376    23566188.208    96499560.735    23566187.868  
  23566192.282    92478756.950  
  20799002.819   109299503.894    20799001.300    85168439.525    20799000.925  
  20799004.874    81619770.789  
  21697218.349   114019695.933    21697218.832    88846528.398    21697218.278  
  21697219.314    85144601.121  
  21420507.916   112565567.150    21420508.345    87713446.957    21420507.844  
  21420506.683    84058719.085  
  21096068.643   112770578.313    21096069.697    87710457.064    21096069.608  
                                
  23300558.516   124729722.423    23300559.678    97012016.205    23300559.606  
                                
  20895049.604   111656845.630    20895050.873    86844238.349    20895050.926  
                                
  21275849.526   113651813.216    21275850.241    88395860.155    21275851.206  
                                
  21305883.441   114012106.157    21305883.834    88676085.992    21305883.744  
                                
  22042829.931   117666135.082    22042832.343    91518093.935    22042831.485  
                                
  24230329.901   127331278.583                                                  
  24230332.153    95085076.314  
  24046212.671   126363704.578                                                  
  24046214.958    94362518.581  
  24580875.692   129173389.997                                                  
  24580878.997    96460676.506  
  26497339.001   139244481.128                                                  
  26497340.788   103981292.398  
  27494699.036   144485623.189                                                  
  27494705.129   107895126.854  
  27654574.936   145325785.809                                                  
  27654579.564   108522515.577  
 21  8 31 21 55 52.0000000  0 18G10G12G18G23G24G32R 5R 7R15R16R21R22
                                E 3E 5E15E24E25E31
  20403378.166   107220505.225    20403378.023    83548460.189    20403377.915  
  20403376.200    80067272.187  
  24383520.714   128136262.187    24383520.803    99846442.890    24383519.856  
                                
  23566904.809   123844886.266    23566905.024    96502495.974    23566904.702  
  23566909.098    92481569.883  
  20799287.919   109301002.103    20799286.401    85169606.959    20799286.025  
  20799289.974    81620889.580  
  21697686.696   114022157.099    21697687.179    88848446.185    21697686.625  
  21697687.661    85146439.004  
  21420196.959   112563933.073    21420197.388    87712173.648    21420196.888  
  21420195.726    84057498.830  
  21096435.905   112772541.453    21096436.941    87711983.950    21096436.852  
                                
  23300026.234   124726873.079    23300027.413    97009800.051    23300027.324  
                                
  20895128.960   111657269.674    20895130.229    86844568.161    20895130.283  
                                
  21275185.782   113648267.658    21275186.478    88393102.498    21275187.461  
                                
  21306307.991   114014378.052    21306308.384    88677853.020    21306308.295  
                                
  22042596.311   117664888.070    22042598.741    91517124.035    22042597.883  
                                
  24230133.628   127330247.180                                                  
  24230135.879    95084306.108  
  24046420.398   126364796.122                                                  
  24046422.667    94363333.694  
  24580913.574   129173589.111                                                  
  24580916.880    96460825.193  
  26497064.443   139243038.403                                                  
  26497066.230   103980215.045  
  27494145.865   144482716.219                                                  
  27494151.958   107892956.065  
  27654727.895   145326589.643                                                  
  27654732.523   108523115.853  
 21  8 31 21 55 53.0000000  0 18G10G12G18G23G24G32R 5R 7R15R16R21R22
                                E 3E 5E15E24E25E31
  20403223.277   107219691.350    20403223.152    83547826.000    20403223.027  
  20403221.329    80066664.423  
  24383010.464   128133580.788    24383010.553    99844353.495    24383009.606  
                                
  23567621.697   123848653.494    23567621.911    96505431.474    23567621.572  
  23567625.985    92484383.079  
  20799573.145   109302500.957    20799571.626    85170774.895    20799571.251  
  20799575.218    81622008.863  
  21698155.151   114024618.966    21698155.651    88850364.526    21698155.097  
  21698156.134    85148277.416  
  21419886.092   112562299.486    21419886.521    87710900.723    21419886.002  
  21419884.841    84056278.951  
  21096803.203   112774505.013    21096804.257    87713511.161    21096804.168  
                                
  23299494.005   124724023.986    23299495.185    97007584.081    23299495.095  
                                
  20895208.513   111657694.825    20895209.782    86844898.834    20895209.853  
                                
  21274522.180   113644722.795    21274522.894    88390345.383    21274523.859  
                                
  21306732.720   114016650.892    21306733.113    88679620.786    21306733.023  
                                
  22042362.906   117663642.143    22042365.318    91516154.981    22042364.478  
                                
  24229937.426   127329216.161                                                  
  24229939.678    95083536.196  
  24046628.179   126365888.004                                                  
  24046630.448    94364149.062  
  24580951.599   129173788.944                                                  
  24580954.905    96460974.424  
  26496790.047   139241596.298                                                  
  26496791.834   103979138.149  
  27493592.729   144479809.492                                                  
  27493598.805   107890785.466  
  27654880.978   145327394.154                                                  
  27654885.607   108523716.636  
 21  8 31 21 55 54.0000000  0 18G10G12G18G23G24G32R 5R 7R15R16R21R22
                                E 3E 5E15E24E25E31
  20403068.424   107218877.574    20403068.281    83547191.887    20403068.174  
  20403066.458    80066056.731  
  24382500.178   128130899.312    24382500.249    99842264.020    24382499.320  
                                
  23568338.548   123852420.559    23568338.781    96508366.840    23568338.441  
  23568342.855    92487196.135  
  20799858.388   109303999.944    20799856.887    85171942.939    20799856.512  
  20799860.461    81623128.234  
  21698623.694   114027081.024    21698624.177    88852283.012    21698623.623  
  21698624.659    85150115.959  
  21419575.224   112560665.894    21419575.653    87709627.799    21419575.135  
  21419573.974    84055059.062  
  21097170.518   112776468.439    21097171.573    87715038.271    21097171.466  
                                
  23298961.705   124721174.547    23298962.884    97005367.857    23298962.813  
                                
  20895288.173   111658120.579    20895289.442    86845229.979    20895289.496  
                                
  21273858.613   113641178.096    21273859.328    88387588.394    21273860.293  
                                
  21307157.538   114018924.162    21307157.949    88681388.876    21307157.841  
                                
  22042129.608   117662396.729    22042132.038    91515186.328    22042131.180  
                                
  24229741.206   127328184.987                                                  
  24229743.458    95082766.160  
  24046835.924   126366979.707                                                  
  24046838.194    94364964.292  
  24580989.660   129173988.965                                                  
  24580992.966    96461123.792  
  26496515.632   139240154.281                                                  
  26496517.401   103978061.331  
  27493039.522   144476902.440                                                  
  27493045.615   107888614.613  
  27655034.116   145328198.838                                                  
  27655038.744   108524317.515  
 21  8 31 21 55 55.0000000  0 18G10G12G18G23G24G32R 5R 7R15R16R21R22
                                E 3E 5E15E24E25E31
  20402913.678   107218064.339    20402913.553    83546558.197    20402913.428  
  20402911.731    80065449.445  
  24381989.964   128128218.171    24381990.053    99840174.824    24381989.106  
                                
  23569055.436   123856187.863    23569055.668    96511302.402    23569055.328  
  23569059.742    92490009.381  
  20800143.738   109305499.477    20800142.220    85173111.408    20800141.844  
  20800145.811    81624248.017  
  21699092.327   114029543.704    21699092.810    88854201.981    21699092.256  
  21699093.292    85151954.978  
  21419264.446   112559032.694    21419264.875    87708355.178    21419264.375  
  21419263.213    84053839.465  
  21097537.888   112778432.218    21097538.942    87716565.651    21097538.853  
                                
  23298429.458   124718325.323    23298430.637    97003151.792    23298430.566  
                                
  20895368.048   111658547.381    20895369.316    86845561.935    20895369.370  
                                
  21273195.154   113637634.044    21273195.869    88384831.907    21273196.834  
                                
  21307582.517   114021198.286    21307582.910    88683157.639    21307582.820  
                                
  22041896.489   117661152.311    22041898.901    91514218.442    22041898.043  
                                
  24229545.040   127327154.081                                                  
  24229547.292    95081996.331  
  24047043.723   126368071.653                                                  
  24047045.993    94365779.707  
  24581027.846   129174189.625                                                  
  24581031.152    96461273.636  
  26496241.307   139238712.789                                                  
  26496243.094   103976984.885  
  27492486.369   144473995.546                                                  
  27492492.444   107886443.891  
  27655187.361   145329004.092                                                  
  27655191.989   108524918.836  
 21  8 31 21 55 56.0000000  0 18G10G12G18G23G24G32R 5R 7R15R16R21R22
                                E 3E 5E15E24E25E31
  20402758.986   107217251.456    20402758.861    83545924.782    20402758.754  
  20402757.038    80064842.415  
  24381479.803   128125537.230    24381479.892    99838085.785    24381478.945  
                                
  23569772.359   123859955.231    23569772.573    96514238.011    23569772.252  
  23569776.647    92492822.664  
  20800429.160   109306999.388    20800427.642    85174280.168    20800427.284  
  20800431.233    81625368.074  
  21699561.032   114032006.812    21699561.532    88856121.287    21699560.978  
  21699561.997    85153794.303  
  21418953.704   112557399.712    21418954.133    87707082.726    21418953.633  
  21418952.471    84052620.026  
  21097905.275   112780396.169    21097906.329    87718093.167    21097906.222  
                                
  23297897.194   124715476.069    23297898.373    97000935.708    23297898.301  
                                
  20895448.065   111658975.000    20895449.334    86845894.528    20895449.405  
                                
  21272531.785   113634090.448    21272532.500    88382075.780    21272533.465  
                                
  21308007.621   114023473.092    21308008.032    88684926.930    21308007.925  
                                
  22041663.512   117659908.715    22041665.942    91513251.205    22041665.085  
                                
  24229348.874   127326123.285                                                  
  24229351.126    95081226.579  
  24047251.522   126369163.676                                                  
  24047253.791    94366595.174  
  24581066.140   129174390.726                                                  
  24581069.445    96461423.804  
  26495967.071   139237271.602                                                  
  26495968.858   103975908.681  
  27491933.197   144471088.614                                                  
  27491939.273   107884273.126  
  27655340.659   145329809.733                                                  
  27655345.269   108525520.453  
 21  8 31 21 55 57.0000000  0 18G10G12G18G23G24G32R 5R 7R15R16R21R22
                                E 3E 5E15E24E25E31
  20402604.401   107216439.057    20402604.276    83545291.743    20402604.151  
  20402602.436    80064235.754  
  24380969.696   128122856.582    24380969.768    99835996.976    24380968.821  
                                
  23570489.300   123863722.799    23570489.532    96517173.773    23570489.192  
  23570493.606    92495636.103  
  20800714.690   109308499.800    20800713.171    85175449.318    20800712.795  
  20800716.762    81626488.510  
  21700029.861   114034470.481    21700030.344    88858041.027    21700029.790  
  21700030.826    85155634.063  
  21418643.015   112555767.087    21418643.444    87705810.552    21418642.944  
  21418641.782    84051400.865  
  21098272.733   112782360.434    21098273.788    87719620.928    21098273.698  
                                
  23297364.929   124712626.934    23297366.126    96998719.717    23297366.055  
                                
  20895528.279   111659403.597    20895529.548    86846227.884    20895529.619  
                                
  21271868.522   113630547.458    21271869.237    88379320.119    21271870.202  
                                
  21308432.868   114025748.716    21308433.279    88686696.860    21308433.172  
                                
  22041430.733   117658666.076    22041433.145    91512284.704    22041432.287  
                                
  24229152.762   127325092.704                                                  
  24229155.013    95080456.991  
  24047459.357   126370255.895                                                  
  24047461.644    94367410.795  
  24581104.504   129174592.402                                                  
  24581107.810    96461574.408  
  26495692.907   139235830.902                                                  
  26495694.694   103974832.831  
  27491380.044   144468181.767                                                  
  27491386.137   107882102.415  
  27655494.065   145330615.908                                                  
  27655498.693   108526122.467  
 21  8 31 21 55 58.0000000  0 18G10G12G18G23G24G32R 5R 7R15R16R21R22
                                E 3E 5E15E24E25E31
  20402449.888   107215627.156    20402449.763    83544659.096    20402449.655  
  20402447.940    80063629.469  
  24380459.643   128120176.257    24380459.714    99833908.415    24380458.785  
                                
  23571206.276   123867490.563    23571206.509    96520109.696    23571206.169  
  23571210.583    92498449.696  
  20801000.308   109310000.721    20800998.789    85176618.869    20800998.414  
  20801002.381    81627609.334  
  21700498.780   114036934.731    21700499.281    88859961.221    21700498.727  
  21700499.745    85157474.245  
  21418332.398   112554134.821    21418332.827    87704538.656    21418332.327  
  21418331.165    84050181.965  
  21098640.246   112784325.021    21098641.300    87721148.940    21098641.211  
                                
  23296832.700   124709777.890    23296833.897    96996503.795    23296833.826  
                                
  20895608.672   111659833.186    20895609.941    86846562.008    20895610.012  
                                
  21271205.385   113627005.086    21271206.100    88376564.943    21271207.065  
                                
  21308858.276   114028025.181    21308858.669    88688467.443    21308858.579  
                                
  22041198.114   117657424.403    22041200.544    91511318.963    22041199.686  
                                
  24228956.703   127324062.375                                                  
  24228958.954    95079687.590  
  24047667.245   126371348.317                                                  
  24047669.532    94368226.564  
  24581142.994   129174794.671                                                  
  24581146.300    96461725.455  
  26495418.849   139234390.681                                                  
  26495420.636   103973757.337  
  27490826.890   144465274.999                                                  
  27490832.966   107879931.799  
  27655647.577   145331422.632                                                  
  27655652.205   108526724.887  
 21  8 31 21 55 59.0000000  0 18G10G12G18G23G24G32R 5R 7R15R16R21R22
                                E 3E 5E15E24E25E31
  20402295.464   107214815.594    20402295.339    83544026.707    20402295.214  
  20402293.498    80063023.429  
  24379949.625   128117496.099    24379949.697    99831819.969    24379948.767  
                                
  23571923.271   123871258.363    23571923.503    96523045.639    23571923.164  
  23571927.577    92501263.310  
  20801285.980   109311501.999    20801284.461    85177788.699    20801284.086  
  20801288.053    81628730.409  
  21700967.806   114039399.378    21700968.289    88861881.729    21700967.735  
  21700968.771    85159314.736  
  21418021.834   112552502.760    21418022.263    87703266.922    21418021.745  
  21418020.584    84048963.220  
  21099007.794   112786289.716    21099008.848    87722677.036    21099008.758  
                                
  23296300.471   124706928.788    23296301.651    96994287.825    23296301.579  
                                
  20895689.226   111660263.592    20895690.494    86846896.769    20895690.566  
                                
  21270542.319   113623463.066    21270543.034    88373810.040    21270543.999  
                                
  21309283.826   114030302.311    21309284.219    88690238.543    21309284.130  
                                
  22040965.673   117656183.496    22040968.086    91510353.813    22040967.228  
                                
  24228760.644   127323032.111                                                  
  24228762.877    95078918.237  
  24047875.133   126372440.789                                                  
  24047877.402    94369042.371  
  24581181.556   129174997.362                                                  
  24581184.861    96461876.811  
  26495144.846   139232950.750                                                  
  26495146.633   103972682.073  
  27490273.755   144462368.152                                                  
  27490279.830   107877761.104  
  27655801.180   145332229.732                                                  
  27655805.808   108527327.606  
 21  8 31 21 56  0.0000000  0 18G10G12G18G23G24G32R 5R 7R15R16R21R22
                                E 3E 5E15E24E25E31
  20402141.111   107214004.536    20402140.986    83543394.716    20402140.879  
  20402139.163    80062417.769  
  24379439.643   128114816.255    24379439.732    99829731.783    24379438.785  
                                
  23572640.301   123875026.394    23572640.551    96525981.760    23572640.212  
  23572644.608    92504077.095  
  20801571.759   109313003.794    20801570.240    85178958.924    20801569.883  
  20801573.832    81629851.882  
  21701436.904   114041864.625    21701437.404    88863802.699    21701436.850  
  21701437.887    85161155.668  
  21417711.324   112550871.063    21417711.753    87701995.467    21417711.253  
  21417710.091    84047744.743  
  21099375.395   112788254.715    21099376.449    87724205.369    21099376.342  
                                
  23295768.260   124704079.809    23295769.440    96992071.955    23295769.368  
                                
  20895769.940   111660694.998    20895771.209    86847232.304    20895771.280  
                                
  21269879.361   113619921.639    21269880.075    88371055.599    21269881.040  
                                
  21309709.520   114032580.251    21309709.913    88692010.272    21309709.824  
                                
  22040733.394   117654943.564    22040735.806    91509389.421    22040734.949  
                                
  24228564.638   127322002.096                                                  
  24228566.890    95078149.074  
  24048083.075   126373533.474                                                  
  24048085.344    94369858.338  
  24581220.242   129175200.646                                                  
  24581223.548    96462028.614  
  26494870.914   139231511.303                                                  
  26494872.701   103971607.170  
  27489720.601   144459461.417                                                  
  27489726.659   107875590.498  
  27655954.871   145333037.356                                                  
  27655959.481   108527930.713  
 21  8 31 21 56  1.0000000  0 18G10G12G18G23G24G32R 5R 7R15R16R21R22
                                E 3E 5E15E24E25E31
  20401986.919   107213194.158    20401986.794    83542763.253    20401986.669  
  20401984.954    80061812.619  
  24378929.786   128112136.901    24378929.876    99827643.966    24378928.929  
                                
  23573357.421   123878794.816    23573357.653    96528918.188    23573357.314  
  23573361.727    92506891.174  
  20801857.682   109314506.288    20801856.163    85180129.700    20801855.805  
  20801859.754    81630973.874  
  21701906.162   114044330.630    21701906.663    88865724.262    21701906.109  
  21701907.127    85162997.167  
  21417400.957   112549239.917    21417401.386    87700724.447    21417400.868  
  21417399.707    84046526.677  
  21099743.086   112790220.185    21099744.140    87725734.064    21099744.033  
                                
  23295236.103   124701231.141    23295237.282    96989856.329    23295237.211  
                                
  20895850.887   111661127.573    20895852.173    86847568.752    20895852.227  
                                
  21269216.527   113616380.964    21269217.224    88368301.743    21269218.207  
                                
  21310135.393   114034859.208    21310135.804    88693782.793    21310135.696  
                                
  22040501.311   117653704.773    22040503.741    91508425.920    22040502.884  
                                
  24228368.705   127320972.509                                                  
  24228370.956    95077380.216  
  24048291.070   126374626.548                                                  
  24048293.340    94370674.594  
  24581259.072   129175404.701                                                  
  24581262.377    96462180.996  
  26494597.107   139230072.528                                                  
  26494598.894   103970532.758  
  27489167.519   144456554.963                                                  
  27489173.595   107873420.099  
  27656108.688   145333845.730                                                  
  27656113.316   108528534.375  
 21  8 31 21 56  2.0000000  0 18G10G12G18G23G24G32R 5R 7R15R16R21R22
                                E 3E 5E15E24E25E31
  20401832.781   107212384.242    20401832.656    83542132.152    20401832.549  
  20401830.833    80061207.814  
  24378419.983   128109457.829    24378420.055    99825556.380    24378419.125  
                                
  23574074.558   123882563.413    23574074.791    96531854.762    23574074.451  
  23574078.865    92509705.393  
  20802143.675   109316009.268    20802142.156    85181300.852    20802141.799  
  20802145.748    81632096.231  
  21702375.564   114046797.201    21702376.046    88867646.265    21702375.492  
  21702376.529    85164839.083  
  21417090.608   112547609.106    21417091.037    87699453.690    21417090.537  
  21417089.375    84045308.870  
  21100110.813   112792185.916    21100111.867    87727262.968    21100111.760  
                                
  23294703.946   124698382.571    23294705.143    96987640.775    23294705.071  
                                
  20895932.030   111661561.112    20895933.316    86847905.949    20895933.370  
                                
  21268553.801   113612840.843    21268554.516    88365548.316    21268555.481  
                                
  21310561.408   114037138.980    21310561.819    88695555.949    21310561.712  
                                
  22040269.425   117652466.906    22040271.837    91507463.127    22040270.979  
                                
  24228172.824   127319943.123                                                  
  24228175.076    95076611.525  
  24048499.119   126375719.815                                                  
  24048501.389    94371490.996  
  24581298.026   129175609.317                                                  
  24581301.332    96462333.791  
  26494323.425   139228634.211                                                  
  26494325.212   103969458.686  
  27488614.455   144453648.585                                                  
  27488620.530   107871249.756  
  27656262.611   145334654.616                                                  
  27656267.221   108529138.403  
 21  8 31 21 56  3.0000000  0 18G10G12G18G23G24G32R 5R 7R15R16R21R22
                                E 3E 5E15E24E25E31
  20401678.714   107211574.595    20401678.589    83541501.256    20401678.482  
  20401676.767    80060603.208  
  24377910.180   128106778.874    24377910.251    99823468.892    24377909.322  
                                
  23574791.696   123886331.996    23574791.928    96534791.314    23574791.589  
  23574796.002    92512519.579  
  20802429.740   109317512.524    20802428.222    85182472.222    20802427.864  
  20802431.813    81633218.793  
  21702844.983   114049264.098    21702845.483    88869568.522    21702844.929  
  21702845.948    85166681.242  
  21416780.295   112545978.422    21416780.724    87698183.027    21416780.223  
  21416779.062    84044091.149  
  21100478.557   112794151.700    21100479.611    87728791.911    21100479.522  
                                
  23294171.788   124695533.856    23294172.968    96985425.114    23294172.896  
                                
  20896013.298   111661995.388    20896014.585    86848243.719    20896014.638  
                                
  21267891.146   113609301.048    21267891.861    88362795.145    21267892.826  
                                
  21310987.566   114039419.352    21310987.977    88697329.568    21310987.888  
                                
  22040037.663   117651229.725    22040040.076    91506500.880    22040039.218  
                                
  24227976.926   127318913.741                                                  
  24227979.178    95075842.831  
  24048707.151   126376813.040                                                  
  24048709.420    94372307.360  
  24581337.016   129175814.277                                                  
  24581340.322    96462486.847  
  26494049.761   139227196.112                                                  
  26494051.530   103968384.780  
  27488061.355   144450742.049                                                  
  27488067.413   107869079.300  
  27656416.589   145335463.799                                                  
  27656421.217   108529742.663  
 21  8 31 21 56  4.0000000  0 18G10G12G18G23G24G32R 5R 7R15R16R21R22
                                E 3E 5E15E24E25E31
  20401524.737   107210765.356    20401524.612    83540870.681    20401524.487  
  20401522.771    80059998.906  
  24377400.430   128104100.078    24377400.502    99821381.529    24377399.573  
                                
  23575508.851   123890100.699    23575509.101    96537727.966    23575508.762  
  23575513.158    92515333.873  
  20802715.895   109319016.218    20802714.376    85183643.925    20802714.001  
  20802717.968    81634341.670  
  21703314.509   114051731.488    21703315.010    88871491.159    21703314.456  
  21703315.474    85168523.769  
  21416470.053   112544348.022    21416470.482    87696912.583    21416469.963  
  21416468.802    84042873.643  
  21100846.337   112796117.711    21100847.392    87730321.026    21100847.284  
                                
  23293639.631   124692685.155    23293640.810    96983209.443    23293640.739  
                                
  20896094.727   111662430.548    20896095.996    86848582.177    20896096.068  
                                
  21267228.598   113605761.766    21267229.295    88360042.374    21267230.278  
                                
  21311413.832   114041700.430    21311414.243    88699103.739    21311414.136  
                                
  22039806.063   117649993.415    22039808.475    91505539.298    22039807.618  
                                
  24227781.082   127317884.498                                                  
  24227783.333    95075074.240  
  24048915.217   126377906.395                                                  
  24048917.487    94373123.826  
  24581376.114   129176019.741                                                  
  24581379.437    96462640.270  
  26493776.168   139225758.411                                                  
  26493777.955   103967311.170  
  27487508.273   144447835.531                                                  
  27487514.331   107866908.837  
  27656570.673   145336273.449                                                  
  27656575.301   108530347.252  
 21  8 31 21 56  5.0000000  0 18G10G12G18G23G24G32R 5R 7R15R16R21R22
                                E 3E 5E15E24E25E31
  20401370.831   107209956.564    20401370.688    83540240.448    20401370.581  
  20401368.865    80059394.937  
  24376890.716   128101421.601    24376890.806    99819294.407    24376889.877  
                                
  23576226.042   123893869.532    23576226.292    96540664.711    23576225.953  
  23576230.367    92518148.267  
  20803002.103   109320520.360    20803000.584    85184815.982    20803000.227  
  20803004.176    81635464.895  
  21703784.125   114054199.389    21703784.626    88873414.199    21703784.072  
  21703785.090    85170366.693  
  21416159.847   112542717.936    21416160.275    87695642.386    21416159.757  
  21416158.596    84041656.375  
  21101214.171   112798083.976    21101215.225    87731850.341    21101215.118  
                                
  23293107.491   124689836.531    23293108.671    96980993.852    23293108.599  
                                
  20896176.335   111662866.629    20896177.622    86848921.349    20896177.675  
                                
  21266566.140   113602223.060    21266566.837    88357290.047    21266567.820  
                                
  21311840.258   114043982.291    21311840.651    88700878.515    21311840.562  
                                
  22039574.624   117648757.974    22039577.036    91504578.400    22039576.178  
                                
  24227585.273   127316855.464                                                  
  24227587.524    95074305.807  
  24049123.302   126378999.912                                                  
  24049125.572    94373940.409  
  24581415.318   129176225.748                                                  
  24581418.624    96462794.104  
  26493502.665   139224321.139                                                  
  26493504.452   103966237.882  
  27486955.191   144444929.074                                                  
  27486961.249   107864738.418  
  27656724.829   145337083.585                                                  
  27656729.457   108530952.228  
 21  8 31 21 56  6.0000000  0 18G10G12G18G23G24G32R 5R 7R15R16R21R22
                                E 3E 5E15E24E25E31
  20401216.979   107209148.132    20401216.836    83539610.501    20401216.729  
  20401215.013    80058791.236  
  24376381.056   128098743.283    24376381.128    99817207.408    24376380.198  
                                
  23576943.251   123897638.458    23576943.501    96543601.535    23576943.162  
  23576947.576    92520962.723  
  20803288.418   109322024.887    20803286.900    85185988.345    20803286.524  
  20803290.491    81636588.408  
  21704253.866   114056667.747    21704254.349    88875337.595    21704253.795  
  21704254.831    85172209.943  
  21415849.694   112541088.069    21415850.123    87694372.363    21415849.605  
  21415848.443    84040439.267  
  21101582.041   112800050.417    21101583.095    87733379.795    21101583.006  
                                
  23292575.316   124686987.860    23292576.495    96978778.226    23292576.424  
                                
  20896258.104   111663303.573    20896259.390    86849261.196    20896259.462  
                                
  21265903.771   113598684.824    21265904.468    88354538.089    21265905.451  
                                
  21312266.827   114046264.860    21312267.221    88702653.849    21312267.131  
                                
  22039343.345   117647523.375    22039345.757    91503618.159    22039344.899  
                                
  24227389.464   127315826.520                                                  
  24227391.716    95073537.434  
  24049331.405   126380093.487                                                  
  24049333.674    94374757.044  
  24581454.612   129176432.204                                                  
  24581457.918    96462948.276  
  26493229.215   139222884.207                                                  
  26493231.002   103965164.845  
  27486402.091   144442022.550                                                  
  27486408.149   107862567.968  
  27656879.057   145337894.121                                                  
  27656883.685   108531557.494  
 21  8 31 21 56  7.0000000  0 18G10G12G18G23G24G32R 5R 7R15R16R21R22
                                E 3E 5E15E24E25E31
  20401063.180   107208339.894    20401063.037    83538980.707    20401062.930  
  20401061.215    80058187.686  
  24375871.396   128096065.012    24375871.467    99815120.446    24375870.538  
                                
  23577660.442   123901407.288    23577660.693    96546538.283    23577660.353  
  23577664.767    92523777.100  
  20803574.770   109323529.623    20803573.251    85187160.866    20803572.875  
  20803576.842    81637712.076  
  21704723.625   114059136.369    21704724.107    88877261.197    21704723.553  
  21704724.590    85174053.397  
  21415539.541   112539458.262    21415539.970    87693102.385    21415539.470  
  21415538.308    84039222.208  
  21101949.892   112802016.840    21101950.965    87734909.232    21101950.857  
                                
  23292043.123   124684138.989    23292044.302    96976562.444    23292044.231  
                                
  20896339.998   111663741.215    20896341.284    86849601.582    20896341.338  
                                
  21265241.456   113595146.864    21265242.153    88351786.342    21265243.135  
                                
  21312693.468   114048547.958    21312693.861    88704429.589    21312693.772  
                                
  22039112.173   117646289.389    22039114.586    91502658.390    22039113.728  
                                
  24227193.638   127314797.514                                                  
  24227195.889    95072769.027  
  24049539.490   126381186.982                                                  
  24049541.759    94375573.613  
  24581493.942   129176638.939                                                  
  24581497.248    96463102.658  
  26492955.819   139221447.445                                                  
  26492957.606   103964091.938  
  27485848.956   144439115.829                                                  
  27485855.013   107860397.365  
  27657033.356   145338704.886                                                  
  27657037.966   108532162.935  
 21  8 31 21 56  8.0000000  0 18G10G12G18G23G24G32R 5R 7R15R16R21R22
                                E 3E 5E15E24E25E31
  20400909.435   107207531.964    20400909.310    83538351.156    20400909.185  
  20400907.487    80057584.360  
  24375361.753   128093386.838    24375361.825    99813033.555    24375360.914  
                                
  23578377.616   123905176.123    23578377.866    96549475.031    23578377.526  
  23578381.940    92526591.492  
  20803861.156   109325034.684    20803859.638    85188333.638    20803859.262  
  20803863.229    81638835.983  
  21705193.455   114061605.367    21705193.938    88879185.091    21705193.384  
  21705194.420    85175897.127  
  21415229.442   112537828.640    21415229.871    87691832.550    21415229.371  
  21415228.209    84038005.275  
  21102317.780   112803983.352    21102318.834    87736438.740    21102318.727  
                                
  23291510.912   124681290.031    23291512.091    96974346.592    23291512.020  
                                
  20896422.052   111664179.681    20896423.339    86849942.614    20896423.392  
                                
  21264579.212   113591609.303    21264579.909    88349034.908    21264580.892  
                                
  21313120.234   114050831.692    21313120.627    88706205.825    21313120.538  
                                
  22038881.145   117645056.170    22038883.557    91501699.219    22038882.699  
                                
  24226997.847   127313768.550                                                  
  24227000.080    95072000.645  
  24049747.557   126382280.478                                                  
  24049749.826    94376390.187  
  24581533.361   129176846.073                                                  
  24581536.667    96463257.338  
  26492682.459   139220010.953                                                  
  26492684.246   103963019.242  
  27485295.802   144436209.009                                                  
  27485301.842   107858226.692  
  27657187.708   145339516.008                                                  
  27657192.319   108532768.646  
 21  8 31 21 56  9.0000000  0 18G10G12G18G23G24G32R 5R 7R15R16R21R22
                                E 3E 5E15E24E25E31
  20400755.797   107206724.685    20400755.672    83537722.106    20400755.565  
  20400753.849    80056981.522  
  24374852.200   128090709.130    24374852.272    99810947.038    24374851.343  
                                
  23579094.896   123908945.316    23579095.146    96552412.069    23579094.807  
  23579099.220    92529406.156  
  20804147.704   109326540.420    20804146.167    85189506.939    20804145.810  
  20804149.777    81639960.401  
  21705663.428   114064075.116    21705663.911    88881109.569    21705663.357  
  21705664.393    85177741.420  
  21414919.433   112536199.534    21414919.861    87690563.119    21414919.361  
  21414918.200    84036788.737  
  21102685.739   112805950.318    21102686.793    87737968.602    21102686.686  
                                
  23290978.737   124678441.380    23290979.916    96972130.976    23290979.862  
                                
  20896504.321   111664619.287    20896505.608    86850284.527    20896505.679  
                                
  21263917.111   113588072.491    21263917.808    88346284.051    21263918.791  
                                
  21313547.197   114053116.394    21313547.590    88707982.813    21313547.500  
                                
  22038650.330   117643824.125    22038652.743    91500740.971    22038651.885  
                                
  24226802.109   127312739.997                                                  
  24226804.361    95071232.569  
  24049955.731   126383374.356                                                  
  24049958.000    94377207.039  
  24581572.923   129177053.952                                                  
  24581576.229    96463412.575  
  26492409.241   139218575.107                                                  
  26492411.028   103961947.019  
  27484742.702   144433302.452                                                  
  27484748.742   107856056.229  
  27657342.204   145340327.823                                                  
  27657346.814   108533374.882  
 21  8 31 21 56 10.0000000  0 18G10G12G18G23G24G32R 5R 7R15R16R21R22
                                E 3E 5E15E24E25E31
  20400602.302   107205918.032    20400602.177    83537093.542    20400602.070  
  20400600.355    80056379.151  
  24374342.737   128088031.901    24374342.808    99808860.890    24374341.879  
                                
  23579812.212   123912714.841    23579812.462    96555349.357    23579812.123  
  23579816.537    92532221.061  
  20804434.359   109328046.781    20804432.840    85190680.729    20804432.465  
  20804436.432    81641085.281  
  21706133.527   114066545.546    21706134.027    88883034.577    21706133.473  
  21706134.509    85179586.217  
  21414609.512   112534570.921    21414609.941    87689294.067    21414609.441  
  21414608.279    84035572.565  
  21103053.769   112807917.706    21103054.823    87739498.792    21103054.734  
                                
  23290446.651   124675592.978    23290447.812    96969915.556    23290447.759  
                                
  20896586.787   111665059.978    20896588.073    86850627.287    20896588.127  
                                
  21263255.153   113584536.370    21263255.868    88343533.735    21263256.833  
                                
  21313974.320   114055402.029    21313974.713    88709760.525    21313974.606  
                                
  22038419.713   117642593.102    22038422.125    91499783.504    22038421.267  
                                
  24226606.462   127311711.798                                                  
  24226608.695    95070464.758  
  24050163.941   126384468.556                                                  
  24050166.210    94378024.143  
  24581612.628   129177262.539                                                  
  24581615.934    96463568.339  
  26492136.095   139217139.854                                                  
  26492137.882   103960875.246  
  27484189.638   144430396.110                                                  
  27484195.696   107853885.912  
  27657496.807   145341140.311                                                  
  27657501.417   108533981.610  
 21  8 31 21 56 11.0000000  0 18G10G12G18G23G24G32R 5R 7R15R16R21R22
                                E 3E 5E15E24E25E31
  20400448.915   107205111.939    20400448.790    83536465.418    20400448.682  
  20400446.967    80055777.196  
  24373833.344   128085355.030    24373833.416    99806775.021    24373832.487  
                                
  23580529.564   123916484.648    23580529.814    96558286.877    23580529.475  
  23580533.889    92535036.168  
  20804721.103   109329553.725    20804719.584    85191854.970    20804719.209  
  20804723.176    81642210.594  
  21706603.768   114069016.610    21706604.250    88884960.079    21706603.696  
  21706604.733    85181431.494  
  21414299.681   112532942.721    21414300.110    87688025.341    21414299.610  
  21414298.448    84034356.704  
  21103421.907   112809885.466    21103422.961    87741029.268    21103422.854  
                                
  23289914.565   124672744.780    23289915.744    96967700.298    23289915.673  
                                
  20896669.449   111665501.685    20896670.735    86850970.836    20896670.789  
                                
  21262593.302   113581000.891    21262593.999    88340783.916    21262594.982  
                                
  21314401.622   114057688.560    21314402.015    88711538.938    21314401.926  
                                
  22038189.310   117641363.117    22038191.722    91498826.854    22038190.864  
                                
  24226410.849   127310683.890                                                  
  24226413.101    95069697.165  
  24050372.222   126385563.023                                                  
  24050374.491    94378841.433  
  24581652.440   129177471.771                                                  
  24581655.746    96463724.580  
  26491863.093   139215705.140                                                  
  26491864.879   103959803.866  
  27483636.628   144427489.917                                                  
  27483642.667   107851715.701  
  27657651.535   145341953.402                                                  
  27657656.145   108534588.784  
 21  8 31 21 56 12.0000000  0 18G10G12G18G23G24G32R 5R 7R15R16R21R22
                                E 3E 5E15E24E25E31
  20400295.545   107204306.046    20400295.420    83535837.454    20400295.312  
  20400293.597    80055175.393  
  24373323.970   128082678.196    24373324.042    99804689.182    24373323.112  
                                
  23581246.934   123920254.349    23581247.166    96561224.307    23581246.845  
  23581251.258    92537851.213  
  20805007.919   109331060.893    20805006.400    85193029.386    20805006.025  
  20805009.992    81643336.079  
  21707074.045   114071487.964    21707074.545    88886885.812    21707073.973  
  21707075.010    85183276.984  
  21413989.868   112531314.604    21413990.297    87686756.682    21413989.779  
  21413988.617    84033140.907  
  21103790.009   112811853.217    21103791.081    87742559.739    21103790.974  
                                
  23289382.461   124669896.404    23289383.641    96965484.892    23289383.587  
                                
  20896752.236   111665944.062    20896753.522    86851314.910    20896753.594  
                                
  21261931.505   113577465.693    21261932.202    88338034.322    21261933.185  
                                
  21314828.995   114059975.615    21314829.388    88713317.758    21314829.299  
                                
  22037959.032   117640133.811    22037961.444    91497870.729    22037960.586  
                                
  24226215.255   127309655.935                                                  
  24226217.489    95068929.541  
  24050580.467   126386657.419                                                  
  24050582.737    94379658.682  
  24581692.306   129177681.299                                                  
  24581695.612    96463881.046  
  26491590.107   139214270.603                                                  
  26491591.894   103958732.628  
  27483083.528   144424583.525                                                  
  27483089.550   107849545.370  
  27657806.298   145342766.723                                                  
  27657810.926   108535196.143  
 21  8 31 21 56 13.0000000  0 18G10G12G18G23G24G32R 5R 7R15R16R21R22
                                E 3E 5E15E24E25E31
  20400142.300   107203500.645    20400142.175    83535209.869    20400142.050  
  20400140.334    80054573.961  
  24372814.631   128080001.683    24372814.703    99802603.596    24372813.792  
                                
  23581964.322   123924024.261    23581964.572    96564161.892    23581964.232  
  23581968.646    92540666.403  
  20805294.824   109332568.560    20805293.305    85194204.196    20805292.930  
  20805296.897    81644461.936  
  21707544.447   114073959.885    21707544.929    88888811.981    21707544.375  
  21707545.412    85185122.897  
  21413680.109   112529686.831    21413680.537    87685488.285    21413680.019  
  21413678.858    84031925.362  
  21104158.182   112813821.252    21104159.236    87744090.435    21104159.129  
                                
  23288850.375   124667048.074    23288851.555    96963269.529    23288851.501  
                                
  20896835.184   111666387.428    20896836.488    86851659.752    20896836.542  
                                
  21261269.815   113573931.094    21261270.512    88335285.189    21261271.477  
                                
  21315256.547   114062263.493    21315256.940    88715097.219    21315256.851  
                                
  22037728.896   117638905.417    22037731.309    91496915.312    22037730.451  
                                
  24226019.679   127308628.209                                                  
  24226021.912    95068162.079  
  24050788.785   126387752.007                                                  
  24050791.054    94380476.068  
  24581732.279   129177891.403                                                  
  24581735.603    96464037.948  
  26491317.230   139212836.553                                                  
  26491319.017   103957661.739  
  27482530.482   144421677.239                                                  
  27482536.521   107847375.078  
  27657961.169   145343580.589                                                  
  27657965.779   108535803.896  
 21  8 31 21 56 14.0000000  0 18G10G12G18G23G24G32R 5R 7R15R16R21R22
                                E 3E 5E15E24E25E31
  20399989.073   107202695.532    20399988.948    83534582.506    20399988.841  
  20399987.125    80053972.736  
  24372305.329   128077325.240    24372305.400    99800518.049    24372304.471  
                                
  23582681.709   123927794.185    23582681.959    96567099.504    23582681.620  
  23582686.034    92543481.593  
  20805581.765   109334076.538    20805580.246    85195379.237    20805579.871  
  20805583.855    81645588.015  
  21708014.902   114076432.158    21708015.385    88890738.425    21708014.831  
  21708015.867    85186969.072  
  21413370.385   112528059.204    21413370.814    87684220.009    21413370.313  
  21413369.134    84030709.926  
  21104526.355   112815789.361    21104527.410    87745621.182    21104527.302  
                                
  23288318.254   124664199.618    23288319.433    96961054.056    23288319.361  
                                
  20896918.311   111666831.590    20896919.597    86852005.214    20896919.669  
                                
  21260608.215   113570396.847    21260608.912    88332536.340    21260609.877  
                                
  21315684.207   114064551.982    21315684.600    88716877.148    21315684.510  
                                
  22037498.922   117637677.757    22037501.334    91495960.456    22037500.477  
                                
  24225824.102   127307600.507                                                  
  24225826.354    95067394.638  
  24050997.066   126388846.585                                                  
  24050999.335    94381293.446  
  24581772.341   129178101.894                                                  
  24581775.647    96464195.120  
  26491044.370   139211402.740                                                  
  26491046.157   103956591.048  
  27481977.417   144418770.814                                                  
  27481983.439   107845204.705  
  27658116.111   145344394.769                                                  
  27658120.740   108536411.879  
 21  8 31 21 56 15.0000000  0 18G10G12G18G23G24G32R 5R 7R15R16R21R22
                                E 3E 5E15E24E25E31
  20399835.989   107201891.006    20399835.864    83533955.605    20399835.757  
  20399834.042    80053371.954  
  24371796.097   128074649.246    24371796.169    99798432.859    24371795.239  
                                
  23583399.133   123931564.382    23583399.383    96570037.329    23583399.043  
  23583403.457    92546296.997  
  20805868.848   109335585.117    20805867.329    85196554.751    20805866.954  
  20805870.921    81646714.545  
  21708485.483   114078905.091    21708485.983    88892665.386    21708485.412  
  21708486.448    85188815.745  
  21413060.750   112526432.049    21413061.179    87682952.094    21413060.679  
  21413059.500    84029494.841  
  21104894.600   112817757.856    21104895.654    87747152.231    21104895.565  
                                
  23287786.186   124661351.348    23287787.365    96958838.735    23287787.293  
                                
  20897001.616   111667276.841    20897002.920    86852351.523    20897002.974  
                                
  21259946.703   113566863.295    21259947.418    88329788.026    21259948.383  
                                
  21316112.045   114066841.394    21316112.438    88718657.801    21316112.348  
                                
  22037269.144   117636451.140    22037271.557    91495006.420    22037270.699  
                                
  24225628.597   127306573.118                                                  
  24225630.831    95066627.435  
  24051205.419   126389941.466                                                  
  24051207.688    94382111.050  
  24581812.511   129178313.039                                                  
  24581815.835    96464352.800  
  26490771.617   139209969.503                                                  
  26490773.404   103955520.776  
  27481424.389   144415864.583                                                  
  27481430.411   107843034.461  
  27658271.161   145345209.581                                                  
  27658275.771   108537020.342  
 21  8 31 21 56 16.0000000  0 18G10G12G18G23G24G32R 5R 7R15R16R21R22
                                E 3E 5E15E24E25E31
  20399682.941   107201086.727    20399682.816    83533328.891    20399682.691  
  20399680.975    80052771.356  
  24371286.866   128071973.270    24371286.937    99796347.694    24371286.008  
                                
  23584116.574   123935334.541    23584116.824    96572975.119    23584116.485  
  23584120.898    92549112.371  
  20806155.968   109337093.952    20806154.449    85197730.464    20806154.074  
  20806158.041    81647841.279  
  21708956.135   114081378.367    21708956.636    88894592.612    21708956.082  
  21708957.100    85190662.668  
  21412751.134   112524805.000    21412751.563    87681684.261    21412751.062  
  21412749.901    84028279.837  
  21105262.863   112819726.401    21105263.917    87748683.320    21105263.810  
                                
  23287254.064   124658502.942    23287255.243    96956623.306    23287255.190  
                                
  20897085.082   111667722.826    20897086.387    86852698.400    20897086.440  
                                
  21259285.299   113563330.086    21259285.996    88327039.975    21259286.979  
                                
  21316539.972   114069131.376    21316540.365    88720438.899    21316540.276  
                                
  22037039.492   117635225.235    22037041.904    91494052.939    22037041.046  
                                
  24225433.092   127305545.741                                                  
  24225435.344    95065860.238  
  24051413.754   126391036.303                                                  
  24051416.023    94382928.625  
  24581852.770   129178524.545                                                  
  24581856.076    96464510.740  
  26490498.936   139208536.491                                                  
  26490500.722   103954450.674  
  27480871.289   144412958.200                                                  
  27480877.311   107840864.127  
  27658426.282   145346024.697                                                  
  27658430.892   108537629.035  
 21  8 31 21 56 17.0000000  0 18G10G12G18G23G24G32R 5R 7R15R16R21R22
                                E 3E 5E15E24E25E31
  20399529.946   107200282.735    20399529.821    83532702.402    20399529.714  
  20399527.981    80052170.977  
  24370777.670   128069297.467    24370777.741    99794262.655    24370776.830  
                                
  23584834.015   123939104.694    23584834.248    96575912.899    23584833.926  
  23584838.322    92551927.750  
  20806443.141   109338603.101    20806441.622    85198906.426    20806441.265  
  20806445.232    81648968.240  
  21709426.841   114083852.007    21709427.324    88896520.126    21709426.770  
  21709427.806    85192509.873  
  21412441.535   112523178.121    21412441.964    87680416.566    21412441.464  
  21412440.284    84027064.960  
  21105631.143   112821695.069    21105632.198    87750214.503    21105632.091  
                                
  23286721.960   124655654.484    23286723.140    96954407.841    23286723.086  
                                
  20897168.673   111668169.578    20897169.978    86853045.876    20897170.032  
                                
  21258623.931   113559797.253    21258624.628    88324292.218    21258625.611  
                                
  21316968.024   114071421.974    21316968.435    88722220.473    21316968.346  
                                
  22036809.964   117634000.055    22036812.376    91493100.019    22036811.519  
                                
  24225237.605   127304518.391                                                  
  24225239.839    95065093.058  
  24051622.089   126392131.155                                                  
  24051624.358    94383746.209  
  24581893.082   129178736.424                                                  
  24581896.388    96464668.957  
  26490226.290   139207103.764                                                  
  26490228.077   103953380.781  
  27480318.225   144410051.729                                                  
  27480324.247   107838693.693  
  27658581.457   145346840.148                                                  
  27658586.067   108538237.973  
 21  8 31 21 56 18.0000000  0 18G10G12G18G23G24G32R 5R 7R15R16R21R22
                                E 3E 5E15E24E25E31
  20399377.059   107199479.312    20399376.934    83532076.358    20399376.827  
  20399375.094    80051571.014  
  24370268.564   128066622.021    24370268.635    99792177.902    24370267.706  
                                
  23585551.492   123942875.096    23585551.742    96578850.872    23585551.403  
  23585555.817    92554743.319  
  20806730.439   109340112.825    20806728.920    85200082.832    20806728.563  
  20806732.530    81650095.627  
  21709897.672   114086326.279    21709898.172    88898448.128    21709897.618  
  21709898.637    85194357.543  
  21412132.026   112521551.645    21412132.455    87679149.179    21412131.954  
  21412130.793    84025850.383  
  21105999.478   112823664.095    21106000.532    87751745.963    21106000.425  
                                
  23286189.874   124652806.189    23286191.054    96952192.498    23286191.000  
                                
  20897252.497   111668617.393    20897253.784    86853394.176    20897253.855  
                                
  21257962.706   113556265.046    21257963.403    88321544.949    21257964.386  
                                
  21317396.238   114073713.430    21317396.631    88724002.711    21317396.541  
                                
  22036580.651   117632775.885    22036583.063    91492147.884    22036582.205  
                                
  24225042.154   127303491.328                                                  
  24225044.387    95064326.096  
  24051830.495   126393226.267                                                  
  24051832.746    94384563.984  
  24581933.520   129178948.946                                                  
  24581936.844    96464827.663  
  26489953.752   139205671.566                                                  
  26489955.556   103952311.277  
  27479765.161   144407145.395                                                  
  27479771.183   107836523.392  
  27658736.738   145347656.177                                                  
  27658741.349   108538847.352  
 21  8 31 21 56 19.0000000  0 18G10G12G18G23G24G32R 5R 7R15R16R21R22
                                E 3E 5E15E24E25E31
  20399224.243   107198676.215    20399224.118    83531450.568    20399224.011  
  20399222.296    80050971.298  
  24369759.457   128063946.699    24369759.529    99790093.233    24369758.617  
                                
  23586269.005   123946645.622    23586269.255    96581788.910    23586268.916  
  23586273.329    92557558.923  
  20807017.791   109341622.903    20807016.272    85201259.515    20807015.897  
  20807019.881    81651223.281  
  21710368.610   114088800.981    21710369.093    88900376.465    21710368.539  
  21710369.575    85196205.529  
  21411822.552   112519925.391    21411822.981    87677881.971    21411822.481  
  21411821.319    84024635.973  
  21106367.848   112825633.285    21106368.902    87753277.569    21106368.795  
                                
  23285657.788   124649957.856    23285658.986    96949977.128    23285658.914  
                                
  20897336.428   111669066.010    20897337.732    86853743.101    20897337.786  
                                
  21257301.534   113552733.263    21257302.231    88318798.011    21257303.214  
                                
  21317824.576   114076005.531    21317824.987    88725785.466    21317824.880  
                                
  22036351.463   117631552.497    22036353.875    91491196.362    22036353.017  
                                
  24224846.720   127302464.359                                                  
  24224848.954    95063559.208  
  24052038.884   126394321.427                                                  
  24052041.153    94385381.798  
  24581974.065   129179161.899                                                  
  24581977.371    96464986.690  
  26489681.267   139204239.669                                                  
  26489683.054   103951242.009  
  27479212.079   144404238.985                                                  
  27479218.083   107834353.050  
  27658892.092   145348472.611                                                  
  27658896.702   108539457.025  
 21  8 31 21 56 20.0000000  0 18G10G12G18G23G24G32R 5R 7R15R16R21R22
                                E 3E 5E15E24E25E31
  20399071.445   107197873.300    20399071.320    83530824.920    20399071.213  
  20399069.497    80050371.717  
  24369250.369   128061271.401    24369250.422    99788008.585    24369249.511  
                                
  23586986.464   123950415.951    23586986.732    96584726.826    23586986.393  
  23586990.806    92560374.435  
  20807305.196   109343133.158    20807303.677    85202436.337    20807303.302  
  20807307.287    81652351.069  
  21710839.584   114091275.910    21710840.066    88902304.981    21710839.512  
  21710840.549    85198053.690  
  21411513.096   112518299.164    21411513.525    87676614.778    21411513.025  
  21411511.863    84023421.580  
  21106736.217   112827602.409    21106737.272    87754809.111    21106737.164  
                                
  23285125.667   124647109.328    23285126.846    96947761.609    23285126.793  
                                
  20897420.519   111669515.272    20897421.806    86854092.529    20897421.878  
                                
  21256640.452   113549201.775    21256641.149    88316051.298    21256642.114  
                                
  21318253.022   114078298.137    21318253.415    88727568.602    21318253.325  
                                
  22036122.400   117630329.773    22036124.812    91490245.352    22036123.972  
                                
  24224651.287   127301437.285                                                  
  24224653.520    95062792.237  
  24052247.272   126395416.466                                                  
  24052249.541    94386199.522  
  24582014.627   129179375.101                                                  
  24582017.933    96465145.898  
  26489408.818   139202807.925                                                  
  26489410.605   103950172.849  
  27478658.979   144401332.359                                                  
  27478664.983   107832182.508  
  27659047.499   145349289.265                                                  
  27659052.127   108540066.842  
 21  8 31 21 56 21.0000000  0 18G10G12G18G23G24G32R 5R 7R15R16R21R22
                                E 3E 5E15E24E25E31
  20398918.737   107197070.820    20398918.611    83530199.613    20398918.504  
  20398916.789    80049772.462  
  24368741.298   128058596.323    24368741.370    99785924.113    24368740.458  
                                
  23587703.977   123954186.444    23587704.227    96587664.875    23587703.888  
  23587708.301    92563190.074  
  20807592.673   109344643.895    20807591.154    85203613.529    20807590.779  
  20807594.746    81653479.210  
  21711310.629   114093751.384    21711311.130    88904233.919    21711310.576  
  21711311.594    85199902.252  
  21411203.712   112516673.253    21411204.141    87675347.835    21411203.623  
  21411202.461    84022207.428  
  21107104.641   112829571.761    21107105.677    87756340.831    21107105.570  
                                
  23284593.527   124644260.845    23284594.724    96945546.117    23284594.653  
                                
  20897504.754   111669965.458    20897506.058    86854442.674    20897506.112  
                                
  21255979.423   113545670.831    21255980.120    88313305.010    21255981.103  
                                
  21318681.574   114080591.544    21318681.985    88729352.360    21318681.896  
                                
  22035893.515   117629107.910    22035895.928    91489295.010    22035895.070  
                                
  24224455.871   127300410.419                                                  
  24224458.123    95062025.419  
  24052455.678   126396511.667                                                  
  24052457.948    94387017.369  
  24582055.315   129179588.864                                                  
  24582058.639    96465305.522  
  26489136.440   139201376.625                                                  
  26489138.227   103949104.021  
  27478105.879   144398425.790                                                  
  27478111.883   107830012.014  
  27659202.995   145350106.380                                                  
  27659207.605   108540677.036  
 21  8 31 21 56 22.0000000  0 18G10G12G18G23G24G32R 5R 7R15R16R21R22
                                E 3E 5E15E24E25E31
  20398766.064   107196268.577    20398765.956    83529574.489    20398765.831  
  20398764.116    80049173.387  
  24368232.299   128055921.373    24368232.353    99783839.734    24368231.441  
                                
  23588421.472   123957956.882    23588421.722    96590602.879    23588421.382  
  23588425.796    92566005.660  
  20807880.203   109346154.863    20807878.685    85204790.905    20807878.309  
  20807882.294    81654607.532  
  21711781.764   114096227.137    21711782.246    88906163.077    21711781.692  
  21711782.729    85201751.033  
  21410894.328   112515047.428    21410894.757    87674080.961    21410894.239  
  21410893.077    84020993.342  
  21107473.047   112831541.124    21107474.101    87757872.555    21107473.994  
                                
  23284061.388   124641412.201    23284062.585    96943330.505    23284062.514  
                                
  20897589.149   111670416.373    20897590.454    86854793.386    20897590.507  
                                
  21255318.484   113542140.181    21255319.180    88310558.952    21255320.163  
                                
  21319110.270   114082885.498    21319110.663    88731136.540    21319110.574  
                                
  22035664.756   117627886.760    22035667.169    91488345.226    22035666.311  
                                
  24224260.455   127299383.497                                                  
  24224262.707    95061258.561  
  24052664.085   126397606.812                                                  
  24052666.354    94387835.167  
  24582096.039   129179802.923                                                  
  24582099.362    96465465.371  
  26488864.117   139199945.518                                                  
  26488865.903   103948035.339  
  27477552.744   144395519.037                                                  
  27477558.748   107827841.391  
  27659358.527   145350923.767                                                  
  27659363.137   108541287.431  
 21  8 31 21 56 23.0000000  0 18G10G12G18G23G24G32R 5R 7R15R16R21R22
                                E 3E 5E15E24E25E31
  20398613.569   107195467.091    20398613.444    83528949.956    20398613.319  
  20398611.604    80048574.877  
  24367723.372   128053246.970    24367723.425    99781755.788    24367722.514  
                                
  23589139.056   123961727.809    23589139.324    96593541.261    23589138.967  
  23589143.380    92568821.595  
  20808167.877   109347666.608    20808166.358    85205968.888    20808165.983  
  20808169.950    81655736.431  
  21712253.042   114098703.735    21712253.524    88908092.892    21712252.970  
  21712254.006    85203600.445  
  21410585.051   112513422.234    21410585.480    87672814.575    21410584.962  
  21410583.800    84019779.721  
  21107841.542   112833511.042    21107842.596    87759404.716    21107842.489  
                                
  23283529.302   124638563.910    23283530.499    96941115.163    23283530.428  
                                
  20897673.759   111670868.565    20897675.064    86855145.088    20897675.135  
                                
  21254657.705   113538610.384    21254658.402    88307813.561    21254659.367  
                                
  21319539.145   114085180.527    21319539.556    88732921.558    21319539.448  
                                
  22035436.211   117626666.841    22035438.624    91487396.403    22035437.784  
                                
  24224065.147   127298357.094                                                  
  24224067.381    95060492.096  
  24052872.563   126398702.418                                                  
  24052874.832    94388653.319  
  24582136.941   129180017.839                                                  
  24582140.247    96465625.860  
  26488591.918   139198515.162                                                  
  26488593.722   103946967.214  
  27476999.644   144392612.642                                                  
  27477005.648   107825671.040  
  27659514.237   145351741.971                                                  
  27659518.848   108541898.425  
 21  8 31 21 56 24.0000000  0 18G10G12G18G23G24G32R 5R 7R15R16R21R22
                                E 3E 5E15E24E25E31
  20398461.164   107194666.212    20398461.039    83528325.895    20398460.914  
  20398459.199    80047976.818  
  24367214.515   128050572.974    24367214.587    99779672.157    24367213.676  
                                
  23589856.676   123965499.007    23589856.944    96596479.857    23589856.605  
  23589861.000    92571637.740  
  20808455.675   109349178.967    20808454.156    85207147.352    20808453.781  
  20808457.766    81656865.799  
  21712724.426   114101180.993    21712724.927    88910023.230    21712724.355  
  21712725.391    85205450.354  
  21410275.881   112511797.512    21410276.310    87671548.561    21410275.792  
  21410274.630    84018566.455  
  21108210.144   112835481.405    21108211.198    87760937.214    21108211.091  
                                
  23282997.270   124635715.804    23282998.467    96938899.983    23282998.395  
                                
  20897758.601   111671321.849    20897759.906    86855497.645    20897759.959  
                                
  21253997.034   113535081.298    21253997.730    88305068.714    21253998.695  
                                
  21319968.216   114087476.492    21319968.627    88734707.313    21319968.519  
                                
  22035207.899   117625447.974    22035210.311    91486448.400    22035209.453  
                                
  24223869.874   127297331.017                                                  
  24223872.126    95059725.868  
  24053081.112   126399798.340                                                  
  24053083.382    94389471.698  
  24582177.968   129180233.439                                                  
  24582181.274    96465786.860  
  26488319.844   139197085.370                                                  
  26488321.649   103945899.516  
  27476446.597   144389706.447                                                  
  27476452.601   107823500.836  
  27659670.055   145352560.820                                                  
  27659674.665   108542509.899  
 21  8 31 21 56 25.0000000  0 18G10G12G18G23G24G32R 5R 7R15R16R21R22
                                E 3E 5E15E24E25E31
  20398308.831   107193865.677    20398308.706    83527702.102    20398308.581  
  20398306.865    80047379.016  
  24366705.695   128047899.187    24366705.766    99777588.691    24366704.855  
                                
  23590574.332   123969270.269    23590574.600    96599418.496    23590574.260  
  23590578.674    92574453.954  
  20808743.545   109350691.702    20808742.026    85208326.109    20808741.651  
  20808745.636    81657995.436  
  21713195.936   114103658.710    21713196.419    88911953.916    21713195.865  
  21713196.901    85207300.593  
  21409966.747   112510172.992    21409967.176    87670282.704    21409966.658  
  21409965.496    84017353.344  
  21108578.782   112837451.912    21108579.836    87762469.828    21108579.729  
                                
  23282465.202   124632867.664    23282466.399    96936684.764    23282466.345  
                                
  20897843.569   111671775.963    20897844.873    86855850.840    20897844.945  
                                
  21253336.452   113531552.626    21253337.148    88302324.196    21253338.131  
                                
  21320397.376   114089773.141    21320397.787    88736493.591    21320397.680  
                                
  22034979.711   117624229.938    22034982.124    91485501.041    22034981.266  
                                
  24223674.637   127296305.043                                                  
  24223676.871    95058959.721  
  24053289.679   126400894.324                                                  
  24053291.949    94390290.128  
  24582219.085   129180449.485                                                  
  24582222.391    96465948.195  
  26488047.824   139195655.918                                                  
  26488049.629   103944832.071  
  27475893.569   144386800.216                                                  
  27475899.573   107821330.587  
  27659825.945   145353380.033                                                  
  27659830.537   108543121.667  
 21  8 31 21 56 26.0000000  0 18G10G12G18G23G24G32R 5R 7R15R16R21R22
                                E 3E 5E15E24E25E31
  20398156.516   107193065.330    20398156.390    83527078.452    20398156.283  
  20398154.568    80046781.352  
  24366196.892   128045225.338    24366196.964    99775505.171    24366196.053  
                                
  23591291.987   123973041.437    23591292.238    96602357.050    23591291.898  
  23591296.330    92577270.077  
  20809031.433   109352204.627    20809029.914    85209505.007    20809029.539  
  20809033.524    81659125.216  
  21713667.464   114106136.667    21713667.964    88913884.791    21713667.393  
  21713668.429    85209151.013  
  21409657.631   112508548.537    21409658.060    87669016.897    21409657.541  
  21409656.380    84016140.275  
  21108947.402   112839422.388    21108948.438    87764002.423    21108948.331  
                                
  23281933.116   124630019.355    23281934.295    96934469.412    23281934.241  
                                
  20897928.679   111672230.739    20897929.983    86856204.554    20897930.055  
                                
  21252675.941   113528024.240    21252676.638    88299579.898    21252677.603  
                                
  21320826.661   114092070.289    21320827.072    88738280.259    21320826.965  
                                
  22034751.649   117623012.514    22034754.061    91484554.154    22034753.222  
                                
  24223479.383   127295278.987                                                  
  24223481.616    95058193.512  
  24053498.211   126401990.191                                                  
  24053500.480    94391108.474  
  24582260.237   129180665.798                                                  
  24582263.561    96466109.725  
  26487775.839   139194226.624                                                  
  26487777.644   103943764.741  
  27475340.505   144383893.756                                                  
  27475346.491   107819160.175  
  27659981.888   145354199.504                                                  
  27659986.480   108543733.605  
 21  8 31 21 56 27.0000000  0 18G10G12G18G23G24G32R 5R 7R15R16R21R22
                                E 3E 5E15E24E25E31
  20398004.271   107192265.320    20398004.164    83526455.068    20398004.039  
  20398002.324    80046183.944  
  24365688.108   128042551.736    24365688.179    99773421.855    24365687.268  
                                
  23592009.625   123976812.647    23592009.875    96605295.657    23592009.536  
  23592013.950    92580086.233  
  20809319.410   109353717.913    20809317.891    85210684.193    20809317.516  
  20809321.501    81660255.265  
  21714139.099   114108615.034    21714139.581    88915815.989    21714139.028  
  21714140.064    85211001.750  
  21409348.514   112506924.276    21409348.943    87667751.236    21409348.443  
  21409347.282    84014927.357  
  21109316.058   112841393.023    21109317.094    87765535.134    21109316.987  
                                
  23281401.012   124627170.962    23281402.209    96932253.997    23281402.138  
                                
  20898013.932   111672686.335    20898015.236    86856558.905    20898015.308  
                                
  21252015.502   113524496.302    21252016.199    88296835.947    21252017.164  
                                
  21321256.054   114094368.068    21321256.465    88740067.421    21321256.358  
                                
  22034523.730   117621795.880    22034526.142    91483607.887    22034525.302  
                                
  24223284.146   127294253.004                                                  
  24223286.379    95057427.356  
  24053706.760   126403086.117                                                  
  24053709.012    94391926.858  
  24582301.479   129180882.542                                                  
  24582304.802    96466271.582  
  26487503.927   139192797.647                                                  
  26487505.731   103942697.646  
  27474787.387   144380987.223                                                  
  27474793.373   107816989.729  
  27660137.902   145355019.348                                                  
  27660142.494   108544345.824  
 21  8 31 21 56 28.0000000  0 18G10G12G18G23G24G32R 5R 7R15R16R21R22
                                E 3E 5E15E24E25E31
  20397852.135   107191465.771    20397852.009    83525832.042    20397851.884  
  20397850.169    80045586.873  
  24365179.394   128039878.356    24365179.466    99771338.705    24365178.555  
                                
  23592727.281   123980584.023    23592727.549    96608234.390    23592727.209  
  23592731.623    92582902.510  
  20809607.459   109355231.669    20809605.940    85211863.743    20809605.565  
  20809609.550    81661385.667  
  21714610.805   114111093.942    21714611.306    88917747.605    21714610.734  
  21714611.788    85212852.874  
  21409039.505   112505300.341    21409039.934    87666485.832    21409039.434  
  21409038.255    84013714.675  
  21109684.767   112843363.924    21109685.803    87767068.057    21109685.696  
                                
  23280868.926   124624322.709    23280870.123    96930038.694    23280870.052  
                                
  20898099.364   111673142.881    20898100.668    86856913.996    20898100.740  
                                
  21251355.170   113520968.910    21251355.867    88294092.419    21251356.832  
                                
  21321685.607   114096666.636    21321686.018    88741855.195    21321685.911  
                                
  22034295.971   117620580.131    22034298.383    91482662.305    22034297.544  
                                
  24223088.962   127293227.235                                                  
  24223091.214    95056661.358  
  24053915.345   126404182.209                                                  
  24053917.597    94392745.371  
  24582342.828   129181099.823                                                  
  24582346.134    96466433.840  
  26487232.067   139191369.096                                                  
  26487233.872   103941630.877  
  27474234.323   144378080.746                                                  
  27474240.309   107814819.301  
  27660294.006   145355839.687                                                  
  27660298.598   108544958.408  
 21  8 31 21 56 29.0000000  0 18G10G12G18G23G24G32R 5R 7R15R16R21R22
                                E 3E 5E15E24E25E31
  20397700.123   107190666.920    20397699.998    83525209.564    20397699.873  
  20397698.157    80044990.331  
  24364670.753   128037205.502    24364670.824    99769255.964    24364669.931  
                                
  23593445.026   123984355.808    23593445.294    96611173.457    23593444.954  
  23593449.368    92585719.109  
  20809895.668   109356746.132    20809894.150    85213043.842    20809893.774  
  20809897.759    81662516.597  
  21715082.673   114113573.633    21715083.155    88919679.821    21715082.601  
  21715083.638    85214704.585  
  21408730.586   112503676.980    21408731.015    87665220.874    21408730.514  
  21408729.353    84012502.426  
  21110053.530   112845335.299    21110054.584    87768601.349    21110054.477  
                                
  23280336.894   124621474.780    23280338.091    96927823.652    23280338.019  
                                
  20898185.028   111673600.602    20898186.350    86857270.001    20898186.404  
                                
  21250694.981   113517442.290    21250695.678    88291349.488    21250696.643  
                                
  21322115.357   114098966.228    21322115.750    88743643.772    21322115.661  
                                
  22034068.463   117619365.539    22034070.857    91481717.622    22034070.017  
                                
  24222893.850   127292201.883                                                  
  24222896.084    95055895.675  
  24054124.002   126405278.707                                                  
  24054126.271    94393564.182  
  24582384.320   129181317.914                                                  
  24582387.643    96466596.691  
  26486960.369   139189941.232                                                  
  26486962.156   103940564.613  
  27473681.295   144375174.594                                                  
  27473687.263   107812649.128  
  27660450.253   145356660.734                                                  
  27660454.845   108545571.556  
 21  8 31 21 56 30.0000000  0 18G10G12G18G23G24G32R 5R 7R15R16R21R22
                                E 3E 5E15E24E25E31
  20397548.218   107189868.677    20397548.093    83524587.554    20397547.968  
  20397546.253    80044394.245  
  24364162.218   128034533.118    24364162.290    99767173.589    24364161.378  
                                
  23594162.842   123988127.900    23594163.111    96614112.747    23594162.771  
  23594167.185    92588535.933  
  20810183.967   109358261.232    20810182.448    85214224.439    20810182.073  
  20810186.058    81663648.007  
  21715554.683   114116054.002    21715555.165    88921612.576    21715554.612  
  21715555.648    85216556.811  
  21408421.755   112502054.098    21408422.184    87663956.290    21408421.666  
  21408420.505    84011290.531  
  21110422.418   112847307.071    21110423.455    87770134.945    21110423.347  
                                
  23279804.915   124618627.080    23279806.112    96925608.781    23279806.041  
                                
  20898270.871   111674059.409    20898272.193    86857626.851    20898272.264  
                                
  21250034.935   113513916.411    21250035.614    88288607.144    21250036.597  
                                
  21322545.232   114101266.768    21322545.643    88745433.078    21322545.536  
                                
  22033841.115   117618152.001    22033843.528    91480773.759    22033842.670  
                                
  24222698.810   127291176.910                                                  
  24222701.044    95055130.273  
  24054332.730   126406375.539                                                  
  24054334.981    94394383.243  
  24582425.972   129181536.686                                                  
  24582429.278    96466760.069  
  26486688.742   139188513.960                                                  
  26486690.546   103939498.797  
  27473128.302   144372268.642                                                  
  27473134.270   107810479.107  
  27660606.624   145357482.480                                                  
  27660611.217   108546185.193  
 21  8 31 21 56 31.0000000  0 18G10G12G18G23G24G32R 5R 7R15R16R21R22
                                E 3E 5E15E24E25E31
  20397396.367   107189070.668    20397396.242    83523965.729    20397396.117  
  20397394.402    80043798.323  
  24363653.684   128031860.739    24363653.755    99765091.215    24363652.844  
                                
  23594880.641   123991899.940    23594880.909    96617051.992    23594880.570  
  23594884.983    92591352.703  
  20810472.338   109359776.578    20810470.819    85215405.228    20810470.443  
  20810474.428    81664779.592  
  21716026.729   114118534.670    21716027.211    88923545.566    21716026.658  
  21716027.694    85218409.255  
  21408112.961   112500431.313    21408113.390    87662691.785    21408112.889  
  21408111.710    84010078.707  
  21110791.271   112849278.852    21110792.307    87771668.552    21110792.200  
                                
  23279272.918   124615779.231    23279274.116    96923393.790    23279274.044  
                                
  20898356.856   111674518.936    20898358.179    86857984.263    20898358.250  
                                
  21249374.943   113510390.862    21249375.622    88285865.048    21249376.605  
                                
  21322975.250   114103567.860    21322975.661    88747222.814    21322975.554  
                                
  22033613.893   117616939.174    22033616.305    91479830.451    22033615.465  
                                
  24222503.734   127290151.883                                                  
  24222505.967    95054364.833  
  24054541.422   126407472.292                                                  
  24054543.674    94395202.249  
  24582467.661   129181755.787                                                  
  24582470.984    96466923.680  
  26486417.186   139187086.897                                                  
  26486418.991   103938433.131  
  27472575.274   144369362.508                                                  
  27472581.242   107808308.951  
  27660763.032   145358304.486                                                  
  27660767.642   108546799.022  
 21  8 31 21 56 32.0000000  0 18G10G12G18G23G24G32R 5R 7R15R16R21R22
                                E 3E 5E15E24E25E31
  20397244.606   107188273.153    20397244.481    83523344.290    20397244.355  
  20397242.640    80043202.778  
  24363145.203   128029188.704    24363145.274    99763009.112    24363144.363  
                                
  23595598.476   123995672.165    23595598.744    96619991.376    23595598.404  
  23595602.818    92594169.624  
  20810760.779   109361292.432    20810759.260    85216586.406    20810758.903  
  20810762.888    81665911.557  
  21716498.882   114121015.902    21716499.383    88925478.994    21716498.811  
  21716499.865    85220262.125  
  21407804.220   112498808.871    21407804.649    87661427.540    21407804.148  
  21407802.987    84008867.141  
  21111160.194   112851250.940    21111161.249    87773202.399    21111161.124  
                                
  23278740.922   124612931.427    23278742.101    96921178.836    23278742.048  
                                
  20898443.056   111674979.459    20898444.379    86858342.448    20898444.432  
                                
  21248715.058   113506865.918    21248715.754    88283123.430    21248716.719  
                                
  21323405.429   114105869.744    21323405.822    88749013.171    21323405.733  
                                
  22033386.885   117615727.303    22033389.297    91478887.885    22033388.457  
                                
  24222308.711   127289127.095                                                  
  24222310.945    95053599.567  
  24054750.168   126408569.257                                                  
  24054752.438    94396021.404  
  24582509.474   129181975.474                                                  
  24582512.798    96467087.726  
  26486145.720   139185660.306                                                  
  26486147.525   103937367.813  
  27472022.281   144366456.486                                                  
  27472028.267   107806138.856  
  27660919.565   145359127.021                                                  
  27660924.175   108547413.257  
 21  8 31 21 56 33.0000000  0 18G10G12G18G23G24G32R 5R 7R15R16R21R22
                                E 3E 5E15E24E25E31
  20397092.880   107187475.875    20397092.755    83522723.030    20397092.647  
  20397090.932    80042607.406  
  24362636.758   128026516.727    24362636.829    99760927.057    24362635.918  
                                
  23596316.292   123999444.342    23596316.578    96622930.733    23596316.238  
  23596320.634    92596986.504  
  20811049.293   109362808.529    20811047.774    85217767.781    20811047.416  
  20811051.401    81667043.708  
  21716971.125   114123497.447    21716971.607    88927412.663    21716971.053  
  21716972.090    85222115.228  
  21407495.479   112497186.529    21407495.908    87660163.379    21407495.407  
  21407494.246    84007655.658  
  21111529.118   112853223.080    21111530.173    87774736.282    21111530.047  
                                
  23278208.907   124610083.512    23278210.087    96918963.798    23278210.015  
                                
  20898529.364   111675440.731    20898530.686    86858701.213    20898530.758  
                                
  21248055.244   113503341.276    21248055.923    88280382.044    21248056.906  
                                
  21323835.698   114108172.208    21323836.109    88750803.974    21323836.001  
                                
  22033160.002   117614516.129    22033162.396    91477945.861    22033161.556  
                                
  24222113.707   127288102.288                                                  
  24222115.940    95052834.287  
  24054958.914   126409666.168                                                  
  24054961.184    94396840.531  
  24582551.341   129182195.479                                                  
  24582554.665    96467252.013  
  26485874.289   139184233.917                                                  
  26485876.094   103936302.662  
  27471469.253   144363550.276                                                  
  27471475.221   107803968.648  
  27661076.133   145359949.837                                                  
  27661080.725   108548027.703  
 21  8 31 21 56 34.0000000  0 18G10G12G18G23G24G32R 5R 7R15R16R21R22
                                E 3E 5E15E24E25E31
  20396941.208   107186678.761    20396941.082    83522101.907    20396940.957  
  20396939.242    80042012.161  
  24362128.277   128023844.651    24362128.348    99758844.913    24362127.437  
                                
  23597034.091   124003216.376    23597034.359    96625869.990    23597034.019  
  23597038.433    92599803.291  
  20811337.842   109364324.826    20811336.305    85218949.313    20811335.947  
  20811339.932    81668176.005  
  21717443.385   114125979.248    21717443.868    88929346.529    21717443.314  
  21717444.350    85223968.516  
  21407186.774   112495564.222    21407187.203    87658899.244    21407186.702  
  21407185.541    84006444.195  
  21111898.042   112855195.201    21111899.096    87776270.157    21111898.971  
                                
  23277676.839   124607235.367    23277678.019    96916748.567    23277677.947  
                                
  20898615.796   111675902.639    20898617.136    86859060.474    20898617.190  
                                
  21247395.448   113499816.840    21247396.145    88277640.814    21247397.110  
                                
  21324266.055   114110475.154    21324266.466    88752595.151    21324266.359  
                                
  22032933.208   117613305.564    22032935.620    91477004.306    22032934.780  
                                
  24221918.684   127287077.388                                                  
  24221920.918    95052068.935  
  24055167.624   126410762.951                                                  
  24055169.876    94397659.555  
  24582593.244   129182415.738                                                  
  24582596.568    96467416.493  
  26485602.877   139182807.696                                                  
  26485604.682   103935237.624  
  27470916.188   144360643.854                                                  
  27470922.157   107801798.255  
  27661232.755   145360772.877                                                  
  27661237.365   108548642.286  
 21  8 31 21 56 35.0000000  0 18G10G12G18G23G24G32R 5R 7R15R16R21R22
                                E 3E 5E15E24E25E31
  20396789.589   107185882.017    20396789.464    83521481.066    20396789.357  
  20396787.623    80041417.192  
  24361619.849   128021172.821    24361619.921    99756762.970    24361619.027  
                                
  23597751.889   124006988.484    23597752.175    96628809.294    23597751.836  
  23597756.249    92602620.126  
  20811626.444   109365841.493    20811624.925    85220131.134    20811624.568  
  20811628.553    81669308.583  
  21717915.735   114128461.481    21717916.235    88931280.739    21717915.663  
  21717916.718    85225822.129  
  21406878.122   112493942.159    21406878.551    87657635.294    21406878.033  
  21406876.871    84005232.914  
  21112267.020   112857167.496    21112268.056    87777804.161    21112267.949  
                                
  23277144.754   124604387.162    23277145.951    96914533.301    23277145.879  
                                
  20898702.407   111676365.382    20898703.748    86859420.388    20898703.801  
                                
  21246735.742   113496292.834    21246736.439    88274899.925    21246737.403  
                                
  21324696.556   114112778.807    21324696.949    88754386.882    21324696.859  
                                
  22032706.575   117612095.818    22032708.988    91476063.392    22032708.148  
                                
  24221723.662   127286052.594                                                  
  24221725.895    95051303.669  
  24055376.352   126411859.827                                                  
  24055378.622    94398478.650  
  24582635.254   129182636.453                                                  
  24582638.578    96467581.310  
  26485331.536   139181381.810                                                  
  26485333.358   103934172.836  
  27470363.089   144357737.377                                                  
  27470369.057   107799627.844  
  27661389.448   145361596.301                                                  
  27661394.041   108549257.187  
 21  8 31 21 56 36.0000000  0 18G10G12G18G23G24G32R 5R 7R15R16R21R22
                                E 3E 5E15E24E25E31
  20396638.077   107185085.869    20396637.952    83520860.690    20396637.827  
  20396636.112    80040822.661  
  24361111.476   128018501.384    24361111.547    99754681.333    24361110.654  
                                
  23598469.777   124010760.914    23598470.045    96631748.848    23598469.706  
  23598474.120    92605437.188  
  20811915.190   109367358.767    20811913.671    85221313.423    20811913.296  
  20811917.280    81670441.615  
  21718388.210   114130944.370    21718388.692    88933215.460    21718388.138  
  21718389.175    85227676.242  
  21406569.524   112492320.542    21406569.953    87656371.701    21406569.435  
  21406568.273    84004021.973  
  21112636.033   112859140.169    21112637.087    87779338.465    21112636.962  
                                
  23276612.721   124601539.163    23276613.918    96912318.198    23276613.847  
                                
  20898789.197   111676829.175    20898790.520    86859781.116    20898790.591  
                                
  21246076.178   113492769.540    21246076.857    88272159.587    21246077.840  
                                
  21325127.217   114115083.354    21325127.610    88756179.305    21325127.521  
                                
  22032480.139   117610887.110    22032482.551    91475123.288    22032481.711  
                                
  24221528.728   127285028.125                                                  
  24221530.962    95050538.646  
  24055585.134   126412956.988                                                  
  24055587.386    94399297.959  
  24582677.389   129182857.845                                                  
  24582680.695    96467746.640  
  26485060.320   139179956.495                                                  
  26485062.125   103933108.480  
  27469810.042   144354831.108                                                  
  27469815.993   107797457.579  
  27661546.249   145362420.379                                                  
  27661550.859   108549872.568  
 21  8 31 21 56 37.0000000  0 18G10G12G18G23G24G32R 5R 7R15R16R21R22
                                E 3E 5E15E24E25E31
  20396486.637   107184290.073    20396486.530    83520240.590    20396486.405  
  20396484.690    80040228.398  
  24360603.173   128015830.129    24360603.245    99752599.836    24360602.334  
                                
  23599187.665   124014533.405    23599187.933    96634688.449    23599187.594  
  23599192.008    92608254.299  
  20812203.989   109368876.420    20812202.470    85222496.007    20812202.095  
  20812206.079    81671574.920  
  21718860.774   114133427.709    21718861.274    88935150.522    21718860.702  
  21718861.757    85229530.674  
  21406260.997   112490699.156    21406261.426    87655108.286    21406260.908  
  21406259.747    84002811.193  
  21113005.082   112861112.986    21113006.136    87780872.878    21113006.011  
                                
  23276080.707   124598691.192    23276081.886    96910103.104    23276081.833  
                                
  20898876.148   111677293.825    20898877.470    86860142.510    20898877.542  
                                
  21245416.704   113489246.723    21245417.401    88269419.619    21245418.366  
                                
  21325558.003   114117388.576    21325558.396    88757972.253    21325558.307  
                                
  22032253.881   117609679.239    22032256.294    91474183.833    22032255.454  
                                
  24221333.795   127284003.765                                                  
  24221336.029    95049773.699  
  24055793.934   126414054.222                                                  
  24055796.203    94400117.322  
  24582719.596   129183079.689                                                  
  24582722.920    96467912.298  
  26484789.157   139178531.530                                                  
  26484790.962   103932044.374  
  27469256.996   144351924.807                                                  
  27469262.946   107795287.280  
  27661703.157   145363244.847                                                  
  27661707.749   108550488.231  
 21  8 31 21 56 38.0000000  0 18G10G12G18G23G24G32R 5R 7R15R16R21R22
                                E 3E 5E15E24E25E31
  20396335.287   107183494.635    20396335.162    83519620.770    20396335.037  
  20396333.321    80039634.406  
  24360094.871   128013159.062    24360094.961    99750518.480    24360094.049  
                                
  23599905.535   124018305.926    23599905.821    96637628.067    23599905.482  
  23599909.896    92611071.450  
  20812492.859   109370394.434    20812491.341    85223678.875    20812490.965  
  20812494.968    81672708.506  
  21719333.410   114135911.446    21719333.892    88937085.907    21719333.338  
  21719334.374    85231385.424  
  21405952.471   112489077.985    21405952.900    87653845.040    21405952.399  
  21405951.238    84001600.583  
  21113374.184   112863085.949    21113375.221    87782407.403    21113375.113  
                                
  23275548.692   124595843.193    23275549.872    96907887.992    23275549.818  
                                
  20898963.259   111677759.329    20898964.582    86860504.569    20898964.635  
                                
  21244757.319   113485724.402    21244757.998    88266680.036    21244758.981  
                                
  21325988.897   114119694.455    21325989.308    88759765.712    21325989.201  
                                
  22032027.767   117608472.171    22032030.161    91473245.002    22032029.321  
                                
  24221138.880   127282979.487                                                  
  24221141.114    95049008.816  
  24056002.733   126415151.527                                                  
  24056004.985    94400936.738  
  24582761.892   129183301.971                                                  
  24582765.216    96468078.294  
  26484518.049   139177106.879                                                  
  26484519.871   103930980.514  
  27468703.914   144349018.426                                                  
  27468709.864   107793116.949  
  27661860.118   145364069.700                                                  
  27661864.729   108551104.195  
 21  8 31 21 56 39.0000000  0 18G10G12G18G23G24G32R 5R 7R15R16R21R22
                                E 3E 5E15E24E25E31
  20396184.043   107182699.849    20396183.918    83519001.454    20396183.811  
  20396182.078    80039040.895  
  24359586.676   128010488.465    24359586.766    99748437.513    24359585.854  
                                
  23600623.495   124022078.832    23600623.781    96640567.982    23600623.441  
  23600627.855    92613888.869  
  20812781.855   109371913.113    20812780.336    85224862.264    20812779.961  
  20812783.946    81673842.590  
  21719806.188   114138395.938    21719806.689    88939021.879    21719806.117  
  21719807.171    85233240.724  
  21405644.087   112487457.333    21405644.516    87652582.185    21405644.016  
  21405642.854    84000390.352  
  21113743.340   112865059.378    21113744.395    87783942.294    21113744.270  
                                
  23275016.696   124592995.419    23275017.893    96905673.059    23275017.839  
                                
  20899050.585   111678225.969    20899051.926    86860867.511    20899051.979  
                                
  21244098.059   113482202.835    21244098.756    88263941.037    21244099.721  
                                
  21326420.005   114122001.348    21326420.398    88761559.964    21326420.309  
                                
  22031801.849   117607266.181    22031804.243    91472307.012    22031803.403  
                                
  24220944.036   127281955.608                                                  
  24220946.270    95048244.238  
  24056211.622   126416249.178                                                  
  24056213.891    94401756.406  
  24582804.331   129183524.998                                                  
  24582807.637    96468244.842  
  26484247.065   139175682.838                                                  
  26484248.870   103929917.124  
  27468150.886   144346112.281                                                  
  27468156.836   107790946.795  
  27662017.205   145364895.246                                                  
  27662021.797   108551720.702  
 21  8 31 21 56 40.0000000  0 18G10G12G18G23G24G32R 5R 7R15R16R21R22
                                E 3E 5E15E24E25E31
  20396032.889   107181905.555    20396032.764    83518382.524    20396032.639  
  20396030.924    80038447.753  
  24359078.535   128007818.207    24359078.606    99746356.791    24359077.713  
                                
  23601341.508   124025851.919    23601341.794    96643508.048    23601341.454  
  23601345.868    92616706.432  
  20813070.940   109373432.304    20813069.421    85226046.047    20813069.046  
  20813073.031    81674977.046  
  21720279.074   114140880.985    21720279.556    88940958.279    21720279.003  
  21720280.057    85235096.445  
  21405335.739   112485837.039    21405336.186    87651319.621    21405335.668  
  21405334.506    83999180.387  
  21114112.568   112867033.087    21114113.604    87785477.402    21114113.497  
                                
  23274484.735   124590147.740    23274485.914    96903458.193    23274485.861  
                                
  20899138.090   111678693.585    20899139.430    86861231.212    20899139.484  
                                
  21243438.943   113478681.856    21243439.622    88261202.500    21243440.604  
                                
  21326851.274   114124309.068    21326851.685    88763354.856    21326851.578  
                                
  22031576.109   117606061.178    22031578.504    91471369.788    22031577.664  
                                
  24220749.228   127280931.949                                                  
  24220751.462    95047479.817  
  24056420.529   126417347.034                                                  
  24056422.780    94402576.238  
  24582846.877   129183748.606                                                  
  24582850.201    96468411.818  
  26483976.170   139174259.287                                                  
  26483977.975   103928854.085  
  27467597.911   144343206.264                                                  
  27467603.843   107788776.722  
  27662174.399   145365721.325                                                  
  27662178.991   108552337.580  
 21  8 31 21 56 41.0000000  0 18G10G12G18G23G24G32R 5R 7R15R16R21R22
                                E 3E 5E15E24E25E31
  20395881.860   107181111.892    20395881.735    83517764.085    20395881.628  
  20395879.895    80037855.085  
  24358570.501   128005148.393    24358570.572    99744276.417    24358569.679  
                                
  23602059.557   124029625.353    23602059.843    96646448.388    23602059.503  
  23602063.917    92619524.253  
  20813360.150   109374952.137    20813358.631    85227230.334    20813358.274  
  20813362.259    81676111.990  
  21720752.103   114143366.744    21720752.585    88942895.235    21720752.031  
  21720753.086    85236952.690  
  21405027.517   112484217.227    21405027.946    87650057.432    21405027.427  
  21405026.266    83997970.796  
  21114481.867   112869007.238    21114482.903    87787012.855    21114482.796  
                                
  23273952.792   124587300.271    23273953.989    96901243.497    23273953.936  
                                
  20899225.809   111679162.335    20899227.149    86861595.793    20899227.203  
                                
  21242779.915   113475161.558    21242780.612    88258464.497    21242781.577  
                                
  21327282.686   114126617.684    21327283.097    88765150.446    21327282.989  
                                
  22031350.567   117604857.230    22031352.961    91470433.381    22031352.121  
                                
  24220554.527   127279908.672                                                  
  24220556.743    95046715.681  
  24056629.507   126418445.240                                                  
  24056631.758    94403396.325  
  24582889.566   129183972.927                                                  
  24582892.890    96468579.328  
  26483705.401   139172836.350                                                  
  26483707.206   103927791.502  
  27467044.954   144340300.471                                                  
  27467050.886   107786606.815  
  27662331.736   145366548.088                                                  
  27662336.328   108552954.959  
 21  8 31 21 56 42.0000000  0 18G10G12G18G23G24G32R 5R 7R15R16R21R22
                                E 3E 5E15E24E25E31
  20395730.921   107180318.714    20395730.796    83517146.024    20395730.671  
  20395728.955    80037262.775  
  24358062.502   128002478.849    24358062.591    99742196.257    24358061.680  
                                
  23602777.641   124033398.957    23602777.927    96649388.865    23602777.588  
  23602781.984    92622342.198  
  20813649.468   109376472.469    20813647.931    85228415.006    20813647.574  
  20813651.558    81677247.296  
  21721225.239   114145853.047    21721225.721    88944832.611    21721225.149  
  21721226.204    85238809.346  
  21404719.330   112482597.778    21404719.758    87648795.524    21404719.258  
  21404718.097    83996761.459  
  21114851.220   112870981.658    21114852.256    87788548.512    21114852.149  
                                
  23273420.885   124584452.915    23273422.082    96899028.889    23273422.029  
                                
  20899313.707   111679632.048    20899315.047    86861961.126    20899315.101  
                                
  21242121.013   113471641.837    21242121.692    88255726.939    21242122.675  
                                
  21327714.258   114128927.096    21327714.669    88766946.653    21327714.562  
                                
  22031125.202   117603654.224    22031127.615    91469497.712    22031126.775  
                                
  24220359.844   127278885.600                                                  
  24220362.078    95045951.697  
  24056838.539   126419543.618                                                  
  24056840.790    94404216.542  
  24582932.363   129184197.814                                                  
  24582935.686    96468747.264  
  26483434.685   139171413.864                                                  
  26483436.508   103926729.258  
  27466491.997   144337394.751                                                  
  27466497.947   107784436.953  
  27662489.180   145367375.377                                                  
  27662493.772   108553572.731  
 21  8 31 21 56 43.0000000  0 18G10G12G18G23G24G32R 5R 7R15R16R21R22
                                E 3E 5E15E24E25E31
  20395579.999   107179525.600    20395579.874    83516528.015    20395579.749  
  20395578.033    80036670.519  
  24357554.486   127999809.238    24357554.557    99740116.040    24357553.664  
                                
  23603495.708   124037172.343    23603495.994    96652329.157    23603495.654  
  23603500.068    92625159.995  
  20813938.803   109377992.897    20813937.284    85229599.754    20813936.909  
  20813940.894    81678382.677  
  21721698.393   114148339.510    21721698.893    88946770.110    21721698.321  
  21721699.375    85240666.112  
  21404411.160   112480978.259    21404411.589    87647533.563    21404411.089  
  21404409.910    83995552.086  
  21115220.572   112872955.985    21115221.627    87790084.100    21115221.502  
                                
  23272888.906   124581605.239    23272890.103    96896814.035    23272890.050  
                                
  20899401.694   111680102.305    20899403.034    86862326.881    20899403.088  
                                
  21241462.146   113468122.260    21241462.825    88252989.493    21241463.790  
                                
  21328145.902   114131236.935    21328146.296    88768743.192    21328146.206  
                                
  22030899.945   117602451.748    22030902.340    91468562.451    22030901.518  
                                
  24220165.108   127277862.349                                                  
  24220167.341    95045187.585  
  24057047.499   126420641.804                                                  
  24057049.769    94405036.616  
  24582975.177   129184422.863                                                  
  24582978.500    96468915.322  
  26483164.023   139169991.446                                                  
  26483165.846   103925667.058  
  27465939.004   144334488.728                                                  
  27465944.937   107782266.871  
  27662646.624   145368202.768                                                  
  27662651.216   108554190.590  
