     2.11           OBSERVATION DATA    M (MIXED)           RINEX VERSION / TYPE
CONVBIN 2.4.3                           20210901 005010 UTC PGM / RUN BY / DATE 
log: logs/21_08_31_20_18_54_gast_SNNC.rtcm                  COMMENT             
format: RTCM 3, station ID: 143                             COMMENT             
0143                                                        MARKER NAME         
                                                            MARKER NUMBER       
                                                            OBSERVER / AGENCY   
1703994             LEICA GR10          4.30                REC # / TYPE / VERS 
                    GPPNULLANTENNA                          ANT # / TYPE        
   798151.3407 -5149063.3356  3666081.4130                  APPROX POSITION XYZ 
        0.0000        0.0000        0.0000                  ANTENNA: DELTA H/E/N
     1     1                                                WAVELENGTH FACT L1/2
     7    C1    L1    C2    L2    P2    C5    L5            # / TYPES OF OBSERV 
  2021     8    31    20    19    1.0000000     GPS         TIME OF FIRST OBS   
  2021     8    31    20    48   58.0000000     GPS         TIME OF LAST OBS    
                                                            END OF HEADER       
 21  8 31 20 19  1.0000000  0 17G10G15G18G23G24G27G32R 4R 5R14R19R20
                                R21E 3E 5E 9E36
  22578562.556   118651146.601    22578561.716    92455435.080    22578561.537  
  22578562.788    88603129.113  
  22023921.127   115736485.935    22023918.447    90184261.314    22023917.875  
                                
  20203141.254   106168223.636    20203138.252    82728472.224    20203137.859  
  20203144.577    79281478.015  
  20718152.656   108874626.694    20718149.314    84837355.780    20718148.921  
  20718155.694    81302492.440  
  20816212.904   109389937.041    20816212.225    85238906.886    20816211.671  
  20816215.066    81687298.907  
  24251398.802   127441959.918    24251398.784    99305420.733    24251398.158  
  24251401.178    95167706.843  
  23763814.885   124879690.099    23763815.885    97308851.614    23763815.385  
  23763817.368    93254322.804  
  22308238.904   119459606.408    22308236.045    92913015.024    22308235.116  
                                
  20063041.073   107248452.755    20063039.179    83415455.016    20063038.053  
                                
  22536954.214   120134647.729    22536953.964    93438058.243    22536953.213  
                                
  22691920.814   121386474.412    22691920.707    94411701.837    22691919.099  
                                
  19726756.139   105487830.174    19726756.765    82046092.976    19726754.710  
                                
  22083582.400   118173710.338    22083580.434    91912876.994    22083579.630  
                                
  25741109.602   135270444.667                                                  
  25741115.963   101013667.358  
  23483003.653   123404017.071                                                  
  23483009.050    92152371.563  
  23916012.376   125679493.688                                                  
  23916017.879    93851590.390  
  24932849.556   131023008.793                                                  
  24932856.275    97841882.617  
 21  8 31 20 19  2.0000000  0 17G10G15G18G23G24G27G32R 4R 5R14R19R20
                                R21E 3E 5E 9E36
  22578147.405   118648965.082    22578146.565    92453735.200    22578146.386  
  22578147.637    88601500.074  
  22024464.131   115739339.316    22024461.415    90186484.728    22024460.843  
                                
  20203322.267   106169174.893    20203319.283    82729213.463    20203318.872  
  20203325.608    79282188.367  
  20717988.922   108873766.229    20717985.580    84836685.288    20717985.169  
  20717991.960    81301849.876  
  20816044.810   109389053.723    20816044.149    85238218.585    20816043.577  
  20816046.972    81686639.277  
  24251360.062   127441756.235    24251360.026    99305262.015    24251359.418  
  24251362.420    95167554.707  
  23763282.263   124876891.084    23763283.263    97306670.572    23763282.727  
  23763284.711    93252232.622  
  22308720.385   119462184.782    22308717.526    92915020.423    22308716.614  
                                
  20063164.280   107249111.291    20063162.368    83415967.207    20063161.260  
                                
  22536875.161   120134226.355    22536874.929    93437730.510    22536874.161  
                                
  22692758.657   121390956.291    22692758.549    94415187.743    22692756.959  
                                
  19726984.255   105489049.885    19726984.863    82047041.637    19726982.790  
                                
  22083000.834   118170598.328    22082998.887    91910456.546    22082998.083  
                                
  25740780.615   135268715.884                                                  
  25740786.976   101012376.388  
  23483057.046   123404297.558                                                  
  23483062.442    92152581.013  
  23916403.332   125681548.154                                                  
  23916408.836    93853124.558  
  24933321.549   131025489.073                                                  
  24933328.285    97843734.766  
 21  8 31 20 19  3.0000000  0 17G10G15G18G23G24G27G32R 4R 5R14R19R20
                                R21E 3E 5E 9E36
  22577732.307   118646783.660    22577731.467    92452035.388    22577731.289  
  22577732.522    88599871.077  
  22025007.135   115742192.870    22025004.454    90188708.272    22025003.865  
                                
  20203503.423   106170126.781    20203500.421    82729955.194    20203500.010  
  20203506.747    79282899.184  
  20717825.206   108872905.972    20717821.864    84836014.958    20717821.471  
  20717828.244    81301207.483  
  20815876.859   109388171.067    20815876.180    85237530.802    20815875.626  
  20815879.021    81685980.157  
  24251321.393   127441553.103    24251321.357    99305103.735    24251320.768  
  24251323.734    95167403.018  
  23762749.659   124874092.292    23762750.659    97304489.686    23762750.141  
  23762752.124    93250142.620  
  22309201.884   119464763.126    22309199.042    92917025.797    22309198.095  
                                
  20063287.523   107249770.061    20063285.611    83416479.583    20063284.503  
                                
  22536796.234   120133805.732    22536796.019    93437403.356    22536795.233  
                                
  22693596.535   121395438.358    22693596.428    94418673.795    22693594.820  
                                
  19727212.496   105490270.496    19727213.139    82047990.995    19727211.049  
                                
  22082419.412   118167486.936    22082417.447    91908036.570    22082416.625  
                                
  25740451.700   135266987.315                                                  
  25740458.061   101011085.565  
  23483110.456   123404578.261                                                  
  23483115.853    92152790.629  
  23916794.271   125683602.653                                                  
  23916799.792    93854658.763  
  24933793.595   131027969.639                                                  
  24933800.314    97845587.138  
 21  8 31 20 19  4.0000000  0 17G10G15G18G23G24G27G32R 4R 5R14R19R20
                                R21E 3E 5E 9E36
  22577317.192   118644602.311    22577316.370    92450335.636    22577316.191  
  22577317.424    88598242.159  
  22025550.192   115745046.633    22025547.512    90190931.981    22025546.922  
                                
  20203684.686   106171079.291    20203681.684    82730697.405    20203681.273  
  20203688.010    79283610.483  
  20717661.561   108872045.994    20717658.202    84835344.840    20717657.827  
  20717664.617    81300565.289  
  20815709.051   109387289.139    20815708.354    85236843.578    20815707.800  
  20815711.178    81685321.573  
  24251282.867   127441350.576    24251282.814    99304945.917    24251282.224  
  24251285.226    95167251.811  
  23762217.126   124871293.756    23762218.127    97302309.004    23762217.626  
  23762219.574    93248052.812  
  22309683.382   119467341.514    22309680.541    92919031.194    22309679.594  
                                
  20063410.801   107250429.073    20063408.889    83416992.139    20063407.781  
                                
  22536717.485   120133385.939    22536717.253    93437076.834    22536716.484  
                                
  22694434.467   121399920.661    22694434.360    94422160.001    22694432.752  
                                
  19727440.934   105491492.016    19727441.559    82048941.063    19727439.504  
                                
  22081838.061   118164376.175    22081836.114    91905617.082    22081835.292  
                                
  25740122.785   135265258.945                                                  
  25740129.128   101009794.919  
  23483163.903   123404859.185                                                  
  23483169.299    92153000.421  
  23917185.245   125685657.207                                                  
  23917190.748    93856193.023  
  24934265.676   131030450.513                                                  
  24934272.395    97847439.741  
 21  8 31 20 19  5.0000000  0 17G10G15G18G23G24G27G32R 4R 5R14R19R20
                                R21E 3E 5E 9E36
  22576902.112   118642421.051    22576901.272    92448635.950    22576901.094  
  22576902.345    88596613.300  
  22026093.268   115747900.601    22026090.587    90193155.852    22026090.015  
                                
  20203866.057   106172032.465    20203863.055    82731440.138    20203862.662  
  20203869.398    79284322.270  
  20717497.971   108871186.259    20717494.611    84834674.919    20717494.218  
  20717501.008    81299923.280  
  20815541.350   109386407.915    20815540.671    85236156.913    20815540.100  
  20815543.495    81684663.514  
  24251244.449   127441148.716    24251244.413    99304788.623    24251243.806  
  24251246.808    95167101.057  
  23761684.611   124868495.492    23761685.630    97300128.541    23761685.111  
  23761687.095    93245963.191  
  22310164.881   119469919.939    22310162.040    92921036.631    22310161.128  
                                
  20063534.133   107251088.371    20063532.239    83417504.926    20063531.113  
                                
  22536638.879   120132966.976    22536638.647    93436750.976    22536637.879  
                                
  22695272.417   121404403.113    22695272.310    94425646.348    22695270.720  
                                
  19727669.550   105492714.494    19727670.158    82049891.882    19727668.103  
                                
  22081256.871   118161266.054    22081254.906    91903198.104    22081254.084  
                                
  25739793.941   135263530.822                                                  
  25739800.285   101008504.429  
  23483217.420   123405140.387                                                  
  23483222.817    92153210.403  
  23917576.237   125687711.831                                                  
  23917581.741    93857727.308  
  24934737.830   131032931.733                                                  
  24934744.566    97849292.591  
 21  8 31 20 19  6.0000000  0 17G10G15G18G23G24G27G32R 4R 5R14R19R20
                                R21E 3E 5E 9E36
  22576487.086   118640240.081    22576486.247    92446936.500    22576486.068  
  22576487.319    88594984.658  
  22026636.450   115750754.972    22026633.770    90195380.035    22026633.180  
                                
  20204047.606   106172986.471    20204044.604    82732183.517    20204044.211  
  20204050.930    79285034.685  
  20717334.451   108870326.970    20717331.110    84834005.344    20717330.699  
  20717337.489    81299281.607  
  20815373.828   109385527.581    20815373.149    85235470.938    20815372.578  
  20815375.973    81684006.134  
  24251206.174   127440947.621    24251206.138    99304631.928    24251205.548  
  24251208.550    95166950.920  
  23761152.204   124865697.651    23761153.204    97297948.414    23761152.704  
  23761154.670    93243873.903  
  22310646.415   119472498.561    22310643.574    92923042.224    22310642.663  
                                
  20063657.555   107251748.126    20063655.660    83418018.071    20063654.535  
                                
  22536560.488   120132548.989    22536560.238    93436425.876    22536559.487  
                                
  22696110.439   121408886.011    22696110.349    94429133.041    22696108.741  
                                
  19727898.363   105493938.086    19727898.988    82050843.565    19727896.933  
                                
  22080675.807   118158156.777    22080673.859    91900779.780    22080673.037  
                                
  25739465.169   135261803.083                                                  
  25739471.495   101007214.252  
  23483271.010   123405422.018                                                  
  23483276.406    92153420.714  
  23917967.265   125689766.702                                                  
  23917972.750    93859261.798  
  24935210.090   131035413.454                                                  
  24935216.809    97851145.827  
 21  8 31 20 19  7.0000000  0 17G10G15G18G23G24G27G32R 4R 5R14R19R20
                                R21E 3E 5E 9E36
  22576072.096   118638059.287    22576071.274    92445237.184    22576071.096  
  22576072.329    88593356.134  
  22027179.669   115753609.624    22027176.988    90197604.439    22027176.416  
                                
  20204229.281   106173941.221    20204226.279    82732927.480    20204225.886  
  20204232.622    79285747.640  
  20717171.003   108869468.022    20717167.644    84833336.031    20717167.269  
  20717174.023    81298640.185  
  20815206.449   109384648.059    20815205.770    85234785.601    20815205.216  
  20815208.594    81683349.342  
  24251168.041   127440747.280    24251168.005    99304475.830    24251167.398  
  24251170.400    95166801.302  
  23760619.868   124862900.165    23760620.868    97295768.557    23760620.368  
  23760622.316    93241784.869  
  22311127.985   119475077.281    22311125.144    92925047.893    22311124.233  
                                
  20063781.029   107252408.245    20063779.135    83418531.497    20063778.010  
                                
  22536482.239   120132131.929    22536482.007    93436101.495    22536481.257  
                                
  22696948.532   121413369.210    22696948.442    94432619.974    22696946.834  
                                
  19728127.372   105495162.696    19728127.998    82051796.042    19728125.943  
                                
  22080094.902   118155048.237    22080092.937    91898362.028    22080092.115  
                                
  25739136.433   135260075.676                                                  
  25739142.794   101005924.298  
  23483324.652   123405703.974                                                  
  23483330.067    92153631.268  
  23918358.328   125691821.726                                                  
  23918363.814    93860796.392  
  24935682.422   131037895.587                                                  
  24935689.159    97852999.368  
 21  8 31 20 19  8.0000000  0 17G10G15G18G23G24G27G32R 4R 5R14R19R20
                                R21E 3E 5E 9E36
  22575657.088   118635878.411    22575656.248    92443537.809    22575656.070  
  22575657.320    88591727.566  
  22027722.905   115756464.308    22027720.224    90199828.873    22027719.617  
                                
  20204411.044   106174896.451    20204408.060    82733671.815    20204407.649  
  20204414.386    79286460.964  
  20717007.555   108868609.179    20717004.214    84832666.805    20717003.821  
  20717010.593    81297998.837  
  20815039.177   109383769.071    20815038.516    85234100.678    20815037.944  
  20815041.339    81682692.960  
  24251130.016   127440547.433    24251129.980    99304320.111    24251129.355  
  24251132.357    95166652.045  
  23760087.531   124860102.767    23760088.532    97293588.769    23760088.014  
  23760089.997    93239695.916  
  22311609.520   119477655.852    22311606.679    92927053.448    22311605.767  
                                
  20063904.540   107253068.441    20063902.646    83419044.986    20063901.520  
                                
  22536404.116   120131715.520    22536403.884    93435777.627    22536403.115  
                                
  22697786.624   121417852.445    22697786.535    94436106.934    22697784.927  
                                
  19728356.525   105496388.086    19728357.150    82052749.127    19728355.077  
                                
  22079514.088   118151940.177    22079512.122    91895944.655    22079511.300  
                                
  25738807.732   135258348.331                                                  
  25738814.075   101004634.402  
  23483378.331   123405986.019                                                  
  23483383.727    92153841.885  
  23918749.356   125693876.656                                                  
  23918754.860    93862330.913  
  24936154.790   131040377.878                                                  
  24936161.526    97854853.022  
 21  8 31 20 19  9.0000000  0 17G10G15G18G23G24G27G32R 4R 5R14R19R20
                                R21E 3E 5E 9E36
  22575242.080   118633697.517    22575241.240    92441838.400    22575241.079  
  22575242.312    88590098.966  
  22028266.123   115759319.080    22028263.478    90202053.373    22028262.871  
                                
  20204592.951   106175852.224    20204589.949    82734416.576    20204589.520  
  20204596.257    79287174.693  
  20716844.161   108867750.448    20716840.801    84831997.673    20716840.408  
  20716847.181    81297357.586  
  20814872.030   109382890.697    20814871.351    85233416.230    20814870.780  
  20814874.175    81682037.031  
  24251092.080   127440348.040    24251092.044    99304164.727    24251091.419  
  24251094.421    95166503.139  
  23759555.249   124857305.531    23759556.250    97291409.091    23759555.731  
  23759557.715    93237607.055  
  22312091.054   119480234.331    22312088.213    92929058.938    22312087.284  
                                
  20064028.087   107253728.793    20064026.175    83419558.593    20064025.067  
                                
  22536326.136   120131299.778    22536325.921    93435454.290    22536325.135  
                                
  22698624.735   121422335.760    22698624.646    94439593.951    22698623.038  
                                
  19728585.820   105497614.288    19728586.445    82053702.840    19728584.390  
                                
  22078933.362   118148832.664    22078931.397    91893527.675    22078930.575  
                                
  25738479.049   135256621.088                                                  
  25738485.393   101003344.584  
  23483432.027   123406268.192                                                  
  23483437.424    92154052.599  
  23919140.384   125695931.524                                                  
  23919145.888    93863865.392  
  24936627.193   131042860.371                                                  
  24936633.930    97856706.846  
 21  8 31 20 19 10.0000000  0 17G10G15G18G23G24G27G32R 4R 5R14R19R20
                                R21E 3E 5E 9E36
  22574827.090   118631516.781    22574826.268    92440139.119    22574826.089  
  22574827.340    88588470.486  
  22028809.448   115762174.146    22028806.768    90204278.099    22028806.178  
                                
  20204774.965   106176808.708    20204771.963    82735161.886    20204771.552  
  20204778.271    79287888.946  
  20716680.820   108866892.075    20716677.461    84831328.809    20716677.068  
  20716683.840    81296716.584  
  20814705.044   109382013.100    20814704.365    85232732.389    20814703.776  
  20814707.189    81681381.676  
  24251054.269   127440149.337    24251054.215    99304009.886    24251053.626  
  24251056.628    95166354.772  
  23759023.002   124854508.599    23759024.003    97289229.666    23759023.485  
  23759025.468    93235518.442  
  22312572.571   119482812.926    22312569.748    92931064.510    22312568.818  
                                
  20064151.687   107254389.488    20064149.775    83420072.464    20064148.667  
                                
  22536248.316   120130884.929    22536248.084    93435131.623    22536247.333  
                                
  22699462.935   121426819.384    22699462.810    94443081.201    22699461.220  
                                
  19728815.330   105498841.493    19728815.955    82054657.335    19728813.864  
                                
  22078352.780   118145725.829    22078350.814    91891111.253    22078350.010  
                                
  25738150.438   135254894.156                                                  
  25738156.799   101002054.979  
  23483485.777   123406550.686                                                  
  23483491.192    92154263.548  
  23919531.447   125697986.527                                                  
  23919536.951    93865399.968  
  24937099.668   131045343.267                                                  
  24937106.404    97858560.945  
 21  8 31 20 19 11.0000000  0 17G10G15G18G23G24G27G32R 4R 5R14R19R20
                                R21E 3E 5E 9E36
  22574412.153   118629336.184    22574411.313    92438439.950    22574411.153  
  22574412.403    88586842.109  
  22029352.792   115765029.443    22029350.112    90206503.009    22029349.522  
                                
  20204957.086   106177765.884    20204954.102    82735907.737    20204953.691  
  20204960.410    79288603.711  
  20716517.533   108866033.981    20716514.174    84830660.166    20716513.763  
  20716520.553    81296075.804  
  20814538.184   109381136.249    20814537.505    85232049.126    20814536.933  
  20814540.328    81680726.891  
  24251016.601   127439951.346    24251016.565    99303855.601    24251015.940  
  24251018.942    95166206.909  
  23758490.827   124851711.964    23758491.810    97287050.479    23758491.310  
  23758493.275    93233430.046  
  22313054.123   119485391.569    22313051.300    92933070.107    22313050.389  
                                
  20064275.340   107255050.509    20064273.446    83420586.591    20064272.320  
                                
  22536170.657   120130470.961    22536170.443    93434809.646    22536169.657  
                                
  22700301.153   121431303.270    22700301.046    94446568.657    22700299.456  
                                
  19729045.000   105500069.659    19729045.626    82055612.571    19729043.553  
                                
  22077772.323   118142619.678    22077770.357    91888695.353    22077769.535  
                                
  25737821.844   135253167.456                                                  
  25737828.188   101000765.572  
  23483539.599   123406833.455                                                  
  23483544.995    92154474.707  
  23919922.529   125700041.638                                                  
  23919928.033    93866934.625  
  24937572.232   131047826.520                                                  
  24937578.969    97860415.320  
 21  8 31 20 19 12.0000000  0 17G10G15G18G23G24G27G32R 4R 5R14R19R20
                                R21E 3E 5E 9E36
  22573997.181   118627155.534    22573996.341    92436740.742    22573996.180  
  22573997.413    88585213.714  
  22029896.153   115767884.832    22029893.473    90208727.980    22029892.901  
                                
  20205139.332   106178723.582    20205136.348    82736653.993    20205135.937  
  20205142.656    79289318.882  
  20716354.264   108865176.033    20716350.904    84829991.631    20716350.511  
  20716357.284    81295435.131  
  20814371.430   109380259.988    20814370.751    85231366.329    20814370.179  
  20814373.574    81680072.542  
  24250979.005   127439753.834    24250978.969    99303701.698    24250978.361  
  24250981.363    95166059.425  
  23757958.652   124848915.494    23757959.635    97284871.422    23757959.134  
  23757961.100    93231341.748  
  22313535.640   119487970.104    22313532.852    92935075.630    22313531.905  
                                
  20064399.030   107255711.696    20064397.118    83421100.851    20064396.010  
                                
  22536093.124   120130057.690    22536092.909    93434488.215    22536092.141  
                                
  22701139.389   121435787.201    22701139.282    94450056.145    22701137.692  
                                
  19729274.832   105501298.653    19729275.439    82056568.452    19729273.384  
                                
  22077191.955   118139514.060    22077190.007    91886279.875    22077189.185  
                                
  25737493.287   135251440.877                                                  
  25737499.630   100999476.245  
  23483593.420   123407116.348                                                  
  23483598.817    92154685.960  
  23920313.592   125702096.682                                                  
  23920319.078    93868469.240  
  24938044.814   131050309.962                                                  
  24938051.551    97862269.840  
 21  8 31 20 19 13.0000000  0 17G10G15G18G23G24G27G32R 4R 5R14R19R20
                                R21E 3E 5E 9E36
  22573582.209   118624974.810    22573581.369    92435041.477    22573581.172  
  22573582.423    88583585.259  
  22030439.532   115770740.241    22030436.852    90210952.974    22030436.262  
                                
  20205321.668   106179681.765    20205318.666    82737400.631    20205318.272  
  20205324.991    79290034.408  
  20716191.030   108864318.165    20716187.671    84829323.164    20716187.260  
  20716194.050    81294794.519  
  20814204.783   109379384.287    20814204.104    85230683.969    20814203.532  
  20814206.928    81679418.605  
  24250941.516   127439556.775    24250941.462    99303548.147    24250940.872  
  24250943.874    95165912.270  
  23757426.512   124846119.064    23757427.495    97282692.389    23757426.995  
  23757428.960    93229253.525  
  22314017.156   119490548.508    22314014.351    92937081.050    22314013.422  
                                
  20064522.719   107256372.968    20064520.825    83421615.170    20064519.699  
                                
  22536015.715   120129645.049    22536015.501    93434167.272    22536014.714  
                                
  22701977.625   121440271.206    22701977.518    94453543.705    22701975.910  
                                
  19729504.788   105502528.381    19729505.413    82057524.908    19729503.323  
                                
  22076611.694   118136408.928    22076609.746    91883864.770    22076608.906  
                                
  25737164.747   135249714.353                                                  
  25737171.090   100998186.955  
  23483647.278   123407399.320                                                  
  23483652.674    92154897.275  
  23920704.602   125704151.612                                                  
  23920710.124    93870003.772  
  24938517.414   131052793.561                                                  
  24938524.168    97864124.479  
 21  8 31 20 19 14.0000000  0 17G10G15G18G23G24G27G32R 4R 5R14R19R20
                                R21E 3E 5E 9E36
  22573167.201   118622793.981    22573166.361    92433342.145    22573166.182  
  22573167.415    88581956.730  
  22030982.876   115773595.644    22030980.213    90213177.964    22030979.606  
                                
  20205504.092   106180640.382    20205501.108    82738147.603    20205500.697  
  20205507.416    79290750.256  
  20716027.779   108863460.358    20716024.419    84828654.739    20716024.026  
  20716030.799    81294153.947  
  20814038.226   109378509.055    20814037.547    85230001.959    20814036.993  
  20814040.370    81678765.023  
  24250904.098   127439360.172    24250904.044    99303394.953    24250903.437  
  24250906.421    95165765.452  
  23756894.391   124843322.702    23756895.391    97280513.389    23756894.873  
  23756896.857    93227165.317  
  22314498.619   119493126.687    22314495.814    92939086.319    22314494.903  
                                
  20064646.444   107257034.245    20064644.532    83422129.511    20064643.424  
                                
  22535938.414   120129232.945    22535938.181    93433846.774    22535937.413  
                                
  22702815.879   121444755.254    22702815.772    94457031.320    22702814.181  
                                
  19729734.905   105503758.844    19729735.495    82058481.941    19729733.440  
                                
  22076031.504   118133304.194    22076029.539    91881450.005    22076028.717  
                                
  25736836.189   135247987.815                                                  
  25736842.533   100996897.666  
  23483701.117   123407682.318                                                  
  23483706.531    92155108.607  
  23921095.630   125706206.398                                                  
  23921101.134    93871538.194  
  24938990.067   131055277.276                                                  
  24938996.804    97865979.194  
 21  8 31 20 19 15.0000000  0 17G10G15G18G23G24G27G32R 4R 5R14R19R20
                                R21E 3E 5E 9E36
  22572752.210   118620613.128    22572751.371    92431642.786    22572751.210  
  22572752.443    88580328.161  
  22031526.255   115776451.138    22031523.574    90215403.026    22031523.003  
                                
  20205686.607   106181599.535    20205683.623    82738894.996    20205683.212  
  20205689.930    79291466.505  
  20715864.563   108862602.683    20715861.204    84827986.430    20715860.811  
  20715867.601    81293513.473  
  20813871.794   109377634.440    20813871.133    85229320.443    20813870.561  
  20813873.938    81678111.904  
  24250866.752   127439164.048    24250866.716    99303242.134    24250866.108  
  24250869.110    95165618.996  
  23756362.287   124840526.463    23756363.270    97278334.499    23756362.769  
  23756364.735    93225077.224  
  22314980.082   119495704.806    22314977.277    92941091.517    22314976.365  
                                
  20064770.169   107257695.680    20064768.275    83422643.963    20064767.149  
                                
  22535861.237   120128821.569    22535861.023    93433526.820    22535860.237  
                                
  22703654.133   121449239.367    22703654.025    94460518.964    22703652.435  
                                
  19729965.148   105504990.125    19729965.755    82059439.607    19729963.682  
                                
  22075451.405   118130199.998    22075449.439    91879035.634    22075448.617  
                                
  25736507.667   135246261.414                                                  
  25736514.011   100995608.466  
  23483755.010   123407965.460                                                  
  23483760.406    92155320.042  
  23921486.640   125708261.134                                                  
  23921492.144    93873072.571  
  24939462.721   131057761.198                                                  
  24939469.493    97867834.069  
 21  8 31 20 19 16.0000000  0 17G10G15G18G23G24G27G32R 4R 5R14R19R20
                                R21E 3E 5E 9E36
  22572337.202   118618432.410    22572336.380    92429943.528    22572336.202  
  22572337.453    88578699.718  
  22032069.687   115779306.894    22032067.025    90217628.292    22032066.435  
                                
  20205869.264   106182559.405    20205866.280    82739642.944    20205865.887  
  20205872.587    79292183.286  
  20715701.419   108861745.337    20715698.060    84827318.364    20715697.666  
  20715704.439    81292873.243  
  20813705.523   109376760.599    20813704.844    85228639.535    20813704.254  
  20813707.631    81677459.356  
  24250829.566   127438968.620    24250829.530    99303089.845    24250828.941  
  24250831.925    95165473.055  
  23755830.237   124837730.553    23755831.220    97276155.873    23755830.737  
  23755832.685    93222989.377  
  22315461.527   119498282.977    22315458.740    92943096.756    22315457.811  
                                
  20064893.966   107258357.459    20064892.072    83423158.677    20064890.946  
                                
  22535784.222   120128411.099    22535784.007    93433207.561    22535783.221  
                                
  22704492.440   121453723.749    22704492.351    94464006.810    22704490.742  
                                
  19730195.587   105506222.386    19730196.194    82060398.034    19730194.121  
                                
  22074871.430   118127096.522    22074869.482    91876621.820    22074868.660  
                                
  25736179.217   135244535.289                                                  
  25736185.542   100994319.477  
  23483808.939   123408248.913                                                  
  23483814.335    92155531.711  
  23921877.668   125710315.987                                                  
  23921883.172    93874607.046  
  24939935.500   131060245.514                                                  
  24939942.236    97869689.229  
 21  8 31 20 19 17.0000000  0 17G10G15G18G23G24G27G32R 4R 5R14R19R20
                                R21E 3E 5E 9E36
  22571922.284   118616251.925    22571921.444    92428244.453    22571921.265  
  22571922.516    88577071.442  
  22032613.192   115782162.989    22032610.511    90219853.819    22032609.940  
                                
  20206052.064   106183520.059    20206049.098    82740391.505    20206048.687  
  20206055.388    79292900.662  
  20715538.346   108860888.385    20715534.987    84826650.611    20715534.594  
  20715541.366    81292233.313  
  20813539.377   109375887.610    20813538.698    85227959.290    20813538.126  
  20813541.521    81676807.461  
  24250792.541   127438773.963    24250792.488    99302938.165    24250791.880  
  24250794.900    95165327.708  
  23755298.258   124834935.065    23755299.259    97273977.568    23755298.758  
  23755300.724    93220901.840  
  22315943.026   119500861.321    22315940.238    92945102.134    22315939.309  
                                
  20065017.852   107259019.643    20065015.958    83423673.712    20065014.832  
                                
  22535707.403   120128001.584    22535707.171    93432889.051    22535706.420  
                                
  22705330.819   121458208.510    22705330.729    94467494.955    22705329.121  
                                
  19730426.222   105507455.730    19730426.830    82061357.304    19730424.757  
                                
  22074291.633   118123993.862    22074289.668    91874208.644    22074288.828  
                                
  25735850.802   135242809.543                                                  
  25735857.145   100993030.773  
  23483862.957   123408532.744                                                  
  23483868.353    92155743.661  
  23922268.732   125712371.055                                                  
  23922274.235    93876141.676  
  24940408.314   131062730.270                                                  
  24940415.051    97871544.735  
 21  8 31 20 19 18.0000000  0 17G10G15G18G23G24G27G32R 4R 5R14R19R20
                                R21E 3E 5E 9E36
  22571507.383   118614071.656    22571506.543    92426545.544    22571506.382  
  22571507.615    88575443.328  
  22033156.749   115785019.437    22033154.087    90222079.627    22033153.479  
                                
  20206235.043   106184481.489    20206232.041    82741140.672    20206231.648  
  20206238.348    79293618.618  
  20715375.345   108860031.822    20715371.986    84825983.155    20715371.610  
  20715378.365    81291593.672  
  20813373.427   109375015.465    20813372.748    85227279.693    20813372.158  
  20813375.553    81676156.176  
  24250755.642   127438580.067    24250755.588    99302787.083    24250754.981  
  24250757.983    95165182.900  
  23754766.387   124832139.953    23754767.387    97271799.554    23754766.869  
  23754768.853    93218814.577  
  22316424.543   119503439.844    22316421.773    92947107.645    22316420.826  
                                
  20065141.791   107259682.252    20065139.897    83424189.074    20065138.789  
                                
  22535630.763   120127593.019    22535630.548    93432571.276    22535629.762  
                                
  22706169.251   121462693.579    22706169.162    94470983.337    22706167.554  
                                
  19730657.054   105508690.111    19730657.662    82062317.376    19730655.607  
                                
  22073711.980   118120891.984    22073710.015    91871796.073    22073709.175  
                                
  25735522.476   135241084.137                                                  
  25735528.802   100991742.320  
  23483917.046   123408816.966                                                  
  23483922.443    92155955.902  
  23922659.831   125714426.316                                                  
  23922665.335    93877676.445  
  24940881.236   131065215.516                                                  
  24940888.008    97873400.592  
 21  8 31 20 19 19.0000000  0 17G10G15G18G23G24G27G32R 4R 5R14R19R20
                                R21E 3E 5E 9E36
  22571092.518   118611891.481    22571091.678    92424846.691    22571091.499  
  22571092.732    88573815.236  
  22033700.325   115787876.023    22033697.663    90224305.527    22033697.073  
                                
  20206418.093   106185443.513    20206415.109    82741890.301    20206414.716  
  20206421.417    79294337.003  
  20715212.380   108859175.438    20715209.038    84825315.838    20715208.645  
  20715215.417    81290954.165  
  20813207.585   109374143.987    20813206.906    85226600.614    20813206.316  
  20813209.729    81675505.394  
  24250718.832   127438386.760    24250718.796    99302636.441    24250718.206  
  24250721.173    95165038.512  
  23754234.533   124829345.041    23754235.534    97269621.710    23754235.033  
  23754236.981    93216727.478  
  22316906.059   119506018.271    22316903.272    92949113.114    22316902.342  
                                
  20065265.802   107260345.057    20065263.890    83424704.592    20065262.782  
                                
  22535554.247   120127185.168    22535554.051    93432254.054    22535553.265  
                                
  22707007.755   121467178.890    22707007.648    94474471.910    22707006.040  
                                
  19730888.065   105509925.369    19730888.672    82063278.130    19730886.617  
                                
  22073132.416   118117790.657    22073130.451    91869383.934    22073129.629  
                                
  25735194.169   135239358.905                                                  
  25735200.512   100990453.993  
  23483971.172   123409101.347                                                  
  23483976.568    92156168.262  
  23923050.948   125716481.580                                                  
  23923056.452    93879211.198  
  24941354.211   131067700.973                                                  
  24941360.965    97875256.630  
 21  8 31 20 19 20.0000000  0 17G10G15G18G23G24G27G32R 4R 5R14R19R20
                                R21E 3E 5E 9E36
  22570677.617   118609711.230    22570676.777    92423147.794    22570676.598  
  22570677.849    88572187.139  
  22034243.954   115790732.703    22034241.274    90226531.509    22034240.702  
                                
  20206601.286   106186406.089    20206598.284    82742640.362    20206597.873  
  20206604.574    79295055.810  
  20715049.450   108858319.231    20715046.090    84824648.659    20715045.715  
  20715052.505    81290314.791  
  20813041.867   109373273.101    20813041.188    85225922.002    20813040.599  
  20813043.994    81674855.060  
  24250682.165   127438193.917    24250682.129    99302486.167    24250681.503  
  24250684.505    95164894.526  
  23753702.697   124826550.266    23753703.698    97267443.961    23753703.198  
  23753705.163    93214640.477  
  22317387.558   119508596.660    22317384.770    92951118.521    22317383.841  
                                
  20065389.813   107261008.039    20065387.919    83425220.244    20065386.793  
                                
  22535477.893   120126778.097    22535477.679    93431937.445    22535476.910  
                                
  22707846.259   121471664.279    22707846.152    94477960.546    22707844.526  
                                
  19731119.218   105511161.494    19731119.844    82064239.560    19731117.771  
                                
  22072552.942   118114689.867    22072550.994    91866972.206    22072550.172  
                                
  25734865.879   135237633.778                                                  
  25734872.240   100989165.755  
  23484025.297   123409385.874                                                  
  23484030.693    92156380.742  
  23923442.030   125718536.783                                                  
  23923447.533    93880745.945  
  24941827.222   131070186.674                                                  
  24941833.958    97877112.842  
 21  8 31 20 19 21.0000000  0 17G10G15G18G23G24G27G32R 4R 5R14R19R20
                                R21E 3E 5E 9E36
  22570262.788   118607531.260    22570261.948    92421449.116    22570261.787  
  22570263.020    88570559.229  
  22034787.619   115793589.767    22034784.957    90228757.790    22034784.367  
                                
  20206784.605   106187369.480    20206781.603    82743391.052    20206781.209  
  20206787.910    79295775.223  
  20714886.609   108857463.449    20714883.250    84823981.818    20714882.857  
  20714889.629    81289675.727  
  20812876.311   109372403.111    20812875.632    85225244.087    20812875.042  
  20812878.455    81674205.383  
  24250645.605   127438001.907    24250645.569    99302336.549    24250644.961  
  24250647.963    95164751.135  
  23753170.969   124823755.914    23753171.952    97265266.551    23753171.451  
  23753173.399    93212553.792  
  22317869.092   119511175.249    22317866.305    92953124.088    22317865.393  
                                
  20065513.914   107261671.447    20065512.020    83425736.229    20065510.894  
                                
  22535401.700   120126371.990    22535401.503    93431621.580    22535400.717  
                                
  22708684.834   121476150.056    22708684.727    94481449.470    22708683.101  
                                
  19731350.587   105512398.690    19731351.194    82065201.824    19731349.121  
                                
  22071973.664   118111589.935    22071971.698    91864561.148    22071970.858  
                                
  25734537.679   135235909.056                                                  
  25734544.040   100987877.811  
  23484079.529   123409670.832                                                  
  23484084.944    92156593.527  
  23923833.165   125720592.250                                                  
  23923838.668    93882280.852  
  24942300.322   131072672.871                                                  
  24942307.094    97878969.407  
 21  8 31 20 19 22.0000000  0 17G10G15G18G23G24G27G32R 4R 5R14R19R20
                                R21E 3E 5E 9E36
  22569847.994   118605351.476    22569847.154    92419750.580    22569846.975  
  22569848.208    88568931.481  
  22035331.374   115796447.133    22035328.693    90230984.307    22035328.104  
                                
  20206968.084   106188333.625    20206965.100    82744142.334    20206964.671  
  20206971.389    79296495.202  
  20714723.823   108856608.025    20714720.463    84823315.261    20714720.070  
  20714726.842    81289036.945  
  20812710.915   109371533.918    20812710.236    85224566.794    20812709.646  
  20812713.024    81673556.317  
  24250609.223   127437810.637    24250609.170    99302187.505    24250608.562  
  24250611.564    95164608.297  
  23752639.294   124820961.955    23752640.259    97263089.438    23752639.758  
  23752641.742    93210467.390  
  22318350.645   119513753.997    22318347.893    92955129.778    22318346.946  
                                
  20065638.086   107262335.220    20065636.174    83426252.499    20065635.066  
                                
  22535325.685   120125966.788    22535325.488    93431306.423    22535324.720  
                                
  22709523.446   121480636.123    22709523.356    94484938.628    22709521.748  
                                
  19731582.151   105513636.946    19731582.777    82066164.905    19731580.686  
                                
  22071394.493   118108490.768    22071392.545    91862150.684    22071391.723  
                                
  25734209.532   135234184.668                                                  
  25734215.876   100986590.119  
  23484133.815   123409956.134                                                  
  23484139.230    92156806.579  
  23924224.353   125722647.869                                                  
  23924229.839    93883815.896  
  24942773.529   131075159.502                                                  
  24942780.266    97880826.304  
 21  8 31 20 19 23.0000000  0 17G10G15G18G23G24G27G32R 4R 5R14R19R20
                                R21E 3E 5E 9E36
  22569433.218   118603171.788    22569432.378    92418052.125    22569432.200  
  22569433.433    88567303.785  
  22035875.164   115799304.693    22035872.484    90233210.973    22035871.894  
                                
  20207151.670   106189298.419    20207148.686    82744894.114    20207148.293  
  20207154.976    79297215.658  
  20714561.107   108855752.862    20714557.748    84822648.896    20714557.337  
  20714564.127    81288398.342  
  20812545.645   109370665.462    20812544.966    85223890.075    20812544.394  
  20812547.771    81672907.788  
  24250572.931   127437619.965    24250572.895    99302038.925    24250572.288  
  24250575.290    95164465.916  
  23752107.655   124818168.229    23752108.655    97260912.510    23752108.155  
  23752110.103    93208381.161  
  22318832.215   119516332.738    22318829.445    92957135.461    22318828.516  
                                
  20065762.311   107262999.261    20065760.399    83426768.973    20065759.309  
                                
  22535249.813   120125562.369    22535249.616    93430991.877    22535248.866  
                                
  22710362.128   121485122.404    22710362.021    94488427.958    22710360.413  
                                
  19731813.895   105514876.129    19731814.502    82067128.716    19731812.429  
                                
  22070815.465   118105392.240    22070813.517    91859740.718    22070812.696  
                                
  25733881.439   135232460.495                                                  
  25733887.800   100985302.578  
  23484188.173   123410241.688                                                  
  23484193.569    92157019.814  
  23924615.524   125724703.541                                                  
  23924621.028    93885350.981  
  24943246.773   131077646.441                                                  
  24943253.545    97882683.430  
 21  8 31 20 19 24.0000000  0 17G10G15G18G23G24G27G32R 4R 5R14R19R20
                                R21E 3E 5E 9E36
  22569018.424   118600992.033    22569017.585    92416353.605    22569017.406  
  22569018.639    88565676.042  
  22036418.936   115802162.312    22036416.256    90235437.691    22036415.684  
                                
  20207335.346   106190263.700    20207332.379    82745646.279    20207331.968  
  20207338.669    79297936.487  
  20714398.374   108854897.805    20714395.015    84821982.617    20714394.639  
  20714401.394    81287759.828  
  20812380.499   109369797.540    20812379.820    85223213.770    20812379.230  
  20812382.608    81672259.660  
  24250536.746   127437429.801    24250536.711    99301890.747    24250536.121  
  24250539.105    95164323.911  
  23751576.051   124815374.637    23751577.052    97258735.680    23751576.552  
  23751578.499    93206295.042  
  22319313.749   119518911.300    22319310.979    92959141.023    22319310.050  
                                
  20065886.572   107263663.437    20065884.660    83427285.554    20065883.552  
                                
  22535174.084   120125158.638    22535173.887    93430677.876    22535173.101  
                                
  22711200.811   121489608.728    22711200.703    94491917.316    22711199.113  
                                
  19732045.763   105516116.099    19732046.388    82068093.140    19732044.298  
                                
  22070236.527   118102294.172    22070234.561    91857331.108    22070233.739  
                                
  25733553.346   135230736.392                                                  
  25733559.707   100984015.112  
  23484242.495   123410527.309                                                  
  23484247.927    92157233.107  
  23925006.713   125726759.125                                                  
  23925012.198    93886885.984  
  24943720.069   131080133.544                                                  
  24943726.806    97884540.685  
 21  8 31 20 19 25.0000000  0 17G10G15G18G23G24G27G32R 4R 5R14R19R20
                                R21E 3E 5E 9E36
  22568603.649   118598812.442    22568602.809    92414655.225    22568602.648  
  22568603.863    88564048.429  
  22036962.762   115805020.212    22036960.117    90237664.626    22036959.528  
                                
  20207519.182   106191229.717    20207516.198    82746399.020    20207515.805  
  20207522.506    79298657.861  
  20714235.730   108854043.082    20714232.371    84821316.600    20714231.996  
  20714238.750    81287121.554  
  20812215.479   109368930.417    20812214.800    85222538.087    20812214.210  
  20812217.623    81671612.142  
  24250500.705   127437240.309    24250500.651    99301743.089    24250500.043  
  24250503.063    95164182.416  
  23751044.484   124812581.332    23751045.484    97256559.086    23751044.984  
  23751046.949    93204209.137  
  22319795.301   119521489.967    22319792.550    92961146.649    22319791.603  
                                
  20066010.869   107264327.956    20066008.975    83427802.402    20066007.849  
                                
  22535098.516   120124755.817    22535098.301    93430364.571    22535097.533  
                                
  22712039.529   121494095.365    22712039.422    94495406.923    22712037.831  
                                
  19732277.828   105517357.079    19732278.453    82069058.348    19732276.363  
                                
  22069657.695   118099196.813    22069655.766    91854922.049    22069654.926  
                                
  25733225.324   135229012.585                                                  
  25733231.668   100982727.858  
  23484296.924   123410813.274                                                  
  23484302.338    92157446.652  
  23925397.883   125728814.856                                                  
  23925403.405    93888421.099  
  24944193.402   131082621.059                                                  
  24944200.174    97886398.235  
 21  8 31 20 19 26.0000000  0 17G10G15G18G23G24G27G32R 4R 5R14R19R20
                                R21E 3E 5E 9E36
  22568188.873   118596632.760    22568188.015    92412956.771    22568187.854  
  22568189.087    88562420.749  
  22037506.606   115807878.110    22037503.961    90239891.562    22037503.354  
                                
  20207703.108   106192196.184    20207700.106    82747152.108    20207699.713  
  20207706.414    79299379.575  
  20714073.086   108853188.415    20714069.745    84820650.625    20714069.352  
  20714076.124    81286483.334  
  20812050.583   109368063.824    20812049.904    85221862.821    20812049.315  
  20812052.692    81670965.011  
  24250464.716   127437051.266    24250464.681    99301595.783    24250464.073  
  24250467.075    95164041.247  
  23750512.969   124809788.110    23750513.952    97254382.550    23750513.452  
  23750515.435    93202123.305  
  22320276.818   119524068.469    22320274.066    92963152.143    22320273.137  
                                
  20066135.184   107264992.528    20066133.290    83428319.292    20066132.164  
                                
  22535023.073   120124353.673    22535022.876    93430051.796    22535022.090  
                                
  22712878.265   121498582.018    22712878.158    94498896.539    22712876.568  
                                
  19732510.036   105518598.781    19732510.661    82070024.119    19732508.571  
                                
  22069078.971   118096099.899    22069077.024    91852513.335    22069076.202  
                                
  25732897.302   135227288.823                                                  
  25732903.646   100981440.635  
  23484351.335   123411099.280                                                  
  23484356.749    92157660.239  
  23925789.036   125730870.437                                                  
  23925794.540    93889956.124  
  24944666.788   131085108.693                                                  
  24944673.543    97888255.889  
 21  8 31 20 19 27.0000000  0 17G10G15G18G23G24G27G32R 4R 5R14R19R20
                                R21E 3E 5E 9E36
  22567774.079   118594453.040    22567773.257    92411258.290    22567773.079  
  22567774.312    88560793.023  
  22038050.485   115810736.104    22038047.805    90242118.568    22038047.215  
                                
  20207887.123   106193163.172    20207884.139    82747905.608    20207883.710  
  20207890.411    79300101.677  
  20713910.478   108852333.886    20713907.119    84819984.761    20713906.726  
  20713913.498    81285845.211  
  20811885.777   109367197.798    20811885.080    85221188.000    20811884.509  
  20811887.904    81670318.307  
  24250428.835   127436862.740    24250428.800    99301448.876    24250428.210  
  24250431.212    95163900.456  
  23749981.455   124806995.008    23749982.438    97252206.111    23749981.938  
  23749983.921    93200037.549  
  22320758.335   119526646.924    22320755.565    92965157.608    22320754.654  
                                
  20066259.534   107265657.238    20066257.640    83428836.291    20066256.532  
                                
  22534947.737   120123952.189    22534947.541    93429739.533    22534946.772  
                                
  22713717.001   121503068.771    22713716.930    94502386.232    22713715.304  
                                
  19732742.405   105519841.305    19732743.012    82070990.531    19732740.940  
                                
  22068500.355   118093003.526    22068498.389    91850105.045    22068497.567  
                                
  25732569.299   135225565.145                                                  
  25732575.642   100980153.469  
  23484405.800   123411385.404                                                  
  23484411.196    92157873.898  
  23926180.207   125732925.962                                                  
  23926185.711    93891491.092  
  24945140.210   131087596.522                                                  
  24945146.964    97890113.680  
 21  8 31 20 19 28.0000000  0 17G10G15G18G23G24G27G32R 4R 5R14R19R20
                                R21E 3E 5E 9E36
  22567359.304   118592273.373    22567358.482    92409559.844    22567358.303  
  22567359.536    88559165.343  
  22038594.365   115813594.251    22038591.684    90244345.693    22038591.112  
                                
  20208071.246   106194130.780    20208068.262    82748659.586    20208067.868  
  20208074.534    79300824.231  
  20713747.924   108851479.572    20713744.564    84819319.061    20713744.153  
  20713750.944    81285207.242  
  20811721.096   109366332.447    20811720.417    85220513.702    20811719.845  
  20811723.241    81669672.104  
  24250393.079   127436674.756    24250393.044    99301302.391    24250392.418  
  24250395.420    95163760.091  
  23749449.977   124804202.138    23749450.960    97250029.860    23749450.459  
  23749452.443    93197951.964  
  22321239.833   119529225.349    22321237.081    92967163.047    22321236.152  
                                
  20066383.939   107266322.196    20066382.044    83429353.480    20066380.919  
                                
  22534872.562   120123551.449    22534872.383    93429427.844    22534871.597  
                                
  22714555.809   121507555.677    22714555.702    94505876.043    22714554.112  
                                
  19732974.917   105521084.676    19732975.542    82071957.598    19732973.451  
                                
  22067921.827   118089907.759    22067919.879    91847697.224    22067919.040  
                                
  25732241.331   135223841.656                                                  
  25732247.656   100978866.454  
  23484460.282   123411671.750                                                  
  23484465.697    92158087.722  
  23926571.360   125734981.517                                                  
  23926576.864    93893026.071  
  24945613.685   131090084.638                                                  
  24945620.458    97891971.682  
 21  8 31 20 19 29.0000000  0 17G10G15G18G23G24G27G32R 4R 5R14R19R20
                                R21E 3E 5E 9E36
  22566944.546   118590093.764    22566943.706    92407861.450    22566943.545  
  22566944.760    88557537.726  
  22039138.298   115816452.583    22039135.617    90246572.969    22039135.028  
                                
  20208255.493   106195098.990    20208252.509    82749414.035    20208252.116  
  20208258.781    79301547.251  
  20713585.387   108850625.500    20713582.028    84818653.549    20713581.635  
  20713588.407    81284569.464  
  20811556.558   109365467.815    20811555.879    85219839.956    20811555.308  
  20811558.703    81669026.430  
  24250357.431   127436487.432    24250357.395    99301156.422    24250356.770  
  24250359.772    95163620.185  
  23748918.570   124801409.529    23748919.535    97247853.797    23748919.035  
  23748921.018    93195866.565  
  22321721.332   119531803.752    22321718.580    92969168.493    22321717.651  
                                
  20066508.378   107266987.425    20066506.484    83429870.885    20066505.359  
                                
  22534797.548   120123151.498    22534797.351    93429116.762    22534796.565  
                                
  22715394.617   121512042.736    22715394.527    94509365.973    22715392.901  
                                
  19733207.607   105522328.947    19733208.197    82072925.359    19733206.142  
                                
  22067343.443   118086812.650    22067341.477    91845289.931    22067340.655  
                                
  25731913.380   135222118.351                                                  
  25731919.742   100977579.567  
  23484514.801   123411958.290                                                  
  23484520.233    92158301.703  
  23926962.549   125737037.089                                                  
  23926968.035    93894561.096  
  24946087.197   131092573.029                                                  
  24946093.987    97893829.901  
 21  8 31 20 19 30.0000000  0 17G10G15G18G23G24G27G32R 4R 5R14R19R20
                                R21E 3E 5E 9E36
  22566529.806   118587914.279    22566528.966    92406163.152    22566528.805  
  22566530.038    88555910.184  
  22039682.249   115819311.140    22039679.568    90248800.410    22039678.996  
                                
  20208439.848   106196067.889    20208436.882    82750169.024    20208436.471  
  20208443.171    79302270.780  
  20713422.904   108849771.711    20713419.545    84817988.261    20713419.169  
  20713425.924    81283931.887  
  20811392.163   109364603.910    20811391.484    85219166.783    20811390.895  
  20811394.308    81668381.304  
  24250321.889   127436300.737    24250321.854    99301010.943    24250321.264  
  24250324.248    95163480.761  
  23748387.181   124798617.167    23748388.164    97245677.939    23748387.664  
  23748389.629    93193781.364  
  22322202.849   119534382.183    22322200.079    92971173.941    22322199.168  
                                
  20066632.890   107267652.947    20066630.978    83430388.513    20066629.870  
                                
  22534722.677   120122752.374    22534722.462    93428806.330    22534721.694  
                                
  22716233.460   121516530.090    22716233.389    94512856.140    22716231.763  
                                
  19733440.476   105523574.184    19733441.066    82073893.880    19733439.011  
                                
  22066765.165   118083718.204    22066763.200    91842883.147    22066762.396  
                                
  25731585.520   135220395.316                                                  
  25731591.881   100976292.876  
  23484569.409   123412245.130                                                  
  23484574.805    92158515.890  
  23927353.720   125739092.767                                                  
  23927359.223    93896096.180  
  24946560.797   131095061.794                                                  
  24946567.570    97895688.392  
 21  8 31 20 19 31.0000000  0 17G10G15G18G23G24G27G32R 4R 5R14R19R20
                                R21E 3E 5E 9E36
  22566115.012   118585734.565    22566114.172    92404464.671    22566113.993  
  22566115.244    88554282.482  
  22040226.200   115822169.586    22040223.519    90251027.771    22040222.947  
                                
  20208624.292   106197037.134    20208621.326    82750924.278    20208620.915  
  20208627.598    79302994.562  
  20713260.439   108848917.866    20713257.080    84817322.924    20713256.686  
  20713263.441    81283294.280  
  20811227.840   109363740.384    20811227.161    85218493.901    20811226.589  
  20811229.984    81667736.464  
  24250286.437   127436114.344    24250286.401    99300865.695    24250285.794  
  24250288.796    95163341.578  
  23747855.810   124795824.760    23747856.793    97243502.045    23747856.275  
  23747858.258    93191696.126  
  22322684.276   119536960.287    22322681.524    92973179.131    22322680.613  
                                
  20066757.365   107268318.406    20066755.471    83430906.095    20066754.346  
                                
  22534647.895   120122353.760    22534647.698    93428496.294    22534646.912  
                                
  22717072.321   121521017.358    22717072.232    94516346.234    22717070.606  
                                
  19733673.452   105524820.034    19733674.060    82074862.870    19733671.987  
                                
  22066186.959   118080624.081    22066184.994    91840476.602    22066184.172  
                                
  25731257.623   135218672.199                                                  
  25731263.967   100975006.137  
  23484623.963   123412531.893                                                  
  23484629.377    92158730.036  
  23927744.837   125741148.193                                                  
  23927750.358    93897631.078  
  24947034.416   131097550.570                                                  
  24947041.170    97897546.887  
 21  8 31 20 19 32.0000000  0 17G10G15G18G23G24G27G32R 4R 5R14R19R20
                                R21E 3E 5E 9E36
  22565700.254   118583555.000    22565699.414    92402766.307    22565699.236  
  22565700.486    88552654.883  
  22040770.186   115825028.276    22040767.524    90253255.319    22040766.916  
                                
  20208808.861   106198007.066    20208805.895    82751680.067    20208805.484  
  20208812.185    79303718.864  
  20713098.010   108848064.320    20713094.650    84816657.821    20713094.257  
  20713101.029    81282656.901  
  20811063.659   109362877.639    20811062.980    85217821.635    20811062.408  
  20811065.804    81667092.212  
  24250251.110   127435928.646    24250251.056    99300720.993    24250250.467  
  24250253.469    95163202.899  
  23747324.492   124793032.659    23747325.475    97241326.377    23747324.975  
  23747326.941    93189611.111  
  22323165.739   119539538.485    22323163.005    92975184.394    22323162.058  
                                
  20066881.913   107268984.140    20066880.001    83431423.886    20066878.893  
                                
  22534573.274   120121956.003    22534573.095    93428186.923    22534572.309  
                                
  22717911.236   121525504.852    22717911.129    94519836.501    22717909.503  
                                
  19733906.625   105526066.906    19733907.215    82075832.656    19733905.160  
                                
  22065608.879   118077530.636    22065606.931    91838070.591    22065606.091  
                                
  25730929.762   135216949.338                                                  
  25730936.106   100973719.585  
  23484678.588   123412818.944                                                  
  23484684.003    92158944.399  
  23928136.025   125743203.745                                                  
  23928141.511    93899166.061  
  24947508.070   131100039.707                                                  
  24947514.860    97899405.658  
 21  8 31 20 19 33.0000000  0 17G10G15G18G23G24G27G32R 4R 5R14R19R20
                                R21E 3E 5E 9E36
  22565285.532   118581375.591    22565284.692    92401068.066    22565284.531  
  22565285.746    88551027.403  
  22041314.226   115827887.251    22041311.564    90255483.091    22041310.974  
                                
  20208993.591   106198977.723    20208990.607    82752436.423    20208990.214  
  20208996.897    79304443.706  
  20712935.652   108847211.111    20712932.292    84815992.984    20712931.917  
  20712938.671    81282019.760  
  20810899.639   109362015.674    20810898.960    85217149.976    20810898.389  
  20810901.766    81666448.537  
  24250215.890   127435743.641    24250215.855    99300576.838    24250215.247  
  24250218.249    95163064.745  
  23746793.229   124790240.892    23746794.193    97239150.981    23746793.693  
  23746795.677    93187526.356  
  22323647.237   119542116.828    22323644.486    92977189.775    22323643.574  
                                
  20067006.495   107269650.193    20067004.619    83431941.929    20067003.493  
                                
  22534498.831   120121559.168    22534498.653    93427878.272    22534497.867  
                                
  22718750.169   121529992.687    22718750.080    94523327.032    22718748.472  
                                
  19734139.977   105527314.741    19734140.567    82076803.195    19734138.512  
                                
  22065030.941   118074437.935    22065028.975    91835665.153    22065028.153  
                                
  25730601.973   135215226.787                                                  
  25730608.316   100972433.269  
  23484733.285   123413106.323                                                  
  23484738.682    92159158.993  
  23928527.196   125745259.414                                                  
  23928532.700    93900701.134  
  24947981.813   131102529.243                                                  
  24947988.604    97901264.725  
 21  8 31 20 19 34.0000000  0 17G10G15G18G23G24G27G32R 4R 5R14R19R20
                                R21E 3E 5E 9E36
  22564870.792   118579196.173    22564869.970    92399369.825    22564869.791  
  22564871.042    88549399.922  
  22041858.285   115830746.316    22041855.640    90257710.943    22041855.032  
                                
  20209178.392   106199948.920    20209175.408    82753193.202    20209175.015  
  20209181.698    79305168.957  
  20712773.329   108846358.049    20712769.970    84815328.262    20712769.559  
  20712776.349    81281382.738  
  20810735.727   109361154.313    20810735.048    85216478.802    20810734.458  
  20810737.871    81665805.329  
  24250180.778   127435559.093    24250180.742    99300433.046    24250180.134  
  24250183.136    95162926.958  
  23746261.983   124787449.263    23746262.965    97236975.691    23746262.465  
  23746264.448    93185441.720  
  22324128.700   119544695.098    22324125.966    92979195.097    22324125.037  
                                
  20067131.132   107270316.408    20067129.238    83432460.094    20067128.112  
                                
  22534424.514   120121163.006    22534424.336    93427570.169    22534423.585  
                                
  22719589.138   121534480.615    22719589.030    94526817.629    22719587.440  
                                
  19734373.471   105528563.431    19734374.097    82077774.396    19734372.024  
                                
  22064453.110   118071345.790    22064451.145    91833260.177    22064450.323  
                                
  25730274.201   135213504.328                                                  
  25730280.545   100971147.034  
  23484788.000   123413393.840                                                  
  23484793.397    92159373.698  
  23928918.349   125747315.051                                                  
  23928923.871    93902236.192  
  24948455.611   131105018.985                                                  
  24948462.365    97903123.959  
 21  8 31 20 19 35.0000000  0 17G10G15G18G23G24G27G32R 4R 5R14R19R20
                                R21E 3E 5E 9E36
  22564456.070   118577016.767    22564455.248    92397671.591    22564455.069  
  22564456.302    88547772.445  
  22042402.379   115833605.522    22042399.716    90259938.896    22042399.108  
                                
  20209363.319   106200920.695    20209360.335    82753950.429    20209359.942  
  20209366.625    79305894.635  
  20712611.025   108845505.173    20712607.666    84814663.685    20712607.273  
  20712614.045    81280745.854  
  20810571.939   109360293.599    20810571.243    85215808.115    20810570.689  
  20810574.066    81665162.592  
  24250145.772   127435375.147    24250145.736    99300289.709    24250145.111  
  24250148.131    95162789.602  
  23745730.790   124784657.831    23745731.773    97234800.551    23745731.273  
  23745733.256    93183357.205  
  22324610.163   119547273.277    22324607.411    92981200.343    22324606.482  
                                
  20067255.804   107270982.846    20067253.892    83432978.439    20067252.784  
                                
  22534350.340   120120767.624    22534350.179    93427262.647    22534349.393  
                                
  22720428.142   121538968.686    22720428.035    94530308.348    22720426.426  
                                
  19734607.162   105529812.981    19734607.770    82078746.270    19734605.679  
                                
  22063875.369   118068254.201    22063873.421    91830855.605    22063872.581  
                                
  25729946.448   135211782.041                                                  
  25729952.809   100969860.911  
  23484842.733   123413681.516                                                  
  23484848.130    92159588.527  
  23929309.538   125749370.673                                                  
  23929315.041    93903771.230  
  24948929.426   131107508.990                                                  
  24948936.198    97904983.379  
 21  8 31 20 19 36.0000000  0 17G10G15G18G23G24G27G32R 4R 5R14R19R20
                                R21E 3E 5E 9E36
  22564041.330   118574837.317    22564040.490    92395973.326    22564040.329  
  22564041.544    88546144.945  
  22042946.472   115836464.802    22042943.792    90262166.909    22042943.220  
                                
  20209548.335   106201892.989    20209545.369    82754708.065    20209544.940  
  20209551.641    79306620.705  
  20712448.756   108844652.442    20712445.397    84813999.225    20712444.986  
  20712451.776    81280109.072  
  20810408.259   109359433.474    20810407.562    85215137.890    20810406.991  
  20810410.386    81664520.288  
  24250110.856   127435191.703    24250110.820    99300146.770    24250110.231  
  24250113.215    95162652.624  
  23745199.633   124781866.534    23745200.616    97232625.507    23745200.116  
  23745202.081    93181272.777  
  22325091.591   119549851.358    22325088.857    92983205.517    22325087.927  
                                
  20067380.494   107271649.469    20067378.600    83433496.929    20067377.474  
                                
  22534276.291   120120372.927    22534276.130    93426955.668    22534275.361  
                                
  22721267.164   121543456.826    22721267.057    94533799.121    22721265.449  
                                
  19734840.979   105531063.346    19734841.604    82079718.776    19734839.513  
                                
  22063297.735   118065163.123    22063295.769    91828451.438    22063294.947  
                                
  25729618.730   135210059.854                                                  
  25729625.091   100968574.861  
  23484897.502   123413969.329                                                  
  23484902.916    92159803.451  
  23929700.691   125751426.216                                                  
  23929706.194    93905306.227  
  24949403.294   131109999.184                                                  
  24949410.067    97906842.939  
 21  8 31 20 19 37.0000000  0 17G10G15G18G23G24G27G32R 4R 5R14R19R20
                                R21E 3E 5E 9E36
  22563626.643   118572658.032    22563625.804    92394275.183    22563625.643  
  22563626.858    88544517.545  
  22043490.620   115839324.319    22043487.957    90264395.106    22043487.368  
                                
  20209733.494   106202865.997    20209730.510    82755466.255    20209730.116  
  20209736.799    79307347.289  
  20712286.541   108843800.006    20712283.182    84813334.984    20712282.789  
  20712289.543    81279472.512  
  20810244.722   109358574.106    20810244.043    85214468.257    20810243.471  
  20810246.848    81663878.544  
  24250076.083   127435008.969    24250076.047    99300004.382    24250075.440  
  24250078.424    95162516.140  
  23744668.530   124779075.510    23744669.495    97230450.688    23744668.995  
  23744670.960    93179188.588  
  22325573.036   119552429.519    22325570.302    92985210.758    22325569.372  
                                
  20067505.273   107272316.418    20067503.361    83434015.667    20067502.254  
                                
  22534202.420   120119979.072    22534202.241    93426649.334    22534201.473  
                                
  22722106.204   121547945.219    22722106.132    94537290.092    22722104.506  
                                
  19735074.991   105532314.699    19735075.581    82080692.055    19735073.526  
                                
  22062720.226   118062072.773    22062718.260    91826047.835    22062717.421  
                                
  25729291.066   135208337.941                                                  
  25729297.427   100967289.009  
  23484952.342   123414257.422                                                  
  23484957.738    92160018.583  
  23930091.879   125753481.885                                                  
  23930097.365    93906841.298  
  24949877.234   131112489.738                                                  
  24949884.007    97908702.764  
 21  8 31 20 19 38.0000000  0 17G10G15G18G23G24G27G32R 4R 5R14R19R20
                                R21E 3E 5E 9E36
  22563211.921   118570478.737    22563211.081    92392577.029    22563210.921  
  22563212.154    88542890.157  
  22044034.803   115842183.963    22044032.123    90266623.400    22044031.533  
                                
  20209918.760   106203839.556    20209915.776    82756224.872    20209915.382  
  20209922.048    79308074.299  
  20712124.362   108842947.751    20712121.003    84812670.894    20712120.592  
  20712127.364    81278836.082  
  20810081.310   109357715.369    20810080.631    85213799.107    20810080.041  
  20810083.454    81663237.286  
  24250041.417   127434826.746    24250041.381    99299862.390    24250040.756  
  24250043.758    95162380.062  
  23744137.463   124776284.691    23744138.410    97228276.021    23744137.910  
  23744139.893    93177104.526  
  22326054.481   119555007.645    22326051.747    92987215.967    22326050.818  
                                
  20067630.071   107272983.531    20067628.177    83434534.532    20067627.051  
                                
  22534128.657   120119585.973    22534128.496    93426343.590    22534127.710  
                                
  22722945.315   121552433.771    22722945.208    94540781.181    22722943.582  
                                
  19735309.147   105533566.906    19735309.755    82081665.997    19735307.700  
                                
  22062142.806   118058982.968    22062140.841    91823644.655    22062140.001  
                                
  25728963.437   135206616.162                                                  
  25728969.781   100966003.268  
  23485007.164   123414545.679                                                  
  23485012.596    92160233.839  
  23930483.050   125755537.542                                                  
  23930488.572    93908376.349  
  24950351.210   131114980.527                                                  
  24950357.982    97910562.769  
 21  8 31 20 19 39.0000000  0 17G10G15G18G23G24G27G32R 4R 5R14R19R20
                                R21E 3E 5E 9E36
  22562797.253   118568299.627    22562796.413    92390879.022    22562796.252  
  22562797.485    88541262.897  
  22044579.022   115845043.894    22044576.342    90268851.915    22044575.770  
                                
  20210104.151   106204813.857    20210101.185    82756984.066    20210100.774  
  20210107.457    79308801.862  
  20711962.254   108842095.836    20711958.895    84812007.062    20711958.484  
  20711965.256    81278199.910  
  20809918.076   109356857.442    20809917.361    85213130.590    20809916.790  
  20809920.185    81662596.615  
  24250006.858   127434645.189    24250006.823    99299720.912    24250006.215  
  24250009.217    95162244.497  
  23743606.449   124773494.189    23743607.396    97226101.618    23743606.896  
  23743608.879    93175020.736  
  22326535.944   119557585.863    22326533.210    92989221.250    22326532.263  
                                
  20067754.939   107273651.002    20067753.027    83435053.676    20067751.919  
                                
  22534055.090   120119193.791    22534054.929    93426038.567    22534054.161  
                                
  22723784.445   121556922.610    22723784.355    94544272.479    22723782.729  
                                
  19735543.517   105534820.114    19735544.125    82082640.711    19735542.034  
                                
  22061565.530   118055893.943    22061563.600    91821242.080    22061562.760  
                                
  25728635.844   135204894.685                                                  
  25728642.206   100964717.749  
  23485062.093   123414834.270                                                  
  23485067.508    92160449.346  
  23930874.257   125757593.303                                                  
  23930879.760    93909911.512  
  24950825.275   131117471.745                                                  
  24950832.048    97912423.092  
 21  8 31 20 19 40.0000000  0 17G10G15G18G23G24G27G32R 4R 5R14R19R20
                                R21E 3E 5E 9E36
  22562382.602   118566120.676    22562381.780    92389181.142    22562381.619  
  22562382.834    88539635.761  
  22045123.313   115847904.083    22045120.632    90271080.632    22045120.025  
                                
  20210289.703   106205788.874    20210286.719    82757743.818    20210286.325  
  20210293.008    79309529.955  
  20711800.182   108841244.239    20711796.823    84811343.477    20711796.448  
  20711803.202    81277563.988  
  20809754.950   109356000.275    20809754.271    85212462.666    20809753.681  
  20809757.076    81661956.531  
  24249972.461   127434464.388    24249972.425    99299580.029    24249971.799  
  24249974.801    95162109.475  
  23743075.489   124770704.024    23743076.472    97223927.454    23743075.971  
  23743077.955    93172937.180  
  22327017.424   119560164.159    22327014.673    92991226.594    22327013.761  
                                
  20067879.862   107274318.768    20067877.950    83435573.048    20067876.842  
                                
  22533981.684   120118802.470    22533981.523    93425734.203    22533980.755  
                                
  22724623.663   121561411.730    22724623.556    94547764.012    22724621.930  
                                
  19735778.048   105536074.331    19735778.673    82083616.209    19735776.583  
                                
  22060988.396   118052805.584    22060986.466    91818840.023    22060985.626  
                                
  25728308.305   135203173.502                                                  
  25728314.666   100963432.457  
  23485117.058   123415123.155                                                  
  23485122.473    92160665.078  
  23931265.481   125759649.212                                                  
  23931270.985    93911446.774  
  24951299.412   131119963.329                                                  
  24951306.184    97914283.684  
 21  8 31 20 19 41.0000000  0 17G10G15G18G23G24G27G32R 4R 5R14R19R20
                                R21E 3E 5E 9E36
  22561967.951   118563941.710    22561967.129    92387483.249    22561966.969  
  22561968.184    88538008.620  
  22045667.621   115850764.395    22045664.940    90273309.449    22045664.333  
                                
  20210475.344   106206764.447    20210472.360    82758504.004    20210471.967  
  20210478.650    79310258.471  
  20711638.182   108840392.823    20711634.822    84810680.037    20711634.411  
  20711641.184    81276928.188  
  20809591.949   109355143.750    20809591.270    85211795.242    20809590.680  
  20809594.093    81661316.910  
  24249938.170   127434284.114    24249938.134    99299439.546    24249937.509  
  24249940.511    95161974.845  
  23742544.582   124767914.056    23742545.547    97221753.458    23742545.047  
  23742547.013    93170853.745  
  22327498.905   119562742.398    22327496.136    92993231.886    22327495.224  
                                
  20068004.802   107274986.729    20068002.926    83436092.575    20068001.800  
                                
  22533908.421   120118411.874    22533908.260    93425430.402    22533907.474  
                                
  22725462.882   121565900.981    22725462.775    94551255.647    22725461.167  
                                
  19736012.758   105537329.384    19736013.365    82084592.359    19736011.292  
                                
  22060411.370   118049717.792    22060409.440    91816438.405    22060408.600  
                                
  25727980.802   135201452.448                                                  
  25727987.163   100962147.263  
  23485172.077   123415412.224                                                  
  23485177.491    92160880.939  
  23931656.705   125761705.107                                                  
  23931662.227    93912982.009  
  24951773.584   131122455.157                                                  
  24951780.375    97916144.467  
 21  8 31 20 19 42.0000000  0 17G10G15G18G23G24G27G32R 4R 5R14R19R20
                                R21E 3E 5E 9E36
  22561553.336   118561762.903    22561552.514    92385785.475    22561552.354  
  22561553.587    88536381.584  
  22046211.947   115853624.951    22046209.285    90275538.454    22046208.677  
                                
  20210661.110   106207740.699    20210658.144    82759264.720    20210657.751  
  20210664.434    79310987.500  
  20711476.217   108839541.710    20711472.858    84810016.829    20711472.465  
  20711479.237    81276292.616  
  20809429.108   109354287.965    20809428.429    85211128.399    20809427.840  
  20809431.235    81660677.859  
  24249904.004   127434104.522    24249903.951    99299299.603    24249903.343  
  24249906.345    95161840.733  
  23742013.712   124765124.352    23742014.694    97219579.661    23742014.194  
  23742016.178    93168770.547  
  22327980.368   119565320.682    22327977.599    92995237.216    22327976.687  
                                
  20068129.831   107275654.985    20068127.919    83436612.325    20068126.812  
                                
  22533835.301   120118022.115    22533835.140    93425127.254    22533834.372  
                                
  22726302.154   121570390.489    22726302.047    94554747.479    22726300.421  
                                
  19736247.646   105538585.407    19736248.253    82085569.264    19736246.181  
                                
  22059834.486   118046630.682    22059832.538    91814037.317    22059831.698  
                                
  25727653.352   135199731.679                                                  
  25727659.695   100960862.273  
  23485227.132   123415701.561                                                  
  23485232.528    92161097.004  
  23932047.948   125763761.093                                                  
  23932053.469    93914517.337  
  24952247.828   131124947.337                                                  
  24952254.618    97918005.508  
 21  8 31 20 19 43.0000000  0 17G10G15G18G23G24G27G32R 4R 5R14R19R20
                                R21E 3E 5E 9E36
  22561138.721   118559584.096    22561137.899    92384087.700    22561137.739  
  22561138.972    88534754.550  
  22046756.327   115856485.643    22046753.664    90277767.561    22046753.057  
                                
  20210847.020   106208717.542    20210844.036    82760025.899    20210843.625  
  20210850.308    79311716.949  
  20711314.288   108838690.770    20711310.929    84809353.754    20711310.535  
  20711317.308    81275657.165  
  20809266.375   109353432.820    20809265.696    85210462.052    20809265.106  
  20809268.501    81660039.270  
  24249869.910   127433925.445    24249869.857    99299160.066    24249869.267  
  24249872.251    95161707.004  
  23741482.894   124762334.851    23741483.859    97217406.019    23741483.359  
  23741485.342    93166687.469  
  22328461.831   119567898.885    22328459.062    92997242.485    22328458.150  
                                
  20068254.879   107276323.435    20068252.985    83437132.231    20068251.877  
                                
  22533762.306   120117633.097    22533762.163    93424824.689    22533761.395  
                                
  22727141.427   121574880.134    22727141.355    94558239.416    22727139.729  
                                
  19736482.695   105539842.282    19736483.303    82086546.833    19736481.212  
                                
  22059257.692   118043544.146    22059255.744    91811636.678    22059254.904  
                                
  25727325.920   135198011.033                                                  
  25727332.281   100959577.366  
  23485282.240   123415991.073                                                  
  23485287.654    92161313.186  
  23932439.208   125765817.082                                                  
  23932444.711    93916052.636  
  24952722.126   131127439.764                                                  
  24952728.898    97919866.731  
 21  8 31 20 19 44.0000000  0 17G10G15G18G23G24G27G32R 4R 5R14R19R20
                                R21E 3E 5E 9E36
  22560724.142   118557405.397    22560723.302    92382390.015    22560723.142  
  22560724.375    88533127.617  
  22047300.742   115859346.548    22047298.062    90279996.836    22047297.454  
                                
  20211033.018   106209695.048    20211030.052    82760787.589    20211029.659  
  20211036.306    79312446.911  
  20711152.412   108837840.112    20711149.053    84808690.917    20711148.660  
  20711155.414    81275021.947  
  20809103.785   109352578.420    20809103.106    85209796.290    20809102.534  
  20809105.911    81659401.255  
  24249835.941   127433747.095    24249835.905    99299021.097    24249835.316  
  24249838.318    95161573.840  
  23740952.131   124759545.620    23740953.096    97215232.614    23740952.595  
  23740954.561    93164604.625  
  22328943.294   119570477.130    22328940.524    92999247.771    22328939.613  
                                
  20068379.980   107276992.172    20068378.068    83437652.364    20068376.960  
                                
  22533689.508   120117244.960    22533689.347    93424522.807    22533688.561  
                                
  22727980.788   121579370.009    22727980.681    94561731.565    22727979.055  
                                
  19736717.905   105541100.103    19736718.513    82087525.138    19736716.440  
                                
  22058681.005   118040458.309    22058679.075    91809236.587    22058678.235  
                                
  25726998.541   135196290.660                                                  
  25727004.903   100958292.685  
  23485337.366   123416280.850                                                  
  23485342.780    92161529.586  
  23932830.450   125767873.133                                                  
  23932835.954    93917588.005  
  24953196.477   131129932.546                                                  
  24953203.267    97921728.231  
 21  8 31 20 19 45.0000000  0 17G10G15G18G23G24G27G32R 4R 5R14R19R20
                                R21E 3E 5E 9E36
  22560309.509   118555226.554    22560308.687    92380692.223    22560308.527  
  22560309.742    88531500.557  
  22047845.140   115862207.415    22047842.460    90282226.081    22047841.870  
                                
  20211219.124   106210672.970    20211216.140    82761549.609    20211215.729  
  20211222.394    79313177.172  
  20710990.555   108836989.479    20710987.195    84808028.087    20710986.784  
  20710993.557    81274386.730  
  20808941.284   109351724.499    20808940.605    85209130.901    20808940.033  
  20808943.410    81658763.580  
  24249802.079   127433569.074    24249802.044    99298882.381    24249801.436  
  24249804.438    95161440.900  
  23740421.367   124756756.421    23740422.314    97213059.206    23740421.814  
  23740423.797    93162521.767  
  22329424.721   119573055.163    22329421.952    93001252.908    22329421.040  
                                
  20068505.081   107277660.924    20068503.187    83438172.504    20068502.061  
                                
  22533616.781   120116857.401    22533616.638    93424221.372    22533615.869  
                                
  22728820.114   121583859.866    22728820.025    94565223.671    22728818.381  
                                
  19736953.258   105542358.620    19736953.865    82088503.982    19736951.793  
                                
  22058104.443   118037372.873    22058102.477    91806836.803    22058101.638  
                                
  25726671.163   135194570.251                                                  
  25726677.524   100957007.966  
  23485392.509   123416570.627                                                  
  23485397.906    92161745.978  
  23933221.674   125769929.022                                                  
  23933227.196    93919123.238  
  24953670.864   131132425.401                                                  
  24953677.654    97923589.776  
 21  8 31 20 19 46.0000000  0 17G10G15G18G23G24G27G32R 4R 5R14R19R20
                                R21E 3E 5E 9E36
  22559894.877   118553047.606    22559894.055    92378994.346    22559893.894  
  22559895.109    88529873.418  
  22048389.538   115865068.288    22048386.857    90284455.332    22048386.268  
                                
  20211405.284   106211651.333    20211402.317    82762311.965    20211401.924  
  20211408.572    79313907.761  
  20710828.679   108836138.903    20710825.320    84807365.298    20710824.927  
  20710831.699    81273751.555  
  20808778.890   109350871.070    20808778.211    85208465.892    20808777.622  
  20808780.999    81658126.286  
  24249768.289   127433391.481    24249768.235    99298744.002    24249767.646  
  24249770.630    95161308.273  
  23739890.586   124753967.248    23739891.551    97210885.831    23739891.050  
  23739893.034    93160438.958  
  22329906.113   119575633.029    22329903.361    93003257.912    22329902.432  
                                
  20068630.182   107278329.726    20068628.306    83438692.691    20068627.180  
                                
  22533544.197   120116470.467    22533544.054    93423920.423    22533543.285  
                                
  22729659.440   121588349.697    22729659.351    94568715.760    22729657.742  
                                
  19737188.736   105543617.841    19737189.343    82089483.377    19737187.271  
                                
  22057527.917   118034287.878    22057525.987    91804437.359    22057525.147  
                                
  25726343.785   135192849.878                                                  
  25726350.146   100955723.266  
  23485447.671   123416860.457                                                  
  23485453.067    92161962.403  
  23933612.881   125771984.762                                                  
  23933618.385    93920658.368  
  24954145.268   131134918.370                                                  
  24954152.059    97925451.400  
 21  8 31 20 19 47.0000000  0 17G10G15G18G23G24G27G32R 4R 5R14R19R20
                                R21E 3E 5E 9E36
  22559480.226   118550868.681    22559479.404    92377296.482    22559479.243  
  22559480.458    88528246.306  
  22048933.989   115867929.296    22048931.309    90286684.687    22048930.701  
                                
  20211591.586   106212630.283    20211588.602    82763074.785    20211588.191  
  20211594.856    79314638.799  
  20710666.857   108835288.518    20710663.498    84806702.658    20710663.105  
  20710669.877    81273116.533  
  20808616.604   109350018.305    20808615.925    85207801.402    20808615.353  
  20808618.730    81657489.482  
  24249734.606   127433214.469    24249734.552    99298606.066    24249733.945  
  24249736.947    95161176.076  
  23739359.858   124751178.292    23739360.823    97208712.619    23739360.323  
  23739362.324    93158356.310  
  22330387.522   119578210.876    22330384.753    93005262.902    22330383.823  
                                
  20068755.337   107278998.743    20068753.442    83439213.035    20068752.335  
                                
  22533471.756   120116084.265    22533471.595    93423620.044    22533470.809  
                                
  22730498.802   121592839.686    22730498.730    94572207.973    22730497.086  
                                
  19737424.393   105544877.920    19737425.000    82090463.433    19737422.909  
                                
  22056951.534   118031203.470    22056949.586    91802038.374    22056948.746  
                                
  25726016.424   135191129.663                                                  
  25726022.786   100954438.694  
  23485502.851   123417150.453                                                  
  23485508.247    92162178.968  
  23934004.070   125774040.499                                                  
  23934009.591    93922193.501  
  24954619.691   131137411.595                                                  
  24954626.481    97927313.233  
 21  8 31 20 19 48.0000000  0 17G10G15G18G23G24G27G32R 4R 5R14R19R20
                                R21E 3E 5E 9E36
  22559065.611   118548689.897    22559064.789    92375598.733    22559064.628  
  22559065.861    88526619.292  
  22049478.458   115870790.559    22049475.778    90288914.243    22049475.188  
                                
  20211777.996   106213609.928    20211775.030    82763838.147    20211774.619  
  20211781.284    79315370.352  
  20710505.107   108834438.437    20710501.748    84806040.255    20710501.337  
  20710508.109    81272481.731  
  20808454.478   109349166.302    20808453.781    85207137.501    20808453.209  
  20808456.605    81656853.242  
  24249701.030   127433038.106    24249700.994    99298468.633    24249700.405  
  24249703.389    95161044.380  
  23738829.219   124748389.642    23738830.167    97206539.645    23738829.666  
  23738831.650    93156273.867  
  22330868.914   119580788.765    22330866.162    93007267.931    22330865.215  
                                
  20068880.563   107279668.086    20068878.651    83439733.638    20068877.543  
                                
  22533399.458   120115698.893    22533399.315    93423320.315    22533398.529  
                                
  22731338.217   121597329.940    22731338.127    94575700.389    22731336.483  
                                
  19737660.192   105546138.972    19737660.818    82091444.251    19737658.745  
                                
  22056375.275   118028119.757    22056373.310    91799639.931    22056372.470  
                                
  25725689.153   135189409.701                                                  
  25725695.479   100953154.315  
  23485558.102   123417440.758                                                  
  23485563.498    92162395.749  
  23934395.276   125776096.341                                                  
  23934400.780    93923728.712  
  24955094.221   131139905.198                                                  
  24955101.011    97929175.333  
 21  8 31 20 19 49.0000000  0 17G10G15G18G23G24G27G32R 4R 5R14R19R20
                                R21E 3E 5E 9E36
  22558651.068   118546511.380    22558650.246    92373901.187    22558650.085  
  22558651.300    88524992.475  
  22050023.034   115873652.192    22050020.354    90291144.089    22050019.746  
                                
  20211964.566   106214590.400    20211961.600    82764602.147    20211961.207  
  20211967.854    79316102.516  
  20710343.410   108833588.777    20710340.051    84805378.193    20710339.658  
  20710346.430    81271847.257  
  20808292.531   109348315.168    20808291.834    85206474.280    20808291.245  
  20808294.640    81656217.660  
  24249667.615   127432862.508    24249667.579    99298331.822    24249666.990  
  24249669.956    95160913.274  
  23738298.635   124745601.432    23738299.582    97204367.014    23738299.081  
  23738301.065    93154191.762  
  22331350.341   119583366.825    22331347.607    93009273.066    22331346.660  
                                
  20069005.842   107280337.879    20069003.966    83440254.567    20069002.840  
                                
  22533327.320   120115314.528    22533327.195    93423021.359    22533326.409  
                                
  22732177.686   121601820.562    22732177.596    94579193.071    22732175.988  
                                
  19737896.242   105547401.123    19737896.850    82092425.924    19737894.777  
                                
  22055799.160   118025036.851    22055797.195    91797242.111    22055796.355  
                                
  25725361.918   135187690.149                                                  
  25725368.279   100951870.237  
  23485613.424   123417731.474                                                  
  23485618.821    92162612.838  
  23934786.518   125778152.421                                                  
  23934792.040    93925264.085  
  24955568.822   131142399.277                                                  
  24955575.630    97931037.796  
 21  8 31 20 19 50.0000000  0 17G10G15G18G23G24G27G32R 4R 5R14R19R20
                                R21E 3E 5E 9E36
  22558236.506   118544332.881    22558235.702    92372203.653    22558235.541  
  22558236.756    88523365.671  
  22050567.611   115876513.972    22050564.930    90293374.045    22050564.323  
                                
  20212151.262   106215571.428    20212148.278    82765366.584    20212147.885  
  20212154.550    79316835.108  
  20710181.767   108832739.309    20710178.408    84804716.273    20710178.015  
  20710184.769    81271212.915  
  20808130.691   109347464.689    20808129.995    85205811.571    20808129.405  
  20808132.800    81655582.555  
  24249634.325   127432687.495    24249634.271    99298195.448    24249633.664  
  24249636.666    95160782.583  
  23737768.085   124742813.360    23737769.032    97202194.490    23737768.532  
  23737770.533    93152109.776  
  22331831.786   119585944.858    22331829.016    93011278.205    22331828.105  
                                
  20069131.194   107281007.879    20069129.300    83440775.675    20069128.192  
                                
  22533255.362   120114930.915    22533255.219    93422722.999    22533254.451  
                                
  22733017.208   121606311.367    22733017.137    94582685.910    22733015.493  
                                
  19738132.417   105548664.131    19738133.042    82093408.261    19738130.952  
                                
  22055223.134   118021954.540    22055221.205    91794844.765    22055220.347  
                                
  25725034.736   135185970.738                                                  
  25725041.097   100950586.261  
  23485668.764   123418022.340                                                  
  23485674.179    92162830.049  
  23935177.778   125780208.483                                                  
  23935183.300    93926799.459  
  24956043.495   131144893.611                                                  
  24956050.267    97932900.448  
 21  8 31 20 19 51.0000000  0 17G10G15G18G23G24G27G32R 4R 5R14R19R20
                                R21E 3E 5E 9E36
  22557821.909   118542154.185    22557821.087    92370505.968    22557820.926  
  22557822.141    88521738.730  
  22051112.169   115879375.661    22051109.489    90295603.932    22051108.881  
                                
  20212338.011   106216552.833    20212335.045    82766131.313    20212334.652  
  20212341.299    79317567.976  
  20710020.124   108831889.819    20710016.747    84804054.337    20710016.354  
  20710023.126    81270578.559  
  20807968.923   109346614.632    20807968.226    85205149.187    20807967.637  
  20807971.050    81654947.783  
  24249601.071   127432512.831    24249601.035    99298059.344    24249600.445  
  24249603.429    95160652.152  
  23737237.536   124740025.308    23737238.483    97200021.984    23737237.965  
  23737239.966    93150027.778  
  22332313.160   119588522.643    22332310.408    93013283.144    22332309.479  
                                
  20069256.509   107281677.848    20069254.633    83441296.760    20069253.507  
                                
  22533183.493   120114547.797    22533183.350    93422425.025    22533182.581  
                                
  22733856.695   121610802.043    22733856.623    94586178.651    22733854.979  
                                
  19738368.735   105549927.789    19738369.342    82094391.105    19738367.269  
                                
  22054647.198   118018872.633    22054645.268    91792447.730    22054644.410  
                                
  25724707.518   135184251.275                                                  
  25724713.880   100949302.248  
  23485724.105   123418313.191                                                  
  23485729.519    92163047.243  
  23935569.003   125782264.331                                                  
  23935574.524    93928334.674  
  24956518.132   131147387.977                                                  
  24956524.940    97934763.131  
 21  8 31 20 19 52.0000000  0 17G10G15G18G23G24G27G32R 4R 5R14R19R20
                                R21E 3E 5E 9E36
  22557407.384   118539975.733    22557406.562    92368808.475    22557406.401  
  22557407.598    88520111.961  
  22051656.781   115882237.696    22051654.101    90297834.092    22051653.511  
                                
  20212524.921   106217535.037    20212521.937    82766896.665    20212521.562  
  20212528.209    79318301.436  
  20709858.534   108831040.733    20709855.175    84803392.710    20709854.764  
  20709861.554    81269944.502  
  20807807.316   109345765.447    20807806.637    85204487.486    20807806.065  
  20807809.442    81654313.638  
  24249567.977   127432338.915    24249567.942    99297923.827    24249567.352  
  24249570.318    95160522.286  
  23736707.041   124737237.632    23736708.006    97197849.771    23736707.505  
  23736709.507    93147946.087  
  22332794.587   119591100.571    22332791.817    93015288.199    22332790.906  
                                
  20069381.932   107282348.230    20069380.038    83441818.168    20069378.912  
                                
  22533111.784   120114165.646    22533111.659    93422127.801    22533110.873  
                                
  22734696.253   121615293.083    22734696.164    94589671.673    22734694.555  
                                
  19738605.267   105551192.526    19738605.857    82095374.789    19738603.784  
                                
  22054071.422   118015791.502    22054069.457    91790051.295    22054068.617  
                                
  25724380.390   135182532.178                                                  
  25724386.751   100948018.505  
  23485779.517   123418604.420                                                  
  23485784.931    92163264.722  
  23935960.263   125784320.385                                                  
  23935965.784    93929870.039  
  24956992.894   131149882.816                                                  
  24956999.684    97936626.155  
 21  8 31 20 19 53.0000000  0 17G10G15G18G23G24G27G32R 4R 5R14R19R20
                                R21E 3E 5E 9E36
  22556992.876   118537797.497    22556992.054    92367111.151    22556991.893  
  22556993.108    88518485.359  
  22052201.465   115885100.062    22052198.784    90300064.510    22052198.195  
                                
  20212711.992   106218518.030    20212709.008    82767662.636    20212708.597  
  20212715.262    79319035.482  
  20709697.034   108830192.050    20709693.657    84802731.400    20709693.282  
  20709700.036    81269310.745  
  20807645.887   109344917.101    20807645.208    85203826.440    20807644.618  
  20807647.995    81653680.140  
  24249535.045   127432165.794    24249534.991    99297788.928    24249534.401  
  24249537.386    95160393.001  
  23736176.634   124734450.361    23736177.599    97195677.874    23736177.099  
  23736179.100    93145864.683  
  22333276.014   119593678.634    22333273.262    93017293.354    22333272.333  
                                
  20069507.408   107283019.005    20069505.514    83442339.880    20069504.406  
                                
  22533040.290   120113784.472    22533040.147    93421831.334    22533039.361  
                                
  22735535.883   121619784.479    22735535.793    94593164.981    22735534.149  
                                
  19738841.960   105552458.335    19738842.568    82096359.305    19738840.495  
                                
  22053495.790   118012711.133    22053493.824    91787655.455    22053492.984  
                                
  25724053.315   135180813.440                                                  
  25724059.677   100946735.038  
  23485835.036   123418896.031                                                  
  23485840.432    92163482.481  
  23936351.559   125786376.641                                                  
  23936357.080    93931405.548  
  24957467.745   131152378.109                                                  
  24957474.535    97938489.522  
 21  8 31 20 19 54.0000000  0 17G10G15G18G23G24G27G32R 4R 5R14R19R20
                                R21E 3E 5E 9E36
  22556578.404   118535619.482    22556577.582    92365413.990    22556577.421  
  22556578.636    88516858.913  
  22052746.220   115887962.761    22052743.539    90302295.174    22052742.950  
                                
  20212899.188   106219501.781    20212896.203    82768429.195    20212895.828  
  20212902.458    79319770.103  
  20709535.605   108829343.727    20709532.228    84802070.367    20709531.853  
  20709538.607    81268677.257  
  20807484.601   109344069.608    20807483.922    85203166.052    20807483.350  
  20807486.745    81653047.265  
  24249502.237   127431993.395    24249502.201    99297654.577    24249501.594  
  24249504.578    95160264.257  
  23735646.318   124731663.465    23735647.283    97193506.267    23735646.746  
  23735648.748    93143783.571  
  22333757.477   119596256.855    22333754.725    93019298.633    22333753.796  
                                
  20069632.974   107283690.154    20069631.080    83442861.894    20069629.972  
                                
  22532968.939   120113404.208    22532968.814    93421535.567    22532968.028  
                                
  22736375.548   121624276.215    22736375.459    94596658.558    22736373.850  
                                
  19739078.885   105553725.207    19739079.475    82097344.652    19739077.402  
                                
  22052920.282   118009631.551    22052918.334    91785260.215    22052917.494  
                                
  25723726.330   135179095.047                                                  
  25723732.692   100945451.812  
  23485890.573   123419188.014                                                  
  23485895.987    92163700.523  
  23936742.873   125788433.050                                                  
  23936748.394    93932941.180  
  24957942.668   131154873.837                                                  
  24957949.458    97940353.212  
 21  8 31 20 19 55.0000000  0 17G10G15G18G23G24G27G32R 4R 5R14R19R20
                                R21E 3E 5E 9E36
  22556164.003   118533441.784    22556163.181    92363717.082    22556163.038  
  22556164.253    88515232.703  
  22053291.064   115890825.870    22053288.384    90304526.168    22053287.794  
                                
  20213086.544   106220486.403    20213083.578    82769196.428    20213083.185  
  20213089.850    79320505.366  
  20709374.266   108828495.898    20709370.907    84801409.718    20709370.513  
  20709377.268    81268044.131  
  20807323.530   109343223.023    20807322.815    85202506.373    20807322.243  
  20807325.638    81652415.075  
  24249469.608   127431821.880    24249469.573    99297520.918    24249468.965  
  24249471.949    95160136.151  
  23735116.072   124728877.051    23735117.037    97191335.037    23735116.537  
  23735118.502    93141702.785  
  22334238.994   119598835.363    22334236.242    93021304.137    22334235.313  
                                
  20069758.611   107284361.798    20069756.735    83443384.281    20069755.609  
                                
  22532897.803   120113025.019    22532897.678    93421240.644    22532896.891  
                                
  22737215.321   121628768.369    22737215.249    94600152.444    22737213.623  
                                
  19739315.989   105554993.186    19739316.615    82098330.856    19739314.524  
                                
  22052344.953   118006552.861    22052343.005    91782865.681    22052342.148  
                                
  25723399.399   135177377.095                                                  
  25723405.760   100944168.923  
  23485946.235   123419480.452                                                  
  23485951.631    92163918.895  
  23937134.258   125790489.763                                                  
  23937139.779    93934477.034  
  24958417.698   131157370.111                                                  
  24958424.470    97942217.306  
 21  8 31 20 19 56.0000000  0 17G10G15G18G23G24G27G32R 4R 5R14R19R20
                                R21E 3E 5E 9E36
  22555749.603   118531264.168    22555748.799    92362020.231    22555748.638  
  22555749.835    88513606.565  
  22053835.926   115893689.164    22053833.246    90306757.307    22053832.639  
                                
  20213274.044   106221471.667    20213271.078    82769964.162    20213270.685  
  20213277.350    79321241.125  
  20709212.980   108827648.320    20709209.621    84800749.264    20709209.210  
  20709216.000    81267411.209  
  20807162.548   109342377.156    20807161.869    85201847.258    20807161.279  
  20807164.674    81651783.426  
  24249437.069   127431650.957    24249437.033    99297387.733    24249436.443  
  24249439.410    95160008.525  
  23734585.880   124726090.880    23734586.827    97189163.998    23734586.327  
  23734588.328    93139622.218  
  22334720.528   119601413.874    22334717.776    93023309.643    22334716.847  
                                
  20069884.301   107285033.690    20069882.425    83443906.862    20069881.299  
                                
  22532826.827   120112646.643    22532826.684    93420946.354    22532825.898  
                                
  22738055.129   121633260.739    22738055.040    94603646.500    22738053.431  
                                
  19739553.290   105556262.139    19739553.898    82099317.821    19739551.825  
                                
  22051769.749   118003474.814    22051767.801    91780471.644    22051766.944  
                                
  25723072.538   135175659.368                                                  
  25723078.900   100942886.206  
  23486001.915   123419773.131                                                  
  23486007.329    92164137.463  
  23937525.643   125792546.521                                                  
  23937531.164    93936012.931  
  24958892.782   131159866.704                                                  
  24958899.590    97944081.643  
 21  8 31 20 19 57.0000000  0 17G10G15G18G23G24G27G32R 4R 5R14R19R20
                                R21E 3E 5E 9E36
  22555335.256   118529086.661    22555334.434    92360323.472    22555334.273  
  22555335.488    88511980.500  
  22054380.842   115896552.681    22054378.144    90308988.621    22054377.537  
                                
  20213461.669   106222457.598    20213458.702    82770732.420    20213458.309  
  20213464.957    79321977.369  
  20709051.748   108826801.022    20709048.371    84800089.034    20709047.995  
  20709054.750    81266778.481  
  20807001.727   109341532.021    20807001.048    85201188.715    20807000.458  
  20807003.853    81651152.320  
  24249404.672   127431480.671    24249404.619    99297255.050    24249404.029  
  24249407.013    95159881.374  
  23734055.742   124723305.009    23734056.707    97186993.191    23734056.207  
  23734058.172    93137541.847  
  22335202.045   119603992.401    22335199.293    93025315.161    22335198.364  
                                
  20070010.046   107285705.880    20070008.170    83444429.676    20070007.044  
                                
  22532755.994   120112269.088    22532755.851    93420652.702    22532755.065  
                                
  22738894.973   121637753.341    22738894.902    94607140.744    22738893.275  
                                
  19739790.769   105557532.000    19739791.377    82100305.496    19739789.286  
                                
  22051194.670   118000397.416    22051192.723    91778078.115    22051191.865  
                                
  25722745.696   135173941.865                                                  
  25722752.057   100941603.663  
  23486057.666   123420066.077                                                  
  23486063.080    92164356.221  
  23937917.064   125794603.370                                                  
  23937922.585    93937548.890  
  24959367.919   131162363.621                                                  
  24959374.709    97945946.230  
 21  8 31 20 19 58.0000000  0 17G10G15G18G23G24G27G32R 4R 5R14R19R20
                                R21E 3E 5E 9E36
  22554920.873   118526909.130    22554920.069    92358626.697    22554919.908  
  22554921.106    88510354.426  
  22054925.758   115899416.291    22054923.078    90311220.006    22054922.470  
                                
  20213649.383   106223444.060    20213646.417    82771501.091    20213646.023  
  20213652.671    79322714.022  
  20708890.534   108825953.861    20708887.156    84799428.913    20708886.781  
  20708893.536    81266145.866  
  20806841.013   109340687.486    20806840.316    85200530.639    20806839.744  
  20806843.139    81650521.666  
  24249372.383   127431310.904    24249372.312    99297122.764    24249371.722  
  24249374.706    95159754.618  
  23733525.640   124720519.272    23733526.605    97184822.483    23733526.069  
  23733528.070    93135461.598  
  22335683.543   119606570.807    22335680.791    93027320.589    22335679.862  
                                
  20070135.826   107286378.237    20070133.950    83444952.621    20070132.806  
                                
  22532685.286   120111892.229    22532685.161    93420359.593    22532684.357  
                                
  22739734.853   121642246.039    22739734.763    94610635.058    22739733.137  
                                
  19740028.392   105558802.688    19740028.999    82101293.806    19740026.926  
                                
  22050619.663   117997320.516    22050617.733    91775684.971    22050616.876  
                                
  25722418.890   135172224.506                                                  
  25722425.251   100940321.217  
  23486113.435   123420359.155                                                  
  23486118.849    92164575.074  
  23938308.431   125796660.163                                                  
  23938313.971    93939084.804  
  24959843.110   131164860.760                                                  
  24959849.900    97947810.981  
 21  8 31 20 19 59.0000000  0 17G10G15G18G23G24G27G32R 4R 5R14R19R20
                                R21E 3E 5E 9E36
  22554506.455   118524731.305    22554505.633    92356929.694    22554505.472  
  22554506.705    88508728.129  
  22055470.656   115902279.726    22055467.958    90313451.247    22055467.368  
                                
  20213837.133   106224430.827    20213834.184    82772270.000    20213833.791  
  20213840.438    79323450.882  
  20708729.301   108825106.613    20708725.942    84798768.706    20708725.549  
  20708732.303    81265513.160  
  20806680.370   109339843.325    20806679.673    85199872.842    20806679.101  
  20806682.496    81649891.266  
  24249340.129   127431141.487    24249340.076    99296990.741    24249339.486  
  24249342.470    95159628.061  
  23732995.520   124717733.430    23732996.467    97182651.685    23732995.948  
  23732997.950    93133381.235  
  22336164.988   119609148.891    22336162.219    93029325.779    22336161.307  
                                
  20070261.588   107287050.538    20070259.712    83445475.536    20070258.568  
                                
  22532614.668   120111515.835    22532614.543    93420066.835    22532613.757  
                                
  22740574.679   121646738.549    22740574.625    94614129.230    22740572.981  
                                
  19740266.121   105560073.950    19740266.729    82102282.563    19740264.656  
                                
  22050044.727   117994243.925    22050042.797    91773292.075    22050041.922  
                                
  25722092.065   135170506.991                                                  
  25722098.426   100939038.668  
  23486169.186   123420652.125                                                  
  23486174.601    92164793.846  
  23938699.799   125798716.677                                                  
  23938705.338    93940620.504  
  24960318.301   131167357.855                                                  
  24960325.091    97949675.680  
 21  8 31 20 20  0.0000000  0 17G10G15G18G23G24G27G32R 4R 5R14R19R20
                                R21E 3E 5E 9E36
  22554092.036   118522553.557    22554091.232    92355232.745    22554091.072  
  22554092.287    88507101.891  
  22056015.590   115905143.343    22056012.910    90315682.636    22056012.284  
                                
  20214025.043   106225418.201    20214022.077    82773039.385    20214021.684  
  20214028.331    79324188.203  
  20708568.123   108824259.590    20708564.763    84798108.688    20708564.352  
  20708571.125    81264880.637  
  20806519.853   109338999.829    20806519.174    85199215.570    20806518.602  
  20806521.979    81649261.383  
  24249307.965   127430972.565    24249307.929    99296859.119    24249307.340  
  24249310.306    95159501.925  
  23732465.435   124714947.814    23732466.364    97180481.077    23732465.864  
  23732467.865    93131301.060  
  22336646.416   119611726.987    22336643.664    93031330.964    22336642.735  
                                
  20070387.404   107287723.057    20070385.528    83445998.606    20070384.384  
                                
  22532544.211   120111140.221    22532544.068    93419774.693    22532543.281  
                                
  22741414.559   121651231.283    22741414.487    94617623.567    22741412.861  
                                
  19740504.011   105561346.083    19740504.619    82103272.000    19740502.564  
                                
  22049469.934   117991167.987    22049467.987    91770899.677    22049467.129  
                                
  25721765.259   135168789.669                                                  
  25721771.656   100937756.251  
  23486224.991   123420945.300                                                  
  23486230.388    92165012.768  
  23939091.130   125800773.195                                                  
  23939096.670    93942156.213  
  24960793.546   131169855.250                                                  
  24960800.336    97951540.611  
 21  8 31 20 20  1.0000000  0 17G10G15G18G23G24G27G32R 4R 5R14R19R20
                                R21E 3E 5E 9E36
  22553677.636   118520375.859    22553676.814    92353535.842    22553676.671  
  22553677.886    88505475.685  
  22056560.541   115908007.100    22056557.861    90317914.138    22056557.236  
                                
  20214213.025   106226406.148    20214210.077    82773809.216    20214209.666  
  20214216.331    79324925.968  
  20708406.980   108823412.746    20708403.603    84797448.810    20708403.228  
  20708409.982    81264248.265  
  20806359.478   109338156.977    20806358.781    85198558.804    20806358.192  
  20806361.587    81648631.988  
  24249275.944   127430804.248    24249275.908    99296727.962    24249275.301  
  24249278.285    95159376.222  
  23731935.386   124712162.377    23731936.333    97178310.612    23731935.815  
  23731937.816    93129221.041  
  22337127.861   119614305.061    22337125.091    93033336.131    22337124.180  
                                
  20070513.255   107288395.755    20070511.361    83446521.810    20070510.235  
                                
  22532473.878   120110765.366    22532473.735    93419483.139    22532472.949  
                                
  22742254.474   121655724.125    22742254.385    94621117.992    22742252.777  
                                
  19740742.098   105562619.106    19740742.688    82104262.124    19740740.615  
                                
  22048895.231   117988092.663    22048893.283    91768507.756    22048892.426  
                                
  25721438.506   135167072.500                                                  
  25721444.867   100936473.958  
  23486280.796   123421238.648                                                  
  23486286.211    92165231.836  
  23939482.480   125802829.721                                                  
  23939488.001    93943691.933  
  24961268.808   131172352.879                                                  
  24961275.598    97953405.728  
 21  8 31 20 20  2.0000000  0 17G10G15G18G23G24G27G32R 4R 5R14R19R20
                                R21E 3E 5E 9E36
  22553263.235   118518198.234    22553262.431    92351838.989    22553262.271  
  22553263.503    88503849.541  
  22057105.547   115910871.052    22057102.831    90320145.788    22057102.241  
                                
  20214401.168   106227394.760    20214398.220    82774579.564    20214397.809  
  20214404.456    79325664.212  
  20708245.873   108822566.175    20708242.514    84796789.144    20708242.120  
  20708248.875    81263616.081  
  20806199.211   109337314.843    20806198.532    85197902.600    20806197.960  
  20806201.337    81648003.124  
  24249244.030   127430636.524    24249243.994    99296597.264    24249243.387  
  24249246.371    95159250.987  
  23731405.373   124709377.210    23731406.320    97176140.358    23731405.802  
  23731407.803    93127141.213  
  22337609.306   119616883.154    22337606.536    93035341.312    22337605.607  
                                
  20070639.143   107289068.700    20070637.249    83447045.213    20070636.123  
                                
  22532403.689   120110391.318    22532403.563    93419192.217    22532402.795  
                                
  22743094.408   121660217.193    22743094.336    94624612.592    22743092.710  
                                
  19740980.328   105563893.046    19740980.918    82105252.961    19740978.863  
                                
  22048320.653   117985017.983    22048318.705    91766116.338    22048317.847  
                                
  25721111.788   135165355.566                                                  
  25721118.150   100935191.823  
  23486336.673   123421532.245                                                  
  23486342.087    92165451.078  
  23939873.829   125804886.294                                                  
  23939879.369    93945227.685  
  24961744.178   131174850.852                                                  
  24961750.968    97955271.089  
 21  8 31 20 20  3.0000000  0 17G10G15G18G23G24G27G32R 4R 5R14R19R20
                                R21E 3E 5E 9E36
  22552848.871   118516020.677    22552848.067    92350142.193    22552847.906  
  22552849.103    88502223.439  
  22057650.552   115913735.179    22057647.872    90322377.571    22057647.264  
                                
  20214589.401   106228383.992    20214586.452    82775350.394    20214586.041  
  20214592.706    79326402.919  
  20708084.837   108821719.828    20708081.460    84796129.648    20708081.067  
  20708087.821    81262984.068  
  20806039.087   109336473.404    20806038.408    85197246.932    20806037.836  
  20806041.213    81647374.767  
  24249212.241   127430469.419    24249212.187    99296467.054    24249211.580  
  24249214.564    95159126.199  
  23730875.396   124706592.265    23730876.343    97173970.281    23730875.842  
  23730877.844    93125061.547  
  22338090.751   119619461.214    22338087.963    93037346.465    22338087.034  
                                
  20070765.066   107289741.876    20070763.189    83447568.793    20070762.046  
                                
  22532333.678   120110018.082    22532333.553    93418901.922    22532332.784  
                                
  22743934.377   121664710.438    22743934.288    94628107.335    22743932.679  
                                
  19741218.737   105565167.920    19741219.326    82106244.533    19741217.271  
                                
  22047746.181   117981943.899    22047744.251    91763725.391    22047743.376  
                                
  25720785.107   135163638.829                                                  
  25720791.468   100933909.848  
  23486392.585   123421826.054                                                  
  23486397.981    92165670.483  
  23940265.196   125806942.913                                                  
  23940270.718    93946763.468  
  24962219.565   131177349.086                                                  
  24962226.355    97957136.657  
 21  8 31 20 20  4.0000000  0 17G10G15G18G23G24G27G32R 4R 5R14R19R20
                                R21E 3E 5E 9E36
  22552434.506   118513843.175    22552433.702    92348445.441    22552433.541  
  22552434.738    88500597.391  
  22058195.611   115916599.465    22058192.930    90324609.482    22058192.305  
                                
  20214777.758   106229373.835    20214774.810    82776121.693    20214774.434  
  20214781.064    79327142.087  
  20707923.820   108820873.712    20707920.442    84795470.348    20707920.067  
  20707926.821    81262352.241  
  20805879.105   109335632.635    20805878.408    85196591.787    20805877.836  
  20805881.232    81646746.928  
  24249180.541   127430302.851    24249180.488    99296337.268    24249179.898  
  24249182.882    95159001.855  
  23730345.490   124703807.562    23730346.419    97171800.387    23730345.919  
  23730347.920    93122982.072  
  22338572.178   119622039.232    22338569.390    93039351.586    22338568.479  
                                
  20070891.024   107290415.305    20070889.148    83448092.555    20070888.022  
                                
  22532263.810   120109645.632    22532263.685    93418612.209    22532262.899  
                                
  22744774.364   121669203.850    22744774.293    94631602.223    22744772.649  
                                
  19741457.306   105566443.660    19741457.896    82107236.773    19741455.841  
                                
  22047171.817   117978870.406    22047169.887    91761334.889    22047169.030  
                                
  25720458.443   135161922.259                                                  
  25720464.805   100932627.990  
  23486448.533   123422120.077                                                  
  23486453.929    92165890.048  
  23940656.546   125808999.551                                                  
  23940662.085    93948299.269  
  24962695.024   131179847.631                                                  
  24962701.814    97959002.441  
 21  8 31 20 20  5.0000000  0 17G10G15G18G23G24G27G32R 4R 5R14R19R20
                                R21E 3E 5E 9E36
  22552020.141   118511665.744    22552019.337    92346748.746    22552019.176  
  22552020.391    88498971.394  
  22058740.705   115919463.959    22058738.007    90326841.556    22058737.417  
                                
  20214966.240   106230364.314    20214963.310    82776893.497    20214962.899  
  20214969.546    79327881.737  
  20707762.855   108820027.842    20707759.496    84794811.229    20707759.085  
  20707765.875    81261720.590  
  20805719.249   109334792.579    20805718.552    85195937.197    20805717.962  
  20805721.375    81646119.611  
  24249148.985   127430136.954    24249148.913    99296208.003    24249148.323  
  24249151.325    95158877.967  
  23729815.620   124701023.117    23729816.567    97169630.698    23729816.049  
  23729818.050    93120902.778  
  22339053.605   119624617.250    22339050.836    93041356.706    22339049.906  
                                
  20071017.055   107291088.994    20071015.178    83448616.540    20071014.035  
                                
  22532194.067   120109273.956    22532193.960    93418323.130    22532193.174  
                                
  22745614.405   121673697.456    22745614.315    94635097.248    22745612.707  
                                
  19741696.036   105567720.321    19741696.662    82108229.733    19741694.571  
                                
  22046597.578   117975797.567    22046595.631    91758944.913    22046594.773  
                                
  25720131.833   135160205.932                                                  
  25720138.195   100931346.315  
  23486504.517   123422414.332                                                  
  23486509.931    92166109.786  
  23941047.931   125811056.247                                                  
  23941053.471    93949835.111  
  24963170.537   131182346.475                                                  
  24963177.327    97960868.467  
 21  8 31 20 20  6.0000000  0 17G10G15G18G23G24G27G32R 4R 5R14R19R20
                                R21E 3E 5E 9E36
  22551605.866   118509488.695    22551605.062    92345052.346    22551604.919  
  22551606.116    88497345.675  
  22059285.889   115922328.922    22059283.209    90329073.995    22059282.583  
                                
  20215154.919   106231355.729    20215151.953    82777666.028    20215151.560  
  20215158.207    79328622.075  
  20707601.998   108819182.519    20707598.621    84794152.536    20707598.246  
  20707605.000    81261089.335  
  20805559.589   109333953.523    20805558.892    85195283.390    20805558.303  
  20805561.698    81645493.046  
  24249117.589   127429971.977    24249117.535    99296079.449    24249116.927  
  24249119.912    95158754.750  
  23729285.839   124698239.176    23729286.786    97167461.401    23729286.268  
  23729288.269    93118823.866  
  22339535.104   119627195.596    22339532.316    93043362.087    22339531.423  
                                
  20071143.174   107291763.238    20071141.298    83449140.952    20071140.190  
                                
  22532124.539   120108903.378    22532124.414    93418034.907    22532123.645  
                                
  22746454.535   121678191.561    22746454.463    94638592.651    22746452.819  
                                
  19741935.016   105568998.223    19741935.624    82109223.655    19741933.551  
                                
  22046023.536   117972725.694    22046021.570    91756555.680    22046020.713  
                                
  25719805.313   135158490.087                                                  
  25719811.692   100930064.995  
  23486560.625   123422709.103                                                  
  23486566.022    92166329.907  
  23941439.370   125813113.281                                                  
  23941444.909    93951371.201  
  24963646.174   131184845.918                                                  
  24963652.964    97962734.932  
 21  8 31 20 20  7.0000000  0 17G10G15G18G23G24G27G32R 4R 5R14R19R20
                                R21E 3E 5E 9E36
  22551191.590   118507311.671    22551190.786    92343355.964    22551190.625  
  22551191.840    88495719.978  
  22059831.109   115925194.024    22059828.411    90331306.542    22059827.803  
                                
  20215343.670   106232347.713    20215340.722    82778439.003    20215340.328  
  20215346.976    79329362.845  
  20707441.159   108818337.377    20707437.800    84793493.981    20707437.407  
  20707444.161    81260458.221  
  20805400.037   109333115.107    20805399.340    85194630.077    20805398.768  
  20805402.163    81644866.954  
  24249086.282   127429807.536    24249086.246    99295951.313    24249085.639  
  24249088.623    95158631.962  
  23728756.130   124695455.435    23728757.041    97165292.254    23728756.541  
  23728758.542    93116745.107  
  22340016.567   119629773.904    22340013.815    93045367.428    22340012.886  
                                
  20071269.347   107292437.640    20071267.471    83449665.490    20071266.327  
                                
  22532055.171   120108533.548    22532055.046    93417747.266    22532054.278  
                                
  22747294.700   121682685.818    22747294.629    94642088.182    22747292.967  
                                
  19742174.158   105570276.970    19742174.747    82110218.234    19742172.674  
                                
  22045449.583   117969654.427    22045447.653    91754166.917    22045446.778  
                                
  25719478.846   135156774.406                                                  
  25719485.207   100928783.809  
  23486616.752   123423004.059                                                  
  23486622.148    92166550.166  
  23941830.827   125815170.300                                                  
  23941836.330    93952907.285  
  24964121.830   131187345.610                                                  
  24964128.638    97964601.581  
 21  8 31 20 20  8.0000000  0 17G10G15G18G23G24G27G32R 4R 5R14R19R20
                                R21E 3E 5E 9E36
  22550777.315   118505134.628    22550776.511    92341659.566    22550776.350  
  22550777.565    88494094.261  
  22060376.346   115928059.202    22060373.648    90333539.145    22060373.023  
                                
  20215532.546   106233340.243    20215529.597    82779212.403    20215529.204  
  20215535.851    79330104.016  
  20707280.374   108817492.382    20707277.014    84792835.541    20707276.621  
  20707283.376    81259827.220  
  20805240.609   109332277.301    20805239.912    85193977.239    20805239.341  
  20805242.718    81644241.315  
  24249055.119   127429643.638    24249055.047    99295823.596    24249054.457  
  24249057.424    95158509.547  
  23728226.420   124692671.864    23728227.349    97163123.245    23728226.849  
  23728228.815    93114666.449  
  22340498.066   119632352.149    22340495.278    93047372.725    22340494.367  
                                
  20071395.538   107293112.200    20071393.662    83450190.148    20071392.536  
                                
  22531985.911   120108164.458    22531985.821    93417460.199    22531985.017  
                                
  22748134.848   121687180.135    22748134.795    94645583.762    22748133.151  
                                
  19742413.424   105571556.524    19742414.049    82111213.442    19742411.959  
                                
  22044875.737   117966583.707    22044873.807    91751778.577    22044872.950  
                                
  25719152.361   135155058.833                                                  
  25719158.740   100927502.700  
  23486672.896   123423299.147                                                  
  23486678.311    92166770.522  
  23942222.248   125817227.284                                                  
  23942227.787    93954443.338  
  24964597.557   131189845.511                                                  
  24964604.365    97966468.388  
 21  8 31 20 20  9.0000000  0 17G10G15G18G23G24G27G32R 4R 5R14R19R20
                                R21E 3E 5E 9E36
  22550363.039   118502957.548    22550362.235    92339963.141    22550362.074  
  22550363.272    88492468.516  
  22060921.584   115930924.450    22060918.886    90335771.797    22060918.260  
                                
  20215721.528   106234333.287    20215718.562    82779986.203    20215718.169  
  20215724.798    79330845.575  
  20707119.606   108816647.513    20707116.247    84792177.200    20707115.854  
  20707122.608    81259196.312  
  20805081.271   109331440.068    20805080.592    85193324.849    20805080.020  
  20805083.415    81643616.115  
  24249024.009   127429480.169    24249023.937    99295696.233    24249023.365  
  24249026.349    95158387.508  
  23727696.747   124689888.414    23727697.658    97160954.318    23727697.158  
  23727699.159    93112587.905  
  22340979.511   119634930.230    22340976.741    93049377.922    22340975.812  
                                
  20071521.765   107293786.889    20071519.889    83450714.899    20071518.763  
                                
  22531916.811   120107796.012    22531916.704    93417173.625    22531915.900  
                                
  22748975.032   121691674.536    22748974.960    94649079.393    22748973.316  
                                
  19742652.887   105572836.887    19742653.476    82112209.278    19742651.403  
                                
  22044301.999   117963513.438    22044300.069    91749390.583    22044299.193  
                                
  25718825.911   135153343.346                                                  
  25718832.273   100926221.678  
  23486729.077   123423594.347                                                  
  23486734.473    92166990.966  
  23942613.651   125819284.165                                                  
  23942619.190    93955979.340  
  24965073.302   131192345.593                                                  
  24965080.110    97968335.346  
 21  8 31 20 20 10.0000000  0 17G10G15G18G23G24G27G32R 4R 5R14R19R20
                                R21E 3E 5E 9E36
  22549948.710   118500780.305    22549947.906    92338266.588    22549947.745  
  22549948.943    88490842.657  
  22061466.803   115933789.643    22061464.087    90338004.419    22061463.498  
                                
  20215910.565   106235326.718    20215907.598    82780760.310    20215907.223  
  20215913.870    79331587.427  
  20706958.839   108815802.656    20706955.461    84791518.879    20706955.068  
  20706961.841    81258565.412  
  20804922.058   109330603.301    20804921.361    85192672.823    20804920.789  
  20804924.185    81642991.250  
  24248992.970   127429317.087    24248992.916    99295569.156    24248992.309  
  24248995.311    95158265.731  
  23727167.073   124687104.952    23727167.984    97158785.391    23727167.484  
  23727169.485    93110509.352  
  22341460.902   119637508.090    22341458.132    93051382.924    22341457.221  
                                
  20071647.992   107294461.599    20071646.116    83451239.671    20071644.972  
                                
  22531847.783   120107428.161    22531847.694    93416887.516    22531846.908  
                                
  22749815.198   121696168.865    22749815.144    94652574.987    22749813.482  
                                
  19742892.421   105574117.897    19742893.028    82113205.619    19742890.973  
                                
  22043728.331   117960443.582    22043726.402    91747002.917    22043725.544  
                                
  25718499.462   135151627.850                                                  
  25718505.842   100924940.609  
  23486785.239   123423889.538                                                  
  23486790.671    92167211.396  
  23943005.036   125821340.873                                                  
  23943010.593    93957515.189  
  24965549.082   131194845.746                                                  
  24965555.872    97970202.341  
 21  8 31 20 20 11.0000000  0 17G10G15G18G23G24G27G32R 4R 5R14R19R20
                                R21E 3E 5E 9E36
  22549534.399   118498603.082    22549533.595    92336570.051    22549533.434  
  22549534.649    88489216.813  
  22062012.059   115936654.976    22062009.343    90340237.147    22062008.735  
                                
  20216099.708   106236320.742    20216096.760    82781534.874    20216096.385  
  20216102.996    79332329.715  
  20706798.107   108814957.984    20706794.730    84790860.690    20706794.319  
  20706801.109    81257934.655  
  20804762.952   109329767.186    20804762.256    85192021.305    20804761.666  
  20804765.079    81642366.883  
  24248962.057   127429154.624    24248962.003    99295442.564    24248961.395  
  24248964.380    95158144.394  
  23726637.435   124684321.686    23726638.347    97156616.626    23726637.828  
  23726639.830    93108430.941  
  22341942.294   119640085.898    22341939.524    93053387.886    22341938.613  
                                
  20071774.237   107295136.512    20071772.378    83451764.603    20071771.235  
                                
  22531778.916   120107061.051    22531778.809    93416601.988    22531778.040  
                                
  22750655.399   121700663.365    22750655.345    94656070.704    22750653.684  
                                
  19743132.134   105575399.777    19743132.759    82114202.637    19743130.686  
                                
  22043154.772   117957374.317    22043152.824    91744615.711    22043151.966  
                                
  25718173.049   135149912.495                                                  
  25718179.428   100923659.672  
  23486841.455   123424184.896                                                  
  23486846.851    92167431.965  
  23943396.421   125823397.578                                                  
  23943401.943    93959051.040  
  24966024.881   131197346.157                                                  
  24966031.707    97972069.527  
 21  8 31 20 20 12.0000000  0 17G10G15G18G23G24G27G32R 4R 5R14R19R20
                                R21E 3E 5E 9E36
  22549120.070   118496425.766    22549119.284    92334873.440    22549119.123  
  22549120.320    88487590.882  
  22062557.314   115939520.303    22062554.616    90342469.867    22062554.008  
                                
  20216288.959   106237315.197    20216285.993    82782309.772    20216285.618  
  20216292.247    79333072.334  
  20706637.375   108814113.376    20706633.998    84790202.552    20706633.605  
  20706640.377    81257303.939  
  20804603.936   109328931.581    20804603.257    85191370.187    20804602.667  
  20804606.062    81641742.888  
  24248931.215   127428992.552    24248931.161    99295316.272    24248930.571  
  24248933.538    95158023.359  
  23726107.797   124681538.491    23726108.709    97154447.903    23726108.208  
  23726110.192    93106352.575  
  22342423.649   119642663.539    22342420.880    93055392.716    22342419.968  
                                
  20071900.499   107295811.487    20071898.641    83452289.581    20071897.497  
                                
  22531710.174   120106694.560    22531710.085    93416316.938    22531709.280  
                                
  22751495.600   121705157.882    22751495.529    94659566.431    22751493.903  
                                
  19743371.990   105576682.382    19743372.615    82115200.212    19743370.524  
                                
  22042581.301   117954305.539    22042579.371    91742228.882    22042578.478  
                                
  25717846.618   135148197.174                                                  
  25717852.997   100922378.741  
  23486897.671   123424480.315                                                  
  23486903.085    92167652.559  
  23943787.771   125825454.142                                                  
  23943793.310    93960586.782  
  24966500.733   131199846.683                                                  
  24966507.523    97973936.798  
 21  8 31 20 20 13.0000000  0 17G10G15G18G23G24G27G32R 4R 5R14R19R20
                                R21E 3E 5E 9E36
  22548705.759   118494248.546    22548704.955    92333176.903    22548704.812  
  22548706.009    88485965.038  
  22063102.605   115942385.836    22063099.907    90344702.748    22063099.282  
                                
  20216478.335   106238310.330    20216475.369    82783085.200    20216474.994  
  20216481.623    79333815.456  
  20706476.697   108813269.042    20706473.337    84789544.629    20706472.944  
  20706479.699    81256673.431  
  20804445.062   109328096.707    20804444.366    85190719.633    20804443.812  
  20804447.189    81641119.447  
  24248900.498   127428831.099    24248900.444    99295190.459    24248899.837  
  24248902.821    95157902.815  
  23725578.231   124678755.548    23725579.160    97152279.371    23725578.624  
  23725580.625    93104274.408  
  22342905.023   119645241.198    22342902.235    93057397.562    22342901.342  
                                
  20072026.833   107296486.761    20072024.975    83452814.792    20072023.831  
                                
  22531641.593   120106328.897    22531641.485    93416032.526    22531640.681  
                                
  22752335.855   121709652.611    22752335.784    94663062.327    22752334.158  
                                
  19743612.024   105577965.907    19743612.632    82116198.509    19743610.559  
                                
  22042007.956   117951237.422    22042006.026    91739842.566    22042005.132  
                                
  25717520.240   135146482.069                                                  
  25717526.619   100921097.989  
  23486953.922   123424775.973                                                  
  23486959.337    92167873.347  
  23944179.138   125827510.776                                                  
  23944184.677    93962122.582  
  24966976.603   131202347.534                                                  
  24966983.429    97975804.324  
 21  8 31 20 20 14.0000000  0 17G10G15G18G23G24G27G32R 4R 5R14R19R20
                                R21E 3E 5E 9E36
  22548291.466   118492071.446    22548290.662    92331480.466    22548290.501  
  22548291.734    88484339.290  
  22063647.950   115945251.610    22063645.234    90346935.820    22063644.644  
                                
  20216667.818   106239306.171    20216664.852    82783861.180    20216664.477  
  20216671.124    79334559.098  
  20706316.090   108812425.012    20706312.731    84788886.946    20706312.337  
  20706319.110    81256043.156  
  20804286.350   109327262.587    20804285.653    85190069.679    20804285.063  
  20804288.458    81640496.583  
  24248869.888   127428670.326    24248869.852    99295065.182    24248869.263  
  24248872.229    95157782.755  
  23725048.718   124675972.934    23725049.630    97150111.091    23725049.111  
  23725051.113    93102196.484  
  22343386.397   119647818.965    22343383.627    93059402.492    22343382.733  
                                
  20072153.221   107297162.372    20072151.362    83453340.281    20072150.219  
                                
  22531573.154   120105964.120    22531573.047    93415748.834    22531572.279  
                                
  22753176.146   121714147.633    22753176.093    94666558.441    22753174.431  
                                
  19743852.238   105579250.415    19743852.827    82117197.573    19743850.754  
                                
  22041434.735   117948170.007    22041432.787    91737456.808    22041431.912  
                                
  25717193.934   135144767.274                                                  
  25717200.313   100919817.471  
  23487010.246   123425071.941                                                  
  23487015.660    92168094.360  
  23944570.505   125829567.534                                                  
  23944576.045    93963658.477  
  24967452.580   131204848.779                                                  
  24967459.370    97977672.140  
 21  8 31 20 20 15.0000000  0 17G10G15G18G23G24G27G32R 4R 5R14R19R20
                                R21E 3E 5E 9E36
  22547877.244   118489894.708    22547876.458    92329784.311    22547876.297  
  22547877.512    88482713.804  
  22064193.366   115948117.835    22064190.668    90349169.247    22064190.060  
                                
  20216857.498   106240302.888    20216854.532    82784637.848    20216854.156  
  20216860.768    79335303.400  
  20706155.572   108811581.479    20706152.195    84788229.652    20706151.802  
  20706158.574    81255413.249  
  20804127.798   109326429.433    20804127.101    85189420.467    20804126.529  
  20804129.924    81639874.416  
  24248839.493   127428510.416    24248839.422    99294940.570    24248838.832  
  24248841.834    95157663.351  
  23724519.295   124673190.807    23724520.224    97147943.205    23724519.706  
  23724521.707    93100118.921  
  22343867.824   119650397.004    22343865.054    93061407.633    22343864.161  
                                
  20072279.715   107297838.479    20072277.821    83453866.142    20072276.713  
                                
  22531504.912   120105600.407    22531504.823    93415465.953    22531504.037  
                                
  22754016.526   121718643.085    22754016.491    94670054.897    22754014.829  
                                
  19744092.665   105580536.093    19744093.273    82118197.544    19744091.182  
                                
  22040861.658   117945103.467    22040859.728    91735071.722    22040858.834  
                                
  25716867.699   135143052.916                                                  
  25716874.078   100918537.260  
  23487066.658   123425368.385                                                  
  23487072.072    92168315.730  
  23944961.962   125831624.591                                                  
  23944967.519    93965194.587  
  24967928.664   131207350.578                                                  
  24967935.454    97979540.358  
 21  8 31 20 20 16.0000000  0 17G10G15G18G23G24G27G32R 4R 5R14R19R20
                                R21E 3E 5E 9E36
  22547463.022   118487717.972    22547462.236    92328088.149    22547462.075  
  22547463.272    88481088.322  
  22064738.836   115950984.187    22064736.102    90351402.766    22064735.512  
                                
  20217047.267   106241300.181    20217044.301    82785414.957    20217043.925  
  20217050.573    79336048.130  
  20705995.091   108810738.139    20705991.714    84787572.504    20705991.320  
  20705998.093    81254783.478  
  20803969.389   109325596.921    20803968.674    85188771.761    20803968.103  
  20803971.498    81639252.737  
  24248809.151   127428351.087    24248809.098    99294816.420    24248808.526  
  24248811.492    95157544.358  
  23723989.907   124670408.867    23723990.819    97145775.464    23723990.300  
  23723992.302    93098041.486  
  22344349.269   119652974.974    22344346.481    93063412.718    22344345.588  
                                
  20072406.210   107298514.747    20072404.352    83454392.126    20072403.208  
                                
  22531436.814   120105237.422    22531436.742    93415183.632    22531435.938  
                                
  22754856.924   121723138.624    22754856.889    94673551.420    22754855.227  
                                
  19744333.236   105581822.604    19744333.861    82119198.166    19744331.789  
                                
  22040288.723   117942037.507    22040286.776    91732687.091    22040285.900  
                                
  25716541.500   135141338.711                                                  
  25716547.879   100917257.178  
  23487123.106   123425664.990                                                  
  23487128.503    92168537.221  
  23945353.401   125833681.616                                                  
  23945358.958    93966730.684  
  24968404.784   131209852.606                                                  
  24968411.592    97981408.754  
 21  8 31 20 20 17.0000000  0 17G10G15G18G23G24G27G32R 4R 5R14R19R20
                                R21E 3E 5E 9E36
  22547048.818   118485541.318    22547048.032    92326392.053    22547047.871  
  22547049.068    88479462.905  
  22065284.306   115953850.735    22065281.607    90353636.435    22065280.982  
                                
  20217237.179   106242298.117    20217234.230    82786192.566    20217233.819  
  20217240.467    79336793.339  
  20705834.645   108809895.051    20705831.268    84786915.557    20705830.892  
  20705837.647    81254153.900  
  20803811.105   109324765.119    20803810.391    85188123.600    20803809.819  
  20803813.214    81638631.582  
  24248778.953   127428192.372    24248778.917    99294692.741    24248778.309  
  24248781.294    95157425.833  
  23723460.573   124667627.172    23723461.484    97143607.905    23723460.966  
  23723462.968    93095964.257  
  22344830.660   119655552.950    22344827.909    93065417.806    22344826.979  
                                
  20072532.777   107299191.268    20072530.900    83454918.307    20072529.775  
                                
  22531368.858   120104875.239    22531368.786    93414901.936    22531368.000  
                                
  22755697.358   121727634.369    22755697.322    94677048.101    22755695.661  
                                
  19744574.003   105583110.094    19744574.611    82120199.546    19744572.538  
                                
  22039715.878   117938972.202    22039713.948    91730302.969    22039713.073  
                                
  25716215.337   135139624.723                                                  
  25716221.716   100915977.248  
  23487179.590   123425961.848                                                  
  23487185.005    92168758.896  
  23945744.857   125835738.709                                                  
  23945750.397    93968266.820  
  24968880.976   131212354.957                                                  
  24968887.766    97983277.386  
 21  8 31 20 20 18.0000000  0 17G10G15G18G23G24G27G32R 4R 5R14R19R20
                                R21E 3E 5E 9E36
  22546634.614   118483364.682    22546633.828    92324695.973    22546633.667  
  22546634.864    88477837.499  
  22065829.811   115956717.398    22065827.113    90355870.200    22065826.505  
                                
  20217427.198   106243296.639    20217424.232    82786970.633    20217423.839  
  20217430.468    79337538.982  
  20705674.252   108809052.143    20705670.875    84786258.741    20705670.482  
  20705677.254    81253524.464  
  20803652.911   109323933.949    20803652.232    85187475.934    20803651.660  
  20803655.055    81638010.903  
  24248748.861   127428034.182    24248748.808    99294569.471    24248748.218  
  24248751.202    95157307.719  
  23722931.275   124664845.643    23722932.186    97141440.468    23722931.668  
  23722933.669    93093887.159  
  22345312.070   119658130.857    22345309.318    93067422.850    22345308.389  
                                
  20072659.379   107299867.981    20072657.502    83455444.634    20072656.377  
                                
  22531301.063   120104513.790    22531300.991    93414620.811    22531300.187  
                                
  22756537.846   121732130.278    22756537.792    94680544.912    22756536.148  
                                
  19744814.949   105584398.424    19744815.539    82121201.580    19744813.466  
                                
  22039143.176   117935907.515    22039141.246    91727919.322    22039140.353  
                                
  25715889.209   135137910.882                                                  
  25715895.588   100914697.440  
  23487236.128   123426258.864                                                  
  23487241.524    92168980.701  
  23946136.296   125837795.786                                                  
  23946141.836    93969802.951  
  24969357.203   131214857.543                                                  
  24969363.994    97985146.206  
 21  8 31 20 20 19.0000000  0 17G10G15G18G23G24G27G32R 4R 5R14R19R20
                                R21E 3E 5E 9E36
  22546220.428   118481188.111    22546219.624    92322999.961    22546219.463  
  22546220.696    88476212.151  
  22066375.353   115959584.231    22066372.654    90358104.091    22066372.029  
                                
  20217617.307   106244295.737    20217614.340    82787749.149    20217613.965  
  20217620.612    79338285.066  
  20705513.896   108808209.472    20705510.501    84785602.112    20705510.125  
  20705516.880    81252895.192  
  20803494.895   109323103.444    20803494.198    85186828.794    20803493.608  
  20803497.004    81637390.732  
  24248718.877   127427876.522    24248718.806    99294446.677    24248718.216  
  24248721.218    95157190.052  
  23722402.012   124662064.391    23722402.941    97139273.268    23722402.423  
  23722404.425    93091810.245  
  22345793.479   119660708.732    22345790.691    93069427.863    22345789.798  
                                
  20072785.999   107300544.890    20072784.140    83455971.131    20072782.997  
                                
  22531233.393   120104153.137    22531233.303    93414340.305    22531232.535  
                                
  22757378.315   121736626.289    22757378.279    94684041.817    22757376.618  
                                
  19745056.038   105585687.655    19745056.628    82122204.313    19745054.555  
                                
  22038570.563   117932843.435    22038568.633    91725536.141    22038567.758  
                                
  25715563.081   135136197.232                                                  
  25715569.479   100913417.758  
  23487292.666   123426556.065                                                  
  23487298.080    92169202.645  
  23946527.753   125839852.887                                                  
  23946533.292    93971339.085  
  24969833.466   131217360.401                                                  
  24969840.292    97987015.222  
 21  8 31 20 20 20.0000000  0 17G10G15G18G23G24G27G32R 4R 5R14R19R20
                                R21E 3E 5E 9E36
  22545806.242   118479011.598    22545805.474    92321303.984    22545805.313  
  22545806.510    88474586.833  
  22066920.930   115962451.237    22066918.231    90360338.118    22066917.606  
                                
  20217807.558   106245295.474    20217804.592    82788528.165    20217804.217  
  20217810.846    79339031.621  
  20705353.575   108807367.021    20705350.198    84784945.659    20705349.822  
  20705356.577    81252266.085  
  20803336.969   109322273.649    20803336.290    85186182.199    20803335.700  
  20803339.113    81636771.071  
  24248688.982   127427719.568    24248688.929    99294324.377    24248688.339  
  24248691.323    95157072.819  
  23721872.785   124659283.308    23721873.697    97137106.186    23721873.196  
  23721875.198    93089733.478  
  22346274.888   119663286.651    22346272.101    93071432.912    22346271.207  
                                
  20072912.690   107301222.099    20072910.832    83456497.851    20072909.688  
                                
  22531165.866   120103793.272    22531165.794    93414060.413    22531165.008  
                                
  22758218.838   121741122.530    22758218.802    94687538.893    22758217.141  
                                
  19745297.288   105586977.782    19745297.913    82123207.747    19745295.822  
                                
  22037998.075   117929779.931    22037996.145    91723153.416    22037995.252  
                                
  25715237.043   135134483.763                                                  
  25715243.423   100912138.220  
  23487349.257   123426853.509                                                  
  23487354.689    92169424.758  
  23946919.210   125841910.009                                                  
  23946924.749    93972875.252  
  24970309.819   131219863.556                                                  
  24970316.609    97988884.457  
 21  8 31 20 20 21.0000000  0 17G10G15G18G23G24G27G32R 4R 5R14R19R20
                                R21E 3E 5E 9E36
  22545392.127   118476835.338    22545391.323    92319608.197    22545391.162  
  22545392.360    88472961.708  
  22067466.578   115965318.601    22067463.862    90362572.429    22067463.237  
                                
  20217997.952   106246296.018    20217994.986    82789307.810    20217994.611  
  20218001.240    79339778.787  
  20705193.343   108806524.987    20705189.966    84784289.531    20705189.591  
  20705196.345    81251637.295  
  20803179.239   109321444.729    20803178.542    85185536.287    20803177.970  
  20803181.365    81636152.072  
  24248659.284   127427563.373    24248659.212    99294202.665    24248658.623  
  24248661.625    95156956.189  
  23721343.648   124656502.689    23721344.577    97134939.472    23721344.077  
  23721346.078    93087657.048  
  22346756.333   119665864.743    22346753.546    93073438.095    22346752.652  
                                
  20073039.453   107301899.760    20073037.594    83457024.921    20073036.451  
                                
  22531098.553   120103434.395    22531098.481    93413781.298    22531097.677  
                                
  22759059.451   121745619.159    22759059.397    94691036.264    22759057.753  
                                
  19745538.770   105588269.003    19745539.359    82124212.030    19745537.286  
                                
  22037425.748   117926717.231    22037423.801    91720771.321    22037422.925  
                                
  25714911.041   135132770.685                                                  
  25714917.420   100910858.979  
  23487405.955   123427151.350                                                  
  23487411.352    92169647.170  
  23947310.720   125843967.369                                                  
  23947316.259    93974411.583  
  24970786.243   131222367.210                                                  
  24970793.051    97990754.062  
 21  8 31 20 20 22.0000000  0 17G10G15G18G23G24G27G32R 4R 5R14R19R20
                                R21E 3E 5E 9E36
  22544977.995   118474659.116    22544977.209    92317912.442    22544977.048  
  22544978.245    88471336.605  
  22068012.262   115968186.108    22068009.528    90364806.849    22068008.921  
                                
  20218188.472   106247297.158    20218185.506    82790087.919    20218185.131  
  20218191.742    79340526.389  
  20705033.148   108805683.167    20705029.770    84783633.562    20705029.395  
  20705036.150    81251008.663  
  20803021.616   109320616.464    20803020.937    85184890.888    20803020.365  
  20803023.760    81635533.567  
  24248629.657   127427407.727    24248629.586    99294081.382    24248629.014  
  24248631.998    95156839.962  
  23720814.564   124653722.255    23720815.475    97132772.905    23720814.957  
  23720816.958    93085580.742  
  22347237.761   119668442.788    22347234.973    93075443.236    22347234.080  
                                
  20073166.269   107302577.637    20073164.411    83457552.163    20073163.267  
                                
  22531031.348   120103076.272    22531031.276    93413502.758    22531030.490  
                                
  22759900.081   121750115.941    22759900.045    94694533.754    22759898.383  
                                
  19745780.394   105589561.112    19745781.002    82125217.004    19745778.911  
                                
  22036853.511   117923655.183    22036851.581    91718389.732    22036850.705  
                                
  25714585.074   135131057.768                                                  
  25714591.471   100909579.858  
  23487462.654   123427449.390                                                  
  23487468.050    92169869.732  
  23947702.212   125846024.713                                                  
  23947707.752    93975947.916  
  24971262.720   131224871.108                                                  
  24971269.528    97992623.855  
 21  8 31 20 20 23.0000000  0 17G10G15G18G23G24G27G32R 4R 5R14R19R20
                                R21E 3E 5E 9E36
  22544563.898   118472483.049    22544563.112    92316216.806    22544562.951  
  22544564.166    88469711.613  
  22068557.964   115971053.863    22068555.248    90367041.462    22068554.623  
                                
  20218379.099   106248298.993    20218376.150    82790868.570    20218375.757  
  20218382.405    79341274.511  
  20704873.023   108804841.652    20704869.646    84782977.839    20704869.235  
  20704876.025    81250380.251  
  20802864.154   109319788.973    20802863.457    85184246.090    20802862.903  
  20802866.299    81634915.626  
  24248600.191   127427252.794    24248600.120    99293960.653    24248599.530  
  24248602.532    95156724.263  
  23720285.516   124650942.127    23720286.445    97130606.569    23720285.927  
  23720287.928    93083504.669  
  22347719.206   119671020.896    22347716.418    93077448.428    22347715.525  
                                
  20073293.139   107303255.818    20073291.263    83458079.635    20073290.137  
                                
  22530964.339   120102718.994    22530964.249    93413224.875    22530963.481  
                                
  22760740.765   121754612.952    22760740.729    94698031.420    22760739.067  
                                
  19746022.198   105590854.187    19746022.806    82126222.729    19746020.733  
                                
  22036281.452   117920593.861    22036279.504    91716008.701    22036278.629  
                                
  25714259.179   135129345.139                                                  
  25714265.576   100908300.942  
  23487519.441   123427747.712                                                  
  23487524.856    92170092.498  
  23948093.741   125848082.172                                                  
  23948099.280    93977484.328  
  24971739.269   131227375.383                                                  
  24971746.095    97994493.929  
 21  8 31 20 20 24.0000000  0 17G10G15G18G23G24G27G32R 4R 5R14R19R20
                                R21E 3E 5E 9E36
  22544149.819   118470307.003    22544149.033    92314521.181    22544148.872  
  22544150.069    88468086.644  
  22069103.702   115973921.758    22069101.004    90369276.193    22069100.379  
                                
  20218569.868   106249301.463    20218566.902    82791649.714    20218566.527  
  20218573.156    79342023.102  
  20704712.917   108804000.352    20704709.540    84782322.280    20704709.147  
  20704715.919    81249752.014  
  20802706.818   109318962.124    20802706.139    85183601.790    20802705.549  
  20802708.962    81634298.181  
  24248570.797   127427098.427    24248570.761    99293840.369    24248570.153  
  24248573.137    95156608.985  
  23719756.503   124648162.209    23719757.433    97128440.420    23719756.932  
  23719758.934    93081428.783  
  22348200.651   119673599.012    22348197.863    93079453.628    22348196.970  
                                
  20073420.045   107303934.236    20073418.187    83458607.295    20073417.043  
                                
  22530897.455   120102362.567    22530897.384    93412947.633    22530896.597  
                                
  22761581.485   121759110.238    22761581.449    94701529.305    22761579.787  
                                
  19746264.180   105592148.163    19746264.788    82127229.155    19746262.715  
                                
  22035709.482   117917533.196    22035707.535    91713628.187    22035706.659  
                                
  25713933.301   135127632.715                                                  
  25713939.699   100907022.186  
  23487576.229   123428046.239                                                  
  23487581.643    92170315.433  
  23948485.269   125850139.676                                                  
  23948490.826    93979020.789  
  24972215.872   131229879.941                                                  
  24972222.698    97996364.220  
 21  8 31 20 20 25.0000000  0 17G10G15G18G23G24G27G32R 4R 5R14R19R20
                                R21E 3E 5E 9E36
  22543735.723   118468130.901    22543734.918    92312825.519    22543734.776  
  22543735.955    88466461.642  
  22069649.458   115976789.712    22069646.760    90371510.964    22069646.134  
                                
  20218760.727   106250304.398    20218757.779    82792431.223    20218757.386  
  20218763.998    79342772.054  
  20704552.846   108803159.151    20704549.469    84781666.801    20704549.076  
  20704555.848    81249123.851  
  20802549.588   109318135.851    20802548.891    85182957.941    20802548.337  
  20802551.732    81633681.166  
  24248541.527   127426944.545    24248541.473    99293720.456    24248540.866  
  24248543.868    95156494.066  
  23719227.545   124645382.406    23719228.456    97126274.342    23719227.938  
  23719229.939    93079352.958  
  22348682.060   119676176.941    22348679.273    93081458.679    22348678.361  
                                
  20073546.969   107304612.709    20073545.110    83459134.997    20073543.967  
                                
  22530830.714   120102006.768    22530830.643    93412670.903    22530829.856  
                                
  22762422.204   121763607.498    22762422.168    94705027.162    22762420.507  
                                
  19746506.306   105593442.892    19746506.913    82128236.168    19746504.840  
                                
  22035137.602   117914472.955    22035135.672    91711248.002    22035134.779  
                                
  25713607.442   135125920.339                                                  
  25713613.839   100905743.461  
  23487633.070   123428344.875                                                  
  23487638.467    92170538.430  
  23948876.779   125852197.064                                                  
  23948882.318    93980557.148  
  24972692.492   131232384.657                                                  
  24972699.318    97998234.627  
 21  8 31 20 20 26.0000000  0 17G10G15G18G23G24G27G32R 4R 5R14R19R20
                                R21E 3E 5E 9E36
  22543321.662   118465954.996    22543320.875    92311130.009    22543320.715  
  22543321.912    88464836.764  
  22070195.267   115979657.935    22070192.551    90373745.944    22070191.926  
                                
  20218951.712   106251308.065    20218948.763    82793213.301    20218948.370  
  20218954.999    79343521.536  
  20704392.865   108802318.296    20704389.452    84781011.588    20704389.077  
  20704395.831    81248495.933  
  20802392.501   109317310.379    20802391.805    85182314.716    20802391.251  
  20802394.628    81633064.735  
  24248512.365   127426791.343    24248512.329    99293601.078    24248511.722  
  24248514.706    95156379.671  
  23718698.604   124642602.906    23718699.533    97124108.506    23718699.015  
  23718701.034    93077277.370  
  22349163.487   119678754.953    22349160.718    93083463.797    22349159.806  
                                
  20073673.964   107305291.517    20073672.105    83459662.961    20073670.962  
                                
  22530764.116   120101651.835    22530764.063    93412394.844    22530763.276  
                                
  22763262.977   121768105.011    22763262.960    94708525.218    22763261.298  
                                
  19746748.610   105594738.609    19746749.217    82129243.948    19746747.144  
                                
  22034565.847   117911413.459    22034563.917    91708868.396    22034563.042  
                                
  25713281.654   135124208.255                                                  
  25713288.033   100904464.955  
  23487689.965   123428643.793                                                  
  23487695.362    92170761.652  
  23949268.307   125854254.582                                                  
  23949273.847    93982093.606  
  24973169.202   131234889.763                                                  
  24973176.028    98000105.317  
 21  8 31 20 20 27.0000000  0 17G10G15G18G23G24G27G32R 4R 5R14R19R20
                                R21E 3E 5E 9E36
  22542907.618   118463779.235    22542906.832    92309434.608    22542906.671  
  22542907.869    88463212.018  
  22070741.130   115982526.453    22070738.414    90375981.154    22070737.806  
                                
  20219142.839   106252312.453    20219139.908    82793995.936    20219139.497  
  20219146.127    79344271.566  
  20704232.901   108801477.774    20704229.524    84780356.637    20704229.131  
  20704235.903    81247868.272  
  20802235.558   109316485.702    20802234.879    85181672.113    20802234.307  
  20802237.702    81632448.903  
  24248483.363   127426638.854    24248483.292    99293482.256    24248482.720  
  24248485.704    95156265.795  
  23718169.752   124639823.778    23718170.681    97121942.956    23718170.163  
  23718172.182    93075202.050  
  22349644.933   119681333.081    22349642.145    93085469.005    22349641.252  
                                
  20073801.013   107305970.681    20073799.154    83460191.195    20073798.011  
                                
  22530697.715   120101297.811    22530697.644    93412119.496    22530696.857  
                                
  22764103.786   121772602.817    22764103.769    94712023.502    22764102.107  
                                
  19746991.092   105596035.326    19746991.718    82130252.508    19746989.645  
                                
  22033994.253   117908354.709    22033992.323    91706489.368    22033991.447  
                                
  25712955.902   135122496.468                                                  
  25712962.299   100903186.681  
  23487746.914   123428943.045                                                  
  23487752.310    92170985.117  
  23949659.871   125856312.250                                                  
  23949665.428    93983630.165  
  24973645.983   131237395.269                                                  
  24973652.809    98001976.302  
 21  8 31 20 20 28.0000000  0 17G10G15G18G23G24G27G32R 4R 5R14R19R20
                                R21E 3E 5E 9E36
  22542493.557   118461603.271    22542492.771    92307739.054    22542492.610  
  22542493.808    88461587.108  
  22071286.975   115985394.844    22071284.259    90378216.262    22071283.634  
                                
  20219334.037   106253317.202    20219331.089    82794778.855    20219330.714  
  20219337.325    79345021.857  
  20704072.956   108800637.224    20704069.578    84779701.661    20704069.167  
  20704075.958    81247240.589  
  20802078.721   109315661.439    20802078.024    85181029.832    20802077.453  
  20802080.866    81631833.379  
  24248454.398   127426486.680    24248454.344    99293363.676    24248453.754  
  24248456.756    95156152.165  
  23717640.900   124637044.611    23717641.812    97119777.368    23717641.311  
  23717643.313    93073126.703  
  22350126.360   119683910.949    22350123.554    93087474.014    22350122.661  
                                
  20073928.061   107306649.805    20073926.203    83460719.403    20073925.059  
                                
  22530631.403   120100944.307    22530631.332    93411844.546    22530630.563  
                                
  22764944.595   121777100.557    22764944.578    94715521.740    22764942.916  
                                
  19747233.718   105597332.671    19747234.308    82131261.550    19747232.253  
                                
  22033422.730   117905296.291    22033420.782    91704110.599    22033419.907  
                                
  25712630.149   135120784.614                                                  
  25712636.546   100901908.344  
  23487803.845   123429242.256                                                  
  23487809.241    92171208.547  
  23950051.399   125858369.688                                                  
  23950056.939    93985166.560  
  24974122.782   131239900.783                                                  
  24974129.590    98003847.308  
 21  8 31 20 20 29.0000000  0 17G10G15G18G23G24G27G32R 4R 5R14R19R20
                                R21E 3E 5E 9E36
  22542079.461   118459427.330    22542078.692    92306043.513    22542078.532  
  22542079.729    88459962.215  
  22071832.820   115988263.370    22071830.104    90380451.468    22071829.479  
                                
  20219525.343   106254322.477    20219522.377    82795562.191    20219522.001  
  20219528.631    79345772.560  
  20703913.046   108799796.831    20703909.633    84779046.807    20703909.258  
  20703916.030    81246613.023  
  20801921.992   109314837.801    20801921.295    85180388.029    20801920.723  
  20801924.119    81631218.329  
  24248425.539   127426335.068    24248425.486    99293245.499    24248424.896  
  24248427.880    95156038.907  
  23717112.067   124634265.612    23717112.978    97117611.907    23717112.460  
  23717114.479    93071051.461  
  22350607.733   119686488.749    22350604.946    93089478.979    22350604.052  
                                
  20074055.128   107307329.079    20074053.270    83461247.720    20074052.126  
                                
  22530565.216   120100591.532    22530565.181    93411570.169    22530564.376  
                                
  22765785.422   121781598.313    22765785.404    94719019.999    22765783.743  
                                
  19747476.469   105598630.816    19747477.076    82132271.215    19747475.003  
                                
  22032851.296   117902238.429    22032849.349    91701732.264    22032848.473  
                                
  25712304.415   135119072.877                                                  
  25712310.812   100900630.099  
  23487860.811   123429541.582                                                  
  23487866.208    92171432.078  
  23950442.892   125860427.051                                                  
  23950448.431    93986702.900  
  24974599.599   131242406.526                                                  
  24974606.425    98005718.477  
 21  8 31 20 20 30.0000000  0 17G10G15G18G23G24G27G32R 4R 5R14R19R20
                                R21E 3E 5E 9E36
  22541665.400   118457251.390    22541664.631    92304347.975    22541664.471  
  22541665.668    88458337.320  
  22072378.719   115991132.010    22072376.003    90382686.768    22072375.377  
                                
  20219716.756   106255328.333    20219713.790    82796345.972    20219713.414  
  20219720.026    79346523.686  
  20703753.136   108798956.619    20703749.759    84778392.096    20703749.366  
  20703756.138    81245985.594  
  20801765.370   109314014.791    20801764.673    85179746.727    20801764.119  
  20801767.514    81630603.751  
  24248396.806   127426183.994    24248396.734    99293127.778    24248396.163  
  24248399.147    95155926.083  
  23716583.269   124631486.778    23716584.180    97115446.582    23716583.662  
  23716585.681    93068976.375  
  22351089.107   119689066.489    22351086.337    93091483.880    22351085.444  
                                
  20074182.230   107308008.544    20074180.372    83461776.193    20074179.228  
                                
  22530499.172   120100239.475    22530499.137    93411296.346    22530498.332  
                                
  22766626.267   121786096.253    22766626.267    94722518.383    22766624.587  
                                
  19747719.398   105599929.841    19747720.005    82133281.569    19747717.933  
                                
  22032279.952   117899181.159    22032278.022    91699354.387    22032277.147  
                                
  25711978.698   135117361.295                                                  
  25711985.113   100899351.965  
  23487917.795   123429841.098                                                  
  23487923.192    92171655.745  
  23950834.384   125862484.416                                                  
  23950839.941    93988239.246  
  24975076.470   131244912.516                                                  
  24975083.314    98007589.820  
 21  8 31 20 20 31.0000000  0 17G10G15G18G23G24G27G32R 4R 5R14R19R20
                                R21E 3E 5E 9E36
  22541251.339   118455075.493    22541250.570    92302652.469    22541250.410  
  22541251.607    88456712.462  
  22072924.635   115994000.783    22072921.919    90384922.173    22072921.294  
                                
  20219908.258   106256334.804    20219905.328    82797130.236    20219904.935  
  20219911.564    79347275.266  
  20703593.298   108798116.618    20703589.902    84777737.550    20703589.509  
  20703596.282    81245358.321  
  20801608.891   109313192.459    20801608.194    85179105.949    20801607.622  
  20801611.035    81629989.674  
  24248368.144   127426033.504    24248368.090    99293010.525    24248367.519  
  24248370.485    95155813.698  
  23716054.524   124628708.175    23716055.418    97113281.441    23716054.917  
  23716056.919    93066901.420  
  22351570.498   119691644.187    22351567.693    93093488.750    22351566.800  
                                
  20074309.386   107308688.233    20074307.528    83462304.844    20074306.384  
                                
  22530433.271   120099888.183    22530433.236    93411023.121    22530432.449  
                                
  22767467.148   121790594.346    22767467.130    94726016.893    22767465.468  
                                
  19747962.488   105601229.754    19747963.096    82134292.612    19747961.005  
                                
  22031708.769   117896124.510    22031706.821    91696976.994    22031705.928  
                                
  25711653.018   135115649.875                                                  
  25711659.433   100898073.967  
  23487974.833   123430140.808                                                  
  23487980.230    92171879.550  
  23951225.894   125864541.808                                                  
  23951231.469    93989775.601  
  24975553.394   131247418.769                                                  
  24975560.220    98009461.380  
 21  8 31 20 20 32.0000000  0 17G10G15G18G23G24G27G32R 4R 5R14R19R20
                                R21E 3E 5E 9E36
  22540837.313   118452899.691    22540836.527    92300957.037    22540836.366  
  22540837.564    88455087.679  
  22073470.588   115996869.781    22073467.872    90387157.754    22073467.246  
                                
  20220099.904   106257341.930    20220096.973    82797915.005    20220096.598  
  20220103.209    79348027.338  
  20703433.495   108797276.896    20703430.118    84777083.220    20703429.724  
  20703436.497    81244731.252  
  20801452.537   109312370.854    20801451.840    85178465.740    20801451.286  
  20801454.664    81629376.131  
  24248339.625   127425883.624    24248339.571    99292893.735    24248338.982  
  24248341.966    95155701.788  
  23715525.816   124625929.822    23715526.727    97111116.493    23715526.209  
  23715528.228    93064826.695  
  22352051.872   119694221.936    22352049.067    93095493.663    22352048.173  
                                
  20074436.596   107309368.211    20074434.738    83462833.716    20074433.576  
                                
  22530367.531   120099537.742    22530367.496    93410750.554    22530366.709  
                                
  22768308.082   121795092.660    22768308.046    94729515.570    22768306.402  
                                
  19748205.757   105602530.607    19748206.364    82135304.384    19748204.292  
                                
  22031137.675   117893068.498    22031135.727    91694600.095    22031134.852  
                                
  25711327.390   135113938.704                                                  
  25711333.805   100896796.149  
  23488031.925   123430440.770                                                  
  23488037.321    92172103.544  
  23951617.440   125866599.264                                                  
  23951622.998    93991312.009  
  24976030.390   131249925.364                                                  
  24976037.216    98011333.183  
 21  8 31 20 20 33.0000000  0 17G10G15G18G23G24G27G32R 4R 5R14R19R20
                                R21E 3E 5E 9E36
  22540423.288   118450724.053    22540422.502    92299261.727    22540422.341  
  22540423.538    88453463.012  
  22074016.593   115999739.047    22074013.877    90389393.543    22074013.252  
                                
  20220291.710   106258349.764    20220288.761    82798700.327    20220288.386  
  20220294.998    79348779.943  
  20703273.764   108796437.492    20703270.386    84776429.138    20703269.975  
  20703276.784    81244104.425  
  20801296.344   109311550.028    20801295.647    85177826.135    20801295.075  
  20801298.488    81628763.178  
  24248311.249   127425734.481    24248311.177    99292777.517    24248310.606  
  24248313.590    95155590.392  
  23714997.178   124623151.797    23714998.072    97108951.800    23714997.554  
  23714999.573    93062752.194  
  22352533.281   119696799.786    22352530.476    93097498.651    22352529.583  
                                
  20074563.859   107310048.523    20074562.001    83463362.848    20074560.839  
                                
  22530301.952   120099188.174    22530301.898    93410478.665    22530301.130  
                                
  22769149.034   121799591.195    22769149.034    94733014.414    22769147.354  
                                
  19748449.222   105603832.439    19748449.812    82136316.920    19748447.739  
                                
  22030566.724   117890013.242    22030564.776    91692223.783    22030563.901  
                                
  25711001.835   135112227.833                                                  
  25711008.232   100895518.544  
  23488089.052   123430741.049                                                  
  23488094.449    92172327.776  
  23952008.969   125868656.835                                                  
  23952014.526    93992848.517  
  24976507.457   131252432.330                                                  
  24976514.265    98013205.266  
 21  8 31 20 20 34.0000000  0 17G10G15G18G23G24G27G32R 4R 5R14R19R20
                                R21E 3E 5E 9E36
  22540009.281   118448548.403    22540008.512    92297566.427    22540008.352  
  22540009.549    88451838.345  
  22074562.599   116002608.403    22074559.883    90391629.400    22074559.258  
                                
  20220483.587   106259358.164    20220480.657    82799486.093    20220480.264  
  20220486.893    79349532.971  
  20703114.068   108795598.269    20703110.691    84775775.193    20703110.280  
  20703117.070    81243477.731  
  20801140.258   109310729.823    20801139.579    85177187.007    20801138.989  
  20801142.402    81628150.685  
  24248282.962   127425585.781    24248282.891    99292661.649    24248282.319  
  24248285.321    95155479.385  
  23714468.577   124620373.925    23714469.470    97106787.220    23714468.952  
  23714470.971    93060677.813  
  22353014.655   119699377.538    22353011.850    93099503.590    22353010.974  
                                
  20074691.158   107310728.997    20074689.282    83463892.094    20074688.156  
                                
  22530236.516   120098839.340    22530236.462    93410207.371    22530235.676  
                                
  22769990.021   121804089.813    22769990.021    94736513.346    22769988.342  
                                
  19748692.813   105605135.144    19748693.438    82137330.135    19748691.348  
                                
  22029995.880   117886958.544    22029993.932    91689847.902    22029993.057  
                                
  25710676.279   135110517.081                                                  
  25710682.694   100894241.044  
  23488146.197   123431041.457                                                  
  23488151.612    92172552.118  
  23952400.515   125870714.385                                                  
  23952406.054    93994384.991  
  24976984.560   131254939.535                                                  
  24976991.368    98015077.538  
 21  8 31 20 20 35.0000000  0 17G10G15G18G23G24G27G32R 4R 5R14R19R20
                                R21E 3E 5E 9E36
  22539595.309   118446372.899    22539594.523    92295871.232    22539594.362  
  22539595.559    88450213.781  
  22075108.677   116005478.009    22075105.961    90393865.457    22075105.335  
                                
  20220675.626   106260367.256    20220672.677    82800272.401    20220672.302  
  20220678.913    79350286.516  
  20702954.426   108794759.354    20702951.049    84775121.491    20702950.656  
  20702957.428    81242851.264  
  20800984.333   109309910.387    20800983.636    85176548.488    20800983.064  
  20800986.477    81627538.769  
  24248254.819   127425437.840    24248254.747    99292546.369    24248254.175  
  24248257.159    95155368.897  
  23713940.011   124617596.387    23713940.923    97104622.907    23713940.404  
  23713942.406    93058603.672  
  22353496.046   119701955.403    22353493.259    93101508.592    22353492.348  
                                
  20074818.493   107311409.781    20074816.634    83464421.595    20074815.509  
                                
  22530171.240   120098491.388    22530171.204    93409936.739    22530170.418  
                                
  22770831.045   121808588.775    22770831.045    94740012.530    22770829.383  
                                
  19748936.600   105606438.795    19748937.225    82138344.083    19748935.153  
                                
  22029425.179   117883904.567    22029423.249    91687472.589    22029422.338  
                                
  25710350.777   135108806.609                                                  
  25710357.192   100892963.743  
  23488203.432   123431342.186                                                  
  23488208.828    92172776.681  
  23952792.078   125872772.055                                                  
  23952797.636    93995921.558  
  24977461.734   131257447.100                                                  
  24977468.560    98016950.059  
 21  8 31 20 20 36.0000000  0 17G10G15G18G23G24G27G32R 4R 5R14R19R20
                                R21E 3E 5E 9E36
  22539181.320   118444197.455    22539180.551    92294176.083    22539180.390  
  22539181.570    88448589.267  
  22075654.790   116008347.773    22075652.056    90396101.634    22075651.430  
                                
  20220867.771   106261376.944    20220864.805    82801059.176    20220864.430  
  20220871.041    79351040.509  
  20702794.838   108793920.633    20702791.443    84774467.945    20702791.032  
  20702797.840    81242224.955  
  20800828.515   109309091.602    20800827.818    85175910.476    20800827.246  
  20800830.642    81626927.346  
  24248226.764   127425290.446    24248226.711    99292431.521    24248226.103  
  24248229.105    95155258.832  
  23713411.499   124614819.052    23713412.393    97102458.755    23713411.892  
  23713413.894    93056529.690  
  22353977.456   119704533.200    22353974.650    93103513.547    22353973.757  
                                
  20074945.917   107312090.759    20074944.023    83464951.242    20074942.897  
                                
  22530106.090   120098144.203    22530106.054    93409666.711    22530105.268  
                                
  22771672.122   121813087.857    22771672.140    94743511.806    22771670.460  
                                
  19749180.566   105607743.324    19749181.155    82139358.722    19749179.100  
                                
  22028854.568   117880851.148    22028852.620    91685097.708    22028851.744  
                                
  25710025.310   135107096.289                                                  
  25710031.725   100891686.572  
  23488260.702   123431643.087                                                  
  23488266.081    92173001.389  
  23953183.624   125874829.723                                                  
  23953189.182    93997458.131  
  24977938.962   131259954.941                                                  
  24977945.788    98018822.802  
 21  8 31 20 20 37.0000000  0 17G10G15G18G23G24G27G32R 4R 5R14R19R20
                                R21E 3E 5E 9E36
  22538767.348   118442022.031    22538766.562    92292480.947    22538766.401  
  22538767.616    88446964.764  
  22076200.903   116011217.676    22076198.187    90398337.924    22076197.561  
                                
  20221059.988   106262387.213    20221057.058    82801846.398    20221056.682  
  20221063.294    79351794.932  
  20702635.268   108793082.132    20702631.890    84773814.567    20702631.479  
  20702638.270    81241598.789  
  20800672.822   109308273.487    20800672.143    85175272.988    20800671.554  
  20800674.967    81626316.415  
  24248198.817   127425143.630    24248198.763    99292317.127    24248198.156  
  24248201.158    95155149.190  
  23712883.023   124612041.905    23712883.934    97100294.753    23712883.416  
  23712885.417    93054455.850  
  22354458.812   119707110.931    22354456.006    93105518.444    22354455.131  
                                
  20075073.323   107312771.941    20075071.464    83465481.050    20075070.321  
                                
  22530041.118   120097797.754    22530041.064    93409397.253    22530040.296  
                                
  22772513.199   121817587.091    22772513.217    94747011.206    22772511.537  
                                
  19749424.674   105609048.710    19749425.282    82140374.022    19749423.209  
                                
  22028284.063   117877798.354    22028282.134    91682723.314    22028281.258  
                                
  25709699.880   135105386.160                                                  
  25709706.295   100890409.518  
  23488318.008   123431944.176                                                  
  23488323.404    92173226.226  
  23953575.206   125876887.390                                                  
  23953580.764    93998994.700  
  24978416.226   131262463.026                                                  
  24978423.052    98020695.723  
 21  8 31 20 20 38.0000000  0 17G10G15G18G23G24G27G32R 4R 5R14R19R20
                                R21E 3E 5E 9E36
  22538353.394   118439846.630    22538352.608    92290785.834    22538352.447  
  22538353.644    88445340.277  
  22076747.052   116014087.690    22076744.336    90400574.299    22076743.710  
                                
  20221252.366   106263398.074    20221249.418    82802634.080    20221249.043  
  20221255.636    79352549.786  
  20702475.751   108792243.810    20702472.356    84773161.329    20702471.945  
  20702478.753    81240972.767  
  20800517.273   109307456.014    20800516.576    85174635.997    20800516.022  
  20800519.417    81625705.965  
  24248170.977   127424997.350    24248170.924    99292203.141    24248170.334  
  24248173.318    95155039.960  
  23712354.582   124609264.954    23712355.476    97098130.895    23712354.957  
  23712356.977    93052382.147  
  22354940.185   119709688.629    22354937.380    93107523.320    22354936.486  
                                
  20075200.783   107313453.334    20075198.924    83466011.022    20075197.798  
                                
  22529976.253   120097452.073    22529976.200    93409128.395    22529975.431  
                                
  22773354.312   121822086.414    22773354.330    94750510.675    22773352.650  
                                
  19749668.944   105610354.946    19749669.552    82141389.984    19749667.461  
                                
  22027713.720   117874746.178    22027711.772    91680349.400    22027710.879  
                                
  25709374.485   135103676.163                                                  
  25709380.918   100889132.566  
  23488375.332   123432245.438                                                  
  23488380.728    92173451.185  
  23953966.752   125878945.040                                                  
  23953972.310    94000531.257  
  24978893.561   131264971.361                                                  
  24978900.387    98022568.825  
 21  8 31 20 20 39.0000000  0 17G10G15G18G23G24G27G32R 4R 5R14R19R20
                                R21E 3E 5E 9E36
  22537939.387   118437671.024    22537938.601    92289090.548    22537938.458  
  22537939.637    88443715.625  
  22077293.183   116016957.621    22077290.467    90402810.607    22077289.841  
                                
  20221444.798   106264409.271    20221441.849    82803422.026    20221441.474  
  20221448.068    79353304.900  
  20702316.198   108791405.420    20702312.821    84772508.046    20702312.410  
  20702319.200    81240346.705  
  20800361.794   109306638.952    20800361.097    85173999.323    20800360.525  
  20800363.938    81625095.815  
  24248143.209   127424851.397    24248143.155    99292089.414    24248142.548  
  24248145.550    95154930.971  
  23711826.142   124606487.950    23711827.035    97095966.992    23711826.517  
  23711828.536    93050308.419  
  22355421.523   119712266.072    22355418.718    93109528.001    22355417.824  
                                
  20075328.260   107314134.700    20075326.402    83466540.990    20075325.258  
                                
  22529911.496   120097106.910    22529911.460    93408859.930    22529910.674  
                                
  22774195.389   121826585.723    22774195.424    94754010.156    22774193.745  
                                
  19749913.339   105611661.802    19749913.946    82142406.427    19749911.856  
                                
  22027143.394   117871694.370    22027141.447    91677975.786    22027140.571  
                                
  25709049.072   135101966.093                                                  
  25709055.505   100887855.572  
  23488432.638   123432546.633                                                  
  23488438.052    92173676.104  
  23954358.280   125881002.441                                                  
  23954363.838    94002067.630  
  24979370.879   131267479.695                                                  
  24979377.705    98024441.934  
 21  8 31 20 20 40.0000000  0 17G10G15G18G23G24G27G32R 4R 5R14R19R20
                                R21E 3E 5E 9E36
  22537525.415   118435495.571    22537524.629    92287395.392    22537524.468  
  22537525.665    88442091.090  
  22077839.367   116019827.808    22077836.633    90405047.111    22077836.008  
                                
  20221637.354   106265421.180    20221634.424    82804210.522    20221634.013  
  20221640.642    79354060.542  
  20702156.717   108790567.371    20702153.340    84771855.020    20702152.947  
  20702159.719    81239720.892  
  20800206.441   109305822.671    20800205.762    85173363.262    20800205.190  
  20800208.585    81624486.249  
  24248115.565   127424706.141    24248115.512    99291976.223    24248114.922  
  24248117.924    95154822.503  
  23711297.755   124603711.293    23711298.648    97093803.363    23711298.148  
  23711300.149    93048234.919  
  22355902.861   119714843.588    22355900.055    93111532.733    22355899.162  
                                
  20075455.791   107314816.383    20075453.915    83467071.188    20075452.772  
                                
  22529846.899   120096762.627    22529846.882    93408592.159    22529846.095  
                                
  22775036.537   121831085.216    22775036.555    94757509.755    22775034.858  
                                
  19750157.912   105612969.642    19750158.520    82143423.629    19750156.429  
                                
  22026573.230   117868643.247    22026571.300    91675602.685    22026570.388  
                                
  25708723.713   135100256.307                                                  
  25708730.146   100886578.784  
  23488490.015   123432848.136                                                  
  23488495.412    92173901.252  
  23954749.809   125883059.970                                                  
  23954755.384    94003604.095  
  24979848.267   131269988.431                                                  
  24979855.111    98026315.334  
 21  8 31 20 20 41.0000000  0 17G10G15G18G23G24G27G32R 4R 5R14R19R20
                                R21E 3E 5E 9E36
  22537111.497   118433320.488    22537110.711    92285700.519    22537110.568  
  22537111.747    88440466.848  
  22078385.641   116022698.453    22078382.907    90407283.977    22078382.282  
                                
  20221830.090   106266434.020    20221827.141    82804999.745    20221826.766  
  20221833.377    79354816.883  
  20701997.361   108789729.865    20701993.966    84771202.418    20701993.555  
  20702000.363    81239095.488  
  20800051.320   109305007.384    20800050.623    85172727.971    20800050.051  
  20800053.464    81623877.440  
  24248088.101   127424561.784    24248088.047    99291863.735    24248087.457  
  24248090.459    95154714.712  
  23710769.475   124600935.158    23710770.368    97091640.150    23710769.850  
  23710771.851    93046161.832  
  22356384.252   119717421.382    22356381.429    93113537.681    22356380.554  
                                
  20075583.394   107315498.612    20075581.536    83467601.808    20075580.392  
                                
  22529782.535   120096419.432    22529782.482    93408325.229    22529781.713  
                                
  22775877.775   121835585.269    22775877.811    94761009.786    22775876.113  
                                
  19750402.718   105614278.707    19750403.307    82144441.793    19750401.252  
                                
  22026003.226   117865593.031    22026001.278    91673230.293    22026000.402  
                                
  25708398.443   135098547.029                                                  
  25708404.876   100885302.373  
  23488547.500   123433150.164                                                  
  23488552.896    92174126.797  
  23955141.408   125885117.834                                                  
  23955146.966    94005140.820  
  24980325.781   131272497.757                                                  
  24980332.625    98028189.182  
 21  8 31 20 20 42.0000000  0 17G10G15G18G23G24G27G32R 4R 5R14R19R20
                                R21E 3E 5E 9E36
  22536697.615   118431145.477    22536696.829    92284005.708    22536696.668  
  22536697.883    88438842.654  
  22078931.933   116025569.297    22078929.217    90409520.999    22078928.591  
                                
  20222022.950   106267447.481    20222020.019    82805789.455    20222019.626  
  20222026.238    79355573.693  
  20701838.023   108788892.608    20701834.628    84770550.012    20701834.253  
  20701841.025    81238470.257  
  20799896.306   109304192.799    20799895.609    85172093.227    20799895.037  
  20799898.433    81623269.144  
  24248060.761   127424418.037    24248060.707    99291751.724    24248060.100  
  24248063.102    95154607.360  
  23710241.249   124598159.270    23710242.124    97089477.122    23710241.624  
  23710243.625    93044088.928  
  22356865.626   119719999.169    22356862.821    93115542.627    22356861.927  
                                
  20075711.068   107316181.070    20075709.210    83468132.611    20075708.066  
                                
  22529718.278   120096077.046    22529718.260    93408058.929    22529717.474  
                                
  22776719.049   121840085.452    22776719.084    94764509.927    22776717.387  
                                
  19750647.684   105615588.661    19750648.292    82145460.646    19750646.201  
                                
  22025433.347   117862543.456    22025431.399    91670858.403    22025430.506  
                                
  25708073.209   135096837.948                                                  
  25708079.642   100884026.117  
  23488605.002   123433452.412                                                  
  23488610.399    92174352.504  
  23955533.026   125887175.748                                                  
  23955538.583    94006677.574  
  24980803.349   131275007.385                                                  
  24980810.193    98030063.255  
 21  8 31 20 20 43.0000000  0 17G10G15G18G23G24G27G32R 4R 5R14R19R20
                                R21E 3E 5E 9E36
  22536283.679   118428970.291    22536282.893    92282310.756    22536282.732  
  22536283.929    88437218.331  
  22079478.225   116028440.053    22079475.473    90411757.952    22079474.883  
                                
  20222215.882   106268461.345    20222212.933    82806579.475    20222212.558  
  20222219.152    79356330.791  
  20701678.685   108788055.339    20701675.308    84769897.595    20701674.915  
  20701681.705    81237845.028  
  20799741.364   109303378.669    20799740.685    85171458.840    20799740.113  
  20799743.508    81622661.192  
  24248033.457   127424274.645    24248033.404    99291639.990    24248032.814  
  24248035.816    95154500.284  
  23709713.005   124595383.367    23709713.898    97087314.081    23709713.380  
  23709715.381    93042016.029  
  22357346.964   119722576.703    22357344.158    93117547.375    22357343.265  
                                
  20075838.742   107316863.526    20075836.884    83468663.413    20075835.740  
                                
  22529654.146   120095735.237    22529654.128    93407793.078    22529653.360  
                                
  22777560.304   121844585.627    22777560.340    94768010.061    22777558.643  
                                
  19750892.776   105616899.306    19750893.383    82146480.034    19750891.328  
                                
  22024863.539   117859494.310    22024861.592    91668486.840    22024860.698  
                                
  25707747.975   135095128.825                                                  
  25707754.390   100882749.831  
  23488662.523   123433754.648                                                  
  23488667.919    92174578.198  
  23955924.572   125889233.457                                                  
  23955930.129    94008214.172  
  24981280.934   131277517.061                                                  
  24981287.760    98031937.374  
 21  8 31 20 20 44.0000000  0 17G10G15G18G23G24G27G32R 4R 5R14R19R20
                                R21E 3E 5E 9E36
  22535869.797   118426795.363    22535869.010    92280616.009    22535868.849  
  22535870.065    88435594.198  
  22080024.588   116031311.176    22080021.854    90413995.184    22080021.228  
                                
  20222408.957   106269475.992    20222406.026    82807370.109    20222405.651  
  20222412.244    79357088.486  
  20701519.454   108787218.493    20701516.059    84769245.498    20701515.684  
  20701522.456    81237220.111  
  20799586.636   109302565.416    20799585.921    85170825.136    20799585.367  
  20799588.762    81622053.886  
  24248006.314   127424132.034    24248006.243    99291528.881    24248005.671  
  24248008.673    95154393.808  
  23709184.832   124592607.895    23709185.725    97085151.364    23709185.225  
  23709187.209    93039943.410  
  22357828.337   119725154.451    22357825.532    93119552.303    22357824.639  
                                
  20075966.488   107317546.433    20075964.630    83469194.551    20075963.486  
                                
  22529590.229   120095394.414    22529590.193    93407527.981    22529589.407  
                                
  22778401.632   121849086.083    22778401.649    94771510.401    22778399.970  
                                
  19751138.081   105618211.010    19751138.671    82147500.249    19751136.616  
                                
  22024293.875   117856446.016    22024291.945    91666115.954    22024291.034  
                                
  25707422.812   135093420.087                                                  
  25707429.245   100881473.819  
  23488720.115   123434057.278                                                  
  23488725.511    92174804.187  
  23956316.189   125891291.391                                                  
  23956321.747    94009750.946  
  24981758.591   131280027.235                                                  
  24981765.417    98033811.842  
 21  8 31 20 20 45.0000000  0 17G10G15G18G23G24G27G32R 4R 5R14R19R20
                                R21E 3E 5E 9E36
  22535455.968   118424620.631    22535455.164    92278921.415    22535455.021  
  22535456.200    88433970.217  
  22080571.005   116034182.622    22080568.253    90416232.672    22080567.645  
                                
  20222602.192   106270491.411    20222599.244    82808161.342    20222598.869  
  20222605.498    79357846.756  
  20701360.277   108786382.026    20701356.882    84768593.708    20701356.507  
  20701363.279    81236595.476  
  20799432.015   109301752.987    20799431.318    85170192.075    20799430.764  
  20799434.160    81621447.206  
  24247979.332   127423990.174    24247979.260    99291418.338    24247978.671  
  24247981.673    95154287.876  
  23708656.749   124589832.775    23708657.642    97082988.931    23708657.142  
  23708659.125    93037871.091  
  22358309.747   119727732.341    22358306.924    93121557.330    22358306.048  
                                
  20076094.323   107318229.742    20076092.465    83469726.014    20076091.303  
                                
  22529526.436   120095054.489    22529526.418    93407263.598    22529525.632  
                                
  22779243.012   121853586.876    22779243.048    94775011.020    22779241.351  
                                
  19751383.566   105619523.775    19751384.174    82148521.288    19751382.083  
                                
  22023724.371   117853398.442    22023722.441    91663745.619    22023721.548  
                                
  25707097.703   135091711.683                                                  
  25707104.154   100880198.065  
  23488777.760   123434360.263                                                  
  23488783.174    92175030.444  
  23956707.843   125893349.496                                                  
  23956713.400    94011287.834  
  24982236.355   131282537.829                                                  
  24982243.181    98035686.631  
 21  8 31 20 20 46.0000000  0 17G10G15G18G23G24G27G32R 4R 5R14R19R20
                                R21E 3E 5E 9E36
  22535042.103   118422445.885    22535041.317    92277226.808    22535041.156  
  22535042.371    88432346.223  
  22081117.422   116037054.130    22081114.688    90418470.210    22081114.080  
                                
  20222795.517   106271507.358    20222792.569    82808952.994    20222792.193  
  20222798.823    79358605.422  
  20701201.118   108785545.705    20701197.741    84767942.027    20701197.347  
  20701204.138    81235970.946  
  20799277.538   109300941.154    20799276.841    85169559.480    20799276.269  
  20799279.682    81620840.979  
  24247952.421   127423848.839    24247952.368    99291308.202    24247951.778  
  24247954.780    95154182.321  
  23708128.683   124587057.811    23708129.595    97080826.633    23708129.059  
  23708131.060    93035798.884  
  22358791.120   119730310.137    22358788.315    93123562.281    22358787.422  
                                
  20076222.176   107318913.174    20076220.300    83470257.572    20076219.156  
                                
  22529462.787   120094715.243    22529462.769    93406999.747    22529461.983  
                                
  22780084.393   121858087.771    22780084.429    94778511.714    22780082.749  
                                
  19751629.212   105620837.318    19751629.801    82149542.935    19751627.728  
                                
  22023154.957   117850351.383    22023153.027    91661375.691    22023152.116  
                                
  25706772.630   135090003.397                                                  
  25706779.063   100878922.403  
  23488835.441   123434663.377                                                  
  23488840.838    92175256.795  
  23957099.460   125895407.528                                                  
  23957105.035    94012824.686  
  24982714.137   131285048.616                                                  
  24982720.945    98037561.572  
 21  8 31 20 20 47.0000000  0 17G10G15G18G23G24G27G32R 4R 5R14R19R20
                                R21E 3E 5E 9E36
  22534628.257   118420271.075    22534627.488    92275532.157    22534627.328  
  22534628.525    88430722.169  
  22081663.874   116039925.675    22081661.140    90420707.780    22081660.515  
                                
  20222988.949   106272523.795    20222986.001    82809745.025    20222985.626  
  20222992.219    79359364.447  
  20701042.012   108784709.461    20701038.599    84767290.415    20701038.206  
  20701045.014    81235346.485  
  20799123.149   109300129.879    20799122.452    85168927.318    20799121.898  
  20799125.294    81620235.147  
  24247925.618   127423707.933    24247925.564    99291198.405    24247924.956  
  24247927.976    95154077.099  
  23707600.654   124584282.944    23707601.547    97078664.399    23707601.029  
  23707603.030    93033726.739  
  22359272.476   119732887.764    22359269.671    93125567.106    22359268.777  
                                
  20076350.029   107319596.689    20076348.170    83470789.195    20076347.027  
                                
  22529399.280   120094376.670    22529399.262    93406736.422    22529398.476  
                                
  22780925.810   121862588.722    22780925.846    94782012.458    22780924.148  
                                
  19751875.000   105622151.656    19751875.608    82150565.203    19751873.517  
                                
  22022585.614   117847304.825    22022583.684    91659006.146    22022582.773  
                                
  25706447.557   135088295.152                                                  
  25706453.990   100877646.772  
  23488893.140   123434966.561                                                  
  23488898.537    92175483.202  
  23957491.078   125897465.471                                                  
  23957496.635    94014361.451  
  24983191.955   131287559.559                                                  
  24983198.781    98039436.623  
 21  8 31 20 20 48.0000000  0 17G10G15G18G23G24G27G32R 4R 5R14R19R20
                                R21E 3E 5E 9E36
  22534214.410   118418096.226    22534213.624    92273837.472    22534213.463  
  22534214.660    88429098.092  
  22082210.327   116042797.306    22082207.575    90422945.415    22082206.967  
                                
  20223182.471   106273540.761    20223179.522    82810537.463    20223179.147  
  20223185.741    79360123.863  
  20700882.888   108783873.366    20700879.493    84766638.912    20700879.118  
  20700885.890    81234722.126  
  20798968.886   109299319.202    20798968.189    85168295.626    20798967.617  
  20798971.030    81619629.770  
  24247898.903   127423567.529    24247898.832    99291089.001    24247898.242  
  24247901.262    95153972.258  
  23707072.642   124581508.206    23707073.518    97076502.267    23707073.017  
  23707075.001    93031654.692  
  22359753.796   119735465.261    22359750.991    93127571.824    22359750.097  
                                
  20076477.917   107320280.327    20076476.059    83471320.915    20076474.915  
                                
  22529335.899   120094038.800    22529335.863    93406473.638    22529335.095  
                                
  22781767.244   121867089.760    22781767.262    94785513.268    22781765.582  
                                
  19752120.913   105623466.771    19752121.521    82151588.070    19752119.430  
                                
  22022016.414   117844258.832    22022014.449    91656637.045    22022013.555  
                                
  25706122.519   135086587.033                                                  
  25706128.952   100876371.220  
  23488950.857   123435269.883                                                  
  23488956.254    92175709.704  
  23957882.695   125899523.350                                                  
  23957888.252    94015898.177  
  24983669.808   131290070.701                                                  
  24983676.652    98041311.818  
 21  8 31 20 20 49.0000000  0 17G10G15G18G23G24G27G32R 4R 5R14R19R20
                                R21E 3E 5E 9E36
  22533800.528   118415921.339    22533799.760    92272142.750    22533799.599  
  22533800.796    88427473.981  
  22082756.797   116045669.016    22082754.045    90425183.111    22082753.438  
                                
  20223376.064   106274558.228    20223373.151    82811330.297    20223372.758  
  20223379.370    79360883.671  
  20700723.818   108783037.415    20700720.423    84765987.522    20700720.012  
  20700726.820    81234097.879  
  20798814.712   109298509.110    20798814.033    85167664.378    20798813.461  
  20798816.874    81619024.826  
  24247872.279   127423427.623    24247872.207    99290979.982    24247871.617  
  24247874.637    95153867.800  
  23706544.648   124578733.626    23706545.524    97074340.276    23706545.023  
  23706547.007    93029582.772  
  22360235.116   119738042.648    22360232.293    93129576.453    22360231.399  
                                
  20076605.824   107320964.085    20076603.965    83471852.731    20076602.822  
                                
  22529272.643   120093701.649    22529272.625    93406211.417    22529271.838  
                                
  22782608.643   121871590.813    22782608.696    94789014.083    22782606.981  
                                
  19752367.006   105624782.692    19752367.595    82152611.563    19752365.540  
                                
  22021447.286   117841213.382    22021445.356    91654268.362    22021444.445  
                                
  25705797.464   135084878.985                                                  
  25705803.932   100875095.749  
  23489008.592   123435573.305                                                  
  23489014.006    92175936.290  
  23958274.259   125901581.155                                                  
  23958279.816    94017434.856  
  24984147.697   131292582.020                                                  
  24984154.541    98043187.177  
 21  8 31 20 20 50.0000000  0 17G10G15G18G23G24G27G32R 4R 5R14R19R20
                                R21E 3E 5E 9E36
  22533386.717   118413746.713    22533385.931    92270448.236    22533385.770  
  22533386.967    88425850.077  
  22083303.321   116048541.078    22083300.587    90427421.079    22083299.962  
                                
  20223569.853   106275576.531    20223566.923    82812123.778    20223566.530  
  20223573.141    79361644.081  
  20700564.820   108782201.887    20700561.425    84765336.463    20700561.014  
  20700567.822    81233473.935  
  20798660.735   109297699.895    20798660.056    85167033.823    20798659.466  
  20798662.879    81618420.540  
  24247845.797   127423288.536    24247845.707    99290871.616    24247845.136  
  24247848.155    95153763.914  
  23706016.726   124575959.452    23706017.619    97072178.583    23706017.101  
  23706019.102    93027511.161  
  22360716.472   119740620.265    22360713.649    93131581.269    22360712.737  
                                
  20076733.820   107321648.293    20076731.961    83472384.895    20076730.818  
                                
  22529209.565   120093365.488    22529209.547    93405949.958    22529208.779  
                                
  22783450.149   121876092.269    22783450.185    94792515.215    22783448.487  
                                
  19752613.294   105626099.696    19752613.884    82153635.903    19752611.811  
                                
  22020878.336   117838168.746    22020876.371    91651900.312    22020875.477  
                                
  25705472.516   135083171.332                                                  
  25705478.966   100873820.556  
  23489066.416   123435877.141                                                  
  23489071.813    92176163.173  
  23958665.912   125903639.192                                                  
  23958671.469    94018971.696  
  24984625.676   131295093.832                                                  
  24984632.520    98045062.872  
 21  8 31 20 20 51.0000000  0 17G10G15G18G23G24G27G32R 4R 5R14R19R20
                                R21E 3E 5E 9E36
  22532972.871   118411572.008    22532972.102    92268753.659    22532971.941  
  22532973.139    88424226.104  
  22083849.863   116051413.166    22083847.129    90429659.067    22083846.504  
                                
  20223763.714   106276595.298    20223760.784    82812917.618    20223760.391  
  20223767.002    79362404.849  
  20700405.839   108781366.437    20700402.444    84764685.462    20700402.033  
  20700408.841    81232850.060  
  20798506.847   109296891.213    20798506.168    85166403.680    20798505.596  
  20798509.009    81617816.663  
  24247819.404   127423149.886    24247819.333    99290763.577    24247818.743  
  24247821.745    95153660.382  
  23705488.839   124573185.362    23705489.715    97070016.955    23705489.214  
  23705491.198    93025439.599  
  22361197.792   119743197.745    22361194.951    93133585.978    22361194.075  
                                
  20076861.851   107322332.599    20076859.975    83472917.131    20076858.831  
                                
  22529146.630   120093029.936    22529146.595    93405688.973    22529145.826  
                                
  22784291.655   121880593.708    22784291.673    94796016.334    22784289.975  
                                
  19752859.726   105627417.450    19752860.316    82154660.818    19752858.243  
                                
  22020309.440   117835124.594    22020307.510    91649532.637    22020306.617  
                                
  25705147.567   135081463.736                                                  
  25705154.000   100872545.412  
  23489124.258   123436181.047                                                  
  23489129.655    92176390.114  
  23959057.512   125905697.092                                                  
  23959063.069    94020508.454  
  24985103.690   131297605.781                                                  
  24985110.534    98046938.685  
 21  8 31 20 20 52.0000000  0 17G10G15G18G23G24G27G32R 4R 5R14R19R20
                                R21E 3E 5E 9E36
  22532559.078   118409397.497    22532558.309    92267059.234    22532558.148  
  22532559.346    88422602.283  
  22084396.477   116054285.551    22084393.743    90431897.285    22084393.117  
                                
  20223957.718   106277614.823    20223954.806    82813712.050    20223954.395  
  20223961.024    79363166.175  
  20700246.930   108780531.337    20700243.517    84764034.737    20700243.142  
  20700249.932    81232226.460  
  20798353.119   109296083.369    20798352.423    85165774.186    20798351.869  
  20798355.282    81617213.398  
  24247793.155   127423011.944    24247793.083    99290656.096    24247792.493  
  24247795.513    95153557.379  
  23704961.024   124570411.633    23704961.899    97067855.606    23704961.399  
  23704963.383    93023368.306  
  22361679.130   119745775.323    22361676.307    93135590.761    22361675.413  
                                
  20076989.918   107323017.288    20076988.060    83473449.665    20076986.916  
                                
  22529083.856   120092695.301    22529083.839    93405428.704    22529083.052  
                                
  22785133.196   121885095.478    22785133.250    94799517.713    22785131.552  
                                
  19753106.336   105628736.262    19753106.944    82155686.562    19753104.871  
                                
  22019740.723   117832081.218    22019738.793    91647165.568    22019737.882  
                                
  25704822.673   135079756.468                                                  
  25704829.142   100871270.491  
  23489182.154   123436485.288                                                  
  23489187.550    92176617.307  
  23959449.165   125907755.191                                                  
  23959454.722    94022045.324  
  24985581.794   131300118.159                                                  
  24985588.620    98048814.802  
 21  8 31 20 20 53.0000000  0 17G10G15G18G23G24G27G32R 4R 5R14R19R20
                                R21E 3E 5E 9E36
  22532145.320   118407223.152    22532144.552    92265364.940    22532144.391  
  22532145.571    88420978.587  
  22084943.126   116057158.194    22084940.374    90434135.703    22084939.766  
                                
  20224151.865   106278635.057    20224148.953    82814507.038    20224148.542  
  20224155.171    79363928.043  
  20700088.092   108779696.593    20700084.679    84763384.284    20700084.286  
  20700091.094    81231603.107  
  20798199.535   109295276.298    20798198.856    85165145.305    20798198.284  
  20798201.697    81616610.725  
  24247767.048   127422874.711    24247766.959    99290549.155    24247766.387  
  24247769.407    95153454.903  
  23704433.262   124567638.224    23704434.138    97065694.510    23704433.637  
  23704435.621    93021297.267  
  22362160.468   119748352.952    22362157.662    93137595.581    22362156.751  
                                
  20077118.075   107323702.284    20077116.217    83473982.435    20077115.055  
                                
  22529021.225   120092361.544    22529021.225    93405169.113    22529020.439  
                                
  22785974.809   121889597.528    22785974.863    94803019.305    22785973.165  
                                
  19753353.161   105630056.037    19753353.751    82156713.050    19753351.678  
                                
  22019172.148   117829038.551    22019170.183    91644799.042    22019169.289  
                                
  25704497.868   135078049.490                                                  
  25704504.301   100869995.809  
  23489240.085   123436789.851                                                  
  23489245.500    92176844.747  
  23959840.836   125909813.392                                                  
  23959846.393    94023582.302  
  24986059.933   131302630.918                                                  
  24986066.777    98050691.220  
 21  8 31 20 20 54.0000000  0 17G10G15G18G23G24G27G32R 4R 5R14R19R20
                                R21E 3E 5E 9E36
  22531731.527   118405048.732    22531730.759    92263670.584    22531730.616  
  22531731.795    88419354.827  
  22085489.793   116060030.867    22085487.023    90436374.147    22085486.416  
                                
  20224346.119   106279655.790    20224343.189    82815302.414    20224342.796  
  20224349.407    79364690.275  
  20699929.254   108778861.936    20699925.841    84762733.897    20699925.448  
  20699932.256    81230979.815  
  20798046.076   109294469.809    20798045.397    85164516.874    20798044.807  
  20798048.238    81616008.468  
  24247741.013   127422737.951    24247740.941    99290442.573    24247740.369  
  24247743.389    95153352.766  
  23703905.519   124564864.924    23703906.394    97063533.486    23703905.876  
  23703907.877    93019226.280  
  22362641.823   119750930.468    22362638.982    93139600.285    22362638.107  
                                
  20077246.232   107324387.387    20077244.355    83474515.291    20077243.212  
                                
  22528958.755   120092028.481    22528958.737    93404910.052    22528957.969  
                                
  22786816.423   121894099.618    22786816.476    94806520.903    22786814.779  
                                
  19753600.111   105631376.622    19753600.719    82157740.169    19753598.628  
                                
  22018603.645   117825996.356    22018601.680    91642432.888    22018600.768  
                                
  25704173.045   135076342.595                                                  
  25704179.495   100868721.164  
  23489298.070   123437094.494                                                  
  23489303.485    92177072.236  
  23960232.472   125911871.497                                                  
  23960238.047    94025119.194  
  24986538.144   131305143.836                                                  
  24986544.970    98052567.739  
 21  8 31 20 20 55.0000000  0 17G10G15G18G23G24G27G32R 4R 5R14R19R20
                                R21E 3E 5E 9E36
  22531317.770   118402874.379    22531317.002    92261976.283    22531316.841  
  22531318.038    88417731.124  
  22086036.478   116062903.733    22086033.708    90438612.744    22086033.118  
                                
  20224540.481   106280677.140    20224537.532    82816098.269    20224537.157  
  20224543.751    79365452.968  
  20699770.470   108778027.513    20699767.075    84762083.698    20699766.664  
  20699773.472    81230356.708  
  20797892.724   109293663.995    20797892.045    85163888.967    20797891.473  
  20797894.886    81615406.725  
  24247715.103   127422601.813    24247715.049    99290336.491    24247714.441  
  24247717.461    95153251.093  
  23703377.828   124562091.867    23703378.704    97061372.669    23703378.204  
  23703380.187    93017155.496  
  22363123.161   119753507.995    22363120.338    93141605.027    22363119.427  
                                
  20077374.424   107325072.741    20077372.566    83475048.344    20077371.440  
                                
  22528896.410   120091696.236    22528896.410    93404651.635    22528895.660  
                                
  22787658.089   121898601.866    22787658.125    94810022.644    22787656.427  
                                
  19753847.222   105632698.070    19753847.829    82158767.962    19753845.775  
                                
  22018035.250   117822954.818    22018033.284    91640067.247    22018032.391  
                                
  25703848.257   135074635.876                                                  
  25703854.708   100867446.670  
  23489356.073   123437399.357                                                  
  23489361.505    92177299.884  
  23960624.125   125913929.643                                                  
  23960629.664    94026656.116  
  24987016.390   131307657.062                                                  
  24987023.234    98054444.494  
 21  8 31 20 20 56.0000000  0 17G10G15G18G23G24G27G32R 4R 5R14R19R20
                                R21E 3E 5E 9E36
  22530904.049   118400700.158    22530903.245    92260282.083    22530903.102  
  22530904.281    88416107.517  
  22086583.198   116065776.795    22086580.464    90440851.487    22086579.839  
                                
  20224734.949   106281699.161    20224732.019    82816894.651    20224731.644  
  20224738.237    79366216.166  
  20699611.740   108777193.388    20699608.327    84761433.725    20699607.951  
  20699614.742    81229733.820  
  20797739.533   109292858.906    20797738.836    85163261.624    20797738.282  
  20797741.677    81614805.533  
  24247689.318   127422466.298    24247689.264    99290230.890    24247688.656  
  24247691.676    95153149.899  
  23702850.156   124559319.072    23702851.050    97059212.051    23702850.549  
  23702852.515    93015084.906  
  22363604.499   119756085.583    22363601.676    93143609.812    22363600.782  
                                
  20077502.706   107325758.391    20077500.847    83475581.627    20077499.686  
                                
  22528834.244   120091364.801    22528834.244    93404393.845    22528833.493  
                                
  22788499.774   121903104.344    22788499.810    94813524.567    22788498.112  
                                
  19754094.547   105634020.515    19754095.137    82159796.526    19754093.064  
                                
  22017466.979   117819913.971    22017465.049    91637702.139    22017464.120  
                                
  25703523.541   135072929.415                                                  
  25703529.992   100866172.358  
  23489414.147   123437704.492                                                  
  23489419.562    92177527.747  
  23961015.778   125915987.871                                                  
  23961021.335    94028193.109  
  24987494.708   131310170.596                                                  
  24987501.534    98056321.486  
 21  8 31 20 20 57.0000000  0 17G10G15G18G23G24G27G32R 4R 5R14R19R20
                                R21E 3E 5E 9E36
  22530490.345   118398526.155    22530489.541    92258588.050    22530489.398  
  22530490.577    88414484.069  
  22087129.990   116068650.178    22087127.239    90443090.487    22087126.631  
                                
  20224929.579   106282721.957    20224926.666    82817691.633    20224926.273  
  20224932.885    79366979.940  
  20699453.081   108776359.638    20699449.686    84760784.052    20699449.292  
  20699456.083    81229111.216  
  20797586.485   109292054.676    20797585.788    85162634.952    20797585.234  
  20797588.647    81614204.968  
  24247663.676   127422331.530    24247663.604    99290125.877    24247663.014  
  24247666.034    95153049.261  
  23702322.609   124556546.673    23702323.467    97057051.742    23702322.966  
  23702324.968    93013014.614  
  22364085.891   119758663.311    22364083.067    93145614.707    22364082.174  
                                
  20077631.041   107326444.426    20077629.183    83476115.212    20077628.039  
                                
  22528772.256   120091034.318    22528772.274    93404136.801    22528771.488  
                                
  22789341.530   121907607.141    22789341.566    94817026.738    22789339.868  
                                
  19754342.033   105635343.967    19754342.641    82160825.872    19754340.550  
                                
  22016898.887   117816873.915    22016896.939    91635337.649    22016896.028  
                                
  25703198.861   135071223.288                                                  
  25703205.312   100864898.311  
  23489472.275   123438009.971                                                  
  23489477.690    92177755.869  
  23961407.485   125918046.278                                                  
  23961413.060    94029730.225  
  24987973.116   131312684.591                                                  
  24987979.924    98058198.820  
 21  8 31 20 20 58.0000000  0 17G10G15G18G23G24G27G32R 4R 5R14R19R20
                                R21E 3E 5E 9E36
  22530076.677   118396352.309    22530075.891    92256894.144    22530075.730  
  22530076.927    88412860.743  
  22087676.836   116071523.839    22087674.084    90445329.701    22087673.477  
                                
  20225124.369   106283745.469    20225121.421    82818489.173    20225121.045  
  20225127.639    79367744.256  
  20699294.475   108775526.228    20699291.098    84760134.642    20699290.705  
  20699297.495    81228488.869  
  20797433.597   109291251.233    20797432.900    85162008.892    20797432.347  
  20797435.760    81613605.001  
  24247638.159   127422197.464    24247638.105    99290021.403    24247637.497  
  24247640.535    95152949.149  
  23701795.080   124553774.619    23701795.973    97054891.699    23701795.473  
  23701797.456    93010944.579  
  22364567.282   119761241.098    22364564.459    93147619.646    22364563.548  
                                
  20077759.448   107327130.792    20077757.590    83476649.050    20077756.428  
                                
  22528710.447   120090704.734    22528710.447    93403880.451    22528709.679  
                                
  22790183.340   121912110.249    22790183.411    94820529.148    22790181.678  
                                
  19754589.716   105636668.437    19754590.323    82161856.016    19754588.250  
                                
  22016330.920   117813834.609    22016328.972    91632973.749    22016328.061  
                                
  25702874.253   135069517.473                                                  
  25702880.721   100863624.486  
  23489530.475   123438315.773                                                  
  23489535.871    92177984.234  
  23961799.228   125920104.814                                                  
  23961804.767    94031267.450  
  24988451.577   131315198.970                                                  
  24988458.403    98060076.443  
 21  8 31 20 20 59.0000000  0 17G10G15G18G23G24G27G32R 4R 5R14R19R20
                                R21E 3E 5E 9E36
  22529663.027   118394178.684    22529662.259    92255200.424    22529662.116  
  22529663.295    88411237.592  
  22088223.735   116074397.841    22088220.984    90447569.194    22088220.358  
                                
  20225319.284   106284769.783    20225316.336    82819287.341    20225315.961  
  20225322.572    79368509.161  
  20699135.977   108774693.223    20699132.582    84759485.550    20699132.189  
  20699138.979    81227866.813  
  20797280.871   109290448.644    20797280.174    85161383.502    20797279.620  
  20797283.015    81613005.662  
  24247612.820   127422064.240    24247612.749    99289917.585    24247612.159  
  24247615.179    95152849.639  
  23701267.675   124551002.983    23701268.551    97052731.996    23701268.051  
  23701270.034    93008874.853  
  22365048.709   119763819.038    22365045.868    93149624.715    22365044.975  
                                
  20077887.926   107327817.564    20077886.050    83477183.197    20077884.906  
                                
  22528648.781   120090376.112    22528648.799    93403624.870    22528648.031  
                                
  22791025.221   121916613.734    22791025.274    94824031.849    22791023.559  
                                
  19754837.613   105637993.973    19754838.202    82162886.986    19754836.129  
                                
  22015763.096   117810796.081    22015761.148    91630610.440    22015760.237  
                                
  25702549.715   135067812.001                                                  
  25702556.202   100862350.921  
  23489588.746   123438621.983                                                  
  23489594.142    92178212.889  
  23962190.988   125922163.579                                                  
  23962196.545    94032804.828  
  24988930.145   131317713.819                                                  
  24988936.971    98061954.401  
 21  8 31 20 21  0.0000000  0 17G10G15G18G23G24G27G32R 4R 5R14R19R20
                                R21E 3E 5E 9E36
  22529249.395   118392004.977    22529248.627    92253506.626    22529248.466  
  22529249.645    88409614.371  
  22088770.653   116077271.860    22088767.883    90449808.695    22088767.275  
                                
  20225514.289   106285794.542    20225511.341    82820085.857    20225510.965  
  20225517.559    79369274.403  
  20698977.461   108773860.286    20698974.066    84758836.508    20698973.690  
  20698980.463    81227244.815  
  20797128.252   109289646.600    20797127.555    85160758.536    20797127.001  
  20797130.414    81612406.729  
  24247587.518   127421931.362    24247587.464    99289814.046    24247586.857  
  24247589.894    95152750.432  
  23700740.253   124548231.388    23700741.129    97050572.297    23700740.629  
  23700742.630    93006805.159  
  22365530.083   119766396.826    22365527.242    93151629.659    22365526.366  
                                
  20078016.404   107328504.417    20078014.546    83477717.418    20078013.385  
                                
  22528587.276   120090048.145    22528587.276    93403369.779    22528586.508  
                                
  22791867.102   121921117.173    22791867.155    94827534.520    22791865.440  
                                
  19755085.635   105639320.261    19755086.224    82163918.543    19755084.151  
                                
  22015195.362   117807758.024    22015193.414    91628247.507    22015192.502  
                                
  25702225.196   135066106.593                                                  
  25702231.647   100861077.403  
  23489647.017   123438928.239                                                  
  23489652.449    92178441.578  
  23962582.748   125924222.194                                                  
  23962588.306    94034342.102  
  24989408.731   131320228.791                                                  
  24989415.557    98063832.460  
 21  8 31 20 21  1.0000000  0 17G10G15G18G23G24G27G32R 4R 5R14R19R20
                                R21E 3E 5E 9E36
  22528835.727   118389831.170    22528834.941    92251812.753    22528834.780  
  22528835.995    88407991.080  
  22089317.552   116080145.874    22089314.800    90452048.186    22089314.175  
                                
  20225709.383   106286819.774    20225706.452    82820884.735    20225706.059  
  20225712.671    79370039.987  
  20698818.980   108773027.422    20698815.585    84758187.523    20698815.192  
  20698821.982    81226622.873  
  20796975.722   109288845.067    20796975.025    85160133.965    20796974.471  
  20796977.884    81611808.186  
  24247562.322   127421798.957    24247562.251    99289710.878    24247561.661  
  24247564.699    95152651.543  
  23700212.849   124545459.860    23700213.743    97048412.672    23700213.224  
  23700215.226    93004735.518  
  22366011.457   119768974.476    22366008.615    93153634.493    22366007.704  
                                
  20078144.919   107329191.338    20078143.042    83478251.688    20078141.899  
                                
  22528525.860   120089720.770    22528525.860    93403115.154    22528525.092  
                                
  22792708.965   121925620.628    22792709.037    94831037.200    22792707.339  
                                
  19755333.782   105640647.257    19755334.389    82164950.651    19755332.299  
                                
  22014627.734   117804720.461    22014625.769    91625884.960    22014624.875  
                                
  25701900.659   135064401.183                                                  
  25701907.110   100859803.893  
  23489705.305   123439234.531                                                  
  23489710.720    92178670.309  
  23962974.455   125926280.674                                                  
  23962980.013    94035879.276  
  24989887.335   131322743.886                                                  
  24989894.179    98065710.615  
 21  8 31 20 21  2.0000000  0 17G10G15G18G23G24G27G32R 4R 5R14R19R20
                                R21E 3E 5E 9E36
  22528422.059   118387657.318    22528421.273    92250118.845    22528421.130  
  22528422.309    88406367.748  
  22089864.451   116083019.931    22089861.699    90454287.713    22089861.092  
                                
  20225904.566   106287845.492    20225901.636    82821683.996    20225901.243  
  20225907.854    79370805.955  
  20698660.500   108772194.666    20698657.123    84757538.622    20698656.730  
  20698663.502    81226001.013  
  20796823.299   109288044.121    20796822.620    85159509.851    20796822.048  
  20796825.461    81611210.075  
  24247537.216   127421667.027    24247537.163    99289608.068    24247536.555  
  24247539.593    95152553.013  
  23699685.481   124542688.470    23699686.356    97046253.148    23699685.838  
  23699687.839    93002665.970  
  22366492.777   119771551.986    22366489.935    93155639.223    22366489.060  
                                
  20078273.433   107329878.379    20078271.574    83478786.055    20078270.413  
                                
  22528464.570   120089394.065    22528464.588    93402861.052    22528463.801  
                                
  22793550.864   121930124.116    22793550.936    94834539.901    22793549.202  
                                
  19755582.090   105641975.026    19755582.679    82165983.361    19755580.606  
                                
  22014060.196   117801683.420    22014058.231    91623522.815    22014057.319  
                                
  25701576.139   135062695.878                                                  
  25701582.626   100858530.447  
  23489763.612   123439540.917                                                  
  23489769.026    92178899.108  
  23963366.144   125928339.067                                                  
  23963371.702    94037416.394  
  24990365.974   131325259.137                                                  
  24990372.800    98067588.898  
 21  8 31 20 21  3.0000000  0 17G10G15G18G23G24G27G32R 4R 5R14R19R20
                                R21E 3E 5E 9E36
  22528008.391   118385483.555    22528007.623    92248425.001    22528007.480  
  22528008.659    88404744.487  
  22090411.422   116085894.197    22090408.670    90456527.401    22090408.045  
                                
  20226099.893   106288871.877    20226096.944    82822483.776    20226096.569  
  20226103.163    79371572.407  
  20698502.091   108771362.181    20698498.714    84756889.935    20698498.303  
  20698505.111    81225379.351  
  20796671.037   109287243.891    20796670.340    85158886.295    20796669.768  
  20796673.199    81610612.503  
  24247512.236   127421535.690    24247512.146    99289505.728    24247511.574  
  24247514.594    95152454.949  
  23699158.130   124539917.309    23699159.006    97044093.806    23699158.505  
  23699160.507    93000596.622  
  22366974.114   119774129.495    22366971.273    93157643.950    22366970.380  
                                
  20078402.000   107330565.679    20078400.142    83479320.622    20078398.998  
                                
  22528403.422   120089068.175    22528403.440    93402607.580    22528402.671  
                                
  22794392.781   121934627.824    22794392.853    94838042.781    22794391.137  
                                
  19755830.558   105643303.784    19755831.166    82167016.837    19755829.093  
                                
  22013492.765   117798647.061    22013490.818    91621161.202    22013489.906  
                                
  25701251.674   135060990.787                                                  
  25701258.142   100857257.171  
  23489821.954   123439847.558                                                  
  23489827.369    92179128.093  
  23963757.851   125930397.527                                                  
  23963763.408    94038953.553  
  24990844.668   131327774.740                                                  
  24990851.512    98069467.420  
 21  8 31 20 21  4.0000000  0 17G10G15G18G23G24G27G32R 4R 5R14R19R20
                                R21E 3E 5E 9E36
  22527594.723   118383309.605    22527593.937    92246731.014    22527593.794  
  22527594.974    88403121.067  
  22090958.357   116088768.375    22090955.587    90458767.018    22090954.962  
                                
  20226295.255   106289898.579    20226292.324    82823283.802    20226291.949  
  20226298.543    79372339.097  
  20698343.664   108770529.654    20698340.269    84756241.213    20698339.876  
  20698346.666    81224757.653  
  20796518.828   109286444.061    20796518.132    85158263.057    20796517.560  
  20796520.991    81610015.222  
  24247487.290   127421404.687    24247487.237    99289403.634    24247486.629  
  24247489.667    95152357.114  
  23698630.797   124537146.145    23698631.673    97041934.471    23698631.173  
  23698633.156    92998527.245  
  22367455.381   119776706.709    22367452.558    93159648.466    22367451.664  
                                
  20078530.586   107331252.917    20078528.692    83479855.143    20078527.566  
                                
  22528342.363   120088742.777    22528342.399    93402354.500    22528341.631  
                                
  22795234.698   121939131.362    22795234.769    94841545.530    22795233.036  
                                
  19756079.152   105644633.106    19756079.760    82168050.754    19756077.669  
                                
  22012925.406   117795611.036    22012923.476    91618799.857    22012922.547  
                                
  25700927.190   135059285.629                                                  
  25700933.659   100855983.830  
  23489880.297   123440154.129                                                  
  23489885.711    92179357.021  
  23964149.522   125932455.722                                                  
  23964155.080    94040490.513  
  24991323.379   131330290.325                                                  
  24991330.205    98071345.943  
 21  8 31 20 21  5.0000000  0 17G10G15G18G23G24G27G32R 4R 5R14R19R20
                                R21E 3E 5E 9E36
  22527181.020   118381135.545    22527180.216    92245036.939    22527180.073  
  22527181.252    88401497.592  
  22091505.292   116091642.550    22091502.540    90461006.630    22091501.915  
                                
  20226490.724   106290925.760    20226487.793    82824084.199    20226487.418  
  20226494.012    79373106.156  
  20698185.256   108769697.201    20698181.843    84755592.553    20698181.467  
  20698188.258    81224136.027  
  20796366.745   109285644.770    20796366.030    85157640.226    20796365.459  
  20796368.907    81609418.365  
  24247462.453   127421274.148    24247462.399    99289301.918    24247461.791  
  24247464.829    95152259.634  
  23698103.482   124534375.043    23698104.358    97039775.161    23698103.858  
  23698105.841    92996457.917  
  22367936.647   119779283.773    22367933.806    93161652.846    22367932.913  
                                
  20078659.153   107331940.224    20078657.277    83480389.712    20078656.133  
                                
  22528281.448   120088418.030    22528281.484    93402101.921    22528280.715  
                                
  22796076.597   121943634.990    22796076.651    94845048.354    22796074.935  
                                
  19756327.889   105645963.175    19756328.497    82169085.249    19756326.406  
                                
  22012358.136   117792575.442    22012356.188    91616438.837    22012355.277  
                                
  25700602.707   135057580.506                                                  
  25700609.175   100854710.528  
  23489938.657   123440460.767                                                  
  23489944.053    92179586.009  
  23964541.158   125934513.801                                                  
  23964546.715    94042027.405  
  24991802.090   131332806.057                                                  
  24991808.934    98073224.579  
 21  8 31 20 21  6.0000000  0 17G10G15G18G23G24G27G32R 4R 5R14R19R20
                                R21E 3E 5E 9E36
  22526767.316   118378961.597    22526766.548    92243342.951    22526766.387  
  22526767.566    88399874.192  
  22092052.281   116094516.933    22092049.493    90463246.409    22092048.904  
                                
  20226686.318   106291953.609    20226683.388    82824885.116    20226683.012  
  20226689.606    79373873.704  
  20698026.900   108768865.024    20698023.487    84754944.103    20698023.112  
  20698029.884    81223514.594  
  20796214.769   109284846.215    20796214.072    85157017.978    20796213.518  
  20796216.931    81608822.042  
  24247437.740   127421144.238    24247437.668    99289200.688    24247437.078  
  24247440.116    95152162.624  
  23697576.203   124531604.204    23697577.079    97037616.062    23697576.579  
  23697578.580    92994388.791  
  22368417.914   119781860.917    22368415.072    93163657.290    22368414.197  
                                
  20078787.774   107332627.837    20078785.898    83480924.523    20078784.755  
                                
  22528220.675   120088094.149    22528220.693    93401850.012    22528219.943  
                                
  22796918.532   121948138.833    22796918.603    94848551.343    22796916.870  
                                
  19756576.787   105647294.175    19756577.394    82170120.474    19756575.304  
                                
  22011790.991   117789540.529    22011789.025    91614078.351    22011788.132  
                                
  25700278.259   135055875.601                                                  
  25700284.745   100853437.393  
  23489997.053   123440767.666                                                  
  23490002.467    92179815.185  
  23964932.829   125936571.961                                                  
  23964938.368    94043564.341  
  24992280.890   131335322.117                                                  
  24992287.716    98075103.457  
 21  8 31 20 21  7.0000000  0 17G10G15G18G23G24G27G32R 4R 5R14R19R20
                                R21E 3E 5E 9E36
  22526353.684   118376787.919    22526352.898    92241649.176    22526352.755  
  22526353.934    88398250.986  
  22092599.323   116097391.695    22092596.571    90465486.481    22092595.946  
                                
  20226882.073   106292982.288    20226879.161    82825686.683    20226878.750  
  20226885.343    79374641.872  
  20697868.634   108768033.287    20697865.239    84754295.994    20697864.828  
  20697871.636    81222893.491  
  20796062.990   109284048.559    20796062.293    85156396.426    20796061.721  
  20796065.152    81608226.387  
  24247413.170   127421015.139    24247413.098    99289100.090    24247412.509  
  24247415.546    95152066.213  
  23697049.031   124528833.812    23697049.889    97035457.319    23697049.389  
  23697051.390    92992319.990  
  22368899.216   119784438.278    22368896.375    93165661.906    22368895.499  
                                
  20078916.503   107333315.908    20078914.645    83481459.689    20078913.483  
                                
  22528160.117   120087771.287    22528160.135    93401598.897    22528159.385  
                                
  22797760.574   121952643.074    22797760.627    94852054.630    22797758.912  
                                
  19756825.899   105648626.283    19756826.506    82171156.553    19756824.433  
                                
  22011224.007   117786506.480    22011222.059    91611718.535    22011221.148  
                                
  25699953.936   135054171.123                                                  
  25699960.405   100852164.558  
  23490055.538   123441074.982                                                  
  23490060.952    92180044.672  
  23965324.536   125938630.371                                                  
  23965330.075    94045101.452  
  24992759.780   131337838.686                                                  
  24992766.624    98076982.702  
 21  8 31 20 21  8.0000000  0 17G10G15G18G23G24G27G32R 4R 5R14R19R20
                                R21E 3E 5E 9E36
  22525940.016   118374614.135    22525939.230    92239955.317    22525939.087  
  22525940.266    88396627.708  
  22093146.365   116100266.448    22093143.614    90467726.550    22093142.988  
                                
  20227077.918   106294011.426    20227074.987    82826488.608    20227074.594  
  20227081.188    79375410.377  
  20697710.368   108767201.632    20697706.973    84753647.951    20697706.580  
  20697713.370    81222272.446  
  20795911.300   109283251.434    20795910.603    85155775.294    20795910.013  
  20795913.462    81607631.129  
  24247388.689   127420886.484    24247388.636    99288999.830    24247388.028  
  24247391.066    95151970.129  
  23696521.860   124526063.496    23696522.717    97033298.634    23696522.217  
  23696524.218    92990251.243  
  22369380.482   119787015.422    22369377.659    93167666.352    22369376.748  
                                
  20079045.231   107334004.050    20079043.373    83481994.911    20079042.211  
                                
  22528099.666   120087449.059    22528099.684    93401348.270    22528098.934  
                                
  22798602.598   121957147.278    22798602.651    94855557.890    22798600.936  
                                
  19757075.136   105649959.105    19757075.743    82172193.190    19757073.688  
                                
  22010657.112   117783472.917    22010655.164    91609359.095    22010654.253  
                                
  25699629.577   135052466.672                                                  
  25699636.046   100850891.754  
  23490114.023   123441382.345                                                  
  23490119.438    92180274.192  
  23965716.207   125940688.652                                                  
  23965721.764    94046638.476  
  24993238.688   131340355.363                                                  
  24993245.514    98078862.047  
 21  8 31 20 21  9.0000000  0 17G10G15G18G23G24G27G32R 4R 5R14R19R20
                                R21E 3E 5E 9E36
  22525526.402   118372440.557    22525525.616    92238261.617    22525525.455  
  22525526.670    88395004.577  
  22093693.497   116103141.526    22093690.709    90469966.855    22093690.120  
                                
  20227273.887   106295041.309    20227270.975    82827291.114    20227270.564  
  20227277.175    79376179.447  
  20697552.174   108766370.326    20697548.779    84753000.169    20697548.386  
  20697555.176    81221651.661  
  20795759.752   109282455.133    20795759.073    85155154.788    20795758.484  
  20795761.915    81607036.471  
  24247364.352   127420758.557    24247364.298    99288900.138    24247363.690  
  24247366.764    95151874.594  
  23695994.723   124523293.491    23695995.599    97031140.189    23695995.099  
  23695997.100    92988182.748  
  22369861.749   119789592.669    22369858.943    93169670.872    22369858.032  
                                
  20079174.013   107334692.554    20079172.155    83482530.411    20079171.029  
                                
  22528039.394   120087127.708    22528039.412    93401098.319    22528038.644  
                                
  22799444.693   121961651.909    22799444.747    94859061.465    22799443.032  
                                
  19757324.605   105651292.969    19757325.195    82173230.642    19757323.122  
                                
  22010090.360   117780440.111    22010088.413    91607000.250    22010087.501  
                                
  25699305.290   135050762.562                                                  
  25699311.777   100849619.206  
  23490172.580   123441690.060                                                  
  23490177.995    92180503.981  
  23966107.896   125942747.068                                                  
  23966113.453    94048175.618  
  24993717.685   131342872.491                                                  
  24993724.511    98080741.699  
 21  8 31 20 21 10.0000000  0 17G10G15G18G23G24G27G32R 4R 5R14R19R20
                                R21E 3E 5E 9E36
  22525112.823   118370267.275    22525112.055    92236568.153    22525111.912  
  22525113.091    88393381.676  
  22094240.682   116106016.995    22094237.895    90472207.483    22094237.287  
                                
  20227470.036   106296072.051    20227467.105    82828094.290    20227466.712  
  20227473.324    79376949.160  
  20697394.069   108765539.499    20697390.674    84752352.773    20697390.281  
  20697397.071    81221031.240  
  20795608.402   109281659.754    20795607.705    85154535.014    20795607.151  
  20795610.564    81606442.528  
  24247340.157   127420631.425    24247340.103    99288801.081    24247339.496  
  24247342.551    95151779.682  
  23695467.712   124520524.006    23695468.588    97028982.148    23695468.088  
  23695470.089    92986114.630  
  22370343.086   119792170.109    22370340.245    93171675.553    22370339.352  
                                
  20079302.921   107335381.520    20079301.062    83483066.273    20079299.901  
                                
  22527979.283   120086807.397    22527979.336    93400849.186    22527978.550  
                                
  22800286.843   121966156.849    22800286.914    94862565.299    22800285.181  
                                
  19757574.253   105652627.970    19757574.861    82174268.975    19757572.770  
                                
  22009523.769   117777408.165    22009521.822    91604642.073    22009520.910  
                                
  25698981.075   135049058.871                                                  
  25698987.561   100848346.972  
  23490231.208   123441998.221                                                  
  23490236.623    92180734.108  
  23966499.656   125944805.774                                                  
  23966505.213    94049712.957  
  24994196.771   131345390.128                                                  
  24994203.615    98082621.755  
 21  8 31 20 21 11.0000000  0 17G10G15G18G23G24G27G32R 4R 5R14R19R20
                                R21E 3E 5E 9E36
  22524699.298   118368094.105    22524698.512    92234874.773    22524698.351  
  22524699.531    88391758.854  
  22094787.885   116108892.655    22094785.116    90474448.259    22094784.490  
                                
  20227666.309   106297103.440    20227663.361    82828897.972    20227662.985  
  20227669.597    79377719.357  
  20697236.017   108764708.929    20697232.622    84751705.578    20697232.229  
  20697239.019    81220411.012  
  20795457.176   109280865.087    20795456.497    85153915.796    20795455.908  
  20795459.338    81605849.113  
  24247316.069   127420504.927    24247316.016    99288702.517    24247315.408  
  24247318.482    95151685.230  
  23694940.737   124517754.770    23694941.612    97026824.309    23694941.112  
  23694943.096    92984046.696  
  22370824.406   119794747.598    22370821.565    93173680.271    22370820.672  
                                
  20079431.846   107336070.737    20079429.987    83483602.331    20079428.826  
                                
  22527919.350   120086487.880    22527919.386    93400600.680    22527918.635  
                                
  22801129.045   121970662.021    22801129.117    94866069.322    22801127.384  
                                
  19757824.080   105653963.892    19757824.670    82175308.022    19757822.597  
                                
  22008957.321   117774376.889    22008955.356    91602284.418    22008954.444  
                                
  25698656.931   135047355.409                                                  
  25698663.399   100847074.915  
  23490289.908   123442306.626                                                  
  23490295.305    92180964.414  
  23966891.434   125946864.539                                                  
  23966896.992    94051250.344  
  24994675.911   131347908.067                                                  
  24994682.755    98084502.040  
 21  8 31 20 21 12.0000000  0 17G10G15G18G23G24G27G32R 4R 5R14R19R20
                                R21E 3E 5E 9E36
  22524285.774   118365921.011    22524285.005    92233181.458    22524284.844  
  22524286.024    88390136.083  
  22095335.142   116111768.514    22095332.354    90476689.190    22095331.765  
                                
  20227862.690   106298135.470    20227859.759    82829702.156    20227859.366  
  20227865.960    79378490.020  
  20697078.019   108763878.618    20697074.606    84751058.590    20697074.213  
  20697081.021    81219790.972  
  20795306.094   109280071.134    20795305.415    85153297.131    20795304.825  
  20795308.256    81605256.212  
  24247292.143   127420379.083    24247292.071    99288604.462    24247291.482  
  24247294.519    95151591.240  
  23694413.833   124514985.795    23694414.691    97024666.673    23694414.190  
  23694416.174    92981978.953  
  22371305.744   119797325.132    22371302.903    93175685.021    22371302.010  
                                
  20079560.842   107336760.222    20079558.966    83484138.600    20079557.822  
                                
  22527859.578   120086169.227    22527859.614    93400352.847    22527858.846  
                                
  22801971.266   121975167.343    22801971.355    94869573.457    22801969.604  
                                
  19758074.068   105655300.757    19758074.675    82176347.813    19758072.603  
                                
  22008390.963   117771346.285    22008389.033    91599927.279    22008388.104  
                                
  25698332.805   135045652.152                                                  
  25698339.291   100845802.994  
  23490348.644   123442615.271                                                  
  23490354.040    92181194.885  
  23967283.213   125948923.342                                                  
  23967288.752    94052787.755  
  24995155.141   131350426.328                                                  
  24995161.984    98086382.547  
 21  8 31 20 21 13.0000000  0 17G10G15G18G23G24G27G32R 4R 5R14R19R20
                                R21E 3E 5E 9E36
  22523872.249   118363747.949    22523871.480    92231488.163    22523871.337  
  22523872.517    88388513.344  
  22095882.417   116114644.485    22095879.647    90478930.206    22095879.039  
                                
  20228059.195   106299168.097    20228056.265    82830506.800    20228055.872  
  20228062.465    79379261.131  
  20696920.057   108763048.510    20696916.662    84750411.750    20696916.251  
  20696923.059    81219171.084  
  20795155.136   109279277.838    20795154.439    85152678.976    20795153.885  
  20795157.298    81604663.818  
  24247268.288   127420253.770    24247268.216    99288506.820    24247267.627  
  24247270.682    95151497.678  
  23693886.929   124512217.017    23693887.805    97022509.192    23693887.304  
  23693889.270    92979911.357  
  22371787.082   119799902.623    22371784.241    93177689.732    22371783.330  
                                
  20079689.856   107337449.910    20079687.998    83484675.022    20079686.836  
                                
  22527799.931   120085851.305    22527799.967    93400105.575    22527799.217  
                                
  22802813.522   121979672.846    22802813.612    94873077.735    22802811.861  
                                
  19758324.234   105656638.484    19758324.824    82177388.270    19758322.769  
                                
  22007824.729   117768316.287    22007822.799    91597570.617    22007821.870  
                                
  25698008.714   135043949.063                                                  
  25698015.201   100844531.213  
  23490407.415   123442924.093                                                  
  23490412.829    92181425.505  
  23967674.991   125950982.154                                                  
  23967680.548    94054325.180  
  24995634.388   131352944.833                                                  
  24995641.232    98088263.255  
 21  8 31 20 21 14.0000000  0 17G10G15G18G23G24G27G32R 4R 5R14R19R20
                                R21E 3E 5E 9E36
  22523458.724   118361574.811    22523457.937    92229794.811    22523457.777  
  22523458.956    88386890.557  
  22096429.709   116117520.514    22096426.939    90481171.271    22096426.332  
                                
  20228255.790   106300201.199    20228252.842    82831311.812    20228252.467  
  20228259.060    79380032.608  
  20696762.113   108762218.539    20696758.718    84749765.017    20696758.307  
  20696765.115    81218551.292  
  20795004.286   109278485.115    20795003.589    85152061.277    20795003.035  
  20795006.448    81604071.852  
  24247244.540   127420129.015    24247244.468    99288409.590    24247243.861  
  24247246.916    95151404.475  
  23693360.079   124509448.368    23693360.954    97020351.803    23693360.454  
  23693362.420    92977843.850  
  22372268.384   119802479.986    22372265.543    93179694.323    22372264.650  
                                
  20079818.889   107338139.715    20079817.030    83485211.537    20079815.887  
                                
  22527740.410   120085534.116    22527740.481    93399858.877    22527739.713  
                                
  22803655.797   121984178.368    22803655.868    94876582.032    22803654.153  
                                
  19758574.526   105657976.974    19758575.133    82178429.313    19758573.078  
                                
  22007258.603   117765286.804    22007256.655    91595214.347    22007255.744  
                                
  25697684.642   135042246.077                                                  
  25697691.146   100843259.498  
  23490466.204   123443233.019                                                  
  23490471.600    92181656.187  
  23968066.752   125953040.881                                                  
  23968072.309    94055862.541  
  24996113.671   131355463.538                                                  
  24996120.515    98090144.100  
 21  8 31 20 21 15.0000000  0 17G10G15G18G23G24G27G32R 4R 5R14R19R20
                                R21E 3E 5E 9E36
  22523045.199   118359401.720    22523044.413    92228101.496    22523044.270  
  22523045.449    88385267.781  
  22096977.037   116120396.664    22096974.250    90483412.422    22096973.642  
                                
  20228452.475   106301234.888    20228449.562    82832117.282    20228449.169  
  20228455.780    79380804.520  
  20696604.187   108761388.718    20696600.791    84749118.403    20696600.416  
  20696607.189    81217931.627  
  20794853.561   109277693.019    20794852.864    85151444.057    20794852.310  
  20794855.723    81603480.358  
  24247220.881   127420004.750    24247220.828    99288312.760    24247220.220  
  24247223.258    95151311.682  
  23692833.264   124506679.889    23692834.140    97018194.542    23692833.622  
  23692835.587    92975776.477  
  22372749.669   119805057.239    22372746.827    93181698.848    22372745.952  
                                
  20079947.974   107338829.687    20079946.098    83485748.182    20079944.955  
                                
  22527681.049   120085217.633    22527681.084    93399612.721    22527680.334  
                                
  22804498.089   121988684.018    22804498.178    94880086.420    22804496.427  
                                
  19758825.014   105659316.332    19758825.603    82179471.034    19758823.530  
                                
  22006692.584   117762257.870    22006690.636    91592858.510    22006689.707  
                                
  25697360.605   135040543.207                                                  
  25697367.091   100841987.870  
  23490525.011   123443542.090                                                  
  23490530.425    92181886.991  
  23968458.512   125955099.584                                                  
  23968464.069    94057399.886  
  24996593.007   131357982.448                                                  
  24996599.851    98092025.113  
 21  8 31 20 21 16.0000000  0 17G10G15G18G23G24G27G32R 4R 5R14R19R20
                                R21E 3E 5E 9E36
  22522631.692   118357228.796    22522630.923    92226408.310    22522630.763  
  22522631.942    88383645.159  
  22097524.401   116123273.095    22097521.613    90485653.797    22097521.006  
                                
  20228649.338   106302269.304    20228646.407    82832923.323    20228646.014  
  20228652.625    79381576.976  
  20696446.349   108760559.250    20696442.954    84748472.064    20696442.579  
  20696449.351    81217312.221  
  20794702.996   109276901.742    20794702.299    85150827.473    20794701.710  
  20794705.158    81602889.472  
  24247197.366   127419881.183    24247197.312    99288216.474    24247196.704  
  24247199.760    95151219.410  
  23692306.486   124503911.741    23692307.361    97016037.549    23692306.843  
  23692308.844    92973709.368  
  22373230.989   119807634.620    22373228.147    93183703.470    22373227.272  
                                
  20080077.114   107339520.000    20080075.238    83486285.091    20080074.094  
                                
  22527621.849   120084902.072    22527621.884    93399367.283    22527621.152  
                                
  22805340.435   121993189.946    22805340.506    94883591.021    22805338.773  
                                
  19759075.644   105660656.679    19759076.252    82180513.523    19759074.179  
                                
  22006126.689   117759229.704    22006124.742    91590503.270    22006123.813  
                                
  25697036.621   135038840.652                                                  
  25697043.090   100840716.492  
  23490583.889   123443851.496                                                  
  23490589.304    92182118.044  
  23968850.290   125957158.431                                                  
  23968855.848    94058937.328  
  24997072.433   131360501.774                                                  
  24997079.277    98093906.421  
 21  8 31 20 21 17.0000000  0 17G10G15G18G23G24G27G32R 4R 5R14R19R20
                                R21E 3E 5E 9E36
  22522218.185   118355055.776    22522217.416    92224715.050    22522217.273  
  22522218.435    88382022.442  
  22098071.783   116126149.527    22098068.995    90487895.170    22098068.370  
                                
  20228846.254   106303304.181    20228843.342    82833729.721    20228842.931  
  20228849.542    79382349.770  
  20696288.530   108759729.860    20696285.135    84747825.786    20696284.724  
  20696291.532    81216692.863  
  20794552.503   109276110.979    20794551.806    85150211.298    20794551.252  
  20794554.665    81602298.966  
  24247173.939   127419758.042    24247173.868    99288120.520    24247173.260  
  24247176.334    95151127.457  
  23691779.760   124501143.673    23691780.618    97013880.606    23691780.118  
  23691782.101    92971642.295  
  22373712.273   119810211.827    22373709.432    93185707.963    22373708.556  
                                
  20080206.253   107340210.375    20080204.377    83486822.052    20080203.251  
                                
  22527562.774   120084587.133    22527562.809    93399122.335    22527562.077  
                                
  22806182.780   121997695.883    22806182.852    94887095.636    22806181.118  
                                
  19759326.436   105661997.751    19759327.044    82181556.582    19759324.971  
                                
  22005560.903   117756202.028    22005558.937    91588148.411    22005558.026  
                                
  25696712.620   135037138.109                                                  
  25696719.107   100839445.119  
  23490642.768   123444160.954                                                  
  23490648.182    92182349.129  
  23969242.069   125959217.147                                                  
  23969247.626    94060474.678  
  24997551.859   131363021.215                                                  
  24997558.703    98095787.820  
 21  8 31 20 21 18.0000000  0 17G10G15G18G23G24G27G32R 4R 5R14R19R20
                                R21E 3E 5E 9E36
  22521804.678   118352882.834    22521803.891    92223021.849    22521803.766  
  22521804.946    88380399.802  
  22098619.182   116129026.155    22098616.395    90490136.698    22098615.769  
                                
  20229043.314   106304339.698    20229040.401    82834536.617    20229039.990  
  20229046.602    79383123.052  
  20696130.747   108758900.714    20696127.352    84747179.699    20696126.959  
  20696133.749    81216073.704  
  20794402.153   109275320.928    20794401.474    85149595.675    20794400.903  
  20794404.333    81601709.003  
  24247150.620   127419635.529    24247150.567    99288025.049    24247149.977  
  24247153.033    95151035.985  
  23691253.053   124498375.846    23691253.911    97011723.862    23691253.410  
  23691255.412    92969575.437  
  22374193.539   119812789.059    22374190.716    93187712.474    22374189.822  
                                
  20080335.464   107340901.030    20080333.588    83487359.228    20080332.444  
                                
  22527503.824   120084272.987    22527503.895    93398877.996    22527503.127  
                                
  22807025.144   122002201.966    22807025.215    94890600.363    22807023.500  
                                
  19759577.407   105663339.764    19759577.996    82182600.367    19759575.923  
                                
  22004995.223   117753175.007    22004993.257    91585794.068    22004992.346  
                                
  25696388.691   135035435.820                                                  
  25696395.177   100838173.925  
  23490701.718   123444470.647                                                  
  23490707.132    92182580.397  
  23969633.829   125961275.909                                                  
  23969639.386    94062012.072  
  24998031.356   131365540.979                                                  
  24998038.182    98097669.458  
 21  8 31 20 21 19.0000000  0 17G10G15G18G23G24G27G32R 4R 5R14R19R20
                                R21E 3E 5E 9E36
  22521391.206   118350709.945    22521390.402    92221328.691    22521390.277  
  22521391.456    88378777.186  
  22099166.600   116131902.924    22099163.812    90492378.345    22099163.223  
                                
  20229240.463   106305375.814    20229237.550    82835343.980    20229237.157  
  20229243.768    79383896.768  
  20695973.017   108758071.768    20695969.604    84746533.771    20695969.211  
  20695976.019    81215454.688  
  20794251.946   109274531.547    20794251.249    85148980.577    20794250.696  
  20794254.109    81601119.527  
  24247127.426   127419513.585    24247127.355    99287930.032    24247126.747  
  24247129.803    95150944.903  
  23690726.381   124495608.229    23690727.257    97009567.289    23690726.757  
  23690728.740    92967508.695  
  22374674.823   119815366.236    22374671.982    93189716.978    22374671.107  
                                
  20080464.693   107341591.937    20080462.835    83487896.609    20080461.691  
                                
  22527445.035   120083959.614    22527445.088    93398634.290    22527444.320  
                                
  22807867.543   122006708.295    22807867.615    94894105.304    22807865.899  
                                
  19759828.520   105664682.613    19759829.128    82183644.803    19759827.055  
                                
  22004429.650   117750148.595    22004427.685    91583440.192    22004426.774  
                                
  25696064.779   135033733.664                                                  
  25696071.283   100836902.830  
  23490760.668   123444780.527                                                  
  23490766.100    92182811.802  
  23970025.607   125963334.688                                                  
  23970031.165    94063549.466  
  24998510.890   131368060.998                                                  
  24998517.733    98099551.292  
 21  8 31 20 21 20.0000000  0 17G10G15G18G23G24G27G32R 4R 5R14R19R20
                                R21E 3E 5E 9E36
  22520977.735   118348537.110    22520976.967    92219635.568    22520976.806  
  22520977.985    88377154.605  
  22099714.053   116134779.854    22099711.284    90494620.109    22099710.676  
                                
  20229437.772   106306412.522    20229434.824    82836151.809    20229434.449  
  20229441.043    79384670.936  
  20695815.305   108757243.050    20695811.910    84745888.019    20695811.517  
  20695818.307    81214835.840  
  20794101.864   109273742.826    20794101.168    85148365.996    20794100.578  
  20794104.027    81600530.550  
  24247104.339   127419392.231    24247104.268    99287835.472    24247103.660  
  24247106.716    95150854.264  
  23690199.763   124492840.819    23690200.639    97007410.872    23690200.139  
  23690202.104    92965442.140  
  22375156.072   119817943.387    22375153.249    93191721.431    22375152.355  
                                
  20080593.993   107342283.034    20080592.135    83488434.129    20080590.973  
                                
  22527386.389   120083646.997    22527386.442    93398391.145    22527385.692  
                                
  22808709.960   122011214.668    22808710.032    94897610.260    22808708.299  
                                
  19760079.812   105666026.339    19760080.420    82184689.926    19760078.347  
                                
  22003864.221   117747122.778    22003862.237    91581086.788    22003861.308  
                                
  25695740.903   135032031.714                                                  
  25695747.407   100835631.887  
  23490819.671   123445090.599                                                  
  23490825.085    92183043.342  
  23970417.386   125965393.477                                                  
  23970422.943    94065086.864  
  24998990.512   131370581.294                                                  
  24998997.338    98101433.320  
 21  8 31 20 21 21.0000000  0 17G10G15G18G23G24G27G32R 4R 5R14R19R20
                                R21E 3E 5E 9E36
  22520564.264   118346364.362    22520563.495    92217942.517    22520563.352  
  22520564.532    88375532.098  
  22100261.578   116137656.987    22100258.790    90496862.031    22100258.183  
                                
  20229635.172   106307449.888    20229632.223    82836960.144    20229631.848  
  20229638.442    79385445.590  
  20695657.647   108756414.599    20695654.269    84745242.471    20695653.876  
  20695660.649    81214217.185  
  20793951.925   109272954.833    20793951.211    85147751.975    20793950.639  
  20793954.070    81599942.113  
  24247081.360   127419271.490    24247081.288    99287741.384    24247080.699  
  24247083.754    95150764.111  
  23689673.199   124490073.687    23689674.057    97005254.668    23689673.556  
  23689675.540    92963375.773  
  22375637.356   119820520.550    22375634.515    93193725.895    22375633.640  
                                
  20080723.311   107342974.376    20080721.453    83488971.838    20080720.291  
                                
  22527327.885   120083335.225    22527327.939    93398148.661    22527327.188  
                                
  22809552.431   122015721.292    22809552.503    94901115.410    22809550.769  
                                
  19760331.283   105667370.998    19760331.855    82185735.771    19760329.800  
                                
  22003298.881   117744097.651    22003296.915    91578733.912    22003296.004  
                                
  25695417.080   135030329.971                                                  
  25695423.585   100834361.105  
  23490878.728   123445400.911                                                  
  23490884.160    92183275.073  
  23970809.164   125967452.300                                                  
  23970814.721    94066624.308  
  24999470.152   131373101.882                                                  
  24999476.996    98103315.591  
 21  8 31 20 21 22.0000000  0 17G10G15G18G23G24G27G32R 4R 5R14R19R20
                                R21E 3E 5E 9E36
  22520150.846   118344191.743    22520150.060    92216249.570    22520149.899  
  22520151.078    88373909.693  
  22100809.121   116140534.372    22100806.315    90499104.149    22100805.725  
                                
  20229832.696   106308487.943    20229829.783    82837769.013    20229829.372  
  20229835.984    79386220.763  
  20695500.060   108755586.445    20695496.665    84744597.156    20695496.271  
  20695503.062    81213598.767  
  20793802.112   109272167.605    20793801.415    85147138.553    20793800.825  
  20793804.274    81599354.255  
  24247058.523   127419151.421    24247058.452    99287647.817    24247057.844  
  24247060.918    95150674.447  
  23689146.670   124487306.845    23689147.528    97003098.696    23689147.046  
  23689149.011    92961309.638  
  22376118.623   119823097.796    22376115.782    93195730.418    22376114.906  
                                
  20080852.719   107343666.002    20080850.843    83489509.764    20080849.699  
                                
  22527269.561   120083024.287    22527269.614    93397906.820    22527268.864  
                                
  22810394.920   122020228.113    22810395.027    94904620.708    22810393.294  
                                
  19760582.897   105668716.609    19760583.504    82186782.355    19760581.431  
                                
  22002733.701   117741073.233    22002731.736    91576381.586    22002730.807  
                                
  25695093.312   135028628.493                                                  
  25695099.780   100833090.527  
  23490937.839   123445711.528                                                  
  23490943.253    92183507.025  
  23971200.960   125969511.247                                                  
  23971206.518    94068161.834  
  24999949.882   131375622.858                                                  
  24999956.726    98105198.127  
 21  8 31 20 21 23.0000000  0 17G10G15G18G23G24G27G32R 4R 5R14R19R20
                                R21E 3E 5E 9E36
  22519737.410   118342019.248    22519736.624    92214556.712    22519736.481  
  22519737.660    88372287.381  
  22101356.699   116143411.974    22101353.929    90501346.434    22101353.304  
                                
  20230030.363   106309526.670    20230027.432    82838578.414    20230027.039  
  20230033.651    79386996.436  
  20695342.526   108754758.590    20695339.131    84743952.074    20695338.738  
  20695345.528    81212980.564  
  20793652.441   109271381.123    20793651.762    85146525.710    20793651.172  
  20793654.621    81598766.947  
  24247035.776   127419032.007    24247035.722    99287554.762    24247035.115  
  24247038.206    95150585.272  
  23688620.213   124484540.300    23688621.071    97000942.949    23688620.571  
  23688622.554    92959243.709  
  22376599.925   119825675.120    22376597.084    93197734.999    22376596.208  
                                
  20080982.144   107344357.917    20080980.286    83490047.916    20080979.124  
                                
  22527211.379   120082714.242    22527211.433    93397665.679    22527210.700  
                                
  22811237.498   122024735.200    22811237.587    94908126.211    22811235.836  
                                
  19760834.725   105670063.184    19760835.314    82187829.694    19760833.259  
                                
  22002168.647   117738049.504    22002166.682    91574029.797    22002165.752  
                                
  25694769.578   135026927.287                                                  
  25694776.083   100831820.140  
  23490997.003   123446022.395                                                  
  23491002.418    92183739.166  
  23971592.792   125971570.279                                                  
  23971598.350    94069699.416  
  25000429.665   131378144.154                                                  
  25000436.509    98107080.914  
 21  8 31 20 21 24.0000000  0 17G10G15G18G23G24G27G32R 4R 5R14R19R20
                                R21E 3E 5E 9E36
  22519324.046   118339846.967    22519323.260    92212864.025    22519323.117  
  22519324.296    88370665.221  
  22101904.367   116146289.888    22101901.561    90503588.964    22101900.972  
                                
  20230228.173   106310566.170    20230225.260    82839388.410    20230224.849  
  20230231.479    79387772.683  
  20695185.065   108753931.117    20695181.669    84743307.285    20695181.276  
  20695188.067    81212362.644  
  20793502.948   109270595.498    20793502.252    85145913.528    20793501.680  
  20793505.111    81598180.270  
  24247013.207   127418913.305    24247013.154    99287462.286    24247012.546  
  24247015.602    95150496.671  
  23688093.828   124481774.145    23688094.685    96998787.497    23688094.185  
  23688096.168    92957178.057  
  22377081.263   119828252.612    22377078.422    93199739.684    22377077.546  
                                
  20081111.659   107345050.200    20081109.783    83490586.358    20081108.639  
                                
  22527153.394   120082405.144    22527153.448    93397425.234    22527152.697  
                                
  22812080.112   122029242.606    22812080.201    94911631.958    22812078.450  
                                
  19761086.731   105671410.781    19761087.321    82188877.830    19761085.248  
                                
  22001603.736   117735026.553    22001601.770    91571678.597    22001600.841  
                                
  25694445.899   135025226.390                                                  
  25694452.385   100830550.013  
  23491056.221   123446333.631                                                  
  23491061.636    92183971.585  
  23971984.642   125973629.496                                                  
  23971990.199    94071237.147  
  25000909.538   131380665.913                                                  
  25000916.382    98108964.044  
 21  8 31 20 21 25.0000000  0 17G10G15G18G23G24G27G32R 4R 5R14R19R20
                                R21E 3E 5E 9E36
  22518910.682   118337674.768    22518909.914    92211171.400    22518909.771  
  22518910.950    88369043.120  
  22102452.052   116149167.992    22102449.247    90505831.643    22102448.639  
                                
  20230426.108   106311606.308    20230423.195    82840198.904    20230422.784  
  20230429.378    79388549.404  
  20695027.638   108753103.896    20695024.261    84742662.700    20695023.868  
  20695030.658    81211744.907  
  20793353.581   109269810.568    20793352.884    85145301.894    20793352.295  
  20793355.743    81597594.117  
  24246990.746   127418795.267    24246990.675    99287370.313    24246990.067  
  24246993.140    95150408.519  
  23687567.496   124479008.216    23687568.353    96996632.230    23687567.853  
  23687569.836    92955112.601  
  22377562.565   119830830.062    22377559.724    93201744.369    22377558.848  
                                
  20081241.209   107345742.769    20081239.333    83491125.022    20081238.189  
                                
  22527095.552   120082096.816    22527095.606    93397185.426    22527094.873  
                                
  22812922.761   122033750.162    22812922.833    94915137.832    22812921.100  
                                
  19761338.917   105672759.334    19761339.507    82189926.704    19761337.434  
                                
  22001038.950   117732004.280    22001036.984    91569327.947    22001036.055  
                                
  25694122.273   135023525.739                                                  
  25694128.777   100829280.038  
  23491115.493   123446645.088                                                  
  23491120.907    92184204.170  
  23972376.510   125975688.760                                                  
  23972382.067    94072774.896  
  25001389.464   131383187.954                                                  
  25001396.308    98110847.384  
