     2.11           OBSERVATION DATA    M (MIXED)           RINEX VERSION / TYPE
CONVBIN 2.4.3                           20210901 190637 UTC PGM / RUN BY / DATE 
log: logs/21_09_01_07_11_47_wylc_SW.rtcm                    COMMENT             
format: RTCM 3, station ID: 3465                            COMMENT             
3465                                                        MARKER NAME         
                                                            MARKER NUMBER       
                                                            OBSERVER / AGENCY   
                    SWFT                                    REC # / TYPE / VERS 
                    NULL                                    ANT # / TYPE        
 -1244028.4331 -4716671.0943  4095509.2832                  APPROX POSITION XYZ 
        0.0000        0.0000        0.0000                  ANTENNA: DELTA H/E/N
     1     1                                                WAVELENGTH FACT L1/2
     5    C1    L1    P2    L2    C2                        # / TYPES OF OBSERV 
  2021     9     1     7    11   52.0000000     GPS         TIME OF FIRST OBS   
  2021     9     1     7    41   50.0000000     GPS         TIME OF LAST OBS    
                                                            END OF HEADER       
 21  9  1  7 11 52.0000000  0 15G 7G 8G 9G13G14G17G21G27G30C20C23C25
                                C32C34E27
  20362981.540   107008207.011    20362980.736    83383022.351                  
  21616829.796   113597170.339    21616831.959    88517266.522                  
  22760592.863   119607684.935    22760595.204    93200783.893                  
  24122687.372   126765593.487    24122686.496    98778388.219                  
  22118567.356   116233861.476    22118567.856    90571843.587                  
  24101240.005   126652864.523    24101240.577    98690541.516                  
  23758326.682   124850847.957    23758325.985    97286375.253                  
  23854102.322   125354129.894    23854103.788    97678537.753                  
  21111449.905   110941383.945    21111451.692    86447823.203                  
                 137194721.411                   137194721.411    26346796.199  
                 117326559.813                   117326559.813    22531322.666  
                 117930372.671                   117930372.671    22647284.316  
                 129408659.757                   129408659.757    24851577.327  
                 121547090.413                   121547090.413    23341840.087  
  23573778.058   123881030.698                                                  
 21  9  1  7 11 53.0000000  0 15G 7G 8G 9G13G14G17G21G27G30C20C23C25
                                C32C34E27
  20362982.219   107008210.550    20362981.415    83383025.108                  
  21617202.097   113599126.727    21617204.242    88518790.985                  
  22761242.884   119611100.774    22761245.225    93203445.586                  
  24122072.356   126762361.439    24122071.462    98775869.737                  
  22118144.128   116231637.302    22118144.628    90570110.462                  
  24100540.737   126649189.969    24100541.344    98687678.227                  
  23757960.206   124848922.058    23757959.492    97284874.550                  
  23854744.088   125357502.362    23854745.536    97681165.653                  
  21111108.088   110939587.696    21111109.893    86446423.531                  
                 137193637.368                   137193637.368    26346588.025  
                 117325392.063                   117325392.063    22531098.392  
                 117931526.202                   117931526.202    22647505.838  
                 129410101.625                   129410101.625    24851854.225  
                 121547190.792                   121547190.792    23341859.368  
  23573861.006   123881466.640                                                  
 21  9  1  7 11 54.0000000  0 15G 7G 8G 9G13G14G17G21G27G30C20C23C25
                                C32C34E27
  20362982.952   107008214.488    20362982.166    83383028.175                  
  21617574.506   113601083.681    21617576.632    88520315.882                  
  22761892.942   119614516.871    22761895.282    93206107.480                  
  24121457.357   126759129.675    24121456.482    98773351.480                  
  22117720.918   116229413.398    22117721.418    90568377.552                  
  24099841.522   126645515.532    24099842.094    98684815.027                  
  23757593.784   124846996.470    23757593.052    97283374.094                  
  23855385.908   125360875.138    23855387.355    97683793.785                  
  21110766.325   110937791.746    21110768.148    86445024.089                  
                 137192553.828                   137192553.828    26346379.940  
                 117324224.497                   117324224.497    22530874.172  
                 117932679.945                   117932679.945    22647727.414  
                 129411543.929                   129411543.929    24852131.195  
                 121547291.741                   121547291.741    23341878.738  
  23573944.007   123881902.734                                                  
 21  9  1  7 11 55.0000000  0 15G 7G 8G 9G13G14G17G21G27G30C20C23C25
                                C32C34E27
  20362983.774   107008218.807    20362982.988    83383031.548                  
  21617947.003   113603041.187    21617949.148    88521841.212                  
  22762543.052   119617933.235    22762545.375    93208769.577                  
  24120842.449   126755898.210    24120841.555    98770833.458                  
  22117297.779   116227189.770    22117298.280    90566644.854                  
  24099142.325   126641841.200    24099142.897    98681951.909                  
  23757227.398   124845071.202    23757226.701    97281873.888                  
  23856027.763   125364248.222    23856029.228    97686422.164                  
  21110424.616   110935996.060    21110426.421    86443624.851                  
                 137191470.793                   137191470.793    26346171.963  
                 117323057.108                   117323057.108    22530650.005  
                 117933833.903                   117933833.903    22647949.026  
                 129412986.673                   129412986.673    24852408.254  
                 121547393.266                   121547393.266    23341898.233  
  23574027.009   123882338.972                                                  
 21  9  1  7 11 56.0000000  0 15G 7G 8G 9G13G14G17G21G27G30C20C23C25
                                C32C34E27
  20362984.685   107008223.529    20362983.881    83383035.222                  
  21618319.608   113604999.239    21618321.735    88523366.964                  
  22763193.217   119621349.860    22763195.558    93211431.882                  
  24120227.558   126752667.030    24120226.682    98768315.655                  
  22116874.677   116224966.417    22116875.177    90564912.374                  
  24098443.146   126638166.972    24098443.718    98679088.878                  
  23756861.101   124843146.245    23756860.404    97280373.921                  
  23856669.708   125367621.605    23856671.155    97689050.777                  
  21110082.960   110934200.664    21110084.783    86442225.844                  
                 137190388.259                   137190388.259    26345964.075  
                 117321889.903                   117321889.903    22530425.838  
                 117934988.076                   117934988.076    22648170.655  
                 129414429.852                   129414429.852    24852685.421  
                 121547495.361                   121547495.361    23341917.835  
  23574110.046   123882775.368                                                  
 21  9  1  7 11 57.0000000  0 15G 7G 8G 9G13G14G17G21G27G30C20C23C25
                                C32C34E27
  20362985.668   107008228.644    20362984.864    83383039.210                  
  21618692.303   113606957.860    21618694.465    88524893.164                  
  22763843.417   119624766.750    22763845.758    93214094.391                  
  24119612.756   126749436.144    24119611.863    98765798.077                  
  22116451.645   116222743.341    22116452.146    90563180.105                  
  24097743.985   126634492.840    24097744.556    98676225.919                  
  23756494.857   124841221.602    23756494.142    97278874.199                  
  23857311.706   125370995.305    23857313.153    97691679.632                  
  21109741.358   110932405.560    21109743.181    86440827.059                  
                 137189306.222                   137189306.222    26345756.276  
                 117320722.880                   117320722.880    22530201.742  
                 117936142.458                   117936142.458    22648392.356  
                 129415873.468                   129415873.468    24852962.641  
                 121547598.028                   121547598.028    23341937.563  
  23574193.119   123883211.903                                                  
 21  9  1  7 11 58.0000000  0 15G 7G 8G 9G13G14G17G21G27G30C20C23C25
                                C32C34E27
  20362986.705   107008234.157    20362985.900    83383043.504                  
  21619065.122   113608917.033    21619067.284    88526419.788                  
  22764493.706   119628183.897    22764496.012    93216757.106                  
  24118998.008   126746205.554    24118997.097    98763280.739                  
  22116028.668   116220520.531    22116029.168    90561448.048                  
  24097044.841   126630818.805    24097045.413    98673363.034                  
  23756128.667   124839297.270    23756127.953    97277374.720                  
  23857953.740   125374369.304    23857955.205    97694308.722                  
  21109399.828   110930610.734    21109401.632    86439428.495                  
                 137188224.697                   137188224.697    26345548.584  
                 117319556.038                   117319556.038    22529977.665  
                 117937297.056                   117937297.056    22648614.075  
                 129417317.519                   129417317.519    24853239.968  
                 121547701.269                   121547701.269    23341957.380  
  23574276.228   123883648.593                                                  
 21  9  1  7 11 59.0000000  0 15G 7G 8G 9G13G14G17G21G27G30C20C23C25
                                C32C34E27
  20362987.848   107008240.070    20362987.026    83383048.114                  
  21619438.066   113610876.798    21619440.193    88527946.883                  
  22765143.996   119631601.309    22765146.337    93219420.024                  
  24118383.278   126742975.249    24118382.402    98760763.618                  
  22115605.744   116218298.006    22115606.226    90559716.210                  
  24096345.716   126627144.890    24096346.305    98670500.241                  
  23755762.549   124837373.260    23755761.816    97275875.492                  
  23858595.863   125377743.618    23858597.329    97696938.058                  
  21109058.333   110928816.204    21109060.137    86438030.161                  
                 137187143.668                   137187143.668    26345340.982  
                 117318389.376                   117318389.376    22529753.605  
                 117938451.863                   117938451.863    22648835.848  
                 129418762.013                   129418762.013    24853517.366  
                 121547805.082                   121547805.082    23341977.321  
  23574359.337   123884085.441                                                  
 21  9  1  7 12  0.0000000  0 15G 7G 8G 9G13G14G17G21G27G30C20C23C25
                                C32C34E27
  20362989.045   107008246.388    20362988.223    83383053.032                  
  21619811.100   113612837.124    21619813.244    88529474.409                  
  22765794.357   119635018.985    22765796.698    93222083.144                  
  24117768.637   126739745.240    24117767.744    98758246.723                  
  22115182.855   116216075.760    22115183.338    90557984.590                  
  24095646.608   126623471.081    24095647.180    98667637.535                  
  23755396.466   124835449.571    23755395.751    97274376.511                  
  23859238.022   125381118.222    23859239.488    97699567.621                  
  21108716.891   110927021.965    21108718.714    86436632.050                  
                 137186063.143                   137186063.143    26345133.487  
                 117317222.897                   117317222.897    22529529.599  
                 117939606.888                   117939606.888    22649057.656  
                 129420206.937                   129420206.937    24853794.837  
                 121547909.468                   121547909.468    23341997.388  
  23574442.499   123884522.433                                                  
 21  9  1  7 12  1.0000000  0 15G 7G 8G 9G13G14G17G21G27G30C20C23C25
                                C32C34E27
  20362990.296   107008253.093    20362989.492    83383058.262                  
  21620184.241   113614798.005    21620186.385    88531002.368                  
  22766444.771   119638436.925    22766447.112    93224746.473                  
  24117154.032   126736515.512    24117153.156    98755730.055                  
  22114760.021   116213853.784    22114760.521    90556253.180                  
  24094947.518   126619797.369    24094948.108    98664774.897                  
  23755030.455   124833526.195    23755029.758    97272877.781                  
  23859880.253   125384493.149    23859881.718    97702197.430                  
  21108375.522   110925227.999    21108377.344    86435234.157                  
                 137184983.121                   137184983.121    26344926.081  
                 117316056.599                   117316056.599    22529305.629  
                 117940762.125                   117940762.125    22649279.500  
                 129421652.306                   129421652.306    24854072.414  
                 121548014.430                   121548014.430    23342017.527  
  23574525.698   123884959.575                                                  
 21  9  1  7 12  2.0000000  0 15G 7G 8G 9G13G14G17G21G27G30C20C23C25
                                C32C34E27
  20362991.654   107008260.212    20362990.868    83383063.804                  
  21620557.471   113616759.419    21620559.633    88532530.743                  
  22767095.240   119641855.126    22767097.580    93227410.004                  
  24116539.498   126733286.093    24116538.623    98753213.622                  
  22114337.240   116211632.081    22114337.740    90554521.985                  
  24094248.464   126616123.762    24094249.036    98661912.347                  
  23754664.515   124831603.146    23754663.801    97271379.301                  
  23860522.537   125387868.363    23860524.002    97704827.469                  
  21108034.205   110923434.329    21108035.992    86433836.489                  
                 137183903.605                   137183903.605    26344718.765  
                 117314890.480                   117314890.480    22529081.676  
                 117941917.574                   117941917.574    22649501.397  
                 129423098.105                   129423098.105    24854350.063  
                 121548119.962                   121548119.962    23342037.808  
  23574608.896   123885396.873                                                  
 21  9  1  7 12  3.0000000  0 15G 7G 8G 9G13G14G17G21G27G30C20C23C25
                                C32C34E27
  20362993.102   107008267.716    20362992.280    83383069.653                  
  21620930.844   113618721.403    21620932.989    88534059.562                  
  22767745.761   119645273.582    22767748.102    93230073.734                  
  24115925.019   126730056.964    24115924.143    98750697.418                  
  22113914.512   116209410.648    22113915.013    90552791.000                  
  24093549.428   126612450.267    24093550.000    98659049.888                  
  23754298.611   124829680.401    23754297.914    97269881.059                  
  23861164.875   125391243.903    23861166.340    97707457.758                  
  21107692.925   110921640.952    21107694.748    86432439.056                  
                 137182824.587                   137182824.587    26344511.537  
                 117313724.548                   117313724.548    22528857.777  
                 117943073.239                   117943073.239    22649723.349  
                 129424544.344                   129424544.344    24854627.801  
                 121548226.063                   121548226.063    23342058.161  
  23574692.148   123885834.314                                                  
 21  9  1  7 12  4.0000000  0 15G 7G 8G 9G13G14G17G21G27G30C20C23C25
                                C32C34E27
  20362994.603   107008275.624    20362993.799    83383075.816                  
  21621304.307   113620683.962    21621306.433    88535588.824                  
  22768396.319   119648692.299    22768398.660    93232737.672                  
  24115310.592   126726828.132    24115309.699    98748181.444                  
  22113491.838   116207189.499    22113492.339    90551060.231                  
  24092850.392   126608776.874    24092850.981    98656187.504                  
  23753932.797   124827757.965    23753932.100    97268383.058                  
  23861807.284   125394619.742    23861808.732    97710088.284                  
  21107351.716   110919847.849    21107353.521    86431041.832                  
                 137181746.074                   137181746.074    26344304.436  
                 117312558.794                   117312558.794    22528633.897  
                 117944229.116                   117944229.116    22649945.300  
                 129425991.015                   129425991.015    24854905.629  
                 121548332.741                   121548332.741    23342078.657  
  23574775.417   123886271.902                                                  
 21  9  1  7 12  5.0000000  0 15G 7G 8G 9G13G14G17G21G27G30C20C23C25
                                C32C34E27
  20362996.175   107008283.937    20362995.389    83383082.294                  
  21621677.859   113622647.085    21621680.021    88537118.535                  
  22769046.912   119652111.296    22769049.253    93235401.828                  
  24114696.219   126723599.567    24114695.326    98745665.679                  
  22113069.236   116204968.621    22113069.718    90549329.676                  
  24092151.391   126605103.591    24092151.981    98653325.203                  
  23753567.036   124825835.851    23753566.321    97266885.308                  
  23862449.747   125397995.875    23862451.194    97712719.039                  
  21107010.561   110918055.027    21107012.365    86429644.828                  
                 137180668.061                   137180668.061    26344097.405  
                 117311393.219                   117311393.219    22528410.087  
                 117945385.208                   117945385.208    22650167.322  
                 129427438.129                   129427438.129    24855183.528  
                 121548439.991                   121548439.991    23342099.260  
  23574858.723   123886709.648                                                  
 21  9  1  7 12  6.0000000  0 15G 7G 8G 9G13G14G17G21G27G30C20C23C25
                                C32C34E27
  20362997.837   107008292.641    20362997.033    83383089.073                  
  21622051.536   113624610.774    21622053.698    88538648.680                  
  22769697.577   119655530.538    22769699.918    93238066.173                  
  24114081.900   126720371.286    24114081.007    98743150.134                  
  22112646.651   116202748.012    22112647.152    90547599.331                  
  24091452.409   126601430.418    24091452.981    98650462.993                  
  23753201.328   124823914.046    23753200.613    97265387.797                  
  23863092.264   125401372.331    23863093.729    97715350.044                  
  21106669.441   110916262.496    21106671.264    86428248.050                  
                 137179590.554                   137179590.554    26343890.482  
                 117310227.828                   117310227.828    22528186.260  
                 117946541.513                   117946541.513    22650389.381  
                 129428885.676                   129428885.676    24855461.498  
                 121548547.811                   121548547.811    23342119.952  
  23574942.046   123887147.535                                                  
 21  9  1  7 12  7.0000000  0 15G 7G 8G 9G13G14G17G21G27G30C20C23C25
                                C32C34E27
  20362999.552   107008301.755    20362998.766    83383096.175                  
  21622425.338   113626575.026    21622427.482    88540179.266                  
  22770348.295   119658950.042    22770350.636    93240730.719                  
  24113467.617   126717143.293    24113466.741    98740634.812                  
  22112224.138   116200527.679    22112224.639    90545869.202                  
  24090753.444   126597757.360    24090754.034    98647600.867                  
  23752835.674   124821992.566    23752834.978    97263890.542                  
  23863734.834   125404749.097    23863736.299    97717981.288                  
  21106328.393   110914470.255    21106330.197    86426851.499                  
                 137178513.551                   137178513.551    26343683.666  
                 117309062.620                   117309062.620    22527962.504  
                 117947698.027                   117947698.027    22650611.475  
                 129430333.659                   129430333.659    24855739.576  
                 121548656.207                   121548656.207    23342140.787  
  23575025.405   123887585.575                                                  
 21  9  1  7 12  8.0000000  0 15G 7G 8G 9G13G14G17G21G27G30C20C23C25
                                C32C34E27
  20363001.375   107008311.245    20363000.589    83383103.570                  
  21622799.212   113628539.848    21622801.374    88541710.298                  
  22770999.067   119662369.825    22771001.408    93243395.480                  
  24112853.441   126713915.676    24112852.547    98738119.790                  
  22111801.679   116198307.637    22111802.179    90544139.301                  
  24090054.497   126594084.370    24090055.087    98644738.797                  
  23752470.092   124820071.421    23752469.395    97262393.546                  
  23864377.457   125408126.151    23864378.923    97720612.757                  
  21105987.398   110912678.316    21105989.203    86425455.183                  
                 137177437.050                   137177437.050    26343476.921  
                 117307897.589                   117307897.589    22527738.784  
                 117948854.759                   117948854.759    22650833.622  
                 129431782.081                   129431782.081    24856017.743  
                 121548765.176                   121548765.176    23342161.694  
  23575108.782   123888023.773                                                  
 21  9  1  7 12  9.0000000  0 15G 7G 8G 9G13G14G17G21G27G30C20C23C25
                                C32C34E27
  20363003.251   107008321.143    20363002.465    83383111.285                  
  21623173.228   113630505.215    21623175.372    88543241.753                  
  22771649.875   119665789.843    22771652.216    93246060.429                  
  24112239.282   126710688.305    24112238.407    98735604.953                  
  22111379.273   116196087.856    22111379.773    90542409.602                  
  24089355.586   126590411.512    24089356.158    98641876.832                  
  23752104.581   124818150.563    23752103.866    97260896.774                  
  23865020.152   125411503.531    23865021.618    97723244.484                  
  21105646.457   110910886.636    21105648.262    86424059.071                  
                 137176361.049                   137176361.049    26343270.302  
                 117306732.748                   117306732.748    22527515.081  
                 117950011.703                   117950011.703    22651055.806  
                 129433230.936                   129433230.936    24856295.982  
                 121548874.715                   121548874.715    23342182.744  
  23575192.194   123888462.109                                                  
 21  9  1  7 12 10.0000000  0 15G 7G 8G 9G13G14G17G21G27G30C20C23C25
                                C32C34E27
  20363005.217   107008331.440    20363004.413    83383119.309                  
  21623547.316   113632471.146    21623549.478    88544773.645                  
  22772300.718   119669210.130    22772303.077    93248725.585                  
  24111625.196   126707461.227    24111624.302    98733090.348                  
  22110956.921   116193868.351    22110957.421    90540680.122                  
  24088656.675   126586738.759    24088657.265    98639014.946                  
  23751739.106   124816230.031    23751738.391    97259400.253                  
  23865662.901   125414881.196    23865664.366    97725876.430                  
  21105305.552   110909095.267    21105307.375    86422663.194                  
                 137175285.555                   137175285.555    26343063.754  
                 117305568.083                   117305568.083    22527291.415  
                 117951168.862                   117951168.862    22651278.025  
                 129434680.231                   129434680.231    24856574.292  
                 121548984.829                   121548984.829    23342203.883  
  23575275.643   123888900.607                                                  
 21  9  1  7 12 11.0000000  0 15G 7G 8G 9G13G14G17G21G27G30C20C23C25
                                C32C34E27
  20363007.254   107008342.145    20363006.468    83383127.648                  
  21623921.547   113634437.640    21623923.673    88546305.980                  
  22772951.633   119672630.685    22772953.974    93251390.953                  
  24111011.162   126704234.426    24111010.269    98730575.957                  
  22110534.622   116191649.124    22110535.105    90538950.852                  
  24087957.800   126583066.115    24087958.371    98636153.144                  
  23751373.702   124814309.802    23751372.988    97257903.972                  
  23866305.721   125418259.172    23866307.187    97728508.617                  
  21104964.736   110907304.170    21104966.541    86421267.539                  
                 137174210.563                   137174210.563    26342857.313  
                 117304403.596                   117304403.596    22527067.784  
                 117952326.234                   117952326.234    22651500.280  
                 129436129.961                   129436129.961    24856852.691  
                 121549095.516                   121549095.516    23342225.147  
  23575359.127   123889339.251                                                  
 21  9  1  7 12 12.0000000  0 15G 7G 8G 9G13G14G17G21G27G30C20C23C25
                                C32C34E27
  20363009.362   107008353.246    20363008.558    83383136.300                  
  21624295.867   113636404.695    21624297.994    88547838.750                  
  22773602.602   119676051.491    22773604.943    93254056.516                  
  24110397.165   126701007.921    24110396.271    98728061.797                  
  22110112.359   116189430.170    22110112.860    90537221.797                  
  24087258.942   126579393.573    24087259.514    98633291.423                  
  23751008.352   124812389.895    23751007.638    97256407.941                  
  23866948.577   125421637.461    23866950.043    97731141.050                  
  21104623.956   110905513.359    21104625.761    86419872.102                  
                 137173136.075                   137173136.075    26342650.961  
                 117303239.295                   117303239.295    22526844.207  
                 117953483.818                   117953483.818    22651722.588  
                 129437580.125                   129437580.125    24857131.180  
                 121549206.773                   121549206.773    23342246.500  
  23575442.629   123889778.042                                                  
 21  9  1  7 12 13.0000000  0 15G 7G 8G 9G13G14G17G21G27G30C20C23C25
                                C32C34E27
  20363011.560   107008364.737    20363010.756    83383145.255                  
  21624670.277   113638372.292    21624672.421    88549371.941                  
  22774253.606   119679472.562    22774255.947    93256722.286                  
  24109783.239   126697781.712    24109782.363    98725547.863                  
  22109690.168   116187211.496    22109690.668    90535492.957                  
  24086560.103   126575721.143    24086560.674    98630429.794                  
  23750643.056   124810470.308    23750642.359    97254912.164                  
  23867591.505   125425016.044    23867592.952    97733773.710                  
  21104283.212   110903722.835    21104285.034    86418476.886                  
                 137172062.086                   137172062.086    26342444.717  
                 117302075.175                   117302075.175    22526620.647  
                 117954641.617                   117954641.617    22651944.915  
                 129439030.725                   129439030.725    24857409.758  
                 121549318.606                   121549318.606    23342267.979  
  23575526.148   123890216.977                                                  
 21  9  1  7 12 14.0000000  0 15G 7G 8G 9G13G14G17G21G27G30C20C23C25
                                C32C34E27
  20363013.812   107008376.640    20363013.026    83383154.527                  
  21625044.794   113640340.450    21625046.956    88550905.570                  
  22774904.664   119682893.894    22774907.005    93259388.254                  
  24109169.384   126694555.808    24109168.473    98723034.177                  
  22109268.012   116184993.094    22109268.495    90533764.337                  
  24085861.281   126572048.819    24085861.853    98627568.242                  
  23750277.849   124808551.035    23750277.134    97253416.626                  
  23868234.486   125428394.938    23868235.933    97736406.617                  
  21103942.557   110901932.607    21103944.361    86417081.903                  
                 137170988.601                   137170988.601    26342238.580  
                 117300911.238                   117300911.238    22526397.124  
                 117955799.628                   117955799.628    22652167.295  
                 129440481.764                   129440481.764    24857688.425  
                 121549431.012                   121549431.012    23342289.565  
  23575609.704   123890656.073                                                  
 21  9  1  7 12 15.0000000  0 15G 7G 8G 9G13G14G17G21G27G30C20C23C25
                                C32C34E27
  20363016.153   107008388.938    20363015.366    83383164.112                  
  21625419.436   113642309.163    21625421.580    88552439.637                  
  22775555.775   119686315.482    22775558.116    93262054.426                  
  24108555.565   126691330.189    24108554.672    98720520.703                  
  22108845.928   116182774.956    22108846.393    90532035.918                  
  24085162.477   126568376.609    24085163.067    98624706.778                  
  23749912.678   124806632.075    23749911.963    97251921.331                  
  23868877.521   125431774.138    23868878.986    97739039.761                  
  21103601.937   110900142.664    21103603.760    86415687.140                  
                 137169915.622                   137169915.622    26342032.514  
                 117299747.480                   117299747.480    22526173.618  
                 117956957.852                   117956957.852    22652389.728  
                 129441933.240                   129441933.240    24857967.164  
                 121549543.988                   121549543.988    23342311.258  
  23575693.277   123891095.307                                                  
 21  9  1  7 12 16.0000000  0 15G 7G 8G 9G13G14G17G21G27G30C20C23C25
                                C32C34E27
  20363018.583   107008401.632    20363017.779    83383173.997                  
  21625794.185   113644278.457    21625796.347    88553974.149                  
  22776206.922   119689737.216    22776209.281    93264720.660                  
  24107941.800   126688104.805    24107940.925    98718007.382                  
  22108423.880   116180557.085    22108424.362    90530307.696                  
  24084463.709   126564704.517    24084464.281    98621845.409                  
  23749547.560   124804713.471    23749546.863    97250426.335                  
  23869520.627   125435153.680    23869522.074    97741673.192                  
  21103261.371   110898353.043    21103263.194    86414292.651                  
                 137168843.145                   137168843.145    26341826.556  
                 117298583.907                   117298583.907    22525950.184  
                 117958116.293                   117958116.293    22652612.198  
                 129443385.148                   129443385.148    24858245.975  
                 121549657.536                   121549657.536    23342333.058  
  23575776.904   123891534.691                                                  
 21  9  1  7 12 17.0000000  0 15G 7G 8G 9G13G14G17G21G27G30C20C23C25
                                C32C34E27
  20363021.067   107008414.732    20363020.263    83383184.202                  
  21626169.041   113646248.314    21626171.186    88555509.102                  
  22776858.141   119693159.340    22776860.482    93267387.251                  
  24107328.106   126684879.778    24107327.213    98715494.372                  
  22108001.885   116178339.508    22108002.385    90528579.711                  
  24083764.941   126561032.518    24083765.512    98618984.114                  
  23749182.513   124802795.152    23749181.817    97248931.539                  
  23870163.786   125438533.493    23870165.234    97744306.810                  
  21102920.877   110896563.664    21102922.682    86412898.332                  
                 137167771.172                   137167771.172    26341620.705  
                 117297420.516                   117297420.516    22525726.767  
                 117959274.944                   117959274.944    22652834.703  
                 129444837.493                   129444837.493    24858524.892  
                 121549771.657                   121549771.657    23342354.983  
  23575860.531   123891974.230                                                  
 21  9  1  7 12 18.0000000  0 15G 7G 8G 9G13G14G17G21G27G30C20C23C25
                                C32C34E27
  20363023.640   107008428.233    20363022.836    83383194.727                  
  21626543.987   113648218.731    21626546.131    88557044.493                  
  22777509.396   119696581.726    22777511.736    93270054.042                  
  24106714.466   126681655.048    24106713.555    98712981.593                  
  22107579.944   116176122.206    22107580.444    90526851.946                  
  24083066.208   126557360.628    24083066.780    98616122.903                  
  23748817.539   124800877.153    23748816.824    97247436.996                  
  23870807.000   125441913.605    23870808.465    97746940.663                  
  21102580.419   110894774.598    21102582.241    86411504.255                  
                 137166699.699                   137166699.699    26341414.943  
                 117296257.305                   117296257.305    22525503.387  
                 117960433.808                   117960433.808    22653057.261  
                 129446290.274                   129446290.274    24858803.881  
                 121549886.352                   121549886.352    23342376.998  
  23575944.194   123892413.908                                                  
 21  9  1  7 12 19.0000000  0 15G 7G 8G 9G13G14G17G21G27G30C20C23C25
                                C32C34E27
  20363026.284   107008442.139    20363025.480    83383205.559                  
  21626919.058   113650189.706    21626921.202    88558580.318                  
  22778160.704   119700004.358    22778163.044    93272721.028                  
  24106100.862   126678430.612    24106099.986    98710469.050                  
  22107158.056   116173905.186    22107158.538    90525124.398                  
  24082367.476   126553688.847    24082368.066    98613261.773                  
  23748452.618   124798959.476    23748451.903    97245942.703                  
  23871450.267   125445294.025    23871451.714    97749574.759                  
  21102240.014   110892985.805    21102241.837    86410110.390                  
                 137165628.732                   137165628.732    26341209.253  
                 117295094.272                   117295094.272    22525280.024  
                 117961592.886                   117961592.886    22653279.838  
                 129447743.494                   129447743.494    24859082.960  
                 121550001.621                   121550001.621    23342399.138  
  23576027.893   123892853.755                                                  
 21  9  1  7 12 20.0000000  0 15G 7G 8G 9G13G14G17G21G27G30C20C23C25
                                C32C34E27
  20363029.000   107008456.427    20363028.196    83383216.694                  
  21627294.218   113652161.218    21627296.362    88560116.565                  
  22778812.065   119703427.254    22778814.406    93275388.222                  
  24105487.347   126675206.478    24105486.436    98707956.737                  
  22106736.222   116171688.431    22106736.722    90523397.063                  
  24081668.779   126550017.171    24081669.369    98610400.731                  
  23748087.768   124797042.110    23748087.035    97244448.656                  
  23872093.605   125448674.747    23872095.053    97752209.090                  
  21101899.680   110891197.294    21101901.503    86408716.750                  
                 137164558.271                   137164558.271    26341003.705  
                 117293931.425                   117293931.425    22525056.715  
                 117962752.180                   117962752.180    22653502.468  
                 129449197.144                   129449197.144    24859362.127  
                 121550117.461                   121550117.461    23342421.402  
  23576111.645   123893293.746                                                  
 21  9  1  7 12 21.0000000  0 15G 7G 8G 9G13G14G17G21G27G30C20C23C25
                                C32C34E27
  20363031.806   107008471.108    20363031.002    83383228.146                  
  21627669.503   113654133.317    21627671.647    88561653.270                  
  22779463.463   119706850.411    22779465.803    93278055.620                  
  24104873.868   126671982.628    24104872.956    98705444.651                  
  22106314.441   116169471.954    22106314.942    90521669.942                  
  24080970.100   126546345.589    24080970.672    98607539.761                  
  23747722.936   124795125.061    23747722.239    97242954.856                  
  23872736.979   125452055.766    23872738.445    97754843.657                  
  21101559.401   110889409.071    21101561.205    86407323.331                  
                 137163488.304                   137163488.304    26340798.212  
                 117292768.762                   117292768.762    22524833.441  
                 117963911.689                   117963911.689    22653725.134  
                 129450651.230                   129450651.230    24859641.367  
                 121550233.871                   121550233.871    23342443.739  
  23576195.379   123893733.884                                                  
 21  9  1  7 12 22.0000000  0 15G 7G 8G 9G13G14G17G21G27G30C20C23C25
                                C32C34E27
  20363034.665   107008486.203    20363033.861    83383239.906                  
  21628044.878   113656105.965    21628047.022    88563190.398                  
  22780114.914   119710273.824    22780117.254    93280723.214                  
  24104260.442   126668759.075    24104259.549    98702932.794                  
  22105892.697   116167255.753    22105893.197    90519943.032                  
  24080271.457   126542674.134    24080272.047    98604678.886                  
  23747358.193   124793208.324    23747357.497    97241461.297                  
  23873380.425   125455437.098    23873381.872    97757478.462                  
  21101219.157   110887621.132    21101220.979    86405930.136                  
                 137162418.849                   137162418.849    26340592.843  
                 117291606.278                   117291606.278    22524610.204  
                 117965071.407                   117965071.407    22653947.854  
                 129452105.753                   129452105.753    24859920.677  
                 121550350.859                   121550350.859    23342466.218  
  23576279.185   123894174.172                                                  
 21  9  1  7 12 23.0000000  0 15G 7G 8G 9G13G14G17G21G27G30C20C23C25
                                C32C34E27
  20363037.613   107008501.694    20363036.827    83383251.976                  
  21628420.359   113658079.156    21628422.522    88564727.950                  
  22780766.418   119713697.489    22780768.759    93283391.007                  
  24103647.052   126665535.821    24103646.176    98700421.163                  
  22105471.024   116165039.822    22105471.524    90518216.333                  
  24079572.814   126539002.775    24079573.404    98601818.089                  
  23746993.522   124791291.921    23746992.826    97239968.000                  
  23874023.924   125458818.730    23874025.372    97760113.495                  
  21100878.984   110885833.483    21100880.807    86404537.164                  
                 137161349.894                   137161349.894    26340387.564  
                 117290443.972                   117290443.972    22524386.984  
                 117966231.340                   117966231.340    22654170.609  
                 129453560.712                   129453560.712    24860200.095  
                 121550468.418                   121550468.418    23342488.786  
  23576362.973   123894614.609                                                  
 21  9  1  7 12 24.0000000  0 15G 7G 8G 9G13G14G17G21G27G30C20C23C25
                                C32C34E27
  20363040.633   107008517.578    20363039.847    83383264.351                  
  21628795.966   113660052.913    21628798.093    88566265.944                  
  22781417.976   119717121.421    22781420.317    93286059.004                  
  24103033.751   126662312.852    24103032.876    98697909.761                  
  22105049.404   116162824.169    22105049.904    90516489.848                  
  24078874.207   126535331.507    24078874.779    98598957.363                  
  23746628.905   124789375.826    23746628.208    97238474.937                  
  23874667.477   125462200.667    23874668.942    97762748.773                  
  21100538.865   110884046.125    21100540.688    86403144.415                  
                 137160281.442                   137160281.442    26340182.374  
                 117289281.855                   117289281.855    22524163.817  
                 117967391.489                   117967391.489    22654393.400  
                 129455016.107                   129455016.107    24860479.585  
                 121550586.546                   121550586.546    23342511.480  
  23576446.814   123895055.199                                                  
 21  9  1  7 12 25.0000000  0 15G 7G 8G 9G13G14G17G21G27G30C20C23C25
                                C32C34E27
  20363043.742   107008533.864    20363042.938    83383277.042                  
  21629171.663   113662027.245    21629173.825    88567804.383                  
  22782069.588   119720545.614    22782071.929    93288727.207                  
  24102420.504   126659090.188    24102419.629    98695398.594                  
  22104627.838   116160608.790    22104628.320    90514763.583                  
  24078175.600   126531660.368    24078176.171    98596096.734                  
  23746264.341   124787460.059    23746263.644    97236982.132                  
  23875311.101   125465582.907    23875312.567    97765384.284                  
  21100198.800   110882259.061    21100200.604    86401751.900                  
                 137159213.496                   137159213.496    26339977.273  
                 117288119.915                   117288119.915    22523940.687  
                 117968551.847                   117968551.847    22654616.244  
                 129456471.935                   129456471.935    24860759.163  
                 121550705.250                   121550705.250    23342534.263  
  23576530.691   123895495.941                                                  
 21  9  1  7 12 26.0000000  0 15G 7G 8G 9G13G14G17G21G27G30C20C23C25
                                C32C34E27
  20363046.923   107008550.558    20363046.119    83383290.050                  
  21629547.466   113664002.114    21629549.628    88569343.242                  
  22782721.218   119723970.063    22782723.576    93291395.606                  
  24101807.293   126655867.817    24101806.418    98692887.656                  
  22104206.326   116158393.692    22104206.808    90513037.531                  
  24077477.028   126527989.323    24077477.600    98593236.179                  
  23745899.849   124785544.607    23745899.134    97235489.569                  
  23875954.779   125468965.448    23875956.245    97768020.031                  
  21099858.788   110880472.284    21099860.593    86400359.606                  
                 137158146.050                   137158146.050    26339772.297  
                 117286958.159                   117286958.159    22523717.574  
                 117969712.423                   117969712.423    22654839.125  
                 129457928.199                   129457928.199    24861038.813  
                 121550824.527                   121550824.527    23342557.171  
  23576614.604   123895936.833                                                  
 21  9  1  7 12 27.0000000  0 15G 7G 8G 9G13G14G17G21G27G30C20C23C25
                                C32C34E27
  20363050.157   107008567.646    20363049.353    83383303.367                  
  21629923.377   113665977.538    21629925.521    88570882.535                  
  22783372.919   119727394.769    22783375.278    93294064.211                  
  24101194.153   126652645.743    24101193.278    98690376.949                  
  22103784.831   116156178.858    22103785.331    90511311.688                  
  24076778.474   126524318.390    24076779.064    98590375.712                  
  23745535.392   124783629.468    23745534.695    97233997.258                  
  23876598.529   125472348.298    23876599.976    97770656.015                  
  21099518.812   110878685.792    21099520.634    86398967.532                  
                 137157079.110                   137157079.110    26339567.393  
                 117285796.585                   117285796.585    22523494.497  
                 117970873.208                   117970873.208    22655062.023  
                 129459384.900                   129459384.900    24861318.553  
                 121550944.376                   121550944.376    23342580.186  
  23576698.517   123896377.866                                                  
 21  9  1  7 12 28.0000000  0 15G 7G 8G 9G13G14G17G21G27G30C20C23C25
                                C32C34E27
  20363053.499   107008585.129    20363052.695    83383316.989                  
  21630299.394   113667953.519    21630301.539    88572422.259                  
  22784024.674   119730819.737    22784027.014    93296733.012                  
  24100581.085   126649423.956    24100580.192    98687866.465                  
  22103363.426   116153964.304    22103363.926    90509586.064                  
  24076079.938   126520647.565    24076080.528    98587515.329                  
  23745171.025   124781714.656    23745170.328    97232505.196                  
  23877242.314   125475731.444    23877243.779    97773292.238                  
  21099178.925   110876899.579    21099180.712    86397575.675                  
                 137156012.673                   137156012.673    26339362.596  
                 117284635.192                   117284635.192    22523271.474  
                 117972034.208                   117972034.208    22655284.975  
                 129460842.031                   129460842.031    24861598.400  
                 121551064.796                   121551064.796    23342603.327  
  23576782.484   123896819.055                                                  
 21  9  1  7 12 29.0000000  0 15G 7G 8G 9G13G14G17G21G27G30C20C23C25
                                C32C34E27
  20363056.894   107008603.020    20363056.108    83383330.930                  
  21630675.519   113669930.067    21630677.664    88573962.426                  
  22784676.482   119734244.958    22784678.823    93299402.015                  
  24099968.052   126646202.477    24099967.177    98685356.218                  
  22102942.057   116151750.028    22102942.557    90507860.651                  
  24075381.421   126516976.849    24075381.992    98584655.028                  
  23744806.711   124779800.151    23744805.997    97231013.375                  
  23877886.153   125479114.899    23877887.618    97775928.696                  
  21098839.056   110875113.667    21098840.879    86396184.058                  
                 137154946.739                   137154946.739    26339157.907  
                 117283473.980                   117283473.980    22523048.487  
                 117973195.421                   117973195.421    22655507.980  
                 129462299.601                   129462299.601    24861878.300  
                 121551185.788                   121551185.788    23342626.557  
  23576866.468   123897260.390                                                  
 21  9  1  7 12 30.0000000  0 15G 7G 8G 9G13G14G17G21G27G30C20C23C25
                                C32C34E27
  20363060.378   107008621.302    20363059.574    83383345.175                  
  21631051.752   113671907.183    21631053.896    88575503.036                  
  22785328.326   119737670.436    22785330.667    93302071.219                  
  24099355.074   126642981.278    24099354.198    98682846.194                  
  22102520.759   116149536.024    22102521.241    90506135.454                  
  24074682.920   126513306.230    24074683.492    98581794.810                  
  23744442.451   124777885.963    23744441.737    97229521.800                  
  23878530.063   125482498.652    23878531.528    97778565.387                  
  21098499.277   110873328.079    21098501.100    86394792.691                  
                 137153881.308                   137153881.308    26338953.306  
                 117282312.953                   117282312.953    22522825.499  
                 117974356.852                   117974356.852    22655731.021  
                 129463757.607                   129463757.607    24862158.308  
                 121551307.359                   121551307.359    23342649.894  
  23576950.488   123897701.883                                                  
 21  9  1  7 12 31.0000000  0 15G 7G 8G 9G13G14G17G21G27G30C20C23C25
                                C32C34E27
  20363063.934   107008639.989    20363063.148    83383359.739                  
  21631428.073   113673884.855    21631430.236    88577044.079                  
  22785980.224   119741096.187    22785982.565    93304740.636                  
  24098742.166   126639760.386    24098741.273    98680336.411                  
  22102099.496   116147322.300    22102099.979    90504410.476                  
  24073984.438   126509635.695    24073985.028    98578934.653                  
  23744078.263   124775972.090    23744077.548    97228030.472                  
  23879174.045   125485882.714    23879175.492    97781202.320                  
  21098159.533   110871542.734    21098161.356    86393401.515                  
                 137152816.384                   137152816.384    26338748.778  
                 117281152.106                   117281152.106    22522602.583  
                 117975518.492                   117975518.492    22655954.098  
                 129465216.043                   129465216.043    24862438.387  
                 121551429.497                   121551429.497    23342673.356  
  23577034.526   123898143.521                                                  
 21  9  1  7 12 32.0000000  0 15G 7G 8G 9G13G14G17G21G27G30C20C23C25
                                C32C34E27
  20363067.562   107008659.074    20363066.758    83383374.610                  
  21631804.538   113675863.081    21631806.682    88578585.554                  
  22786632.157   119744522.182    22786634.516    93307410.242                  
  24098129.294   126636539.797    24098128.419    98677826.858                  
  22101678.288   116145108.848    22101678.788    90502685.707                  
  24073285.992   126505965.296    24073286.581    98576074.597                  
  23743714.128   124774058.542    23743713.395    97226539.396                  
  23879818.062   125489267.066    23879819.527    97783839.473                  
  21097819.861   110869757.677    21097821.666    86392010.559                  
                 137151751.962                   137151751.962    26338544.374  
                 117279991.440                   117279991.440    22522379.685  
                 117976680.348                   117976680.348    22656177.229  
                 129466674.919                   129466674.919    24862718.537  
                 121551552.211                   121551552.211    23342696.925  
  23577118.582   123898585.296                                                  
 21  9  1  7 12 33.0000000  0 15G 7G 8G 9G13G14G17G21G27G30C20C23C25
                                C32C34E27
  20363071.279   107008678.556    20363070.457    83383389.789                  
  21632181.074   113677841.865    21632183.236    88580127.461                  
  22787284.162   119747948.444    22787286.521    93310080.054                  
  24097516.494   126633319.501    24097515.618    98675317.535                  
  22101257.133   116142895.664    22101257.615    90500961.150                  
  24072587.563   126502294.982    24072588.135    98573214.614                  
  23743350.047   124772145.314    23743349.314    97225048.566                  
  23880462.133   125492651.735    23880463.598    97786476.880                  
  21097480.224   110867972.907    21097482.047    86390619.832                  
                 137150688.043                   137150688.043    26338340.059  
                 117278830.957                   117278830.957    22522156.822  
                 117977842.418                   117977842.418    22656400.395  
                 129468134.228                   129468134.228    24862998.777  
                 121551675.492                   121551675.492    23342720.601  
  23577202.674   123899027.236                                                  
 21  9  1  7 12 34.0000000  0 15G 7G 8G 9G13G14G17G21G27G30C20C23C25
                                C32C34E27
  20363075.067   107008698.437    20363074.263    83383405.280                  
  21632557.735   113679821.180    21632559.879    88581669.784                  
  22787936.203   119751374.953    22787938.561    93312750.059                  
  24096903.765   126630099.504    24096902.872    98672808.448                  
  22100836.031   116140682.761    22100836.514    90499236.810                  
  24071889.134   126498624.794    24071889.724    98570354.728                  
  23742986.019   124770232.400    23742985.322    97223557.988                  
  23881106.276   125496036.695    23881107.741    97789114.508                  
  21097140.659   110866188.419    21097142.464    86389229.319                  
                 137149624.624                   137149624.624    26338135.834  
                 117277670.658                   117277670.658    22521933.996  
                 117979004.698                   117979004.698    22656623.597  
                 129469593.970                   129469593.970    24863279.124  
                 121551799.351                   121551799.351    23342744.385  
  23577286.801   123899469.316                                                  
 21  9  1  7 12 35.0000000  0 15G 7G 8G 9G13G14G17G21G27G30C20C23C25
                                C32C34E27
  20363078.927   107008718.723    20363078.122    83383421.090                  
  21632934.504   113681801.075    21632936.648    88583212.562                  
  22788588.297   119754801.743    22788590.656    93315420.280                  
  24096291.072   126626879.804    24096290.197    98670299.589                  
  22100414.984   116138470.137    22100415.484    90497512.687                  
  24071190.742   126494954.703    24071191.313    98567494.919                  
  23742622.080   124768319.805    23742621.366    97222067.653                  
  23881750.454   125499421.965    23881751.919    97791752.382                  
  21096801.148   110864404.231    21096802.935    86387839.042                  
                 137148561.715                   137148561.715    26337931.717  
                 117276510.538                   117276510.538    22521711.223  
                 117980167.196                   117980167.196    22656846.835  
                 129471054.145                   129471054.145    24863559.525  
                 121551923.781                   121551923.781    23342768.276  
  23577370.964   123899911.538                                                  
 21  9  1  7 12 36.0000000  0 15G 7G 8G 9G13G14G17G21G27G30C20C23C25
                                C32C34E27
  20363082.858   107008739.399    20363082.036    83383437.199                  
  21633311.361   113683781.543    21633313.523    88584755.782                  
  22789240.463   119758228.777    22789242.804    93318090.698                  
  24095678.433   126623660.388    24095677.557    98667790.953                  
  22099993.972   116136257.780    22099994.472    90495788.773                  
  24070492.384   126491284.732    24070492.956    98564635.199                  
  23742258.178   124766407.528    23742257.463    97220577.571                  
  23882394.722   125502807.538    23882396.187    97794390.493                  
  21096461.654   110862620.330    21096463.477    86386448.992                  
                 137147499.305                   137147499.305    26337727.706  
                 117275350.602                   117275350.602    22521488.467  
                 117981329.904                   117981329.904    22657070.126  
                 129472514.756                   129472514.756    24863840.015  
                 121552048.786                   121552048.786    23342792.274  
  23577455.145   123900353.929                                                  
 21  9  1  7 12 37.0000000  0 15G 7G 8G 9G13G14G17G21G27G30C20C23C25
                                C32C34E27
  20363086.860   107008760.477    20363086.056    83383453.626                  
  21633688.344   113685762.546    21633690.488    88586299.422                  
  22789892.646   119761656.072    22789895.005    93320761.316                  
  24095065.865   126620441.275    24095064.971    98665282.556                  
  22099573.049   116134045.711    22099573.531    90494065.082                  
  24069794.027   126487614.864    24069794.599    98561775.564                  
  23741894.347   124764495.571    23741893.614    97219087.730                  
  23883039.043   125506193.413    23883040.508    97797028.837                  
  21096122.268   110860836.716    21096124.055    86385059.163                  
                 137146437.401                   137146437.401    26337523.785  
                 117274190.849                   117274190.849    22521265.748  
                 117982492.829                   117982492.829    22657293.453  
                 129473975.801                   129473975.801    24864120.595  
                 121552174.361                   121552174.361    23342816.397  
  23577539.362   123900796.462                                                  
 21  9  1  7 12 38.0000000  0 15G 7G 8G 9G13G14G17G21G27G30C20C23C25
                                C32C34E27
  20363090.935   107008781.957    20363090.148    83383470.359                  
  21634065.416   113687744.079    21634067.560    88587843.472                  
  22790544.884   119765083.622    22790547.242    93323432.134                  
  24094453.332   126617222.461    24094452.457    98662774.386                  
  22099152.144   116131833.911    22099152.644    90492341.602                  
  24069095.706   126483945.113    24069096.278    98558916.015                  
  23741530.551   124762583.915    23741529.854    97217598.128                  
  23883683.400   125509579.585    23883684.865    97799667.410                  
  21095782.899   110859053.390    21095784.722    86383669.559                  
                 137145376.001                   137145376.001    26337319.935  
                 117273031.276                   117273031.276    22521043.064  
                 117983655.964                   117983655.964    22657516.816  
                 129475437.282                   129475437.282    24864401.263  
                 121552300.509                   121552300.509    23342840.627  
  23577623.596   123901239.141                                                  
 21  9  1  7 12 39.0000000  0 15G 7G 8G 9G13G14G17G21G27G30C20C23C25
                                C32C34E27
  20363095.116   107008803.831    20363094.294    83383487.405                  
  21634442.595   113689726.202    21634444.740    88589387.988                  
  22791197.174   119768511.433    22791199.515    93326103.156                  
  24093840.872   126614003.934    24093839.996    98660266.446                  
  22098731.293   116129622.379    22098731.793    90490618.332                  
  24068397.384   126480275.465    24068397.956    98556056.547                  
  23741166.845   124760672.574    23741166.148    97216108.778                  
  23884327.828   125512966.071    23884329.276    97802306.230                  
  21095443.602   110857270.361    21095445.425    86382280.183                  
                 137144315.106                   137144315.106    26337116.192  
                 117271871.886                   117271871.886    22520820.416  
                 117984819.314                   117984819.314    22657740.232  
                 129476899.199                   129476899.199    24864682.021  
                 121552427.226                   121552427.226    23342864.965  
  23577707.867   123901681.976                                                  
 21  9  1  7 12 40.0000000  0 15G 7G 8G 9G13G14G17G21G27G30C20C23C25
                                C32C34E27
  20363099.369   107008826.109    20363098.547    83383504.765                  
  21634819.882   113691708.859    21634822.044    88590932.913                  
  22791849.519   119771939.488    22791851.860    93328774.367                  
  24093228.482   126610785.704    24093227.571    98657758.734                  
  22098310.513   116127411.125    22098311.013    90488895.278                  
  24067699.099   126476605.922    24067699.688    98553197.163                  
  23740803.193   124758761.550    23740802.478    97214619.668                  
  23884972.292   125516352.852    23884973.758    97804945.281                  
  21095104.359   110855487.601    21095106.164    86380891.019                  
                 137143254.712                   137143254.712    26336912.557  
                 117270712.680                   117270712.680    22520597.804  
                 117985982.879                   117985982.879    22657963.684  
                 129478361.547                   129478361.547    24864962.833  
                 121552554.520                   121552554.520    23342889.392  
  23577792.155   123902124.957                                                  
 21  9  1  7 12 41.0000000  0 15G 7G 8G 9G13G14G17G21G27G30C20C23C25
                                C32C34E27
  20363103.657   107008848.801    20363102.853    83383522.445                  
  21635197.276   113693692.080    21635199.420    88592478.278                  
  22792501.899   119775367.813    22792504.258    93331445.785                  
  24092616.129   126607567.764    24092615.235    98655251.246                  
  22097889.787   116125200.145    22097890.287    90487172.433                  
  24067000.813   126472936.500    24067001.403    98550337.876                  
  23740439.594   124756850.860    23740438.879    97213130.817                  
  23885616.846   125519739.934    23885618.293    97807584.567                  
  21094765.151   110853705.141    21094766.974    86379502.089                  
                 137142194.823                   137142194.823    26336709.029  
                 117269553.651                   117269553.651    22520375.227  
                 117987146.656                   117987146.656    22658187.172  
                 129479824.327                   129479824.327    24865243.752  
                 121552682.386                   121552682.386    23342913.962  
  23577876.479   123902568.085                                                  
 21  9  1  7 12 42.0000000  0 15G 7G 8G 9G13G14G17G21G27G30C20C23C25
                                C32C34E27
  20363108.053   107008871.878    20363107.267    83383540.429                  
  21635574.777   113695675.866    21635576.939    88594024.090                  
  22793154.333   119778796.387    22793156.674    93334117.403                  
  24092003.811   126604350.109    24092002.936    98652743.981                  
  22097469.096   116122989.449    22097469.597    90485449.813                  
  24066302.581   126469267.187    24066303.153    98547478.672                  
  23740076.066   124754940.475    23740075.352    97211642.208                  
  23886261.435   125523127.320    23886262.901    97810224.089                  
  21094426.015   110851922.974    21094427.838    86378113.388                  
                 137141135.438                   137141135.438    26336505.572  
                 117268394.808                   117268394.808    22520152.686  
                 117988310.643                   117988310.643    22658410.696  
                 129481287.547                   129481287.547    24865524.742  
                 121552810.825                   121552810.825    23342938.621  
  23577960.839   123903011.360                                                  
 21  9  1  7 12 43.0000000  0 15G 7G 8G 9G13G14G17G21G27G30C20C23C25
                                C32C34E27
  20363112.520   107008895.362    20363111.716    83383558.731                  
  21635952.403   113697660.220    21635954.547    88595570.335                  
  22793806.820   119782225.232    22793809.179    93336789.230                  
  24091391.583   126601132.762    24091390.707    98650236.957                  
  22097048.477   116120779.031    22097048.960    90483727.410                  
  24065604.349   126465597.976    24065604.921    98544619.547                  
  23739712.592   124753030.414    23739711.878    97210153.848                  
  23886906.096   125526515.012    23886907.561    97812863.849                  
  21094086.933   110850141.095    21094088.755    86376724.910                  
                 137140076.555                   137140076.555    26336302.240  
                 117267236.148                   117267236.148    22519930.163  
                 117989474.851                   117989474.851    22658634.273  
                 129482751.194                   129482751.194    24865805.822  
                 121552939.835                   121552939.835    23342963.406  
  23578045.216   123903454.793                                                  
 21  9  1  7 12 44.0000000  0 15G 7G 8G 9G13G14G17G21G27G30C20C23C25
                                C32C34E27
  20363117.077   107008919.242    20363116.273    83383577.337                  
  21636330.100   113699645.125    21636332.262    88597117.016                  
  22794459.361   119785654.331    22794461.720    93339461.254                  
  24090779.408   126597915.715    24090778.514    98647730.169                  
  22096627.894   116118568.878    22096628.377    90482005.215                  
  24064906.135   126461928.894    24064906.724    98541760.520                  
  23739349.172   124751120.680    23739348.458    97208665.742                  
  23887550.828   125529903.000    23887552.276    97815503.839                  
  21093747.922   110848359.500    21093749.744    86375336.657                  
                 137139018.179                   137139018.179    26336098.980  
                 117266077.669                   117266077.669    22519707.694  
                 117990639.268                   117990639.268    22658857.904  
                 129484215.280                   129484215.280    24866086.973  
                 121553069.419                   121553069.419    23342988.279  
  23578129.611   123903898.379                                                  
 21  9  1  7 12 45.0000000  0 15G 7G 8G 9G13G14G17G21G27G30C20C23C25
                                C32C34E27
  20363121.705   107008943.519    20363120.901    83383596.254                  
  21636707.923   113701630.590    21636710.085    88598664.132                  
  22795111.956   119789083.686    22795114.296    93342133.476                  
  24090167.269   126594698.973    24090166.375    98645223.614                  
  22096207.383   116116359.004    22096207.865    90480283.239                  
  24064207.956   126458259.906    24064208.546    98538901.571                  
  23738985.841   124749211.282    23738985.127    97207177.903                  
  23888195.578   125533291.290    23888197.044    97818144.065                  
  21093408.946   110846578.196    21093410.769    86373948.626                  
                 137137960.305                   137137960.305    26335895.845  
                 117264919.370                   117264919.370    22519485.261  
                 117991803.903                   117991803.903    22659081.535  
                 129485679.800                   129485679.800    24866368.232  
                 121553199.577                   121553199.577    23343013.278  
  23578214.060   123904342.106                                                  
 21  9  1  7 12 46.0000000  0 15G 7G 8G 9G13G14G17G21G27G30C20C23C25
                                C32C34E27
  20363126.405   107008968.210    20363125.583    83383615.493                  
  21637085.853   113703616.601    21637087.997    88600211.676                  
  22795764.586   119792513.302    22795766.945    93344805.902                  
  24089555.201   126591482.497    24089554.325    98642717.270                  
  22095786.907   116114149.399    22095787.371    90478561.465                  
  24063509.796   126454591.030    24063510.385    98536042.704                  
  23738622.546   124747302.165    23738621.814    97205690.278                  
  23888840.418   125536679.879    23888841.883    97820784.522                  
  21093070.042   110844797.168    21093071.847    86372560.812                  
                 137136902.937                   137136902.937    26335692.782  
                 117263761.257                   117263761.257    22519262.863  
                 117992968.745                   117992968.745    22659305.237  
                 129487144.753                   129487144.753    24866649.562  
                 121553330.305                   121553330.305    23343038.384  
  23578298.545   123904785.985                                                  
 21  9  1  7 12 47.0000000  0 15G 7G 8G 9G13G14G17G21G27G30C20C23C25
                                C32C34E27
  20363131.158   107008993.305    20363130.354    83383635.048                  
  21637463.872   113705603.196    21637466.034    88601759.667                  
  22796417.252   119795943.159    22796419.629    93347478.520                  
  24088943.187   126588266.339    24088942.294    98640211.172                  
  22095366.484   116111940.080    22095366.967    90476839.917                  
  24062811.653   126450922.265    24062812.243    98533183.926                  
  23738259.323   124745393.397    23738258.608    97204202.931                  
  23889485.293   125540068.768    23889486.758    97823425.220                  
  21092731.174   110843016.445    21092732.979    86371173.235                  
                 137135846.073                   137135846.073    26335489.825  
                 117262603.324                   117262603.324    22519040.483  
                 117994133.805                   117994133.805    22659528.975  
                 129488610.142                   129488610.142    24866930.981  
                 121553461.605                   121553461.605    23343063.597  
  23578383.012   123905230.002                                                  
 21  9  1  7 12 48.0000000  0 15G 7G 8G 9G13G14G17G21G27G30C20C23C25
                                C32C34E27
  20363136.018   107009018.785    20363135.214    83383654.902                  
  21637842.034   113707590.355    21637844.178    88603308.109                  
  22797070.007   119799373.318    22797072.348    93350151.375                  
  24088331.227   126585050.515    24088330.315    98637705.356                  
  22094946.098   116109731.047    22094946.598    90475118.598                  
  24062113.528   126447253.647    24062114.100    98530325.286                  
  23737896.135   124743484.940    23737895.438    97202715.817                  
  23890130.240   125543457.965    23890131.705    97826066.148                  
  21092392.360   110841236.012    21092394.182    86369785.887                  
                 137134789.691                   137134789.691    26335286.958  
                 117261445.574                   117261445.574    22518818.138  
                 117995299.077                   117995299.077    22659752.766  
                 129490075.941                   129490075.941    24867212.472  
                 121553593.481                   121553593.481    23343088.918  
  23578467.568   123905674.193                                                  
 21  9  1  7 12 49.0000000  0 15G 7G 8G 9G13G14G17G21G27G30C20C23C25
                                C32C34E27
  20363140.932   107009044.664    20363140.146    83383675.067                  
  21638220.286   113709578.071    21638222.412    88604856.977                  
  22797722.781   119802803.688    22797725.122    93352824.391                  
  24087719.320   126581834.952    24087718.426    98635199.723                  
  22094525.782   116107522.262    22094526.283    90473397.464                  
  24061415.421   126443585.094    24061415.993    98527466.675                  
  23737533.036   124741576.812    23737532.339    97201228.964                  
  23890775.240   125546847.458    23890776.705    97828707.311                  
  21092053.617   110839455.855    21092055.421    86368398.750                  
                 137133733.833                   137133733.833    26335084.198  
                 117260288.008                   117260288.008    22518595.866  
                 117996464.567                   117996464.567    22659976.576  
                 129491542.196                   129491542.196    24867494.052  
                 121553725.924                   121553725.924    23343114.363  
  23578552.107   123906118.504                                                  
 21  9  1  7 12 50.0000000  0 15G 7G 8G 9G13G14G17G21G27G30C20C23C25
                                C32C34E27
  20363145.935   107009070.927    20363145.131    83383695.532                  
  21638598.644   113711566.327    21638600.789    88606406.270                  
  22798375.608   119806234.328    22798377.966    93355497.617                  
  24087107.466   126578619.689    24087106.573    98632694.321                  
  22094105.521   116105313.766    22094106.021    90471676.563                  
  24060717.332   126439916.663    24060717.922    98524608.155                  
  23737169.991   124739669.004    23737169.277    97199742.360                  
  23891420.294   125550237.245    23891421.759    97831348.704                  
  21091714.927   110837675.995    21091716.714    86367011.848                  
                 137132678.480                   137132678.480    26334881.528  
                 117259130.622                   117259130.622    22518373.575  
                 117997630.266                   117997630.266    22660200.439  
                 129493008.879                   129493008.879    24867775.721  
                 121553858.946                   121553858.946    23343139.898  
  23578636.681   123906562.973                                                  
 21  9  1  7 12 51.0000000  0 15G 7G 8G 9G13G14G17G21G27G30C20C23C25
                                C32C34E27
  20363151.028   107009097.601    20363150.224    83383716.317                  
  21638977.092   113713555.153    21638979.237    88607956.004                  
  22799028.488   119809665.224    22799030.847    93358171.040                  
  24086495.685   126575404.728    24086494.791    98630189.156                  
  22093685.313   116103105.550    22093685.795    90469955.880                  
  24060019.279   126436248.336    24060019.868    98521749.718                  
  23736807.018   124737761.525    23736806.303    97198256.013                  
  23892065.419   125553627.352    23892066.884    97833990.343                  
  21091376.273   110835896.425    21091378.078    86365625.168                  
                 137131623.634                   137131623.634    26334678.965  
                 117257973.430                   117257973.430    22518151.356  
                 117998796.175                   117998796.175    22660424.338  
                 129494476.001                   129494476.001    24868057.462  
                 121553992.532                   121553992.532    23343165.558  
  23578721.308   123907007.600                                                  
 21  9  1  7 12 52.0000000  0 15G 7G 8G 9G13G14G17G21G27G30C20C23C25
                                C32C34E27
  20363156.156   107009124.674    20363155.352    83383737.413                  
  21639355.665   113715544.544    21639357.828    88609506.177                  
  22799681.422   119813096.380    22799683.763    93360844.668                  
  24085883.957   126572190.051    24085883.063    98627684.216                  
  22093265.159   116100897.600    22093265.659    90468235.400                  
  24059321.243   126432580.120    24059321.815    98518891.370                  
  23736444.098   124735854.359    23736443.383    97196769.910                  
  23892710.580   125557017.746    23892712.045    97836632.211                  
  21091037.691   110834117.149    21091039.496    86364238.719                  
                 137130569.290                   137130569.290    26334476.473  
                 117256816.410                   117256816.410    22517929.155  
                 117999962.305                   117999962.305    22660648.273  
                 129495943.553                   129495943.553    24868339.292  
                 121554126.700                   121554126.700    23343191.325  
  23578805.918   123907452.372                                                  
 21  9  1  7 12 53.0000000  0 15G 7G 8G 9G13G14G17G21G27G30C20C23C25
                                C32C34E27
  20363161.392   107009152.150    20363160.606    83383758.820                  
  21639734.346   113717534.482    21639736.472    88611056.777                  
  22800334.374   119816527.778    22800336.733    93363518.484                  
  24085272.282   126568975.689    24085271.389    98625179.511                  
  22092845.058   116098689.939    22092845.540    90466515.137                  
  24058623.225   126428912.006    24058623.797    98516033.103                  
  23736081.232   124733947.531    23736080.517    97195284.074                  
  23893355.795   125560408.443    23893357.260    97839274.310                  
  21090699.162   110832338.160    21090700.985    86362852.496                  
                 137129515.450                   137129515.450    26334274.106  
                 117255659.571                   117255659.571    22517707.007  
                 118001128.644                   118001128.644    22660872.261  
                 129497411.542                   129497411.542    24868621.194  
                 121554261.434                   121554261.434    23343217.199  
  23578890.600   123907897.293                                                  
 21  9  1  7 12 54.0000000  0 15G 7G 8G 9G13G14G17G21G27G30C20C23C25
                                C32C34E27
  20363166.699   107009180.015    20363165.895    83383780.536                  
  21640113.098   113719524.945    21640115.260    88612607.790                  
  22800987.415   119819959.451    22800989.756    93366192.511                  
  24084660.661   126565761.602    24084659.768    98622675.032                  
  22092424.993   116096482.532    22092425.475    90464795.082                  
  24057925.226   126425244.005    24057925.797    98513174.917                  
  23735718.437   124732041.008    23735717.722    97193798.472                  
  23894001.099   125563799.450    23894002.564    97841916.656                  
  21090360.687   110830559.462    21090362.492    86361466.493                  
                 137128462.113                   137128462.113    26334071.829  
                 117254502.915                   117254502.915    22517484.877  
                 118002295.199                   118002295.199    22661096.303  
                 129498879.961                   129498879.961    24868903.203  
                 121554396.747                   121554396.747    23343243.181  
  23578975.281   123908342.361                                                  
 21  9  1  7 12 55.0000000  0 15G 7G 8G 9G13G14G17G21G27G30C20C23C25
                                C32C34E27
  20363172.078   107009208.289    20363171.274    83383802.567                  
  21640491.974   113721515.968    21640494.137    88614159.234                  
  22801640.475   119823391.364    22801642.833    93368866.732                  
  24084049.094   126562547.823    24084048.200    98620170.789                  
  22092004.999   116094275.410    22092005.482    90463075.249                  
  24057227.262   126421576.129    24057227.815    98510316.832                  
  23735355.696   124730134.811    23735354.981    97192313.126                  
  23894646.439   125567190.742    23894647.904    97844559.219                  
  21090022.266   110828781.051    21090024.089    86360080.723                  
                 137127409.281                   137127409.281    26333869.623  
                 117253346.442                   117253346.442    22517262.801  
                 118003461.968                   118003461.968    22661320.362  
                 129500348.813                   129500348.813    24869185.283  
                 121554532.627                   121554532.627    23343269.287  
  23579060.016   123908787.578                                                  
 21  9  1  7 12 56.0000000  0 15G 7G 8G 9G13G14G17G21G27G30C20C23C25
                                C32C34E27
  20363177.546   107009236.958    20363176.742    83383824.907                  
  21640870.976   113723507.543    21640873.121    88615711.108                  
  22802293.605   119826823.542    22802295.964    93371541.156                  
  24083437.598   126559334.344    24083436.705    98617666.777                  
  22091585.042   116092068.570    22091585.542    90461355.633                  
  24056529.298   126417908.350    24056529.887    98507458.820                  
  23734993.026   124728228.937    23734992.293    97190828.026                  
  23895291.832   125570582.340    23895293.297    97847202.024                  
  21089683.898   110827002.925    21089685.721    86358695.168                  
                 137126356.953                   137126356.953    26333667.542  
                 117252190.152                   117252190.152    22517040.742  
                 118004628.950                   118004628.950    22661544.458  
                 129501818.101                   129501818.101    24869467.435  
                 121554669.083                   121554669.083    23343295.483  
  23579144.769   123909232.948                                                  
 21  9  1  7 12 57.0000000  0 15G 7G 8G 9G13G14G17G21G27G30C20C23C25
                                C32C34E27
  20363183.067   107009266.036    20363182.263    83383847.563                  
  21641250.068   113725499.672    21641252.194    88617263.417                  
  22802946.772   119830255.975    22802949.113    93374215.781                  
  24082826.138   126556121.164    24082825.262    98615163.000                  
  22091165.155   116089861.997    22091165.638    90459636.223                  
  24055831.351   126414240.683    24055831.941    98504600.898                  
  23734630.428   124726323.394    23734629.695    97189343.193                  
  23895937.297   125573974.242    23895938.762    97849845.063                  
  21089345.584   110825225.095    21089347.407    86357309.848                  
                 137125305.133                   137125305.133    26333465.533  
                 117251034.042                   117251034.042    22516818.720  
                 118005796.144                   118005796.144    22661768.625  
                 129503287.820                   129503287.820    24869749.676  
                 121554806.109                   121554806.109    23343321.805  
  23579229.539   123909678.468                                                  
 21  9  1  7 12 58.0000000  0 15G 7G 8G 9G13G14G17G21G27G30C20C23C25
                                C32C34E27
  20363188.678   107009295.509    20363187.874    83383870.531                  
  21641629.266   113727492.356    21641631.393    88618816.160                  
  22803599.992   119833688.673    22803602.333    93376890.606                  
  24082214.767   126552908.278    24082213.856    98612659.453                  
  22090745.305   116087655.697    22090745.805    90457917.028                  
  24055133.459   126410573.130    24055134.013    98501743.067                  
  23734267.865   124724418.159    23734267.133    97187858.594                  
  23896582.797   125577366.441    23896584.263    97852488.337                  
  21089007.341   110823447.550    21089009.146    86355924.746                  
                 137124253.811                   137124253.811    26333263.667  
                 117249878.118                   117249878.118    22516596.733  
                 118006963.556                   118006963.556    22661992.791  
                 129504757.972                   129504757.972    24870032.007  
                 121554943.711                   121554943.711    23343348.215  
  23579314.346   123910124.125                                                  
 21  9  1  7 12 59.0000000  0 15G 7G 8G 9G13G14G17G21G27G30C20C23C25
                                C32C34E27
  20363194.360   107009325.388    20363193.556    83383893.813                  
  21642008.554   113729485.613    21642010.698    88620369.347                  
  22804253.265   119837121.616    22804255.624    93379565.625                  
  24081603.414   126549695.699    24081602.539    98610156.145                  
  22090325.526   116085449.672    22090326.008    90456198.050                  
  24054435.566   126406905.680    24054436.138    98498885.313                  
  23733905.357   124722513.265    23733904.660    97186374.259                  
  23897228.387   125580758.942    23897229.835    97855131.844                  
  21088669.134   110821670.301    21088670.939    86354539.874                  
                 137123203.001                   137123203.001    26333061.854  
                 117248722.375                   117248722.375    22516374.800  
                 118008131.181                   118008131.181    22662217.048  
                 129506228.554                   129506228.554    24870314.427  
                 121555081.882                   121555081.882    23343374.768  
  23579399.188   123910569.944                                                  
 21  9  1  7 13  0.0000000  0 15G 7G 8G 9G13G14G17G21G27G30C20C23C25
                                C32C34E27
  20363200.114   107009355.668    20363199.328    83383917.406                  
  21642387.967   113731479.421    21642390.111    88621922.966                  
  22804906.575   119840554.815    22804908.933    93382240.845                  
  24080992.133   126546483.403    24080991.257    98607653.054                  
  22089905.782   116083243.929    22089906.265    90454479.292                  
  24053737.674   126403238.347    24053738.263    98496027.651                  
  23733542.937   124720608.676    23733542.222    97184890.163                  
  23897873.995   125584151.731    23897875.460    97857775.573                  
  21088330.999   110819893.337    21088332.803    86353155.229                  
                 137122152.690                   137122152.690    26332860.166  
                 117247566.812                   117247566.812    22516152.884  
                 118009299.014                   118009299.014    22662441.304  
                 129507699.575                   129507699.575    24870596.918  
                 121555220.630                   121555220.630    23343401.393  
  23579484.048   123911015.907                                                  
 21  9  1  7 13  1.0000000  0 15G 7G 8G 9G13G14G17G21G27G30C20C23C25
                                C32C34E27
  20363205.957   107009386.348    20363205.153    83383941.317                  
  21642767.487   113733473.792    21642769.632    88623477.019                  
  22805559.955   119843988.278    22805562.296    93384916.270                  
  24080380.923   126543271.417    24080380.047    98605150.210                  
  22089486.075   116081038.457    22089486.575    90452760.742                  
  24053039.835   126399571.117    24053040.424    98493170.067                  
  23733180.553   124718704.421    23733179.856    97183406.329                  
  23898519.692   125587544.831    23898521.157    97860419.552                  
  21087992.899   110818116.664    21087994.722    86351770.809                  
                 137121102.886                   137121102.886    26332658.568  
                 117246411.432                   117246411.432    22515931.005  
                 118010467.066                   118010467.066    22662665.614  
                 129509171.024                   129509171.024    24870879.481  
                 121555359.947                   121555359.947    23343428.161  
  23579568.943   123911462.017                                                  
 21  9  1  7 13  2.0000000  0 15G 7G 8G 9G13G14G17G21G27G30C20C23C25
                                C32C34E27
  20363211.872   107009417.421    20363211.086    83383965.528                  
  21643147.115   113735468.733    21643149.259    88625031.519                  
  22806213.354   119847421.985    22806215.713    93387591.884                  
  24079769.767   126540059.731    24079768.855    98602647.598                  
  22089066.456   116078833.277    22089066.939    90451042.423                  
  24052341.996   126395904.001    24052342.585    98490312.579                  
  23732818.259   124716800.490    23732817.544    97181922.745                  
  23899165.443   125590938.230    23899166.908    97863063.759                  
  21087654.853   110816340.278    21087656.675    86350386.614                  
                 137120053.587                   137120053.587    26332457.041  
                 117245256.239                   117245256.239    22515709.161  
                 118011635.333                   118011635.333    22662889.959  
                 129510642.906                   129510642.906    24871162.133  
                 121555499.837                   121555499.837    23343455.018  
  23579653.857   123911908.282                                                  
 21  9  1  7 13  3.0000000  0 15G 7G 8G 9G13G14G17G21G27G30C20C23C25
                                C32C34E27
  20363217.858   107009448.907    20363217.054    83383990.058                  
  21643526.831   113737464.202    21643528.976    88626586.429                  
  22806866.824   119850855.953    22806869.183    93390267.703                  
  24079158.664   126536848.347    24079157.753    98600145.223                  
  22088646.856   116076628.348    22088647.356    90449324.293                  
  24051644.193   126392236.997    24051644.782    98487455.171                  
  23732456.018   124714896.866    23732455.303    97180439.407                  
  23899811.247   125594331.925    23899812.695    97865708.195                  
  21087316.878   110814564.177    21087318.701    86349002.637                  
                 137119004.789                   137119004.789    26332255.639  
                 117244101.225                   117244101.225    22515487.335  
                 118012803.810                   118012803.810    22663114.359  
                 129512115.224                   129512115.224    24871444.893  
                 121555640.299                   121555640.299    23343481.982  
  23579738.806   123912354.685                                                  
 21  9  1  7 13  4.0000000  0 15G 7G 8G 9G13G14G17G21G27G30C20C23C25
                                C32C34E27
  20363223.934   107009480.779    20363223.112    83384014.895                  
  21643906.655   113739460.223    21643908.818    88628141.770                  
  22807520.348   119854290.179    22807522.707    93392943.723                  
  24078547.597   126533637.271    24078546.721    98597643.079                  
  22088227.345   116074423.714    22088227.845    90447606.399                  
  24050946.425   126388570.105    24050946.979    98484597.852                  
  23732093.813   124712993.583    23732093.116    97178956.329                  
  23900457.087   125597725.923    23900458.535    97868352.868                  
  21086978.957   110812788.366    21086980.762    86347618.890                  
                 137117956.500                   137117956.500    26332054.327  
                 117242946.398                   117242946.398    22515265.580  
                 118013972.504                   118013972.504    22663338.794  
                 129513587.970                   129513587.970    24871727.724  
                 121555781.335                   121555781.335    23343509.072  
  23579823.774   123912801.243                                                  
 21  9  1  7 13  5.0000000  0 15G 7G 8G 9G13G14G17G21G27G30C20C23C25
                                C32C34E27
  20363230.081   107009513.034    20363229.259    83384040.027                  
  21644286.604   113741456.801    21644288.767    88629697.548                  
  22808173.908   119857724.669    22808176.266    93395619.945                  
  24077936.601   126530426.479    24077935.726    98595141.168                  
  22087807.852   116072219.339    22087808.352    90445888.702                  
  24050248.640   126384903.329    24050249.212    98481740.625                  
  23731731.697   124711090.622    23731730.982    97177473.500                  
  23901102.999   125601120.220    23901104.464    97870997.773                  
  21086641.107   110811012.863    21086642.894    86346235.379                  
                 137116908.710                   137116908.710    26331853.104  
                 117241791.751                   117241791.751    22515043.843  
                 118015141.405                   118015141.405    22663563.282  
                 129515061.151                   129515061.151    24872010.626  
                 121555922.946                   121555922.946    23343536.269  
  23579908.794   123913247.954                                                  
 21  9  1  7 13  6.0000000  0 15G 7G 8G 9G13G14G17G21G27G30C20C23C25
                                C32C34E27
  20363236.281   107009545.703    20363235.477    83384065.483                  
  21644666.643   113743453.919    21644668.787    88631253.741                  
  22808827.521   119861159.394    22808829.862    93398296.356                  
  24077325.677   126527215.976    24077324.784    98592639.477                  
  22087388.448   116070015.245    22087388.913    90444171.231                  
  24049550.908   126381236.663    24049551.480    98478883.484                  
  23731369.635   124709187.970    23731368.920    97175990.914                  
  23901748.982   125604514.813    23901750.447    97873642.915                  
  21086303.276   110809237.636    21086305.080    86344852.090                  
                 137115861.430                   137115861.430    26331651.988  
                 117240637.284                   117240637.284    22514822.142  
                 118016310.527                   118016310.527    22663787.788  
                 129516534.761                   129516534.761    24872293.618  
                 121556065.125                   121556065.125    23343563.572  
  23579993.815   123913694.792                                                  
 21  9  1  7 13  7.0000000  0 15G 7G 8G 9G13G14G17G21G27G30C20C23C25
                                C32C34E27
  20363242.589   107009578.766    20363241.785    83384091.251                  
  21645046.788   113745451.612    21645048.933    88632810.388                  
  22809481.152   119864594.383    22809483.528    93400972.968                  
  24076714.771   126524005.774    24076713.896    98590138.017                  
  22086969.062   116067811.442    22086969.562    90442453.980                  
  24048853.176   126377570.102    24048853.766    98476026.421                  
  23731007.644   124707285.643    23731006.912    97174508.586                  
  23902395.001   125607909.712    23902396.466    97876288.288                  
  21085965.515   110807462.700    21085967.320    86343469.018                  
                 137114814.652                   137114814.652    26331450.961  
                 117239483.004                   117239483.004    22514600.459  
                 118017479.858                   118017479.858    22664012.348  
                 129518008.809                   129518008.809    24872576.699  
                 121556207.879                   121556207.879    23343590.983  
  23580078.872   123914141.773                                                  
 21  9  1  7 13  8.0000000  0 15G 7G 8G 9G13G14G17G21G27G30C20C23C25
                                C32C34E27
  20363248.932   107009612.239    20363248.146    83384117.332                  
  21645427.041   113747449.883    21645429.203    88634367.480                  
  22810134.872   119868029.636    22810137.213    93403649.789                  
  24076103.972   126520795.922    24076103.079    98587636.835                  
  22086549.747   116065607.894    22086550.248    90440736.930                  
  24048155.480   126373903.661    24048156.052    98473169.457                  
  23730645.707   124705383.640    23730644.975    97173026.503                  
  23903041.073   125611304.898    23903042.539    97878933.888                  
  21085627.827   110805688.066    21085629.613    86342086.187                  
                 137113768.378                   137113768.378    26331250.042  
                 117238328.903                   117238328.903    22514378.848  
                 118018649.408                   118018649.408    22664236.944  
                 129519483.285                   129519483.285    24872859.851  
                 121556351.203                   121556351.203    23343618.520  
  23580163.982   123914588.988                                                  
 21  9  1  7 13  9.0000000  0 15G 7G 8G 9G13G14G17G21G27G30C20C23C25
                                C32C34E27
  20363255.401   107009646.105    20363254.597    83384143.723                  
  21645807.401   113749448.680    21645809.563    88635924.984                  
  22810788.646   119871465.142    22810790.987    93406326.804                  
  24075493.227   126517586.337    24075492.316    98585135.860                  
  22086130.487   116063404.628    22086130.951    90439020.101                  
  24047457.802   126370237.329    24047458.374    98470312.570                  
  23730283.824   124703481.961    23730283.091    97171544.681                  
  23903687.217   125614700.389    23903688.682    97881579.727                  
  21085290.156   110803913.713    21085291.978    86340703.579                  
                 137112722.610                   137112722.610    26331049.194  
                 117237174.989                   117237174.989    22514157.236  
                 118019819.169                   118019819.169    22664461.576  
                 129520958.197                   129520958.197    24873143.093  
                 121556495.103                   121556495.103    23343646.145  
  23580249.092   123915036.281                                                  
 21  9  1  7 13 10.0000000  0 15G 7G 8G 9G13G14G17G21G27G30C20C23C25
                                C32C34E27
  20363261.923   107009680.371    20363261.119    83384170.421                  
  21646187.868   113751448.022    21646190.013    88637482.913                  
  22811442.438   119874900.888    22811444.779    93409004.009                  
  24074882.500   126514377.039    24074881.624    98582635.106                  
  22085711.261   116061201.641    22085711.762    90437303.485                  
  24046760.142   126366571.102    24046760.714    98467455.772                  
  23729921.994   124701580.612    23729921.297    97170063.110                  
  23904333.415   125618096.189    23904334.880    97884225.800                  
  21084952.574   110802139.652    21084954.379    86339321.191                  
                 137111677.347                   137111677.347    26330848.472  
                 117236021.255                   117236021.255    22513935.678  
                 118020989.143                   118020989.143    22664686.261  
                 129522433.536                   129522433.536    24873426.424  
                 121556639.576                   121556639.576    23343673.878  
  23580334.238   123915483.734                                                  
 21  9  1  7 13 11.0000000  0 15G 7G 8G 9G13G14G17G21G27G30C20C23C25
                                C32C34E27
  20363268.517   107009715.044    20363267.695    83384197.437                  
  21646568.443   113753447.914    21646570.587    88639041.274                  
  22812096.283   119878336.895    22812098.642    93411681.417                  
  24074271.861   126511168.058    24074270.968    98580134.602                  
  22085292.108   116058998.930    22085292.608    90435587.089                  
  24046062.499   126362904.999    24046063.071    98464599.071                  
  23729560.253   124699679.579    23729559.539    97168581.785                  
  23904979.684   125621492.270    23904981.149    97886872.102                  
  21084615.046   110800365.886    21084616.869    86337939.036                  
                 137110632.590                   137110632.590    26330647.838  
                 117234867.704                   117234867.704    22513714.138  
                 118022159.332                   118022159.332    22664910.999  
                 129523909.309                   129523909.309    24873709.827  
                 121556784.618                   121556784.618    23343701.736  
  23580419.420   123915931.340                                                  
 21  9  1  7 13 12.0000000  0 15G 7G 8G 9G13G14G17G21G27G30C20C23C25
                                C32C34E27
  20363275.182   107009750.117    20363274.378    83384224.769                  
  21646949.125   113755448.383    21646951.269    88640600.079                  
  22812750.182   119881773.161    22812752.541    93414359.024                  
  24073661.259   126507959.362    24073660.383    98577634.321                  
  22084873.008   116056796.488    22084873.472    90433870.903                  
  24045364.875   126359238.984    24045365.465    98461742.433                  
  23729198.567   124697778.870    23729197.834    97167100.715                  
  23905625.988   125624888.656    23905627.436    97889518.637                  
  21084277.554   110798592.405    21084279.359    86336557.100                  
                 137109588.337                   137109588.337    26330447.294  
                 117233714.331                   117233714.331    22513492.651  
                 118023329.734                   118023329.734    22665135.756  
                 129525385.514                   129525385.514    24873993.319  
                 121556930.233                   121556930.233    23343729.701  
  23580504.619   123916379.093                                                  
 21  9  1  7 13 13.0000000  0 15G 7G 8G 9G13G14G17G21G27G30C20C23C25
                                C32C34E27
  20363281.936   107009785.594    20363281.132    83384252.414                  
  21647329.896   113757449.413    21647332.040    88642159.323                  
  22813404.135   119885209.678    22813406.476    93417036.828                  
  24073050.728   126504750.980    24073049.835    98575134.281                  
  22084453.943   116054594.331    22084454.426    90432154.935                  
  24044667.304   126355573.098    24044667.858    98458885.899                  
  23728836.915   124695878.480    23728836.219    97165619.890                  
  23906272.364   125628285.351    23906273.812    97892165.409                  
  21083940.115   110796819.215    21083941.938    86335175.394                  
                 137108544.587                   137108544.587    26330246.857  
                 117232561.149                   117232561.149    22513271.201  
                 118024500.353                   118024500.353    22665360.566  
                 129526862.154                   129526862.154    24874276.883  
                 121557076.422                   121557076.422    23343757.773  
  23580589.854   123916826.978                                                  
 21  9  1  7 13 14.0000000  0 15G 7G 8G 9G13G14G17G21G27G30C20C23C25
                                C32C34E27
  20363288.762   107009821.474    20363287.958    83384280.372                  
  21647710.774   113759451.003    21647712.936    88643719.004                  
  22814058.123   119888646.455    22814060.482    93419714.836                  
  24072440.233   126501542.897    24072439.357    98572634.476                  
  22084034.915   116052392.442    22084035.415    90430439.176                  
  24043969.715   126351907.320    24043970.305    98456029.449                  
  23728475.354   124693978.422    23728474.639    97164139.325                  
  23906918.776   125631682.339    23906920.242    97894812.413                  
  21083602.766   110795046.321    21083604.553    86333793.918                  
                 137107501.345                   137107501.345    26330046.528  
                 117231408.145                   117231408.145    22513049.786  
                 118025671.179                   118025671.179    22665585.394  
                 129528339.220                   129528339.220    24874560.535  
                 121557223.183                   121557223.183    23343785.952  
  23580675.125   123917275.039                                                  
 21  9  1  7 13 15.0000000  0 15G 7G 8G 9G13G14G17G21G27G30C20C23C25
                                C32C34E27
  20363295.660   107009857.747    20363294.856    83384308.636                  
  21648091.777   113761453.142    21648093.921    88645279.110                  
  22814712.183   119892083.480    22814714.524    93422393.035                  
  24071829.827   126498335.105    24071828.934    98570134.898                  
  22083615.976   116050190.836    22083616.458    90428723.638                  
  24043272.162   126348241.645    24043272.734    98453173.079                  
  23728113.845   124692078.680    23728113.149    97162659.007                  
  23907565.260   125635079.626    23907566.725    97897459.648                  
  21083265.434   110793273.706    21083267.257    86332412.659                  
                 137106458.601                   137106458.601    26329846.287  
                 117230255.324                   117230255.324    22512828.388  
                 118026842.223                   118026842.223    22665810.294  
                 129529816.720                   129529816.720    24874844.278  
                 121557370.520                   121557370.520    23343814.257  
  23580760.396   123917723.232                                                  
 21  9  1  7 13 16.0000000  0 15G 7G 8G 9G13G14G17G21G27G30C20C23C25
                                C32C34E27
  20363302.647   107009894.380    20363301.843    83384337.159                  
  21648472.888   113763455.821    21648475.014    88646839.641                  
  22815366.261   119895520.746    22815368.620    93425071.426                  
  24071219.457   126495127.641    24071218.581    98567635.589                  
  22083197.072   116047989.472    22083197.555    90427008.284                  
  24042574.627   126344576.120    24042575.199    98450316.848                  
  23727752.409   124690179.212    23727751.676    97161178.888                  
  23908211.797   125638477.221    23908213.262    97900107.140                  
  21082928.175   110791501.422    21082929.997    86331031.684                  
                 137105416.368                   137105416.368    26329646.119  
                 117229102.686                   117229102.686    22512607.045  
                 118028013.482                   118028013.482    22666035.211  
                 129531294.653                   129531294.653    24875128.091  
                 121557518.426                   121557518.426    23343842.669  
  23580845.721   123918171.574                                                  
 21  9  1  7 13 17.0000000  0 15G 7G 8G 9G13G14G17G21G27G30C20C23C25
                                C32C34E27
  20363309.705   107009931.457    20363308.901    83384366.050                  
  21648854.088   113765459.066    21648856.232    88648400.609                  
  22816020.392   119898958.277    22816022.769    93427750.019                  
  24070609.158   126491920.445    24070608.283    98565136.473                  
  22082778.222   116045788.410    22082778.722    90425293.173                  
  24041877.128   126340910.671    24041877.699    98447460.652                  
  23727391.026   124688280.104    23727390.293    97159699.061                  
  23908858.405   125641875.090    23908859.853    97902754.828                  
  21082590.986   110789729.391    21082592.773    86329650.878                  
                 137104374.641                   137104374.641    26329446.057  
                 117227950.235                   117227950.235    22512385.719  
                 118029184.953                   118029184.953    22666260.182  
                 129532773.016                   129532773.016    24875411.994  
                 121557666.903                   121557666.903    23343871.188  
  23580931.081   123918620.058                                                  
 21  9  1  7 13 18.0000000  0 15G 7G 8G 9G13G14G17G21G27G30C20C23C25
                                C32C34E27
  20363316.835   107009968.939    20363316.048    83384395.259                  
  21649235.395   113767462.869    21649237.539    88649962.012                  
  22816674.595   119902396.062    22816676.954    93430428.809                  
  24069998.896   126488713.559    24069998.020    98562637.599                  
  22082359.426   116043587.620    22082359.926    90423578.270                  
  24041179.628   126337245.331    24041180.200    98444604.543                  
  23727029.678   124686381.325    23727028.963    97158219.491                  
  23909505.031   125645273.275    23909506.497    97905402.762                  
  21082253.815   110787957.653    21082255.638    86328270.301                  
                 137103333.415                   137103333.415    26329246.121  
                 117226797.960                   117226797.960    22512164.447  
                 118030356.637                   118030356.637    22666485.207  
                 129534251.813                   129534251.813    24875696.005  
                 121557815.952                   121557815.952    23343899.796  
  23581016.441   123919068.700                                                  
 21  9  1  7 13 19.0000000  0 15G 7G 8G 9G13G14G17G21G27G30C20C23C25
                                C32C34E27
  20363324.036   107010006.825    20363323.232    83384424.774                  
  21649616.809   113769467.208    21649618.953    88651523.833                  
  22817328.834   119905834.103    22817331.192    93433107.792                  
  24069388.722   126485506.973    24069387.829    98560138.958                  
  22081940.683   116041387.110    22081941.184    90421863.582                  
  24040482.164   126333580.114    24040482.736    98441748.523                  
  23726668.420   124684482.875    23726667.705    97156740.175                  
  23910151.765   125648671.742    23910153.212    97908050.913                  
  21081916.734   110786186.215    21081918.539    86326889.957                  
                 137102292.694                   137102292.694    26329046.255  
                 117225645.875                   117225645.875    22511943.193  
                 118031528.536                   118031528.536    22666710.231  
                 129535731.040                   129535731.040    24875980.069  
                 121557965.578                   121557965.578    23343928.547  
  23581101.838   123919517.486                                                  
 21  9  1  7 13 20.0000000  0 15G 7G 8G 9G13G14G17G21G27G30C20C23C25
                                C32C34E27
  20363331.344   107010045.117    20363330.540    83384454.614                  
  21649998.313   113771472.097    21650000.475    88653086.081                  
  22817983.126   119909272.399    22817985.484    93435786.984                  
  24068778.584   126482300.692    24068777.709    98557640.555                  
  22081521.994   116039186.875    22081522.477    90420149.113                  
  24039784.719   126329915.011    24039785.272    98438892.598                  
  23726307.216   124682584.754    23726306.501    97155261.121                  
  23910798.516   125652070.517    23910799.982    97910699.309                  
  21081579.689   110784415.052    21081581.493    86325509.828                  
                 137101252.480                   137101252.480    26328846.480  
                 117224493.970                   117224493.970    22511721.974  
                 118032700.650                   118032700.650    22666935.345  
                 129537210.695                   129537210.695    24876264.222  
                 121558115.778                   121558115.778    23343957.388  
  23581187.287   123919966.427                                                  
 21  9  1  7 13 21.0000000  0 15G 7G 8G 9G13G14G17G21G27G30C20C23C25
                                C32C34E27
  20363338.706   107010083.805    20363337.902    83384484.758                  
  21650379.941   113773477.528    21650382.103    88654648.755                  
  22818637.454   119912710.945    22818639.812    93438466.370                  
  24068168.500   126479094.710    24068167.624    98555142.387                  
  22081103.359   116036986.919    22081103.841    90418434.859                  
  24039087.273   126326250.009    24039087.862    98436036.754                  
  23725946.083   124680686.958    23725945.368    97153782.319                  
  23911445.339   125655469.585    23911446.805    97913347.934                  
  21081242.697   110782644.192    21081244.519    86324129.937                  
                 137100212.768                   137100212.768    26328646.811  
                 117223342.245                   117223342.245    22511500.791  
                 118033872.976                   118033872.976    22667160.477  
                 129538690.785                   129538690.785    24876548.464  
                 121558266.544                   121558266.544    23343986.336  
  23581272.737   123920415.509                                                  
 21  9  1  7 13 22.0000000  0 15G 7G 8G 9G13G14G17G21G27G30C20C23C25
                                C32C34E27
  20363346.140   107010122.903    20363345.336    83384515.222                  
  21650761.677   113775483.514    21650763.822    88656211.859                  
  22819291.835   119916149.751    22819294.194    93441145.958                  
  24067558.487   126475889.028    24067557.594    98552644.450                  
  22080684.777   116034787.239    22080685.259    90416720.825                  
  24038389.880   126322585.132    24038390.452    98433181.004                  
  23725585.003   124678789.488    23725584.289    97152303.774                  
  23912092.216   125658868.953    23912093.681    97915996.792                  
  21080905.776   110780873.616    21080907.581    86322750.274                  
                 137099173.566                   137099173.566    26328447.268  
                 117222190.707                   117222190.707    22511279.662  
                 118035045.515                   118035045.515    22667385.645  
                 129540171.309                   129540171.309    24876832.778  
                 121558417.887                   121558417.887    23344015.409  
  23581358.222   123920864.744                                                  
 21  9  1  7 13 23.0000000  0 15G 7G 8G 9G13G14G17G21G27G30C20C23C25
                                C32C34E27
  20363353.663   107010162.398    20363352.841    83384546.000                  
  21651143.503   113777490.046    21651145.665    88657775.390                  
  22819946.288   119919588.805    22819948.629    93443825.742                  
  24066948.528   126472683.654    24066947.635    98550146.754                  
  22080266.249   116032587.832    22080266.713    90415006.999                  
  24037692.506   126318920.364    24037693.078    98430325.343                  
  23725223.996   124676892.340    23725223.281    97150825.477                  
  23912739.164   125662268.629    23912740.611    97918645.890                  
  21080568.892   110779103.339    21080570.714    86321370.836                  
                 137098134.866                   137098134.866    26328247.778  
                 117221039.351                   117221039.351    22511058.569  
                 118036218.268                   118036218.268    22667610.866  
                 129541652.258                   129541652.258    24877117.182  
                 121558569.801                   121558569.801    23344044.553  
  23581443.743   123921314.128                                                  
 21  9  1  7 13 24.0000000  0 15G 7G 8G 9G13G14G17G21G27G30C20C23C25
                                C32C34E27
  20363361.239   107010202.301    20363360.435    83384577.095                  
  21651525.435   113779497.141    21651527.579    88659339.362                  
  22820600.759   119923028.122    22820603.100    93446505.727                  
  24066338.623   126469478.570    24066337.711    98547649.288                  
  22079847.756   116030388.706    22079848.238    90413293.399                  
  24036995.132   126315255.716    24036995.721    98427469.773                  
  23724863.041   124674995.507    23724862.327    97149347.425                  
  23913386.148   125665668.589    23913387.595    97921295.210                  
  21080232.078   110777333.350    21080233.901    86319991.624                  
                 137097096.672                   137097096.672    26328048.414  
                 117219888.176                   117219888.176    22510837.475  
                 118037391.237                   118037391.237    22667836.123  
                 129543133.639                   129543133.639    24877401.657  
                 121558722.284                   121558722.284    23344073.858  
  23581529.282   123921763.668                                                  
 21  9  1  7 13 25.0000000  0 15G 7G 8G 9G13G14G17G21G27G30C20C23C25
                                C32C34E27
  20363368.923   107010242.602    20363368.119    83384608.496                  
  21651907.475   113781504.806    21651909.637    88660903.776                  
  22821255.283   119926467.683    22821257.642    93449185.907                  
  24065728.753   126466273.797    24065727.877    98545152.063                  
  22079429.317   116028189.851    22079429.817    90411580.003                  
  24036297.793   126311591.171    24036298.383    98424614.286                  
  23724502.141   124673098.999    23724501.426    97147869.629                  
  23914033.203   125669068.843    23914034.668    97923944.761                  
  21079895.319   110775563.652    21079897.141    86318612.636                  
                 137096058.985                   137096058.985    26327849.138  
                 117218737.187                   117218737.187    22510616.453  
                 118038564.418                   118038564.418    22668061.415  
                 129544615.457                   129544615.457    24877686.221  
                 121558875.347                   121558875.347    23344103.235  
  23581614.857   123922213.352                                                  
 21  9  1  7 13 26.0000000  0 15G 7G 8G 9G13G14G17G21G27G30C20C23C25
                                C32C34E27
  20363376.660   107010283.309    20363375.856    83384640.216                  
  21652289.640   113783513.022    21652291.784    88662468.620                  
  22821909.861   119929907.496    22821912.220    93451866.278                  
  24065118.973   126463069.318    24065118.079    98542655.063                  
  22079010.968   116025991.271    22079011.432    90409866.824                  
  24035600.472   126307926.749    24035601.062    98421758.894                  
  23724141.311   124671202.820    23724140.597    97146392.085                  
  23914680.294   125672469.400    23914681.759    97926594.543                  
  21079558.613   110773794.238    21079560.418    86317233.872                  
                 137095021.800                   137095021.800    26327649.952  
                 117217586.378                   117217586.378    22510395.431  
                 118039737.818                   118039737.818    22668286.762  
                 129546097.700                   129546097.700    24877970.874  
                 121559028.976                   121559028.976    23344132.737  
  23581700.468   123922663.185                                                  
 21  9  1  7 13 27.0000000  0 15G 7G 8G 9G13G14G17G21G27G30C20C23C25
                                C32C34E27
  20363384.487   107010324.418    20363383.683    83384672.251                  
  21652671.894   113785521.796    21652674.038    88664033.898                  
  22822564.475   119933347.562    22822566.834    93454546.849                  
  24064509.246   126459865.138    24064508.352    98540158.300                  
  22078592.618   116023792.964    22078593.118    90408153.860                  
  24034903.187   126304262.439    24034903.759    98418903.583                  
  23723780.536   124669306.964    23723779.821    97144914.797                  
  23915327.456   125675870.249    23915328.921    97929244.555                  
  21079221.960   110772025.130    21079223.783    86315855.348                  
                 137093985.121                   137093985.121    26327450.856  
                 117216435.753                   117216435.753    22510174.481  
                 118040911.426                   118040911.426    22668512.144  
                 129547580.375                   129547580.375    24878255.599  
                 121559183.184                   121559183.184    23344162.363  
  23581786.078   123923113.165                                                  
 21  9  1  7 13 28.0000000  0 15G 7G 8G 9G13G14G17G21G27G30C20C23C25
                                C32C34E27
  20363392.385   107010365.926    20363391.581    83384704.595                  
  21653054.255   113787531.118    21653056.399    88665599.606                  
  22823219.160   119936787.883    22823221.501    93457227.614                  
  24063899.555   126456661.257    24063898.679    98537661.769                  
  22078174.358   116021594.933    22078174.840    90406441.109                  
  24034205.920   126300598.225    24034206.474    98416048.352                  
  23723419.832   124667411.431    23723419.117    97143437.758                  
  23915974.672   125679271.398    23915976.137    97931894.801                  
  21078885.362   110770256.294    21078887.184    86314477.035                  
                 137092948.948                   137092948.948    26327251.884  
                 117215285.313                   117215285.313    22509953.566  
                 118042085.250                   118042085.250    22668737.561  
                 129549063.484                   129549063.484    24878540.414  
                 121559337.956                   121559337.956    23344192.080  
  23581871.742   123923563.286                                                  
 21  9  1  7 13 29.0000000  0 15G 7G 8G 9G13G14G17G21G27G30C20C23C25
                                C32C34E27
  20363400.355   107010407.847    20363399.568    83384737.259                  
  21653436.724   113789540.995    21653438.886    88667165.747                  
  22823873.881   119940228.450    22823876.222    93459908.573                  
  24063289.935   126453457.684    24063289.060    98535165.481                  
  22077756.133   116019397.181    22077756.616    90404728.574                  
  24033508.653   126296934.144    24033509.243    98413193.226                  
  23723059.181   124665516.223    23723058.467    97141960.977                  
  23916621.942   125682672.846    23916623.407    97934545.281                  
  21078548.817   110768487.755    21078550.639    86313098.950                  
                 137091913.281                   137091913.281    26327053.002  
                 117214135.054                   117214135.054    22509732.652  
                 118043259.286                   118043259.286    22668963.015  
                 129550547.021                   129550547.021    24878825.317  
                 121559493.309                   121559493.309    23344221.921  
  23581957.424   123924013.559                                                  
 21  9  1  7 13 30.0000000  0 15G 7G 8G 9G13G14G17G21G27G30C20C23C25
                                C32C34E27
  20363408.413   107010450.168    20363407.627    83384770.233                  
  21653819.299   113791551.421    21653821.444    88668732.308                  
  22824528.638   119943669.285    22824530.997    93462589.745                  
  24062680.387   126450254.402    24062679.494    98532669.413                  
  22077337.980   116017199.707    22077338.463    90403016.257                  
  24032811.440   126293270.171    24032811.993    98410338.180                  
  23722698.602   124663621.336    23722697.887    97140484.437                  
  23917269.283   125686074.591    23917270.748    97937195.993                  
  21078212.343   110766719.524    21078214.165    86311721.110                  
                 137090878.118                   137090878.118    26326854.209  
                 117212984.981                   117212984.981    22509511.808  
                 118044433.534                   118044433.534    22669188.522  
                 129552030.987                   129552030.987    24879110.292  
                 121559649.230                   121559649.230    23344251.851  
  23582043.142   123924463.991                                                  
 21  9  1  7 13 31.0000000  0 15G 7G 8G 9G13G14G17G21G27G30C20C23C25
                                C32C34E27
  20363416.544   107010492.887    20363415.740    83384803.524                  
  21654201.964   113793562.384    21654204.127    88670299.289                  
  22825183.466   119947110.368    22825185.825    93465271.105                  
  24062070.857   126447051.423    24062069.981    98530173.587                  
  22076919.863   116015002.507    22076920.345    90401304.155                  
  24032114.226   126289606.313    24032114.798    98407483.227                  
  23722338.077   124661726.776    23722337.362    97139008.161                  
  23917916.660   125689476.632    23917918.125    97939846.934                  
  21077875.923   110764951.572    21077877.727    86310343.480                  
                 137089843.460                   137089843.460    26326655.505  
                 117211835.091                   117211835.091    22509290.983  
                 118045608.004                   118045608.004    22669414.065  
                 129553515.387                   129553515.387    24879395.357  
                 121559805.723                   121559805.723    23344281.925  
  23582128.877   123924914.561                                                  
 21  9  1  7 13 32.0000000  0 15G 7G 8G 9G13G14G17G21G27G30C20C23C25
                                C32C34E27
  20363424.746   107010536.012    20363423.942    83384837.130                  
  21654584.737   113795573.896    21654586.899    88671866.703                  
  22825838.312   119950551.702    22825840.671    93467952.668                  
  24061461.416   126443848.751    24061460.540    98527677.996                  
  22076501.799   116012805.582    22076502.282    90399592.266                  
  24031417.048   126285942.575    24031417.602    98404628.364                  
  23721977.623   124659832.540    23721976.908    97137532.133                  
  23918564.126   125692878.970    23918565.573    97942498.106                  
  21077539.538   110763183.919    21077541.343    86308966.090                  
                 137088809.308                   137088809.308    26326456.891  
                 117210685.378                   117210685.378    22509070.175  
                 118046782.680                   118046782.680    22669639.643  
                 129555000.215                   129555000.215    24879680.529  
                 121559962.789                   121559962.789    23344312.088  
  23582214.649   123925365.293                                                  
 21  9  1  7 13 33.0000000  0 15G 7G 8G 9G13G14G17G21G27G30C20C23C25
                                C32C34E27
  20363433.037   107010579.539    20363432.215    83384871.042                  
  21654967.616   113797585.974    21654969.779    88673434.554                  
  22826493.248   119953993.284    22826495.607    93470634.418                  
  24060852.029   126440646.370    24060851.135    98525182.637                  
  22076083.771   116010608.933    22076084.272    90397880.589                  
  24030719.853   126282278.936    24030720.442    98401773.586                  
  23721617.223   124657938.632    23721616.508    97136056.363                  
  23919211.592   125696281.600    23919213.057    97945149.504                  
  21077203.225   110761416.550    21077205.012    86307588.922                  
                 137087775.659                   137087775.659    26326258.402  
                 117209535.855                   117209535.855    22508849.439  
                 118047957.573                   118047957.573    22669865.275  
                 129556485.472                   129556485.472    24879965.736  
                 121560120.431                   121560120.431    23344342.340  
  23582300.438   123925816.159                                                  
 21  9  1  7 13 34.0000000  0 15G 7G 8G 9G13G14G17G21G27G30C20C23C25
                                C32C34E27
  20363441.382   107010623.464    20363440.578    83384905.274                  
  21655350.621   113799598.618    21655352.783    88675002.851                  
  22827148.201   119957435.128    22827150.560    93473316.374                  
  24060242.695   126437444.294    24060241.801    98522687.512                  
  22075665.833   116008412.566    22075666.315    90396169.137                  
  24030022.728   126278615.427    24030023.300    98398918.903                  
  23721256.876   124656045.053    23721256.161    97134580.847                  
  23919859.165   125699684.525    23919860.613    97947801.134                  
  21076866.966   110759649.481    21076868.753    86306211.985                  
                 137086742.519                   137086742.519    26326060.002  
                 117208386.512                   117208386.512    22508628.721  
                 118049132.679                   118049132.679    22670090.943  
                 129557971.163                   129557971.163    24880251.069  
                 121560278.640                   121560278.640    23344372.735  
  23582386.263   123926267.172                                                  
 21  9  1  7 13 35.0000000  0 15G 7G 8G 9G13G14G17G21G27G30C20C23C25
                                C32C34E27
  20363449.816   107010667.798    20363449.012    83384939.816                  
  21655733.715   113801611.814    21655735.877    88676571.575                  
  22827803.208   119960877.216    22827805.567    93475998.520                  
  24059633.415   126434242.514    24059632.539    98520192.617                  
  22075247.948   116006216.466    22075248.412    90394457.890                  
  24029325.604   126274952.027    24029326.176    98396064.305                  
  23720896.601   124654151.788    23720895.886    97133105.573                  
  23920506.774   125703087.745    23920508.240    97950452.996                  
  21076530.761   110757882.708    21076532.565    86304835.277                  
                 137085709.882                   137085709.882    26325861.692  
                 117207237.352                   117207237.352    22508408.021  
                 118050308.001                   118050308.001    22670316.647  
                 129559457.285                   129559457.285    24880536.437  
                 121560437.425                   121560437.425    23344403.220  
  23582472.124   123926718.349                                                  
 21  9  1  7 13 36.0000000  0 15G 7G 8G 9G13G14G17G21G27G30C20C23C25
                                C32C34E27
  20363458.339   107010712.528    20363457.535    83384974.672                  
  21656116.916   113803625.544    21656119.078    88678140.715                  
  22828458.269   119964319.556    22828460.627    93478680.859                  
  24059024.206   126431041.034    24059023.295    98517697.957                  
  22074830.081   116004020.645    22074830.563    90392746.860                  
  24028628.498   126271288.732    24028629.088    98393209.790                  
  23720536.379   124652258.852    23720535.664    97131630.558                  
  23921154.437   125706491.274    23921155.902    97953105.094                  
  21076194.608   110756116.214    21076196.395    86303458.793                  
                 137084677.754                   137084677.754    26325663.489  
                 117206088.378                   117206088.378    22508187.374  
                 118051483.534                   118051483.534    22670542.404  
                 129560943.836                   129560943.836    24880821.913  
                 121560596.782                   121560596.782    23344433.812  
  23582558.002   123927169.661                                                  
 21  9  1  7 13 37.0000000  0 15G 7G 8G 9G13G14G17G21G27G30C20C23C25
                                C32C34E27
  20363466.917   107010757.657    20363466.113    83385009.835                  
  21656500.242   113805639.849    21656502.387    88679710.301                  
  22829113.365   119967762.145    22829115.724    93481363.396                  
  24058415.033   126427839.865    24058414.140    98515203.539                  
  22074412.285   116001825.102    22074412.768    90391036.048                  
  24027931.427   126267625.554    24027931.999    98390355.368                  
  23720176.247   124650366.238    23720175.514    97130155.796                  
  23921802.171   125709895.091    23921803.637    97955757.419                  
  21075858.492   110754350.017    21075860.315    86302082.530                  
                 137083646.129                   137083646.129    26325465.375  
                 117204939.587                   117204939.587    22507966.763  
                 118052659.286                   118052659.286    22670768.179  
                 129562430.813                   129562430.813    24881107.477  
                 121560756.710                   121560756.710    23344464.546  
  23582643.916   123927621.129                                                  
 21  9  1  7 13 38.0000000  0 15G 7G 8G 9G13G14G17G21G27G30C20C23C25
                                C32C34E27
  20363475.601   107010803.188    20363474.779    83385045.316                  
  21656883.640   113807654.703    21656885.802    88681280.319                  
  22829768.515   119971204.984    22829770.873    93484046.125                  
  24057805.914   126424638.995    24057805.039    98512709.355                  
  22073994.543   115999629.832    22073995.026    90389325.448                  
  24027234.357   126263962.497    24027234.946    98387501.031                  
  23719816.132   124648473.953    23719815.418    97128681.288                  
  23922449.959   125713299.200    23922451.425    97958409.972                  
  21075522.465   110752584.110    21075524.288    86300706.499                  
                 137082615.013                   137082615.013    26325267.368  
                 117203790.976                   117203790.976    22507746.188  
                 118053835.247                   118053835.247    22670994.026  
                 129563918.225                   129563918.225    24881393.114  
                 121560917.210                   121560917.210    23344495.353  
  23582729.866   123928072.741                                                  
 21  9  1  7 13 39.0000000  0 15G 7G 8G 9G13G14G17G21G27G30C20C23C25
                                C32C34E27
  20363484.339   107010849.124    20363483.535    83385081.110                  
  21657267.163   113809670.120    21657269.325    88682850.777                  
  22830423.718   119974648.086    22830426.077    93486729.062                  
  24057196.884   126421438.430    24057196.009    98510215.406                  
  22073576.837   115997434.836    22073577.319    90387615.063                  
  24026537.322   126260299.551    24026537.894    98384646.790                  
  23719456.125   124646582.003    23719455.392    97127207.044                  
  23923097.783   125716703.610    23923099.248    97961062.758                  
  21075186.474   110750818.499    21075188.279    86299330.698                  
                 137081584.394                   137081584.394    26325069.433  
                 117202642.552                   117202642.552    22507525.649  
                 118055011.423                   118055011.423    22671219.908  
                 129565406.065                   129565406.065    24881678.839  
                 121561078.286                   121561078.286    23344526.302  
  23582815.816   123928524.496                                                  
 21  9  1  7 13 40.0000000  0 20G 7G 8G 9G13G14G17G21G27G30C20C23C25
                                C32C34E 7E15E19E21E27E30
  20363493.166   107010895.464    20363492.344    83385117.218                  
  21657650.793   113811686.086    21657652.937    88684421.657                  
  22831078.957   119978091.433    22831081.316    93489412.187                  
  24056587.872   126418238.165    24056586.997    98507721.695                  
  22073159.202   115995240.121    22073159.684    90385904.898                  
  24025840.323   126256636.723    24025840.877    98381792.640                  
  23719096.154   124644690.378    23719095.439    97125733.050                  
  23923745.678   125720108.315    23923747.143    97963715.778                  
  21074850.536   110749053.185    21074852.359    86297955.129                  
                 137080554.290                   137080554.290    26324871.623  
                 117201494.308                   117201494.308    22507305.145  
                 118056187.812                   118056187.812    22671445.808  
                 129566894.335                   129566894.335    24881964.654  
                 121561239.929                   121561239.929    23344557.340  
  27159459.726   142723891.394                                                  
  26169828.436   137523342.497                                                  
  25204972.494   132453017.278                                                  
  25356279.607   133248124.024                                                  
  23582901.820   123928976.410                                                  
  25733088.447   135228270.270                                                  
 21  9  1  7 13 41.0000000  0 20G 7G 8G 9G13G14G17G21G27G30C20C23C25
                                C32C34E 7E15E19E21E27E30
  20363502.047   107010942.210    20363501.243    83385153.645                  
  21658034.513   113813702.607    21658036.675    88685992.972                  
  22831734.268   119981535.034    22831736.627    93492095.513                  
  24055978.967   126415038.207    24055978.074    98505228.220                  
  22072741.621   115993045.678    22072742.103    90384194.941                  
  24025143.324   126252974.012    24025143.895    98378938.577                  
  23718736.236   124642799.071    23718735.521    97124259.304                  
  23924393.644   125723513.317    23924395.092    97966369.024                  
  21074514.688   110747288.155    21074516.475    86296579.786                  
                 137079524.689                   137079524.689    26324673.902  
                 117200346.247                   117200346.247    22507084.659  
                 118057364.418                   118057364.418    22671671.762  
                 129568383.036                   129568383.036    24882250.541  
                 121561402.148                   121561402.148    23344588.486  
  27160051.012   142726998.684                                                  
  26169405.762   137521121.345                                                  
  25204824.717   132452240.735                                                  
  25355990.611   133246605.386                                                  
  23582987.841   123929428.468                                                  
  25733481.602   135230336.397                                                  
 21  9  1  7 13 42.0000000  0 20G 7G 8G 9G13G14G17G21G27G30C20C23C25
                                C32C34E 7E15E19E21E27E30
  20363511.017   107010989.358    20363510.213    83385190.384                  
  21658418.357   113815719.659    21658420.501    88687564.698                  
  22832389.597   119984978.891    22832391.955    93494779.035                  
  24055370.080   126411838.540    24055369.205    98502734.973                  
  22072324.075   115990851.512    22072324.558    90382485.203                  
  24024446.360   126249311.406    24024446.914    98376084.601                  
  23718376.407   124640908.089    23718375.675    97122785.812                  
  23925041.647   125726918.606    23925043.094    97969022.496                  
  21074178.858   110745523.413    21074180.662    86295204.660                  
                 137078495.590                   137078495.590    26324476.253  
                 117199198.372                   117199198.372    22506864.227  
                 118058541.234                   118058541.234    22671897.752  
                 129569872.167                   129569872.167    24882536.517  
                 121561564.942                   121561564.942    23344619.757  
  27160642.316   142730106.027                                                  
  26168983.142   137518900.446                                                  
  25204677.047   132451464.661                                                  
  25355701.651   133245086.882                                                  
  23583073.899   123929880.675                                                  
  25733874.774   135232402.525                                                  
 21  9  1  7 13 43.0000000  0 20G 7G 8G 9G13G14G17G21G27G30C20C23C25
                                C32C34E 7E15E19E21E27E30
  20363520.059   107011036.905    20363519.255    83385227.433                  
  21658802.309   113817737.262    21658804.435    88689136.859                  
  22833044.997   119988422.992    22833047.355    93497462.750                  
  24054761.265   126408639.176    24054760.371    98500241.961                  
  22071906.601   115988657.628    22071907.084    90380775.680                  
  24023749.397   126245648.927    24023749.987    98373230.719                  
  23718016.614   124639017.438    23718015.900    97121312.578                  
  23925689.702   125730324.186    23925691.168    97971676.199                  
  21073843.099   110743758.973    21073844.903    86293829.769                  
                 137077466.995                   137077466.995    26324278.747  
                 117198050.680                   117198050.680    22506643.812  
                 118059718.271                   118059718.271    22672123.795  
                 129571361.728                   129571361.728    24882822.582  
                 121561728.304                   121561728.304    23344651.117  
  27161233.637   142733213.403                                                  
  26168560.558   137516679.840                                                  
  25204529.467   132450689.039                                                  
  25355412.727   133243568.519                                                  
  23583159.974   123930333.038                                                  
  25734267.946   135234468.667                                                  
 21  9  1  7 13 44.0000000  0 20G 7G 8G 9G13G14G17G21G27G30C20C23C25
                                C32C34E 7E15E19E21E27E30
  20363529.208   107011084.813    20363528.404    83385264.746                  
  21659186.368   113819755.277    21659188.512    88690709.278                  
  22833700.415   119991867.368    22833702.773    93500146.691                  
  24054152.485   126405440.158    24054151.592    98497749.250                  
  22071489.163   115986464.001    22071489.646    90379066.359                  
  24023052.416   126241986.771    24023052.952    98370377.219                  
  23717656.929   124637127.016    23717656.196    97119839.492                  
  23926337.812   125733730.063    23926339.277    97974330.129                  
  21073507.375   110741994.792    21073509.198    86292455.073                  
                 137076438.790                   137076438.790    26324081.312  
                 117196903.187                   117196903.187    22506423.434  
                 118060895.500                   118060895.500    22672349.856  
                 129572851.632                   129572851.632    24883108.719  
                 121561892.276                   121561892.276    23344682.602  
  27161824.923   142736320.907                                                  
  26168137.973   137514459.789                                                  
  25204381.958   132449913.790                                                  
  25355123.803   133242050.239                                                  
  23583246.085   123930785.521                                                  
  25734661.100   135236534.874                                                  
 21  9  1  7 13 45.0000000  0 20G 7G 8G 9G13G14G17G21G27G30C20C23C25
                                C32C34E 7E15E19E21E27E30
  20363538.393   107011133.164    20363537.606    83385302.422                  
  21659570.498   113821773.992    21659572.660    88692282.304                  
  22834355.922   119995311.976    22834358.280    93502830.801                  
  24053543.777   126402241.415    24053542.883    98495256.728                  
  22071071.778   115984270.668    22071072.261    90377357.270                  
  24022355.524   126238324.503    24022356.060    98367523.508                  
  23717297.261   124635237.023    23717296.546    97118366.770                  
  23926985.975   125737136.250    23926987.440    97976984.297                  
  21073171.742   110740230.939    21073173.546    86291080.640                  
                 137075411.207                   137075411.207    26323883.984  
                 117195755.855                   117195755.855    22506203.126  
                 118062072.952                   118062072.952    22672575.988  
                 129574342.046                   129574342.046    24883394.945  
                 121562056.780                   121562056.780    23344714.177  
  27162416.263   142739428.356                                                  
  26167715.514   137512239.712                                                  
  25204234.539   132449139.078                                                  
  25354834.914   133240532.122                                                  
  23583332.213   123931238.166                                                  
  25735054.272   135238601.028                                                  
 21  9  1  7 13 46.0000000  0 20G 7G 8G 9G13G14G17G21G27G30C20C23C25
                                C32C34E 7E15E19E21E27E30
  20363547.667   107011181.922    20363546.881    83385340.413                  
  21659954.736   113823793.230    21659956.898    88693855.733                  
  22835011.447   119998756.831    22835013.806    93505515.106                  
  24052935.140   126399042.972    24052934.247    98492764.434                  
  22070654.447   115982077.608    22070654.948    90375648.395                  
  24021658.632   126234662.367    24021659.186    98364669.891                  
  23716937.665   124633347.359    23716936.932    97116894.304                  
  23927634.227   125740542.722    23927635.675    97979638.695                  
  21072836.143   110738467.379    21072837.966    86289706.442                  
                 137074384.126                   137074384.126    26323686.746  
                 117194608.708                   117194608.708    22505982.819  
                 118063250.620                   118063250.620    22672802.139  
                 129575832.892                   129575832.892    24883681.242  
                 121562221.854                   121562221.854    23344745.876  
  27163007.602   142742535.843                                                  
  26167293.108   137510019.910                                                  
  25204087.208   132448364.809                                                  
  25354546.062   133239014.129                                                  
  23583418.378   123931690.954                                                  
  25735447.462   135240667.187                                                  
 21  9  1  7 13 47.0000000  0 20G 7G 8G 9G13G14G17G21G27G30C20C23C25
                                C32C34E 7E15E19E21E27E30
  20363557.012   107011231.101    20363556.226    83385378.734                  
  21660339.098   113825813.043    21660341.260    88695429.616                  
  22835667.026   120002201.941    22835669.384    93508199.603                  
  24052326.539   126395844.837    24052325.663    98490272.379                  
  22070237.188   115979884.827    22070237.652    90373939.734                  
  24020961.758   126231000.339    24020962.312    98361816.368                  
  23716578.140   124631458.020    23716577.425    97115422.095                  
  23928282.498   125743949.488    23928283.963    97982293.317                  
  21072500.599   110736704.113    21072502.422    86288332.469                  
                 137073357.555                   137073357.555    26323489.597  
                 117193461.746                   117193461.746    22505762.566  
                 118064428.509                   118064428.509    22673028.361  
                 129577324.163                   129577324.163    24883967.611  
                 121562387.504                   121562387.504    23344777.701  
  27163598.942   142745643.383                                                  
  26166870.738   137507800.375                                                  
  25203939.968   132447591.039                                                  
  25354257.227   133237496.283                                                  
  23583504.578   123932143.904                                                  
  25735840.634   135242733.359                                                  
 21  9  1  7 13 48.0000000  0 20G 7G 8G 9G13G14G17G21G27G30C20C23C25
                                C32C34E 7E15E19E21E27E30
  20363566.465   107011280.672    20363565.661    83385417.364                  
  21660723.568   113827833.399    21660725.712    88697003.917                  
  22836322.658   120005647.309    22836325.017    93510884.305                  
  24051718.027   126392646.990    24051717.116    98487780.547                  
  22069819.964   115977692.324    22069820.447    90372231.288                  
  24020264.920   126227338.432    24020265.473    98358962.934                  
  23716218.651   124629569.001    23716217.936    97113950.132                  
  23928930.839   125747356.570    23928932.305    97984948.185                  
  21072165.126   110734941.149    21072166.913    86286958.726                  
                 137072331.493                   137072331.493    26323292.555  
                 117192314.970                   117192314.970    22505542.348  
                 118065606.610                   118065606.610    22673254.600  
                 129578815.870                   129578815.870    24884254.105  
                 121562553.730                   121562553.730    23344809.615  
  27164190.299   142748750.970                                                  
  26166448.439   137505581.114                                                  
  25203792.798   132446817.692                                                  
  25353968.428   133235978.571                                                  
  23583590.796   123932596.991                                                  
  25736233.824   135244799.548                                                  
 21  9  1  7 13 49.0000000  0 20G 7G 8G 9G13G14G17G21G27G30C20C23C25
                                C32C34E 7E15E19E21E27E30
  20363575.953   107011330.640    20363575.167    83385456.297                  
  21661108.127   113829854.298    21661110.272    88698578.644                  
  22836978.344   120009092.918    22836980.703    93513569.195                  
  24051109.533   126389449.453    24051108.658    98485288.965                  
  22069402.776   115975500.098    22069403.276    90370523.062                  
  24019568.099   126223676.625    24019568.635    98356109.575                  
  23715859.252   124627680.320    23715858.537    97112478.434                  
  23929579.235   125750763.934    23929580.700    97987603.273                  
  21071829.689   110733178.464    21071831.493    86285585.208                  
                 137071305.933                   137071305.933    26323095.603  
                 117191168.378                   117191168.378    22505322.148  
                 118066784.926                   118066784.926    22673480.876  
                 129580308.008                   129580308.008    24884540.635  
                 121562720.531                   121562720.531    23344841.654  
  27164781.657   142751858.583                                                  
  26166026.176   137503362.125                                                  
  25203645.719   132446044.832                                                  
  25353679.646   133234460.980                                                  
  23583677.068   123933050.223                                                  
  25736627.014   135246865.743                                                  
 21  9  1  7 13 50.0000000  0 20G 7G 8G 9G13G14G17G21G27G30C20C23C25
                                C32C34E 7E15E19E21E27E30
  20363585.531   107011381.004    20363584.745    83385495.547                  
  21661492.776   113831875.749    21661494.956    88700153.804                  
  22837634.065   120012538.773    22837636.424    93516254.277                  
  24050501.147   126386252.222    24050500.236    98482797.614                  
  22068985.659   115973308.141    22068986.160    90368815.046                  
  24018871.314   126220014.953    24018871.868    98353256.324                  
  23715499.923   124625791.970    23715499.209    97111006.993                  
  23930227.702   125754171.595    23930229.167    97990258.593                  
  21071494.323   110731416.070    21071496.128    86284211.913                  
                 137070280.883                   137070280.883    26322898.758  
                 117190021.968                   117190021.968    22505101.984  
                 118067963.452                   118067963.452    22673707.205  
                 129581800.573                   129581800.573    24884827.272  
                 121562887.900                   121562887.900    23344873.801  
  27165373.014   142754966.249                                                  
  26165603.967   137501143.406                                                  
  25203498.746   132445272.435                                                  
  25353390.883   133232943.530                                                  
  23583763.339   123933503.613                                                  
  25737020.204   135248931.938                                                  
 21  9  1  7 13 51.0000000  0 20G 7G 8G 9G13G14G17G21G27G30C20C23C25
                                C32C34E 7E15E19E21E27E30
  20363595.198   107011431.773    20363594.394    83385535.109                  
  21661877.568   113833897.769    21661879.712    88701729.407                  
  22838289.841   120015984.884    22838292.182    93518939.558                  
  24049892.778   126383055.293    24049891.885    98480306.505                  
  22068568.596   115971116.457    22068569.079    90367107.245                  
  24018174.548   126216353.375    24018175.084    98350403.153                  
  23715140.613   124623903.905    23715139.898    97109535.782                  
  23930876.204   125757579.540    23930877.652    97992914.140                  
  21071158.993   110729653.960    21071160.797    86282838.848                  
                 137069256.341                   137069256.341    26322702.002  
                 117188875.762                   117188875.762    22504881.873  
                 118069142.178                   118069142.178    22673933.552  
                 129583293.586                   129583293.586    24885113.998  
                 121563055.864                   121563055.864    23344906.054  
  27165964.425   142758073.979                                                  
  26165181.811   137498924.957                                                  
  25203351.845   132444500.481                                                  
  25353102.137   133231426.212                                                  
  23583849.647   123933957.149                                                  
  25737413.394   135250998.148                                                  
 21  9  1  7 13 52.0000000  0 20G 7G 8G 9G13G14G17G21G27G30C20C23C25
                                C32C34E 7E15E19E21E27E30
  20363604.937   107011482.950    20363604.133    83385574.992                  
  21662262.466   113835920.349    21662264.628    88703305.445                  
  22838945.652   120019431.247    22838948.028    93521625.040                  
  24049284.481   126379858.663    24049283.587    98477815.629                  
  22068151.605   115968925.055    22068152.087    90365399.664                  
  24017477.781   126212691.925    24017478.317    98347550.078                  
  23714781.392   124622016.168    23714780.677    97108064.821                  
  23931524.778   125760987.781    23931526.226    97995569.919                  
  21070823.734   110727892.152    21070825.539    86281466.013                  
                 137068232.302                   137068232.302    26322505.335  
                 117187729.722                   117187729.722    22504661.780  
                 118070321.140                   118070321.140    22674159.988  
                 129584787.011                   129584787.011    24885400.796  
                 121563224.378                   121563224.378    23344938.415  
  27166555.801   142761181.704                                                  
  26164759.727   137496706.778                                                  
  25203205.033   132443729.015                                                  
  25352813.427   133229909.023                                                  
  23583935.972   123934410.832                                                  
  25737806.584   135253064.375                                                  
 21  9  1  7 13 53.0000000  0 20G 7G 8G 9G13G14G17G21G27G30C20C23C25
                                C32C34E 7E15E19E21E27E30
  20363614.765   107011534.523    20363613.961    83385615.181                  
  21662647.437   113837943.446    21662649.599    88704881.891                  
  22839601.516   120022877.847    22839603.875    93524310.708                  
  24048676.237   126376662.345    24048675.344    98475324.991                  
  22067734.631   115966733.917    22067735.114    90363692.288                  
  24016781.068   126209030.585    24016781.604    98344697.090                  
  23714422.243   124620128.757    23714421.528    97106594.118                  
  23932173.406   125764396.316    23932174.836    97998225.923                  
  21070488.511   110726130.641    21070490.334    86280093.411                  
                 137067208.767                   137067208.767    26322308.776  
                 117186583.863                   117186583.863    22504441.741  
                 118071500.311                   118071500.311    22674386.424  
                 129586280.864                   129586280.864    24885687.665  
                 121563393.465                   121563393.465    23344970.883  
  27167147.176   142764289.485                                                  
  26164337.661   137494488.884                                                  
  25203058.328   132442957.980                                                  
  25352524.736   133228391.966                                                  
  23584022.333   123934864.657                                                  
  25738199.774   135255130.597                                                  
 21  9  1  7 13 54.0000000  0 20G 7G 8G 9G13G14G17G21G27G30C20C23C25
                                C32C34E 7E15E19E21E27E30
  20363624.646   107011586.495    20363623.842    83385655.683                  
  21663032.514   113839967.094    21663034.676    88706458.765                  
  22840257.435   120026324.718    22840259.793    93526996.583                  
  24048068.065   126373466.317    24048067.154    98472834.587                  
  22067317.711   115964543.055    22067318.194    90361985.130                  
  24016084.336   126205369.359    24016084.873    98341844.191                  
  23714063.147   124618241.672    23714062.414    97105123.665                  
  23932822.087   125767805.142    23932823.517    98000882.157                  
  21070153.378   110724369.409    21070155.182    86278721.027                  
                 137066185.737                   137066185.737    26322112.324  
                 117185438.192                   117185438.192    22504221.720  
                 118072679.695                   118072679.695    22674612.896  
                 129587775.148                   129587775.148    24885974.642  
                 121563563.125                   121563563.125    23345003.458  
  27167738.605   142767397.309                                                  
  26163915.666   137492271.254                                                  
  25202911.695   132442187.417                                                  
  25352236.079   133226875.026                                                  
  23584108.712   123935318.633                                                  
  25738592.964   135257196.827                                                  
 21  9  1  7 13 55.0000000  0 20G 7G 8G 9G13G14G17G21G27G30C20C23C25
                                C32C34E 7E15E19E21E27E30
  20363634.617   107011638.875    20363633.813    83385696.496                  
  21663417.717   113841991.324    21663419.879    88708036.087                  
  22840913.406   120029771.808    22840915.765    93529682.630                  
  24047459.946   126370270.617    24047459.035    98470344.429                  
  22066900.880   115962352.489    22066901.363    90360278.191                  
  24015387.659   126201708.247    24015388.195    98338991.379                  
  23713704.104   124616354.919    23713703.372    97103653.465                  
  23933470.804   125771214.261    23933472.252    98003538.613                  
  21069818.280   110722608.484    21069820.103    86277348.878                  
                 137065163.219                   137065163.219    26321915.961  
                 117184292.699                   117184292.699    22504001.734  
                 118073859.296                   118073859.296    22674839.440  
                 129589269.859                   129589269.859    24886261.672  
                 121563733.361                   121563733.361    23345036.159  
  27168329.998   142770505.198                                                  
  26163493.725   137490053.894                                                  
  25202765.133   132441417.315                                                  
  25351947.441   133225358.245                                                  
  23584195.144   123935772.769                                                  
  25738986.154   135259263.083                                                  
 21  9  1  7 13 56.0000000  0 20G 7G 8G 9G13G14G17G21G27G30C20C23C25
                                C32C34E 7E15E19E21E27E30
  20363644.660   107011691.657    20363643.856    83385737.630                  
  21663803.026   113844016.111    21663805.188    88709613.840                  
  22841569.414   120033219.175    22841571.755    93532368.887                  
  24046851.864   126367075.199    24046850.988    98467854.495                  
  22066484.086   115960162.179    22066484.568    90358571.458                  
  24014690.999   126198047.252    24014691.536    98336138.656                  
  23713345.116   124614468.500    23713344.401    97102183.530                  
  23934119.593   125774623.676    23934121.058    98006195.296                  
  21069483.236   110720847.845    21069485.058    86275976.953                  
                 137064141.204                   137064141.204    26321719.706  
                 117183147.394                   117183147.394    22503781.802  
                 118075039.110                   118075039.110    22675066.001  
                 129590765.000                   129590765.000    24886548.791  
                 121563904.163                   121563904.163    23345068.966  
  27168921.427   142773613.116                                                  
  26163071.819   137487836.812                                                  
  25202618.696   132440647.677                                                  
  25351658.838   133223841.587                                                  
  23584281.594   123936227.039                                                  
  25739379.362   135261329.340                                                  
 21  9  1  7 13 57.0000000  0 20G 7G 8G 9G13G14G17G21G27G30C20C23C25
                                C32C34E 7E15E19E21E27E30
  20363654.774   107011744.835    20363653.987    83385779.067                  
  21664188.425   113846041.423    21664190.587    88711192.008                  
  22842225.475   120036666.785    22842227.816    93535055.337                  
  24046243.852   126363880.093    24046242.959    98465364.804                  
  22066067.326   115957972.147    22066067.809    90356864.942                  
  24013994.358   126194386.373    24013994.894    98333286.020                  
  23712986.216   124612582.404    23712985.484    97100713.847                  
  23934768.435   125778033.391    23934769.900    98008852.219                  
  21069148.263   110719087.501    21069150.086    86274605.255                  
                 137063119.695                   137063119.695    26321523.522  
                 117182002.270                   117182002.270    22503561.888  
                 118076219.142                   118076219.142    22675292.616  
                 129592260.566                   129592260.566    24886836.000  
                 121564075.544                   121564075.544    23345101.881  
  27169512.856   142776721.070                                                  
  26162649.985   137485620.001                                                  
  25202472.313   132439878.505                                                  
  25351370.254   133222325.055                                                  
  23584368.080   123936681.462                                                  
  25739772.552   135263395.603                                                  
 21  9  1  7 13 58.0000000  0 20G 7G 8G 9G13G14G17G21G27G30C20C23C25
                                C32C34E 7E15E19E21E27E30
  20363664.977   107011798.418    20363664.173    83385820.820                  
  21664573.932   113848067.296    21664576.094    88712770.610                  
  22842881.572   120040114.642    22842883.949    93537741.976                  
  24045635.894   126360685.297    24045635.019    98462875.348                  
  22065650.621   115955782.403    22065651.103    90355158.645                  
  24013297.734   126190725.604    24013298.288    98330433.475                  
  23712627.353   124610696.622    23712626.638    97099244.406                  
  23935417.348   125781443.402    23935418.796    98011509.370                  
  21068813.344   110717327.454    21068815.149    86273233.790                  
                 137062098.692                   137062098.692    26321327.463  
                 117180857.332                   117180857.332    22503342.028  
                 118077399.383                   118077399.383    22675519.284  
                 129593756.562                   129593756.562    24887123.298  
                 121564247.492                   121564247.492    23345134.903  
  27170104.285   142779829.073                                                  
  26162228.187   137483403.462                                                  
  25202326.038   132439109.782                                                  
  25351081.705   133220808.656                                                  
  23584454.584   123937136.028                                                  
  25740165.760   135265461.880                                                  
 21  9  1  7 13 59.0000000  0 20G 7G 8G 9G13G14G17G21G27G30C20C23C25
                                C32C34E 7E15E19E21E27E30
  20363675.252   107011852.406    20363674.447    83385862.886                  
  21664959.563   113850093.711    21664961.725    88714349.638                  
  22843537.741   120043562.756    22843540.081    93540428.816                  
  24045028.026   126357490.792    24045027.115    98460386.126                  
  22065233.987   115953592.926    22065234.451    90353452.559                  
  24012601.146   126187064.968    24012601.682    98327581.032                  
  23712268.561   124608811.168    23712267.846    97097775.222                  
  23936066.298   125784853.700    23936067.763    98014166.746                  
  21068478.461   110715567.686    21068480.283    86271862.544                  
                 137061078.195                   137061078.195    26321131.476  
                 117179712.574                   117179712.574    22503122.185  
                 118078579.837                   118078579.837    22675745.953  
                 129595252.991                   129595252.991    24887410.686  
                 121564420.011                   121564420.011    23345168.014  
  27170695.732   142782937.133                                                  
  26161806.442   137481187.191                                                  
  25202179.851   132438341.544                                                  
  25350793.156   133219292.391                                                  
  23584541.106   123937590.748                                                  
  25740558.968   135267528.157                                                  
 21  9  1  7 14  0.0000000  0 20G 7G 8G 9G13G14G17G21G27G30C20C23C25
                                C32C34E 7E15E19E21E27E30
  20363685.598   107011906.796    20363684.794    83385905.270                  
  21665345.284   113852120.679    21665347.446    88715929.090                  
  22844193.945   120047011.118    22844196.303    93543115.847                  
  24044420.175   126354296.595    24044419.282    98457897.141                  
  22064817.406   115951403.728    22064817.888    90351746.690                  
  24011904.558   126183404.437    24011905.094    98324728.672                  
  23711909.840   124606926.064    23711909.125    97096306.309                  
  23936715.319   125788264.292    23936716.784    98016824.348                  
  21068143.667   110713808.235    21068145.453    86270491.538                  
                 137060058.204                   137060058.204    26320935.595  
                 117178568.003                   117178568.003    22502902.378  
                 118079760.508                   118079760.508    22675972.693  
                 129596749.843                   129596749.843    24887698.127  
                 121564593.110                   121564593.110    23345201.268  
  27171287.178   142786045.195                                                  
  26161384.751   137478971.195                                                  
  25202033.736   132437573.722                                                  
  25350504.660   133217776.249                                                  
  23584627.664   123938045.613                                                  
  25740952.158   135269594.452                                                  
 21  9  1  7 14  1.0000000  0 20G 7G 8G 9G13G14G17G21G27G30C20C23C25
                                C32C34E 7E15E19E21E27E30
  20363696.015   107011961.579    20363695.211    83385947.956                  
  21665731.094   113854148.192    21665733.256    88717508.969                  
  22844850.185   120050459.723    22844852.543    93545803.074                  
  24043812.396   126351102.700    24043811.503    98455408.390                  
  22064400.861   115949214.805    22064401.344    90350041.034                  
  24011208.005   126179744.021    24011208.541    98321876.397                  
  23711551.173   124605041.273    23711550.458    97094837.644                  
  23937364.375   125791675.175    23937365.840    98019482.181                  
  21067808.908   110712049.074    21067810.695    86269120.766                  
                 137059038.719                   137059038.719    26320739.822  
                 117177423.617                   117177423.617    22502682.607  
                 118080941.389                   118080941.389    22676199.487  
                 129598247.130                   129598247.130    24887985.658  
                 121564766.774                   121564766.774    23345234.612  
  27171878.643   142789153.324                                                  
  26160963.114   137476755.469                                                  
  25201887.746   132436806.410                                                  
  25350216.165   133216260.249                                                  
  23584714.257   123938500.620                                                  
  25741345.383   135271660.755                                                  
 21  9  1  7 14  2.0000000  0 20G 7G 8G 9G13G14G17G21G27G30C20C23C25
                                C32C34E 7E15E19E21E27E30
  20363706.522   107012016.770    20363705.718    83385990.965                  
  21666117.011   113856176.256    21666119.173    88719089.281                  
  22845506.478   120053908.577    22845508.837    93548490.492                  
  24043204.689   126347909.123    24043203.777    98452919.888                  
  22063984.352   115947026.153    22063984.835    90348335.593                  
  24010511.489   126176083.722    24010512.025    98319024.219                  
  23711192.578   124603156.829    23711191.863    97093369.246                  
  23938013.521   125795086.360    23938014.986    98022140.247                  
  21067474.204   110710290.195    21067476.008    86267750.211                  
                 137058019.743                   137058019.743    26320544.139  
                 117176279.409                   117176279.409    22502462.872  
                 118082122.491                   118082122.491    22676426.298  
                 129599744.839                   129599744.839    24888273.277  
                 121564941.016                   121564941.016    23345268.081  
  27172470.126   142792261.513                                                  
  26160541.548   137474540.019                                                  
  25201741.792   132436039.539                                                  
  25349927.723   133214744.392                                                  
  23584800.886   123938955.788                                                  
  25741738.573   135273727.068                                                  
 21  9  1  7 14  3.0000000  0 20G 7G 8G 9G13G14G17G21G27G30C20C23C25
                                C32C34E 7E15E19E21E27E30
  20363717.101   107012072.366    20363716.297    83386034.286                  
  21666503.053   113858204.882    21666505.216    88720670.030                  
  22846162.825   120057357.692    22846165.184    93551178.113                  
  24042597.017   126344715.841    24042596.123    98450431.614                  
  22063567.932   115944837.788    22063568.415    90346630.378                  
  24009814.972   126172423.564    24009815.508    98316172.145                  
  23710834.036   124601272.708    23710833.321    97091901.097                  
  23938662.702   125798497.823    23938664.168    98024798.532                  
  21067139.535   110708531.618    21067141.357    86266379.891                  
                 137057001.270                   137057001.270    26320348.544  
                 117175135.390                   117175135.390    22502243.172  
                 118083303.805                   118083303.805    22676653.163  
                 129601242.981                   129601242.981    24888560.986  
                 121565115.823                   121565115.823    23345301.639  
  27173061.572   142795369.727                                                  
  26160119.999   137472324.854                                                  
  25201595.963   132435273.141                                                  
  25349639.281   133213228.667                                                  
  23584887.515   123939411.100                                                  
  25742131.799   135275793.398                                                  
 21  9  1  7 14  4.0000000  0 20G 7G 8G 9G13G14G17G21G27G30C20C23C25
                                C32C34E 7E15E19E21E27E30
  20363727.769   107012128.367    20363726.965    83386077.921                  
  21666889.203   113860234.038    21666891.365    88722251.187                  
  22846819.226   120060807.046    22846821.584    93553865.923                  
  24041989.416   126341522.862    24041988.523    98447943.583                  
  22063151.566   115942649.687    22063152.049    90344925.362                  
  24009118.473   126168763.491    24009119.027    98313320.145                  
  23710475.565   124599388.909    23710474.832    97090433.207                  
  23939311.938   125801909.586    23939313.385    98027457.046                  
  21066804.955   110706773.329    21066806.760    86265009.796                  
                 137055983.306                   137055983.306    26320153.057  
                 117173991.554                   117173991.554    22502023.526  
                 118084485.329                   118084485.329    22676880.064  
                 129602741.547                   129602741.547    24888848.785  
                 121565291.211                   121565291.211    23345335.322  
  27173653.055   142798477.980                                                  
  26159698.523   137470109.962                                                  
  25201450.205   132434507.173                                                  
  25349350.858   133211713.054                                                  
  23584974.180   123939866.562                                                  
  25742525.007   135277859.734                                                  
 21  9  1  7 14  5.0000000  0 20G 7G 8G 9G13G14G17G21G27G30C20C23C25
                                C32C34E 7E15E19E21E27E30
  20363738.508   107012184.773    20363737.704    83386121.876                  
  21667275.442   113862263.749    21667277.604    88723832.782                  
  22847475.662   120064256.645    22847478.021    93556553.918                  
  24041381.888   126338330.191    24041380.976    98445455.785                  
  22062735.218   115940461.874    22062735.701    90343220.575                  
  24008422.028   126165103.547    24008422.564    98310468.234                  
  23710117.166   124597505.454    23710116.434    97088965.577                  
  23939961.227   125805321.645    23939962.674    98030115.794                  
  21066470.411   110705015.345    21066472.216    86263639.938                  
                 137054965.844                   137054965.844    26319957.659  
                 117172847.901                   117172847.901    22501803.880  
                 118085667.071                   118085667.071    22677107.001  
                 129604240.544                   129604240.544    24889136.637  
                 121565467.169                   121565467.169    23345369.112  
  27174244.555   142801586.286                                                  
  26159277.100   137467895.339                                                  
  25201304.537   132433741.687                                                  
  25349062.487   133210197.590                                                  
  23585060.880   123940322.176                                                  
  25742918.215   135279926.087                                                  
 21  9  1  7 14  6.0000000  0 20G 7G 8G 9G13G14G17G21G27G30C20C23C25
                                C32C34E 7E15E19E21E27E30
  20363749.301   107012241.581    20363748.497    83386166.140                  
  21667661.788   113864293.997    21667663.932    88725414.793                  
  22848132.134   120067706.491    22848134.493    93559242.109                  
  24040774.377   126335137.807    24040773.501    98442968.211                  
  22062318.941   115938274.325    22062319.424    90341515.989                  
  24007725.583   126161443.712    24007726.119    98307616.419                  
  23709758.803   124595622.313    23709758.088    97087498.194                  
  23940610.587   125808734.004    23940612.034    98032774.775                  
  21066135.939   110703257.634    21066137.744    86262270.293                  
                 137053948.892                   137053948.892    26319762.369  
                 117171704.429                   117171704.429    22501584.306  
                 118086849.025                   118086849.025    22677333.973  
                 129605739.969                   129605739.969    24889424.578  
                 121565643.694                   121565643.694    23345403.028  
  27174836.056   142804694.618                                                  
  26158855.713   137465680.996                                                  
  25201158.958   132432976.676                                                  
  25348774.117   133208682.273                                                  
  23585147.599   123940777.908                                                  
  25743311.441   135281992.449                                                  
 21  9  1  7 14  7.0000000  0 20G 7G 8G 9G13G14G17G21G27G30C20C23C25
                                C32C34E 7E15E19E21E27E30
  20363760.201   107012298.800    20363759.397    83386210.726                  
  21668048.224   113866324.806    21668050.386    88726997.239                  
  22848788.678   120071156.587    22848791.019    93561930.496                  
  24040166.955   126331945.723    24040166.061    98440480.871                  
  22061902.718   115936087.052    22061903.201    90339811.620                  
  24007029.156   126157783.985    24007029.674    98304764.684                  
  23709400.511   124593739.498    23709399.796    97086031.070                  
  23941259.983   125812146.665    23941261.448    98035433.989                  
  21065801.520   110701500.225    21065803.325    86260900.886                  
                 137052932.445                   137052932.445    26319567.168  
                 117170561.146                   117170561.146    22501364.749  
                 118088031.191                   118088031.191    22677560.999  
                 129607239.821                   129607239.821    24889712.627  
                 121565820.798                   121565820.798    23345437.014  
  27175427.556   142807802.979                                                  
  26158434.397   137463466.934                                                  
  25201013.486   132432212.132                                                  
  25348485.800   133207167.094                                                  
  23585234.353   123941233.786                                                  
  25743704.666   135284058.812                                                  
 21  9  1  7 14  8.0000000  0 20G 7G 8G 9G13G14G17G21G27G30C20C23C25
                                C32C34E 7E15E19E21E27E30
  20363771.155   107012356.391    20363770.368    83386255.602                  
  21668434.784   113868356.186    21668436.946    88728580.133                  
  22849445.257   120074606.947    22849447.598    93564619.083                  
  24039559.605   126328754.015    24039558.693    98437993.827                  
  22061486.567   115933900.083    22061487.031    90338107.489                  
  24006332.764   126154124.379    24006333.282    98301913.040                  
  23709042.309   124591857.034    23709041.576    97084564.215                  
  23941909.432   125815559.575    23941910.898    98038093.399                  
  21065467.155   110699743.124    21065468.960    86259531.714                  
                 137051916.505                   137051916.505    26319372.056  
                 117169418.042                   117169418.042    22501145.228  
                 118089213.575                   118089213.575    22677788.061  
                 129608740.097                   129608740.097    24890000.747  
                 121565998.468                   121565998.468    23345471.144  
  27176019.074   142810911.405                                                  
  26158013.117   137461253.095                                                  
  25200868.068   132431448.011                                                  
  25348197.484   133205651.977                                                  
  23585321.161   123941689.902                                                  
  25744097.856   135286125.177                                                  
 21  9  1  7 14  9.0000000  0 20G 7G 8G 9G13G14G17G21G27G30C20C23C25
                                C32C34E 7E15E19E21E27E30
  20363782.198   107012414.405    20363781.394    83386300.808                  
  21668821.434   113870388.116    21668823.596    88730163.457                  
  22850101.872   120078057.544    22850104.231    93567307.862                  
  24038952.272   126325562.561    24038951.379    98435506.985                  
  22061070.433   115931713.362    22061070.915    90336403.555                  
  24005636.372   126150464.878    24005636.908    98299061.483                  
  23708684.142   124589974.879    23708683.427    97083097.601                  
  23942558.954   125818972.802    23942560.401    98040753.054                  
  21065132.843   110697986.299    21065134.648    86258162.762                  
                 137050901.070                   137050901.070    26319177.051  
                 117168275.125                   117168275.125    22500925.743  
                 118090396.172                   118090396.172    22678015.176  
                 129610240.809                   129610240.809    24890288.921  
                 121566176.715                   121566176.715    23345505.381  
  27176610.575   142814019.852                                                  
  26157591.872   137459039.559                                                  
  25200722.757   132430684.376                                                  
  25347909.203   133204137.039                                                  
  23585407.968   123942146.097                                                  
  25744491.082   135288191.560                                                  
 21  9  1  7 14 10.0000000  0 20G 7G 8G 9G13G14G17G21G27G30C20C23C25
                                C32C34E 7E15E19E21E27E30
  20363793.312   107012472.824    20363792.526    83386346.327                  
  21669208.227   113872420.579    21669210.371    88731747.195                  
  22850758.559   120081508.400    22850760.918    93569996.836                  
  24038345.011   126322371.431    24038344.136    98433020.388                  
  22060654.388   115929526.931    22060654.853    90334699.840                  
  24004940.017   126146805.500    24004940.553    98296210.020                  
  23708326.047   124588093.055    23708325.314    97081631.247                  
  23943208.528   125822386.320    23943209.976    98043412.945                  
  21064798.585   110696229.774    21064800.372    86256794.039                  
                 137049886.145                   137049886.145    26318982.154  
                 117167132.394                   117167132.394    22500706.275  
                 118091578.983                   118091578.983    22678242.327  
                 129611741.941                   129611741.941    24890577.202  
                 121566355.534                   121566355.534    23345539.726  
  27177202.129   142817128.395                                                  
  26157170.717   137456826.312                                                  
  25200577.518   132429921.203                                                  
  25347620.940   133202622.238                                                  
  23585494.794   123942602.448                                                  
  25744884.308   135290257.954                                                  
 21  9  1  7 14 11.0000000  0 20G 7G 8G 9G13G14G17G21G27G30C20C23C25
                                C32C34E 7E15E19E21E27E30
  20363804.498   107012531.648    20363803.694    83386392.169                  
  21669595.073   113874453.586    21669597.236    88733331.356                  
  22851415.281   120084959.493    22851417.640    93572686.000                  
  24037737.840   126319180.605    24037736.946    98430534.028                  
  22060238.362   115927340.767    22060238.844    90332996.336                  
  24004243.679   126143146.237    24004244.215    98293358.649                  
  23707968.005   124586211.531    23707967.255    97080165.124                  
  23943858.157   125825800.134    23943859.604    98046073.058                  
  21064464.381   110694473.542    21064466.204    86255425.546                  
                 137048871.722                   137048871.722    26318787.364  
                 117165989.844                   117165989.844    22500486.880  
                 118092762.007                   118092762.007    22678469.496  
                 129613243.508                   129613243.508    24890865.554  
                 121566534.926                   121566534.926    23345574.159  
  27177793.665   142820236.927                                                  
  26156749.598   137454613.327                                                  
  25200432.386   132429158.484                                                  
  25347332.694   133201107.558                                                  
  23585581.673   123943058.945                                                  
  25745277.533   135292324.355                                                  
 21  9  1  7 14 12.0000000  0 20G 7G 8G 9G13G14G17G21G27G30C20C23C25
                                C32C34E 7E15E19E21E27E30
  20363815.774   107012590.883    20363814.987    83386438.321                  
  21669982.063   113876487.179    21669984.225    88734915.972                  
  22852072.057   120088410.844    22852074.398    93575375.362                  
  24037130.704   126315990.074    24037129.793    98428047.901                  
  22059822.407   115925154.884    22059822.871    90331293.051                  
  24003547.359   126139487.086    24003547.895    98290507.360                  
  23707610.017   124584330.353    23707609.302    97078699.269                  
  23944507.839   125829214.230    23944509.286    98048733.390                  
  21064130.248   110692717.609    21064132.035    86254057.289                  
                 137047857.808                   137047857.808    26318592.645  
                 117164847.476                   117164847.476    22500267.502  
                 118093945.246                   118093945.246    22678696.736  
                 129614745.497                   129614745.497    24891153.996  
                 121566714.888                   121566714.888    23345608.718  
  27178385.201   142823345.491                                                  
  26156328.532   137452400.610                                                  
  25200287.343   132428396.249                                                  
  25347044.503   133199593.019                                                  
  23585668.588   123943515.587                                                  
  25745670.759   135294390.770                                                  
 21  9  1  7 14 13.0000000  0 20G 7G 8G 9G13G14G17G21G27G30C20C23C25
                                C32C34E 7E15E19E21E27E30
  20363827.120   107012650.508    20363826.316    83386484.782                  
  21670369.142   113878521.298    21670371.304    88736500.999                  
  22852728.851   120091862.436    22852731.228    93578064.917                  
  24036523.622   126312799.856    24036522.728    98425562.015                  
  22059406.505   115922969.275    22059406.987    90329589.981                  
  24002851.074   126135828.066    24002851.628    98287656.176                  
  23707252.101   124582449.495    23707251.386    97077233.672                  
  23945157.556   125832628.622    23945159.022    98051393.957                  
  21063796.151   110690961.969    21063797.956    86252689.254                  
                 137046844.397                   137046844.397    26318398.015  
                 117163705.298                   117163705.298    22500048.141  
                 118095128.698                   118095128.698    22678923.995  
                 129616247.917                   129616247.917    24891442.545  
                 121566895.423                   121566895.423    23345643.402  
  27178976.755   142826454.140                                                  
  26155907.520   137450188.170                                                  
  25200142.372   132427634.448                                                  
  25346756.311   133198078.609                                                  
  23585755.503   123943972.378                                                  
  25746063.985   135296457.185                                                  
 21  9  1  7 14 14.0000000  0 20G 7G 8G 9G13G14G17G21G27G30C20C23C25
                                C32C34E 7E15E19E21E27E30
  20363838.539   107012710.538    20363837.735    83386531.559                  
  21670756.328   113880555.965    21670758.472    88738086.457                  
  22853385.734   120095314.266    22853388.075    93580754.657                  
  24035916.593   126309609.946    24035915.700    98423076.371                  
  22058990.639   115920783.938    22058991.122    90327887.121                  
  24002154.808   126132169.150    24002155.344    98284805.069                  
  23706894.238   124580568.968    23706893.523    97075768.329                  
  23945807.363   125836043.316    23945808.829    98054054.758                  
  21063462.125   110689206.621    21063463.912    86251321.454                  
                 137045831.496                   137045831.496    26318203.493  
                 117162563.296                   117162563.296    22499828.835  
                 118096312.367                   118096312.367    22679151.324  
                 129617750.761                   129617750.761    24891731.148  
                 121567076.527                   121567076.527    23345678.175  
  27179568.327   142829562.809                                                  
  26155486.562   137447976.007                                                  
  25199997.507   132426873.121                                                  
  25346468.155   133196564.328                                                  
  23585842.436   123944429.315                                                  
  25746457.228   135298523.609                                                  
 21  9  1  7 14 15.0000000  0 20G 7G 8G 9G13G14G17G21G27G30C20C23C25
                                C32C34E 7E15E19E21E27E30
  20363850.046   107012770.999    20363849.242    83386578.681                  
  21671143.621   113882591.257    21671145.783    88739672.426                  
  22854042.635   120098766.363    22854044.994    93583444.598                  
  24035309.636   126306420.350    24035308.743    98420590.976                  
  22058574.845   115918598.886    22058575.327    90326184.485                  
  24001458.559   126128510.347    24001459.095    98281954.050                  
  23706536.464   124578688.770    23706535.731    97074303.226                  
  23946457.224   125839458.263    23946458.653    98056715.737                  
  21063128.136   110687451.536    21063129.958    86249953.844                  
                 137044819.103                   137044819.103    26318009.078  
                 117161421.484                   117161421.484    22499609.564  
                 118097496.249                   118097496.249    22679378.654  
                 129619254.035                   129619254.035    24892019.822  
                 121567258.208                   121567258.208    23345713.055  
  27180159.881   142832671.470                                                  
  26155065.657   137445764.137                                                  
  25199852.697   132426112.271                                                  
  25346180.017   133195050.161                                                  
  23585929.422   123944886.411                                                  
  25746850.436   135300589.845                                                  
 21  9  1  7 14 16.0000000  0 20G 7G 8G 9G13G14G17G21G27G30C20C23C25
                                C32C34E 7E15E19E21E27E30
  20363861.625   107012831.842    20363860.821    83386626.091                  
  21671531.021   113884627.043    21671533.183    88741258.755                  
  22854699.608   120102218.706    22854701.967    93586134.738                  
  24034702.733   126303231.060    24034701.839    98418105.813                  
  22058159.086   115916414.101    22058159.569    90324482.056                  
  24000762.346   126124851.689    24000762.882    98279103.145                  
  23706178.744   124576808.919    23706177.994    97072838.407                  
  23947107.120   125842873.538    23947108.586    98059376.995                  
  21062794.217   110685696.777    21062796.040    86248586.497                  
                 137043807.215                   137043807.215    26317814.753  
                 117160279.855                   117160279.855    22499390.311  
                 118098680.343                   118098680.343    22679606.055  
                 129620757.740                   129620757.740    24892308.603  
                 121567440.461                   121567440.461    23345748.060  
  27180751.453   142835780.222                                                  
  26154644.806   137443552.523                                                  
  25199707.993   132425351.867                                                  
  25345891.915   133193536.153                                                  
  23586016.444   123945343.648                                                  
  25747243.680   135302656.301                                                  
 21  9  1  7 14 17.0000000  0 20G 7G 8G 9G13G14G17G21G27G30C20C23C25
                                C32C34E 7E15E19E21E27E30
  20363873.276   107012893.099    20363872.472    83386673.821                  
  21671918.529   113886663.362    21671920.673    88742845.497                  
  22855356.598   120105671.308    22855358.957    93588825.074                  
  24034095.883   126300042.071    24034095.007    98415620.887                  
  22057743.381   115914229.601    22057743.864    90322779.848                  
  24000066.133   126121193.145    24000066.687    98276252.336                  
  23705821.060   124574929.390    23705820.345    97071373.843                  
  23947757.088   125846289.110    23947758.536    98062038.480                  
  21062460.352   110683942.320    21062462.157    86247219.388                  
                 137042795.831                   137042795.831    26317620.534  
                 117159138.410                   117159138.410    22499171.112  
                 118099864.655                   118099864.655    22679833.492  
                 129622261.866                   129622261.866    24892597.438  
                 121567623.284                   121567623.284    23345783.173  
  27181343.043   142838889.021                                                  
  26154224.008   137441341.190                                                  
  25199563.397   132424591.916                                                  
  25345603.849   133192022.286                                                  
  23586103.484   123945801.038                                                  
  25747636.906   135304722.734                                                  
 21  9  1  7 14 18.0000000  0 20G 7G 8G 9G13G14G17G21G27G30C20C23C25
                                C32C34E 7E15E19E21E27E30
  20363885.016   107012954.743    20363884.212    83386721.860                  
  21672306.126   113888700.216    21672308.288    88744432.656                  
  22856013.660   120109124.136    22856016.019    93591515.594                  
  24033489.104   126296853.388    24033488.193    98413136.203                  
  22057327.748   115912045.374    22057328.213    90321077.855                  
  23999369.956   126117534.700    23999370.492    98273401.602                  
  23705463.465   124573050.195    23705462.732    97069909.538                  
  23948407.092   125849704.964    23948408.539    98064700.188                  
  21062126.559   110682188.148    21062128.364    86245852.505                  
                 137041784.956                   137041784.956    26317426.423  
                 117157997.147                   117157997.147    22498951.966  
                 118101049.180                   118101049.180    22680060.965  
                 129623766.423                   129623766.423    24892886.380  
                 121567806.683                   121567806.683    23345818.393  
  27181934.632   142841997.852                                                  
  26153803.246   137439130.133                                                  
  25199418.873   132423832.448                                                  
  25345315.782   133190508.542                                                  
  23586190.542   123946258.577                                                  
  25748030.131   135306789.202                                                  
 21  9  1  7 14 19.0000000  0 20G 7G 8G 9G13G14G17G21G27G30C20C23C25
                                C32C34E 7E15E19E21E27E30
  20363896.827   107013016.804    20363896.023    83386770.223                  
  21672693.812   113890737.612    21672695.974    88746020.242                  
  22856670.758   120112577.216    22856673.116    93594206.306                  
  24032882.380   126293665.007    24032881.486    98410651.750                  
  22056912.132   115909861.419    22056912.615    90319376.074                  
  23998673.815   126113876.388    23998674.333    98270550.972                  
  23705105.942   124571171.338    23705105.191    97068445.501                  
  23949057.167   125853121.105    23949058.614    98067362.121                  
  21061792.801   110680434.269    21061794.606    86244485.848                  
                 137040774.587                   137040774.587    26317232.383  
                 117156856.071                   117156856.071    22498732.821  
                 118102233.919                   118102233.919    22680288.473  
                 129625271.407                   129625271.407    24893175.394  
                 121567990.652                   121567990.652    23345853.720  
  27182526.240   142845106.729                                                  
  26153382.538   137436919.340                                                  
  25199274.437   132423073.418                                                  
  25345027.733   133188994.930                                                  
  23586277.636   123946716.257                                                  
  25748423.375   135308855.678                                                  
 21  9  1  7 14 20.0000000  0 20G 7G 8G 9G13G14G17G21G27G30C20C23C25
                                C32C34E 7E15E19E21E27E30
  20363908.728   107013079.266    20363907.906    83386818.895                  
  21673081.624   113892775.551    21673083.786    88747608.246                  
  22857327.909   120116030.551    22857330.268    93596897.214                  
  24032275.708   126290476.934    24032274.797    98408167.540                  
  22056496.606   115907677.750    22056497.089    90317674.516                  
  23997977.673   126110218.187    23997978.227    98267700.426                  
  23704748.454   124569292.804    23704747.739    97066981.708                  
  23949707.278   125856537.536    23949708.743    98070024.269                  
  21061459.097   110678680.695    21061460.920    86243119.425                  
                 137039764.727                   137039764.727    26317038.433  
                 117155715.174                   117155715.174    22498513.728  
                 118103418.868                   118103418.868    22680516.035  
                 129626776.815                   129626776.815    24893464.497  
                 121568175.191                   121568175.191    23345889.154  
  27183117.848   142848215.645                                                  
  26152961.901   137434708.832                                                  
  25199130.073   132422314.863                                                  
  25344739.738   133187481.432                                                  
  23586364.765   123947174.090                                                  
  25748816.618   135310922.161                                                  
 21  9  1  7 14 21.0000000  0 20G 7G 8G 9G13G14G17G21G27G30C20C23C25
                                C32C34E 7E15E19E21E27E30
  20363920.683   107013142.134    20363919.878    83386867.878                  
  21673469.542   113894814.074    21673471.704    88749196.704                  
  22857985.096   120119484.124    22857987.454    93599588.310                  
  24031669.073   126287289.161    24031668.197    98405683.558                  
  22056081.116   115905494.341    22056081.598    90315973.156                  
  23997281.586   126106560.118    23997282.104    98264849.985                  
  23704391.056   124567414.605    23704390.323    97065518.176                  
  23950357.460   125859954.258    23950358.925    98072686.656                  
  21061125.465   110676927.406    21061127.287    86241753.226                  
                 137038755.372                   137038755.372    26316844.625  
                 117154574.464                   117154574.464    22498294.654  
                 118104604.035                   118104604.035    22680743.633  
                 129628282.651                   129628282.651    24893753.689  
                 121568360.306                   121568360.306    23345924.714  
  27183709.455   142851324.585                                                  
  26152541.300   137432498.579                                                  
  25198985.817   132421556.763                                                  
  25344451.761   133185968.079                                                  
  23586451.894   123947632.057                                                  
  25749209.862   135312988.649                                                  
 21  9  1  7 14 22.0000000  0 20G 7G 8G 9G13G14G17G21G27G30C20C23C25
                                C32C34E 7E15E19E21E27E30
  20363932.726   107013205.403    20363931.922    83386917.179                  
  21673857.568   113896853.152    21673859.712    88750785.598                  
  22858642.336   120122937.940    22858644.695    93602279.593                  
  24031062.545   126284101.695    24031061.633    98403199.819                  
  22055665.679   115903311.214    22055666.161    90314272.020                  
  23996585.480   126102902.155    23996586.016    98261999.626                  
  23704033.693   124565536.740    23704032.978    97064054.902                  
  23951007.696   125863371.271    23951009.161    98075349.261                  
  21060791.886   110675174.414    21060793.709    86240387.258                  
                 137037746.524                   137037746.524    26316650.872  
                 117153433.940                   117153433.940    22498075.634  
                 118105789.414                   118105789.414    22680971.284  
                 129629788.918                   129629788.918    24894042.935  
                 121568545.993                   121568545.993    23345960.380  
  27184301.081   142854433.586                                                  
  26152120.753   137430288.611                                                  
  25198841.632   132420799.103                                                  
  25344163.802   133184454.851                                                  
  23586539.077   123948090.172                                                  
  25749603.106   135315055.150                                                  
 21  9  1  7 14 23.0000000  0 20G 7G 8G 9G13G14G17G21G27G30C20C23C25
                                C32C34E 7E15E19E21E27E30
  20363944.824   107013269.069    20363944.020    83386966.794                  
  21674245.701   113898892.773    21674247.863    88752374.910                  
  22859299.648   120126392.015    22859302.007    93604971.077                  
  24030456.034   126280914.544    24030455.141    98400716.325                  
  22055250.295   115901128.366    22055250.778    90312571.102                  
  23995889.428   126099244.313    23995889.964    98259149.354                  
  23703676.420   124563659.195    23703675.705    97062591.882                  
  23951658.003   125866788.577    23951659.468    98078012.097                  
  21060458.361   110673421.712    21060460.165    86239021.516                  
                 137036738.178                   137036738.178    26316457.243  
                 117152293.602                   117152293.602    22497856.667  
                 118106975.012                   118106975.012    22681198.953  
                 129631295.606                   129631295.606    24894332.288  
                 121568732.250                   121568732.250    23345996.136  
  27184892.706   142857542.611                                                  
  26151700.259   137428078.906                                                  
  25198697.554   132420041.942                                                  
  25343875.860   133182941.753                                                  
  23586626.278   123948548.442                                                  
  25749996.331   135317121.653                                                  
 21  9  1  7 14 24.0000000  0 20G 7G 8G 9G13G14G17G21G27G30C20C23C25
                                C32C34E 7E15E19E21E27E30
  20363957.028   107013333.149    20363956.224    83387016.724                  
  21674633.924   113900932.948    21674636.086    88753964.659                  
  22859956.960   120129846.321    22859959.319    93607662.747                  
  24029849.595   126277727.704    24029848.720    98398233.075                  
  22054834.984   115898945.794    22054835.466    90310870.394                  
  23995193.376   126095586.602    23995193.912    98256299.193                  
  23703319.200   124561781.990    23703318.485    97061129.125                  
  23952308.346   125870206.170    23952309.794    98080675.157                  
  21060124.889   110671669.312    21060126.694    86237656.012                  
                 137035730.345                   137035730.345    26316263.686  
                 117151153.445                   117151153.445    22497637.700  
                 118108160.821                   118108160.821    22681426.676  
                 129632802.727                   129632802.727    24894621.712  
                 121568919.078                   121568919.078    23346032.017  
  27185484.332   142860651.688                                                  
  26151279.819   137425869.490                                                  
  25198553.565   132419285.215                                                  
  25343587.955   133181428.798                                                  
  23586713.515   123949006.864                                                  
  25750389.575   135319188.176                                                  
 21  9  1  7 14 25.0000000  0 20G 7G 8G 9G13G14G17G21G27G30C20C23C25
                                C32C34E 7E15E19E21E27E30
  20363969.304   107013397.627    20363968.500    83387066.969                  
  21675022.253   113902973.640    21675024.415    88755554.809                  
  22860614.362   120133300.895    22860616.702    93610354.620                  
  24029243.228   126274541.148    24029242.335    98395750.040                  
  22054419.707   115896763.485    22054420.172    90309169.894                  
  23994497.360   126091929.000    23994497.896    98253449.113                  
  23702962.034   124559905.114    23702961.319    97059666.624                  
  23952958.743   125873624.055    23952960.208    98083338.446                  
  21059791.453   110669917.206    21059793.276    86236290.734                  
                 137034723.017                   137034723.017    26316070.236  
                 117150013.473                   117150013.473    22497418.786  
                 118109346.843                   118109346.843    22681654.435  
                 129634310.270                   129634310.270    24894911.226  
                 121569106.481                   121569106.481    23346068.005  
  27186075.975   142863760.789                                                  
  26150859.432   137423660.343                                                  
  25198409.666   132418528.969                                                  
  25343300.085   133179915.961                                                  
  23586800.787   123949465.419                                                  
  25750782.836   135321254.694                                                  
 21  9  1  7 14 26.0000000  0 20G 7G 8G 9G13G14G17G21G27G30C20C23C25
                                C32C34E 7E15E19E21E27E30
  20363981.634   107013462.508    20363980.848    83387117.523                  
  21675410.708   113905014.904    21675412.852    88757145.402                  
  22861271.781   120136755.706    22861274.140    93613046.683                  
  24028636.896   126271354.930    24028636.021    98393267.275                  
  22054004.467   115894581.474    22054004.932    90307469.630                  
  23993801.361   126088271.512    23993801.897    98250599.120                  
  23702604.940   124558028.566    23702604.225    97058204.384                  
  23953609.193   125877042.235    23953610.658    98086001.961                  
  21059458.106   110668165.390    21059459.911    86234925.683                  
                 137033716.195                   137033716.195    26315876.893  
                 117148873.685                   117148873.685    22497199.909  
                 118110533.077                   118110533.077    22681882.265  
                 129635818.243                   129635818.243    24895200.812  
                 121569294.456                   121569294.456    23346104.101  
  27186667.636   142866869.949                                                  
  26150439.099   137421451.481                                                  
  25198265.820   132417773.176                                                  
  25343012.215   133178403.261                                                  
  23586888.077   123949924.129                                                  
  25751176.080   135323321.236                                                  
 21  9  1  7 14 27.0000000  0 20G 7G 8G 9G13G14G17G21G27G30C20C23C25
                                C32C34E 7E15E19E21E27E30
  20363994.053   107013527.785    20363993.267    83387168.390                  
  21675799.234   113907056.699    21675801.396    88758736.413                  
  22861929.254   120140210.767    22861931.612    93615738.934                  
  24028030.636   126268169.005    24028029.760    98390784.733                  
  22053589.298   115892399.723    22053589.781    90305769.562                  
  23993105.381   126084614.145    23993105.917    98247749.226                  
  23702247.916   124556152.344    23702247.184    97056742.391                  
  23954259.715   125880460.703    23954261.162    98088665.702                  
  21059124.795   110666413.871    21059126.618    86233560.863                  
                 137032709.882                   137032709.882    26315683.639  
                 117147734.077                   117147734.077    22496981.049  
                 118111719.533                   118111719.533    22682110.095  
                 129637326.638                   129637326.638    24895490.486  
                 121569483.005                   121569483.005    23346140.321  
  27187259.297   142869979.144                                                  
  26150018.820   137419242.883                                                  
  25198122.100   132417017.855                                                  
  25342724.381   133176890.703                                                  
  23586975.385   123950382.988                                                  
  25751569.341   135325387.777                                                  
 21  9  1  7 14 28.0000000  0 20G 7G 8G 9G13G14G17G21G27G30C20C23C25
                                C32C34E 7E15E19E21E27E30
  20364006.561   107013593.473    20364005.757    83387219.571                  
  21676187.885   113909099.043    21676190.047    88760327.848                  
  22862586.780   120143666.074    22862589.139    93618431.383                  
  24027424.447   126264983.385    24027423.554    98388302.432                  
  22053174.183   115890218.257    22053174.665    90304069.718                  
  23992409.436   126080956.892    23992409.972    98244899.418                  
  23701890.947   124554276.469    23701890.214    97055280.672                  
  23954910.272   125883879.465    23954911.738    98091329.672                  
  21058791.556   110664662.647    21058793.361    86232196.273                  
                 137031704.076                   137031704.076    26315490.475  
                 117146594.661                   117146594.661    22496762.225  
                 118112906.194                   118112906.194    22682337.979  
                 129638835.460                   129638835.460    24895780.233  
                 121569672.124                   121569672.124    23346176.631  
  27187850.959   142873088.374                                                  
  26149598.594   137417034.564                                                  
  25197978.469   132416262.997                                                  
  25342436.582   133175378.270                                                  
  23587062.747   123950841.995                                                  
  25751962.585   135327454.336                                                  
 21  9  1  7 14 29.0000000  0 20G 7G 8G 9G13G14G17G21G27G30C20C23C25
                                C32C34E 7E15E19E21E27E30
  20364019.141   107013659.565    20364018.337    83387271.074                  
  21676576.626   113911141.926    21676578.788    88761919.707                  
  22863244.360   120147121.630    22863246.719    93621124.020                  
  24026818.294   126261798.083    24026817.401    98385820.378                  
  22052759.103   115888037.067    22052759.586    90302370.090                  
  23991713.509   126077299.771    23991714.045    98242049.711                  
  23701534.031   124552400.913    23701533.298    97053819.200                  
  23955560.901   125887298.517    23955562.367    98093993.866                  
  21058458.388   110662911.727    21058460.175    86230831.917                  
                 137030698.775                   137030698.775    26315297.418  
                 117145455.422                   117145455.422    22496543.454  
                 118114093.074                   118114093.074    22682565.916  
                 129640344.716                   129640344.716    24896070.086  
                 121569861.815                   121569861.815    23346213.066  
  27188442.638   142876197.648                                                  
  26149178.421   137414826.521                                                  
  25197834.909   132415508.589                                                  
  25342148.801   133173865.970                                                  
  23587150.109   123951301.148                                                  
  25752355.846   135329520.909                                                  
 21  9  1  7 14 30.0000000  0 20G 7G 8G 9G13G14G17G21G27G30C20C23C25
                                C32C34E 7E15E19E21E27E30
  20364031.792   107013726.063    20364031.006    83387322.890                  
  21676965.474   113913185.382    21676967.636    88763512.008                  
  22863901.958   120150577.431    22863904.317    93623816.851                  
  24026212.213   126258613.074    24026211.319    98383338.555                  
  22052344.095   115885856.155    22052344.578    90300670.681                  
  23991017.600   126073642.741    23991018.136    98239200.082                  
  23701177.205   124550525.692    23701176.454    97052357.989                  
  23956211.584   125890717.856    23956213.031    98096658.289                  
  21058125.238   110661161.102    21058127.043    86229467.796                  
                 137029693.980                   137029693.980    26315104.469  
                 117144316.372                   117144316.372    22496324.702  
                 118115280.172                   118115280.172    22682793.889  
                 129641854.390                   129641854.390    24896359.993  
                 121570052.079                   121570052.079    23346249.608  
  27189034.317   142879306.969                                                  
  26148758.285   137412618.750                                                  
  25197691.421   132414754.653                                                  
  25341861.039   133172353.802                                                  
  23587237.524   123951760.454                                                  
  25752749.108   135331587.486                                                  
 21  9  1  7 14 31.0000000  0 20G 7G 8G 9G13G14G17G21G27G30C20C23C25
                                C32C34E 7E15E19E21E27E30
  20364044.515   107013792.953    20364043.729    83387375.011                  
  21677354.447   113915229.372    21677356.609    88765104.726                  
  22864559.645   120154033.471    22864562.004    93626509.870                  
  24025606.185   126255428.375    24025605.291    98380856.968                  
  22051929.141   115883675.517    22051929.623    90298971.479                  
  23990321.726   126069985.837    23990322.244    98236350.542                  
  23700820.414   124548650.808    23700819.681    97050897.043                  
  23956862.320   125894137.489    23956863.786    98099322.938                  
  21057792.159   110659410.774    21057793.964    86228103.907                  
                 137028689.696                   137028689.696    26314911.608  
                 117143177.503                   117143177.503    22496106.003  
                 118116467.476                   118116467.476    22683021.898  
                 129643364.492                   129643364.492    24896650.007  
                 121570242.913                   121570242.913    23346286.240  
  27189626.014   142882416.325                                                  
  26148338.220   137410411.250                                                  
  25197548.040   132414001.165                                                  
  25341573.312   133170841.766                                                  
  23587324.939   123952219.894                                                  
  25753142.352   135333654.071                                                  
 21  9  1  7 14 32.0000000  0 20G 7G 8G 9G13G14G17G21G27G30C20C23C25
                                C32C34E 7E15E19E21E27E30
  20364057.327   107013860.255    20364056.523    83387427.453                  
  21677743.509   113917273.902    21677745.653    88766697.871                  
  22865217.333   120157489.761    22865219.691    93629203.083                  
  24025000.228   126252243.997    24024999.317    98378375.636                  
  22051514.222   115881495.151    22051514.705    90297272.495                  
  23989625.853   126066329.059    23989626.371    98233501.110                  
  23700463.695   124546776.253    23700462.980    97049436.353                  
  23957513.092   125897557.407    23957514.557    98101987.809                  
  21057459.134   110657660.731    21057460.939    86226740.234                  
                 137027685.913                   137027685.913    26314718.837  
                 117142038.820                   117142038.820    22495887.322  
                 118117655.001                   118117655.001    22683249.942  
                 129644875.024                   129644875.024    24896940.075  
                 121570434.323                   121570434.323    23346322.996  
  27190217.729   142885525.719                                                  
  26147918.209   137408204.028                                                  
  25197404.748   132413248.154                                                  
  25341285.603   133169329.865                                                  
  23587412.408   123952679.505                                                  
  25753535.613   135335720.656                                                  
 21  9  1  7 14 33.0000000  0 20G 7G 8G 9G13G14G17G21G27G30C20C23C25
                                C32C34E 7E15E19E21E27E30
  20364070.228   107013927.956    20364069.424    83387480.212                  
  21678132.678   113919319.004    21678134.840    88768291.452                  
  22865875.091   120160946.289    22865877.468    93631896.477                  
  24024394.326   126249059.927    24024393.414    98375894.543                  
  22051099.357   115879315.070    22051099.840    90295573.731                  
  23988930.015   126062672.393    23988930.533    98230651.762                  
  23700107.047   124544902.027    23700106.314    97047975.914                  
  23958163.953   125900977.618    23958165.401    98104652.906                  
  21057126.181   110655910.984    21057127.986    86225376.797                  
                 137026682.642                   137026682.642    26314526.173  
                 117140900.325                   117140900.325    22495668.694  
                 118118842.738                   118118842.738    22683478.040  
                 129646385.981                   129646385.981    24897230.232  
                 121570626.306                   121570626.306    23346359.878  
  27190809.425   142888635.152                                                  
  26147498.215   137405997.085                                                  
  25197261.545   132412495.591                                                  
  25340997.911   133167818.090                                                  
  23587499.877   123953139.242                                                  
  25753928.874   135337787.262                                                  
 21  9  1  7 14 34.0000000  0 20G 7G 8G 9G13G14G17G21G27G30C20C23C25
                                C32C34E 7E15E19E21E27E30
  20364083.183   107013996.061    20364082.379    83387533.276                  
  21678521.937   113921364.650    21678524.099    88769885.466                  
  22866532.904   120164403.064    22866535.262    93634590.067                  
  24023788.459   126245876.159    24023787.565    98373413.684                  
  22050684.563   115877135.262    22050685.046    90293875.179                  
  23988234.196   126059015.848    23988234.714    98227802.503                  
  23699750.452   124543028.144    23699749.720    97046515.746                  
  23958814.868   125904398.126    23958816.298    98107318.239                  
  21056793.263   110654161.539    21056795.086    86224013.589                  
                 137025679.876                   137025679.876    26314333.599  
                 117139762.008                   117139762.008    22495450.102  
                 118120030.688                   118120030.688    22683706.156  
                 129647897.359                   129647897.359    24897520.479  
                 121570818.856                   121570818.856    23346396.867  
  27191401.140   142891744.617                                                  
  26147078.329   137403790.418                                                  
  25197118.415   132411743.489                                                  
  25340710.274   133166306.450                                                  
  23587587.399   123953599.141                                                  
  25754322.136   135339853.874                                                  
 21  9  1  7 14 35.0000000  0 20G 7G 8G 9G13G14G17G21G27G30C20C23C25
                                C32C34E 7E15E19E21E27E30
  20364096.192   107014064.575    20364095.406    83387586.664                  
  21678911.321   113923410.832    21678913.483    88771479.893                  
  22867190.752   120167860.096    22867193.128    93637283.859                  
  24023182.663   126242692.690    24023181.787    98370933.060                  
  22050269.823   115874955.727    22050270.288    90292176.840                  
  23987538.394   126055359.431    23987538.948    98224953.347                  
  23699393.912   124541154.581    23699393.197    97045055.829                  
  23959465.801   125907818.909    23959467.266    98109983.785                  
  21056460.417   110652412.390    21056462.222    86222650.616                  
                 137024677.617                   137024677.617    26314141.114  
                 117138623.880                   117138623.880    22495231.528  
                 118121218.856                   118121218.856    22683934.343  
                 129649409.168                   129649409.168    24897810.797  
                 121571011.981                   121571011.981    23346433.945  
  27191992.855   142894854.137                                                  
  26146658.443   137401584.024                                                  
  25196975.409   132410991.880                                                  
  25340422.636   133164794.942                                                  
  23587674.940   123954059.171                                                  
  25754715.397   135341920.497                                                  
 21  9  1  7 14 36.0000000  0 20G 7G 8G 9G13G14G17G21G27G30C20C23C25
                                C32C34E 7E15E19E21E27E30
  20364109.326   107014133.493    20364108.522    83387640.366                  
  21679300.794   113925457.589    21679302.956    88773074.769                  
  22867848.653   120171317.378    22867851.012    93639977.843                  
  24022576.939   126239509.527    24022576.045    98368452.672                  
  22049855.119   115872776.477    22049855.602    90290478.723                  
  23986842.627   126051703.129    23986843.164    98222104.281                  
  23699037.461   124539281.344    23699036.746    97043596.163                  
  23960116.823   125911239.983    23960118.289    98112649.559                  
  21056127.624   110650663.536    21056129.411    86221287.872                  
                 137023675.866                   137023675.866    26313948.754  
                 117137485.933                   117137485.933    22495013.008  
                 118122407.233                   118122407.233    22684162.567  
                 129650921.401                   129650921.401    24898101.222  
                 121571205.679                   121571205.679    23346471.148  
  27192584.588   142897963.696                                                  
  26146238.646   137399377.914                                                  
  25196832.439   132410240.708                                                  
  25340135.034   133163283.577                                                  
  23587762.516   123954519.366                                                  
  25755108.677   135343987.130                                                  
 21  9  1  7 14 37.0000000  0 20G 7G 8G 9G13G14G17G21G27G30C20C23C25
                                C32C34E 7E15E19E21E27E30
  20364122.513   107014202.805    20364121.727    83387694.375                  
  21679690.375   113927504.851    21679692.537    88774670.038                  
  22868506.609   120174774.898    22868508.967    93642672.012                  
  24021971.268   126236326.683    24021970.357    98365972.535                  
  22049440.468   115870597.493    22049440.933    90288780.816                  
  23986146.879   126048046.944    23986147.415    98219255.308                  
  23698681.063   124537408.438    23698680.348    97042136.758                  
  23960767.881   125914661.359    23960769.346    98115315.566                  
  21055794.885   110648914.977    21055796.672    86219925.359                  
                 137022674.625                   137022674.625    26313756.483  
                 117136348.177                   117136348.177    22494794.506  
                 118123595.828                   118123595.828    22684390.826  
                 129652434.062                   129652434.062    24898391.701  
                 121571399.945                   121571399.945    23346508.441  
  27193176.321   142901073.281                                                  
  26145818.884   137397172.069                                                  
  25196689.594   132409490.000                                                  
  25339847.468   133161772.331                                                  
  23587850.128   123954979.699                                                  
  25755501.938   135346053.777                                                  
 21  9  1  7 14 38.0000000  0 20G 7G 8G 9G13G14G17G21G27G30C20C23C25
                                C32C34E 7E15E19E21E27E30
  20364135.772   107014272.516    20364134.986    83387748.700                  
  21680080.080   113929552.662    21680082.242    88776265.730                  
  22869164.600   120178232.664    22869166.958    93645366.375                  
  24021365.633   126233144.136    24021364.740    98363492.630                  
  22049025.871   115868418.794    22049026.354    90287083.124                  
  23985451.167   126044390.879    23985451.685    98216406.426                  
  23698324.719   124535535.875    23698324.004    97040677.616                  
  23961418.993   125918083.017    23961420.458    98117981.789                  
  21055462.200   110647166.703    21055464.004    86218563.070                  
                 137021673.886                   137021673.886    26313564.302  
                 117135210.598                   117135210.598    22494576.039  
                 118124784.633                   118124784.633    22684619.120  
                 129653947.150                   129653947.150    24898682.287  
                 121571594.789                   121571594.789    23346545.859  
  27193768.053   142904182.913                                                  
  26145399.177   137394966.499                                                  
  25196546.820   132408739.755                                                  
  25339559.902   133160261.216                                                  
  23587937.739   123955440.179                                                  
  25755895.217   135348120.426                                                  
 21  9  1  7 14 39.0000000  0 20G 7G 8G 9G13G14G17G21G27G30C20C23C25
                                C32C34E 7E15E19E21E27E30
  20364149.120   107014342.640    20364148.316    83387803.340                  
  21680469.857   113931601.009    21680472.019    88777861.848                  
  22869822.627   120181690.671    22869825.003    93648060.930                  
  24020760.088   126229961.911    24020759.177    98361012.968                  
  22048611.346   115866240.362    22048611.793    90285385.652                  
  23984755.454   126040734.938    23984755.972    98213557.641                  
  23697968.446   124533663.635    23697967.714    97039218.735                  
  23962070.176   125921504.962    23962071.641    98120648.237                  
  21055129.568   110645418.734    21055131.373    86217201.016                  
                 137020673.656                   137020673.656    26313372.192  
                 117134073.206                   117134073.206    22494357.626  
                 118125973.656                   118125973.656    22684847.468  
                 129655460.659                   129655460.659    24898972.944  
                 121571790.203                   121571790.203    23346583.384  
  27194359.822   142907292.574                                                  
  26144979.523   137392761.211                                                  
  25196404.136   132407989.965                                                  
  25339272.353   133158750.221                                                  
  23588025.405   123955900.805                                                  
  25756288.479   135350187.082                                                  
 21  9  1  7 14 40.0000000  0 20G 7G 8G 9G13G14G17G21G27G30C20C23C25
                                C32C34E 7E15E19E21E27E30
  20364162.540   107014413.173    20364161.736    83387858.301                  
  21680859.759   113933649.926    21680861.921    88779458.411                  
  22870480.725   120185148.948    22870483.084    93650755.696                  
  24020154.578   126226780.030    24020153.685    98358533.603                  
  22048196.838   115864062.227    22048197.321    90283688.403                  
  23984059.759   126037079.161    23984060.296    98210709.004                  
  23697612.245   124531791.719    23697611.495    97037760.089                  
  23962721.394   125924927.187    23962722.859    98123314.910                  
  21054797.007   110643671.062    21054798.794    86215839.191                  
                 137019673.906                   137019673.906    26313180.225  
                 117132936.000                   117132936.000    22494139.213  
                 118127162.894                   118127162.894    22685075.835  
                 129656974.573                   129656974.573    24899263.673  
                 121571986.186                   121571986.186    23346621.016  
  27194951.572   142910402.268                                                  
  26144559.922   137390556.176                                                  
  25196261.559   132407240.636                                                  
  25338984.859   133157239.380                                                  
  23588113.088   123956361.587                                                  
  25756681.758   135352253.785                                                  
 21  9  1  7 14 41.0000000  0 20G 7G 8G 9G13G14G17G21G27G30C20C23C25
                                C32C34E 7E15E19E21E27E30
  20364176.049   107014484.113    20364175.245    83387913.579                  
  21681249.768   113935699.363    21681251.895    88781055.374                  
  22871138.841   120188607.445    22871141.200    93653450.624                  
  24019549.140   126223598.407    24019548.247    98356054.414                  
  22047782.402   115861884.353    22047782.884    90281991.358                  
  23983364.101   126033423.461    23983364.637    98207860.411                  
  23697256.080   124529920.142    23697255.365    97036301.718                  
  23963372.702   125928349.716    23963374.132    98125981.811                  
  21054464.483   110641923.683    21054466.288    86214477.597                  
                 137018674.691                   137018674.691    26312988.347  
                 117131798.977                   117131798.977    22493920.871  
                 118128352.344                   118128352.344    22685304.254  
                 129658488.938                   129658488.938    24899554.492  
                 121572182.746                   121572182.746    23346658.773  
  27195543.341   142913512.026                                                  
  26144140.376   137388351.434                                                  
  25196119.054   132406491.789                                                  
  25338697.382   133155728.661                                                  
  23588200.771   123956822.512                                                  
  25757075.038   135354320.452                                                  
 21  9  1  7 14 42.0000000  0 20G 7G 8G 9G13G14G17G21G27G30C20C23C25
                                C32C34E 7E15E19E21E27E30
  20364189.611   107014555.446    20364188.825    83387969.163                  
  21681639.867   113937749.362    21681642.011    88782652.777                  
  22871797.029   120192066.206    22871799.387    93656145.765                  
  24018943.738   126220417.093    24018942.862    98353575.469                  
  22047368.019   115859706.754    22047368.502    90280294.531                  
  23982668.477   126029767.874    23982668.996    98205011.898                  
  23696900.004   124528048.909    23696899.271    97034843.617                  
  23964024.046   125931772.527    23964025.475    98128648.942                  
  21054132.012   110640176.597    21054133.816    86213116.230                  
                 137017675.985                   137017675.985    26312796.541  
                 117130662.137                   117130662.137    22493702.565  
                 118129542.009                   118129542.009    22685532.728  
                 129660003.727                   129660003.727    24899845.400  
                 121572379.878                   121572379.878    23346696.620  
  27196135.127   142916621.805                                                  
  26143720.882   137386146.965                                                  
  25195976.638   132405743.396                                                  
  25338409.923   133154218.074                                                  
  23588288.526   123957283.578                                                  
  25757468.299   135356387.137                                                  
 21  9  1  7 14 43.0000000  0 20G 7G 8G 9G13G14G17G21G27G30C20C23C25
                                C32C34E 7E15E19E21E27E30
  20364203.281   107014627.185    20364202.459    83388025.063                  
  21682030.055   113939799.905    21682032.217    88784250.602                  
  22872455.234   120195525.199    22872457.628    93658841.082                  
  24018338.424   126217236.089    24018337.513    98351096.761                  
  22046953.708   115857529.435    22046954.155    90278597.918                  
  23981972.854   126026112.403    23981973.372    98202163.480                  
  23696543.981   124526177.990    23696543.249    97033385.753                  
  23964675.425   125935195.629    23964676.873    98131316.293                  
  21053799.612   110638429.811    21053801.417    86211755.102                  
                 137016677.785                   137016677.785    26312604.860  
                 117129525.483                   117129525.483    22493484.278  
                 118130731.887                   118130731.887    22685761.219  
                 129661518.940                   129661518.940    24900136.379  
                 121572577.578                   121572577.578    23346734.591  
  27196726.895   142919731.640                                                  
  26143301.443   137383942.786                                                  
  25195834.329   132404995.458                                                  
  25338122.500   133152707.620                                                  
  23588376.299   123957744.800                                                  
  25757861.578   135358453.828                                                  
 21  9  1  7 14 44.0000000  0 20G 7G 8G 9G13G14G17G21G27G30C20C23C25
                                C32C34E 7E15E19E21E27E30
  20364217.005   107014699.331    20364216.200    83388081.281                  
  21682420.368   113941850.994    21682422.512    88785848.851                  
  22873113.529   120198984.438    22873115.887    93661536.590                  
  24017733.165   126214055.393    24017732.254    98348618.301                  
  22046539.415   115855352.391    22046539.897    90276901.520                  
  23981277.267   126022457.051    23981277.803    98199315.157                  
  23696188.013   124524307.437    23696187.298    97031928.184                  
  23965326.876   125938619.015    23965328.342    98133983.867                  
  21053467.284   110636683.321    21053469.089    86210394.199                  
                 137015680.091                   137015680.091    26312413.269  
                 117128389.016                   117128389.016    22493266.025  
                 118131921.979                   118131921.979    22685989.764  
                 129663034.578                   129663034.578    24900427.447  
                 121572775.856                   121572775.856    23346772.688  
  27197318.682   142922841.495                                                  
  26142882.039   137381738.874                                                  
  25195692.073   132404247.980                                                  
  25337835.094   133151197.303                                                  
  23588464.107   123958206.163                                                  
  25758254.858   135360520.540                                                  
 21  9  1  7 14 45.0000000  0 20G 7G 8G 9G13G14G17G21G27G30C20C23C25
                                C32C34E 7E15E19E21E27E30
  20364230.799   107014771.891    20364229.995    83388137.819                  
  21682810.788   113943902.637    21682812.933    88787447.536                  
  22873771.841   120202443.915    22873774.200    93664232.289                  
  24017127.941   126210875.012    24017127.065    98346140.077                  
  22046125.175   115853175.620    22046125.657    90275205.335                  
  23980581.697   126018801.832    23980582.215    98196466.934                  
  23695832.115   124522437.196    23695831.400    97030470.855                  
  23965978.381   125942042.694    23965979.846    98136651.667                  
  21053134.974   110634937.125    21053136.779    86209033.528                  
                 137014682.905                   137014682.905    26312221.766  
                 117127252.731                   117127252.731    22493047.827  
                 118133112.290                   118133112.290    22686218.362  
                 129664550.644                   129664550.644    24900718.587  
                 121572974.704                   121572974.704    23346810.856  
  27197910.486   142925951.400                                                  
  26142462.707   137379535.239                                                  
  25195549.925   132403500.970                                                  
  25337547.725   133149687.110                                                  
  23588551.916   123958667.673                                                  
  25758648.155   135362587.251                                                  
 21  9  1  7 14 46.0000000  0 20G 7G 8G 9G13G14G17G21G27G30C20C23C25
                                C32C34E 7E15E19E21E27E30
  20364244.684   107014844.845    20364243.880    83388194.664                  
  21683201.298   113945954.802    21683203.460    88789046.626                  
  22874430.208   120205903.641    22874432.566    93666928.175                  
  24016522.807   126207694.938    24016521.895    98343662.102                  
  22045711.025   115850999.125    22045711.507    90273509.367                  
  23979886.163   126015146.703    23979886.681    98193618.782                  
  23695476.307   124520567.277    23695475.557    97029013.778                  
  23966629.939   125945466.656    23966631.404    98139319.691                  
  21052802.735   110633191.231    21052804.558    86207673.089                  
                 137013686.226                   137013686.226    26312030.353  
                 117126116.633                   117126116.633    22492829.646  
                 118134302.813                   118134302.813    22686446.978  
                 129666067.134                   129666067.134    24901009.799  
                 121573174.122                   121573174.122    23346849.168  
  27198502.272   142929061.337                                                  
  26142043.428   137377331.870                                                  
  25195407.867   132402754.437                                                  
  25337260.355   133148177.040                                                  
  23588639.760   123959129.332                                                  
  25759041.434   135364653.969                                                  
 21  9  1  7 14 47.0000000  0 20G 7G 8G 9G13G14G17G21G27G30C20C23C25
                                C32C34E 7E15E19E21E27E30
  20364258.639   107014918.191    20364257.835    83388251.819                  
  21683591.915   113948007.528    21683594.077    88790646.153                  
  22875088.628   120209363.608    22875090.986    93669624.253                  
  24015917.726   126204515.179    24015916.814    98341184.363                  
  22045296.892   115848822.912    22045297.375    90271813.614                  
  23979190.612   126011491.646    23979191.148    98190770.683                  
  23695120.517   124518697.723    23695119.802    97027556.980                  
  23967281.569   125948890.914    23967282.998    98141987.946                  
  21052470.586   110631445.624    21052472.373    86206312.879                  
                 137012690.055                   137012690.055    26311839.065  
                 117124980.718                   117124980.718    22492611.501  
                 118135493.546                   118135493.546    22686675.648  
                 129667584.046                   129667584.046    24901301.117  
                 121573374.109                   121573374.109    23346887.568  
  27199094.094   142932171.333                                                  
  26141624.185   137375128.798                                                  
  25195265.879   132402008.356                                                  
  25336973.021   133146667.111                                                  
  23588727.640   123959591.132                                                  
  25759434.714   135366720.689                                                  
 21  9  1  7 14 48.0000000  0 20G 7G 8G 9G13G14G17G21G27G30C20C23C25
                                C32C34E 7E15E19E21E27E30
  20364272.684   107014991.949    20364271.880    83388309.292                  
  21683982.639   113950060.794    21683984.801    88792246.102                  
  22875747.083   120212823.831    22875749.442    93672320.531                  
  24015312.681   126201335.710    24015311.787    98338706.859                  
  22044882.813   115846646.968    22044883.296    90270118.079                  
  23978495.113   126007836.767    23978495.632    98187922.727                  
  23694764.816   124516828.464    23694764.084    97026100.413                  
  23967933.216   125952315.456    23967934.682    98144656.419                  
  21052138.436   110629700.320    21052140.259    86204952.899                  
                 137011694.393                   137011694.393    26311647.831  
                 117123844.988                   117123844.988    22492393.392  
                 118136684.497                   118136684.497    22686904.354  
                 129669101.388                   129669101.388    24901592.508  
                 121573574.676                   121573574.676    23346926.076  
  27199685.916   142935281.346                                                  
  26141204.995   137372925.983                                                  
  25195123.999   132401262.731                                                  
  25336685.723   133145157.313                                                  
  23588815.537   123960053.090                                                  
  25759827.993   135368787.439                                                  
 21  9  1  7 14 49.0000000  0 20G 7G 8G 9G13G14G17G21G27G30C20C23C25
                                C32C34E 7E15E19E21E27E30
  20364286.801   107015066.111    20364285.997    83388367.081                  
  21684373.452   113952114.597    21684375.615    88793846.466                  
  22876405.575   120216284.285    22876407.933    93675016.988                  
  24014707.725   126198156.564    24014706.814    98336229.598                  
  22044468.824   115844471.304    22044469.288    90268422.753                  
  23977799.633   126004181.999    23977800.151    98185074.856                  
  23694409.187   124514959.558    23694408.437    97024644.125                  
  23968584.935   125955740.292    23968586.401    98147325.122                  
  21051806.376   110627955.309    21051808.199    86203593.153                  
                 137010699.238                   137010699.238    26311456.740  
                 117122709.443                   117122709.443    22492175.318  
                 118137875.665                   118137875.665    22687133.095  
                 129670619.152                   129670619.152    24901883.987  
                 121573775.809                   121573775.809    23346964.709  
  27200277.738   142938391.398                                                  
  26140785.877   137370723.454                                                  
  25194982.209   132400517.566                                                  
  25336398.443   133143647.645                                                  
  23588903.489   123960515.193                                                  
  25760221.308   135370854.182                                                  
 21  9  1  7 14 50.0000000  0 20G 7G 8G 9G13G14G17G21G27G30C20C23C25
                                C32C34E 7E15E19E21E27E30
  20364300.971   107015140.675    20364300.185    83388425.188                  
  21684764.409   113954168.960    21684766.553    88795447.268                  
  22877064.120   120219744.997    22877066.496    93677713.645                  
  24014102.805   126194977.731    24014101.893    98333752.586                  
  22044054.834   115842295.921    22044055.317    90266727.647                  
  23977104.189   126000527.364    23977104.725    98182227.091                  
  23694053.594   124513090.983    23694052.861    97023188.095                  
  23969236.726   125959165.406    23969238.173    98149994.040                  
  21051474.388   110626210.601    21051476.175    86202233.642                  
                 137009704.591                   137009704.591    26311265.720  
                 117121574.077                   117121574.077    22491957.280  
                 118139067.043                   118139067.043    22687361.908  
                 129672137.340                   129672137.340    24902175.520  
                 121573977.516                   121573977.516    23347003.449  
  27200869.560   142941501.491                                                  
  26140366.795   137368521.200                                                  
  25194840.472   132399772.864                                                  
  25336111.180   133142138.106                                                  
  23588991.440   123960977.433                                                  
  25760614.605   135372920.947                                                  
 21  9  1  7 14 51.0000000  0 20G 7G 8G 9G13G14G17G21G27G30C20C23C25
                                C32C34E 7E15E19E21E27E30
  20364315.266   107015215.659    20364314.462    83388483.612                  
  21685155.437   113956223.898    21685157.599    88797048.519                  
  22877722.718   120223205.950    22877725.095    93680410.489                  
  24013497.938   126191799.210    24013497.063    98331275.816                  
  22043640.934   115840120.814    22043641.417    90265032.761                  
  23976408.762   125996872.851    23976409.280    98179379.419                  
  23693698.071   124511222.735    23693697.357    97021732.317                  
  23969888.552   125962590.817    23969890.017    98152663.191                  
  21051142.417   110624466.183    21051144.240    86200874.353                  
                 137008710.450                   137008710.450    26311074.825  
                 117120438.903                   117120438.903    22491739.296  
                 118140258.636                   118140258.636    22687590.739  
                 129673655.956                   129673655.956    24902467.160  
                 121574179.798                   121574179.798    23347042.278  
  27201461.400   142944611.628                                                  
  26139947.785   137366319.225                                                  
  25194698.860   132399028.644                                                  
  25335823.954   133140628.702                                                  
  23589079.445   123961439.831                                                  
  25761007.884   135374987.711                                                  
 21  9  1  7 14 52.0000000  0 20G 7G 8G 9G13G14G17G21G27G30C20C23C25
                                C32C34E 7E15E19E21E27E30
  20364329.597   107015291.042    20364328.793    83388542.352                  
  21685546.572   113958279.380    21685548.734    88798650.191                  
  22878381.352   120226667.138    22878383.747    93683107.516                  
  24012893.161   126188620.988    24012892.268    98328799.282                  
  22043227.088   115837945.976    22043227.552    90263338.085                  
  23975713.335   125993218.457    23975713.871    98176531.836                  
  23693342.621   124509354.817    23693341.906    97020276.797                  
  23970540.432   125966016.516    23970541.897    98155332.567                  
  21050810.536   110622722.058    21050812.340    86199515.292                  
                 137007716.832                   137007716.832    26310884.002  
                 117119303.890                   117119303.890    22491521.312  
                 118141450.462                   118141450.462    22687819.623  
                 129675174.996                   129675174.996    24902758.872  
                 121574382.638                   121574382.638    23347081.233  
  27202053.258   142947721.808                                                  
  26139528.792   137364117.521                                                  
  25194557.337   132398284.876                                                  
  25335536.745   133139119.433                                                  
  23589167.468   123961902.374                                                  
  25761401.182   135377054.481                                                  
 21  9  1  7 14 53.0000000  0 20G 7G 8G 9G13G14G17G21G27G30C20C23C25
                                C32C34E 7E15E19E21E27E30
  20364344.018   107015366.827    20364343.214    83388601.406                  
  21685937.832   113960335.386    21685939.976    88800252.278                  
  22879040.058   120230128.569    22879042.417    93685804.738                  
  24012288.420   126185443.083    24012287.526    98326322.988                  
  22042813.277   115835771.421    22042813.759    90261643.629                  
  23975017.962   125989564.179    23975018.481    98173684.352                  
  23692987.242   124507487.243    23692986.527    97018821.546                  
  23971192.383   125969442.487    23971193.848    98158002.155                  
  21050478.708   110620978.239    21050480.495    86198156.472                  
                 137006723.703                   137006723.703    26310693.286  
                 117118169.085                   117118169.085    22491303.399  
                 118142642.486                   118142642.486    22688048.525  
                 129676694.461                   129676694.461    24903050.673  
                 121574586.063                   121574586.063    23347120.294  
  27202645.098   142950832.013                                                  
  26139109.906   137361916.094                                                  
  25194415.886   132397541.560                                                  
  25335249.554   133137610.288                                                  
  23589255.508   123962365.054                                                  
  25761794.479   135379121.266                                                  
 21  9  1  7 14 54.0000000  0 20G 7G 8G 9G13G14G17G21G27G30C20C23C25
                                C32C34E 7E15E19E21E27E30
  20364358.527   107015443.020    20364357.723    83388660.777                  
  21686329.181   113962391.927    21686331.343    88801854.778                  
  22879698.800   120233590.250    22879701.159    93688502.149                  
  24011683.732   126182265.472    24011682.839    98323846.929                  
  22042399.519   115833597.144    22042400.002    90259949.382                  
  23974322.607   125985910.028    23974323.125    98170836.962                  
  23692631.916   124505619.989    23692631.184    97017366.543                  
  23971844.388   125972868.749    23971845.836    98160671.970                  
  21050146.916   110619234.707    21050148.721    86196797.878                  
                 137005731.086                   137005731.086    26310502.659  
                 117117034.461                   117117034.461    22491085.504  
                 118143834.719                   118143834.719    22688277.481  
                 129678214.347                   129678214.347    24903342.564  
                 121574790.058                   121574790.058    23347159.481  
  27203236.974   142953942.279                                                  
  26138691.020   137359714.941                                                  
  25194274.524   132396798.710                                                  
  25334962.416   133136101.274                                                  
  23589343.585   123962827.878                                                  
  25762187.758   135381188.054                                                  
 21  9  1  7 14 55.0000000  0 20G 7G 8G 9G13G14G17G21G27G30C20C23C25
                                C32C34E 7E15E19E21E27E30
  20364373.108   107015519.624    20364372.304    83388720.468                  
  21686720.638   113964449.034    21686722.782    88803457.716                  
  22880357.577   120237052.175    22880359.936    93691199.755                  
  24011079.116   126179088.183    24011078.222    98321371.122                  
  22041985.816   115831423.138    22041986.298    90258255.351                  
  23973627.252   125982256.000    23973627.788    98167989.665                  
  23692276.662   124503753.081    23692275.912    97015911.812                  
  23972496.447   125976295.305    23972497.876    98163342.011                  
  21049815.177   110617491.471    21049817.000    86195439.515                  
                 137004738.978                   137004738.978    26310312.140  
                 117115900.023                   117115900.023    22490867.645  
                 118145027.172                   118145027.172    22688506.473  
                 129679734.664                   129679734.664    24903634.526  
                 121574994.625                   121574994.625    23347198.757  
  27203828.831   142957052.550                                                  
  26138272.224   137357514.075                                                  
  25194133.251   132396056.306                                                  
  25334675.279   133134592.401                                                  
  23589431.679   123963290.867                                                  
  25762581.055   135383254.859                                                  
 21  9  1  7 14 56.0000000  0 20G 7G 8G 9G13G14G17G21G27G30C20C23C25
                                C32C34E 7E15E19E21E27E30
  20364387.761   107015596.641    20364386.957    83388780.480                  
  21687112.184   113966506.658    21687114.346    88805061.059                  
  22881016.408   120240514.348    22881018.785    93693897.546                  
  24010474.553   126175911.200    24010473.660    98318895.546                  
  22041572.184   115829249.410    22041572.666    90256561.540                  
  23972931.933   125978602.092    23972932.469    98165142.464                  
  23691921.462   124501886.493    23691920.711    97014457.328                  
  23973148.541   125979722.145    23973150.006    98166012.278                  
  21049483.528   110615748.550    21049485.315    86194081.394                  
                 137003747.375                   137003747.375    26310121.691  
                 117114765.774                   117114765.774    22490649.822  
                 118146219.836                   118146219.836    22688735.518  
                 129681255.399                   129681255.399    24903926.559  
                 121575199.765                   121575199.765    23347238.158  
  27204420.725   142960162.875                                                  
  26137853.464   137355313.477                                                  
  25193992.086   132395314.398                                                  
  25334388.178   133133083.657                                                  
  23589519.791   123963753.993                                                  
  25762974.353   135385321.662                                                  
 21  9  1  7 14 57.0000000  0 20G 7G 8G 9G13G14G17G21G27G30C20C23C25
                                C32C34E 7E15E19E21E27E30
  20364402.485   107015674.055    20364401.681    83388840.804                  
  21687503.837   113968564.845    21687505.999    88806664.841                  
  22881675.275   120243976.763    22881677.651    93696595.536                  
  24009870.062   126172734.539    24009869.169    98316420.226                  
  22041158.587   115827075.961    22041159.052    90254867.945                  
  23972236.649   125974948.305    23972237.185    98162295.359                  
  23691566.315   124500020.249    23691565.582    97013003.114                  
  23973800.707   125983149.281    23973802.154    98168682.774                  
  21049151.897   110614005.910    21049153.720    86192723.488                  
                 137002756.279                   137002756.279    26309931.386  
                 117113631.702                   117113631.702    22490432.034  
                 118147412.714                   118147412.714    22688964.599  
                 129682776.562                   129682776.562    24904218.682  
                 121575405.476                   121575405.476    23347277.667  
  27205012.601   142963273.244                                                  
  26137434.739   137353113.163                                                  
  25193850.974   132394572.948                                                  
  25334101.094   133131575.046                                                  
  23589607.957   123964217.272                                                  
  25763367.685   135387388.487                                                  
 21  9  1  7 14 58.0000000  0 20G 7G 8G 9G13G14G17G21G27G30C20C23C25
                                C32C34E 7E15E19E21E27E30
  20364417.298   107015751.874    20364416.494    83388901.442                  
  21687895.598   113970623.563    21687897.760    88808269.039                  
  22882334.195   120247439.415    22882336.571    93699293.704                  
  24009265.625   126169558.181    24009264.713    98313945.141                  
  22040745.045   115824902.779    22040745.527    90253174.554                  
  23971541.383   125971294.644    23971541.901    98159448.348                  
  23691211.240   124498154.345    23691210.525    97011549.160                  
  23974452.926   125986576.697    23974454.373    98171353.489                  
  21048820.337   110612263.575    21048822.160    86191365.825                  
                 137001765.691                   137001765.691    26309741.135  
                 117112497.826                   117112497.826    22490214.282  
                 118148605.808                   118148605.808    22689193.715  
                 129684298.150                   129684298.150    24904510.876  
                 121575611.762                   121575611.762    23347317.282  
  27205604.476   142966383.636                                                  
  26137016.103   137350913.134                                                  
  25193709.952   132393831.944                                                  
  25333814.046   133130066.554                                                  
  23589696.159   123964680.695                                                  
  25763760.983   135389455.308                                                  
 21  9  1  7 14 59.0000000  0 20G 7G 8G 9G13G14G17G21G27G30C20C23C25
                                C32C34E 7E15E19E21E27E30
  20364432.183   107015830.106    20364431.379    83388962.402                  
  21688287.483   113972682.841    21688289.645    88809873.667                  
  22882993.186   120250902.319    22882995.545    93701992.071                  
  24008661.241   126166382.136    24008660.347    98311470.301                  
  22040331.555   115822729.884    22040332.020    90251481.390                  
  23970846.135   125967641.094    23970846.653    98156601.429                  
  23690856.236   124496288.769    23690855.503    97010095.469                  
  23975105.181   125990004.402    23975106.646    98174024.426                  
  21048488.831   110610521.531    21048490.654    86190008.390                  
                 137000775.609                   137000775.609    26309551.008  
                 117111364.126                   117111364.126    22489996.584  
                 118149799.116                   118149799.116    22689422.885  
                 129685820.159                   129685820.159    24904803.178  
                 121575818.618                   121575818.618    23347357.005  
  27206196.388   142969494.075                                                  
  26136597.504   137348713.362                                                  
  25193569.055   132393091.410                                                  
  25333527.016   133128558.204                                                  
  23589784.360   123965144.262                                                  
  25764154.280   135391522.151                                                  
 21  9  1  7 15  0.0000000  0 20G 7G 8G 9G13G14G17G21G27G30C20C23C25
                                C32C34E 7E15E19E21E27E30
  20364447.140   107015908.738    20364446.336    83389023.671                  
  21688679.440   113974742.680    21688681.602    88811478.739                  
  22883652.196   120254365.470    22883654.555    93704690.625                  
  24008056.928   126163206.403    24008056.017    98308995.706                  
  22039918.120   115820557.268    22039918.602    90249788.445                  
  23970150.923   125963987.679    23970151.441    98153754.610                  
  23690501.303   124494423.528    23690500.553    97008642.030                  
  23975757.525   125993432.390    23975758.955    98176695.585                  
  21048157.397   110608779.786    21048159.219    86188651.184                  
                 136999786.039                   136999786.039    26309360.971  
                 117110230.613                   117110230.613    22489778.903  
                 118150992.640                   118150992.640    22689652.073  
                 129687342.593                   129687342.593    24905095.533  
                 121576026.047                   121576026.047    23347396.835  
  27206788.281   142972604.555                                                  
  26136178.940   137346513.867                                                  
  25193428.211   132392351.348                                                  
  25333240.003   133127049.985                                                  
  23589872.597   123965607.972                                                  
  25764547.595   135393588.998                                                  
 21  9  1  7 15  1.0000000  0 20G 7G 8G 9G13G14G17G21G27G30C20C23C25
                                C32C34E 7E15E19E21E27E30
  20364462.185   107015987.777    20364461.381    83389085.263                  
  21689071.522   113976803.068    21689073.684    88813084.233                  
  22884311.259   120257828.847    22884313.618    93707389.363                  
  24007452.651   126160030.989    24007451.758    98306521.356                  
  22039504.738   115818384.923    22039505.202    90248095.708                  
  23969455.693   125960334.367    23969456.247    98150907.875                  
  23690146.424   124492558.619    23690145.674    97007188.856                  
  23976409.906   125996860.665    23976411.335    98179366.969                  
  21047826.016   110607038.335    21047827.820    86187294.212                  
                 136998796.972                   136998796.972    26309171.042  
                 117109097.286                   117109097.286    22489561.259  
                 118152186.379                   118152186.379    22689881.333  
                 129688865.454                   129688865.454    24905387.995  
                 121576234.048                   121576234.048    23347436.772  
  27207380.192   142975715.067                                                  
  26135760.447   137344314.659                                                  
  25193287.475   132391611.744                                                  
  25332953.027   133125541.890                                                  
  23589960.888   123966071.841                                                  
  25764940.892   135395655.847                                                  
 21  9  1  7 15  2.0000000  0 20G 7G 8G 9G13G14G17G21G27G30C20C23C25
                                C32C34E 7E15E19E21E27E30
  20364477.303   107016067.221    20364476.499    83389147.167                  
  21689463.694   113978863.972    21689465.856    88814690.133                  
  22884970.358   120261292.476    22884972.717    93710088.293                  
  24006848.464   126156855.884    24006847.553    98304047.245                  
  22039091.392   115816212.847    22039091.874    90246403.183                  
  23968760.534   125956681.190    23968761.052    98148061.246                  
  23689791.599   124490694.044    23689790.867    97005735.941                  
  23977062.322   126000289.233    23977063.787    98182038.583                  
  21047494.688   110605297.189    21047496.493    86185937.472                  
                 136997808.417                   136997808.417    26308981.201  
                 117107964.141                   117107964.141    22489343.632  
                 118153380.328                   118153380.328    22690110.628  
                 129690388.739                   129690388.739    24905680.511  
                 121576442.620                   121576442.620    23347476.835  
  27207972.122   142978825.629                                                  
  26135342.008   137342115.733                                                  
  25193146.828   132390872.591                                                  
  25332666.086   133124033.939                                                  
  23590049.179   123966535.844                                                  
  25765334.225   135397722.702                                                  
 21  9  1  7 15  3.0000000  0 20G 7G 8G 9G13G14G17G21G27G30C20C23C25
                                C32C34E 7E15E19E21E27E30
  20364492.491   107016147.071    20364491.705    83389209.388                  
  21689855.972   113980925.443    21689858.135    88816296.476                  
  22885629.529   120264756.340    22885631.887    93712787.405                  
  24006244.312   126153681.083    24006243.419    98301573.375                  
  22038678.117   115814041.056    22038678.599    90244710.879                  
  23968065.376   125953028.137    23968065.894    98145214.711                  
  23689436.846   124488829.797    23689436.113    97004283.281                  
  23977714.827   126003718.089    23977716.274    98184710.419                  
  21047163.414   110603556.324    21047165.219    86184580.957                  
                 136996820.368                   136996820.368    26308791.432  
                 117106831.183                   117106831.183    22489126.059  
                 118154574.497                   118154574.497    22690339.941  
                 129691912.446                   129691912.446    24905973.134  
                 121576651.767                   121576651.767    23347517.004  
  27208564.033   142981936.203                                                  
  26134923.623   137339917.074                                                  
  25193006.252   132390133.900                                                  
  25332379.145   133122526.105                                                  
  23590137.506   123966999.992                                                  
  25765727.522   135399789.581                                                  
 21  9  1  7 15  4.0000000  0 20G 7G 8G 9G13G14G17G21G27G30C20C23C25
                                C32C34E 7E15E19E21E27E30
  20364507.751   107016227.325    20364506.965    83389271.921                  
  21690248.376   113982987.453    21690250.538    88817903.235                  
  22886288.717   120268220.448    22886291.076    93715486.712                  
  24005640.214   126150506.597    24005639.339    98299099.749                  
  22038264.896   115811869.540    22038265.378    90243018.789                  
  23967370.235   125949375.200    23967370.789    98142368.265                  
  23689082.145   124486965.874    23689081.413    97002830.876                  
  23978367.368   126007147.218    23978368.815    98187382.465                  
  21046832.194   110601815.774    21046833.999    86183224.683                  
                 136995832.828                   136995832.828    26308601.806  
                 117105698.409                   117105698.409    22488908.539  
                 118155768.876                   118155768.876    22690569.326  
                 129693436.578                   129693436.578    24906265.829  
                 121576861.481                   121576861.481    23347557.281  
  27209155.980   142985046.827                                                  
  26134505.273   137337718.694                                                  
  25192865.784   132389395.686                                                  
  25332092.240   133121018.412                                                  
  23590225.868   123967464.301                                                  
  25766120.837   135401856.457                                                  
 21  9  1  7 15  5.0000000  0 20G 7G 8G 9G13G14G17G21G27G30C20C23C25
                                C32C34E 7E15E19E21E27E30
  20364523.119   107016307.987    20364522.315    83389334.777                  
  21690640.851   113985050.004    21690643.014    88819510.417                  
  22886947.959   120271684.805    22886950.317    93718186.206                  
  24005036.206   126147332.422    24005035.294    98296626.368                  
  22037851.728   115809698.298    22037852.193    90241326.909                  
  23966675.148   125945722.384    23966675.666    98139521.914                  
  23688727.517   124485102.305    23688726.802    97001378.747                  
  23979019.962   126010576.643    23979021.428    98190054.747                  
  21046501.045   110600075.511    21046502.832    86181868.637                  
                 136994845.796                   136994845.796    26308412.251  
                 117104565.820                   117104565.820    22488691.037  
                 118156963.473                   118156963.473    22690798.729  
                 129694961.132                   129694961.132    24906558.595  
                 121577071.768                   121577071.768    23347597.665  
  27209747.927   142988157.501                                                  
  26134086.995   137335520.611                                                  
  25192725.387   132388657.913                                                  
  25331805.353   133119510.845                                                  
  23590314.248   123967928.751                                                  
  25766514.152   135403923.356                                                  
 21  9  1  7 15  6.0000000  0 20G 7G 8G 9G13G14G17G21G27G30C20C23C25
                                C32C34E 7E15E19E21E27E30
  20364538.540   107016389.075    20364537.736    83389397.960                  
  21691033.452   113987113.103    21691035.614    88821118.027                  
  22887607.236   120275149.399    22887609.613    93720885.891                  
  24004432.233   126144158.531    24004431.339    98294153.207                  
  22037438.596   115807527.332    22037439.079    90239635.249                  
  23965980.061   125942069.694    23965980.579    98136675.665                  
  23688372.960   124483239.063    23688372.227    96999926.867                  
  23979672.593   126014006.362    23979674.058    98192727.255                  
  21046169.932   110598335.550    21046171.737    86180512.823                  
                 136993859.271                   136993859.271    26308222.804  
                 117103433.417                   117103433.417    22488473.553  
                 118158158.282                   118158158.282    22691028.185  
                 129696486.109                   129696486.109    24906851.468  
                 121577282.634                   121577282.634    23347638.139  
  27210339.857   142991268.210                                                  
  26133668.753   137333322.811                                                  
  25192585.079   132387920.636                                                  
  25331518.502   133118003.421                                                  
  23590402.646   123968393.336                                                  
  25766907.485   135405990.247                                                  
 21  9  1  7 15  7.0000000  0 20G 7G 8G 9G13G14G17G21G27G30C20C23C25
                                C32C34E 7E15E19E21E27E30
  20364554.068   107016470.561    20364553.264    83389461.456                  
  21691426.159   113989176.754    21691428.321    88822726.071                  
  22888266.585   120278614.223    22888268.944    93723585.753                  
  24003828.313   126140984.949    24003827.420    98291680.281                  
  22037025.536   115805356.653    22037026.000    90237943.813                  
  23965284.991   125938417.134    23965285.528    98133829.516                  
  23688018.456   124481376.157    23688017.723    96998475.255                  
  23980325.312   126017436.371    23980326.778    98195399.989                  
  21045838.873   110596595.886    21045840.696    86179157.238                  
                 136992873.254                   136992873.254    26308033.446  
                 117102301.198                   117102301.198    22488256.141  
                 118159353.304                   118159353.304    22691257.659  
                 129698011.512                   129698011.512    24907144.395  
                 121577494.067                   121577494.067    23347678.755  
  27210931.822   142994378.954                                                  
  26133250.600   137331125.297                                                  
  25192444.861   132387183.802                                                  
  25331231.686   133116496.124                                                  
  23590491.080   123968858.061                                                  
  25767300.800   135408057.163                                                  
 21  9  1  7 15  8.0000000  0 20G 7G 8G 9G13G14G17G21G27G30C20C23C25
                                C32C34E 7E15E19E21E27E30
  20364569.614   107016552.403    20364568.828    83389525.231                  
  21691818.956   113991240.941    21691821.118    88824334.527                  
  22888925.988   120282079.349    22888928.347    93726285.849                  
  24003224.483   126137811.762    24003223.572    98289207.673                  
  22036612.511   115803186.249    22036612.994    90236252.590                  
  23964589.958   125934764.696    23964590.476    98130983.456                  
  23687664.024   124479513.563    23687663.274    96997023.883                  
  23980978.086   126020866.630    23980979.533    98198072.918                  
  21045507.903   110594856.536    21045509.708    86177801.898                  
                 136991887.747                   136991887.747    26307844.177  
                 117101169.168                   117101169.168    22488038.746  
                 118160548.543                   118160548.543    22691487.204  
                 129699537.339                   129699537.339    24907437.411  
                 121577706.070                   121577706.070    23347719.460  
  27211523.787   142997489.722                                                  
  26132832.465   137328927.985                                                  
  25192304.732   132386447.423                                                  
  25330944.853   133114988.951                                                  
  23590579.567   123969322.989                                                  
  25767694.115   135410124.060                                                  
