     2.11           OBSERVATION DATA    M (MIXED)           RINEX VERSION / TYPE
CONVBIN 2.4.3                           20210831 165258 UTC PGM / RUN BY / DATE 
log: logs/21_08_31_07_48_00_txan_SNTX.rtcm                  COMMENT             
format: RTCM 3, station ID: 3933                            COMMENT             
3933                                                        MARKER NAME         
                                                            MARKER NUMBER       
                                                            OBSERVER / AGENCY   
495901              LEICA GRX1200+GNSS  9.20                REC # / TYPE / VERS 
                    GPPNULLANTENNA                          ANT # / TYPE        
  -828613.5211 -5494104.9796  3121406.3469                  APPROX POSITION XYZ 
        0.0000        0.0000        0.0000                  ANTENNA: DELTA H/E/N
     1     1                                                WAVELENGTH FACT L1/2
     7    C1    L1    C2    L2    P2    C5    L5            # / TYPES OF OBSERV 
  2021     8    31     7    48    7.0000000     GPS         TIME OF FIRST OBS   
  2021     8    31     8    18    4.0000000     GPS         TIME OF LAST OBS    
                                                            END OF HEADER       
 21  8 31  7 48  7.0000000  0 17G 1G 7G 8G 9G13G14G17G21G30R 2R 3R12
                                R21R22E 4E31E33
  22641508.994   118981932.399    22641508.155    92713189.397    22641507.851  
  22641506.832    88850135.5461 
  20312836.952   106744678.897    20312831.984    83177649.038    20312831.538  
                                
  22901323.016   120347265.239    22901321.283    93777075.510    22901319.728  
  22901319.942    89869698.334  
  23016318.827   120951571.646    23016316.236    94247965.186    23016315.825  
  23016316.576    90320969.549  
  24244919.405   127407910.978                    99278874.986    24244915.241  
                                
  21982926.533   115521058.427    21982921.440    90016385.432    21982920.868  
  21982925.264    86265720.015  
  22095520.783   116112744.746    22095516.245    90477442.215    22095515.619  
                                
  22611808.194   118825853.894                    92591552.313    22611802.869  
                                
  21113497.069   110952175.822    21113495.157    86456230.638    21113494.550  
  21113494.478    82853886.731  
  21852551.836   116609404.029                    90696209.099    21852553.337  
                                
  23076415.925   123529861.108                    96078770.553    23076413.495  
                                
  20539119.823   109716291.308                    85334897.548    20539120.806  
                                
  21637169.641   115784864.756                    90054900.295    21637170.749  
                                
  19848706.771   105953744.246                    82408463.447    19848705.645  
                                
  25650373.723   134793623.526                                                  
  25650373.687   100657575.764  
  24571363.868   129123389.522                                                  
  24571365.494    96423315.663  
  25389745.178   133424011.635                                                  
  25389744.731    99634812.071  
 21  8 31  7 48  8.0000000  0 17G 1G 7G 8G 9G13G14G17G21G30R 2R 3R12
                                R21R22E 4E31E33
  22641040.486   118979470.429    22641039.682    92711270.978    22641039.361  
  22641038.342    88848297.0721 
  20312808.058   106744527.036    20312803.090    83177530.703    20312802.626  
                                
  22901931.331   120350462.001    22901929.651    93779566.482    22901928.079  
  22901928.240    89872085.531  
  23016953.928   120954909.012    23016951.337    94250565.733    23016950.890  
  23016951.659    90323461.740  
  24244380.832   127405080.685                    99276669.565    24244376.597  
                                
  21982675.008   115519736.811    21982669.952    90015355.596    21982669.380  
  21982673.775    86264733.086  
  22094990.055   116109955.850    22094985.552    90475269.055    22094984.909  
                                
  22611750.692   118825551.749                    92591316.870    22611745.367  
                                
  21113134.525   110950270.520    21113132.577    86454745.985    21113131.987  
  21113131.880    82852463.936  
  21852968.595   116611627.876                    90697938.763    21852970.096  
                                
  23076264.378   123529049.849                    96078139.574    23076261.948  
                                
  20538934.718   109715302.467                    85334128.450    20538935.683  
                                
  21637637.023   115787365.830                    90056845.573    21637638.149  
                                
  19848478.548   105952526.047                    82407515.956    19848477.422  
                                
  25650829.722   134796019.740                                                  
  25650829.687   100659365.150  
  24571256.529   129122825.419                                                  
  24571258.172    96422894.421  
  25389327.025   133421814.238                                                  
  25389326.542    99633171.155  
 21  8 31  7 48  9.0000000  0 17G 1G 7G 8G 9G13G14G17G21G30R 2R 3R12
                                R21R22E 4E31E33
  22640572.032   118977008.667    22640571.210    92709352.720    22640570.871  
  22640569.852    88846458.7291 
  20312779.217   106744375.469    20312774.232    83177412.599    20312773.803  
                                
  22902539.646   120353658.830    22902537.966    93782057.515    22902536.448  
  22902536.555    89874472.778  
  23017589.029   120958246.372    23017586.402    94253166.273    23017585.955  
  23017586.724    90325953.933  
  24243842.331   127402250.639                    99274464.321    24243838.043  
                                
  21982423.502   115518415.211    21982418.463    90014325.776    21982417.891  
  21982422.287    86263746.171  
  22094459.399   116107167.202    22094454.878    90473096.081    22094454.253  
                                
  22611693.279   118825249.999                    92591081.743    22611687.936  
                                
  21112771.962   110948365.353    21112770.050    86453261.439    21112769.443  
  21112769.336    82851041.235  
  21853385.408   116613852.111                    90699668.721    21853386.927  
                                
  23076112.938   123528239.212                    96077509.078    23076110.526  
                                
  20538749.577   109714313.585                    85333359.319    20538750.560  
                                
  21638104.530   115789867.481                    90058791.301    21638105.674  
                                
  19848250.450   105951308.635                    82406569.078    19848249.377  
                                
  25651285.722   134798416.008                                                  
  25651285.686   100661154.568  
  24571149.154   129122261.198                                                  
  24571150.798    96422473.085  
  25388908.925   133419616.949                                                  
  25388908.407    99631530.332  
 21  8 31  7 48 10.0000000  0 17G 1G 7G 8G 9G13G14G17G21G30R 2R 3R12
                                R21R22E 4E31E33
  22640103.631   118974547.029    22640102.792    92707434.561    22640102.434  
  22640101.398    88844620.4921 
  20312750.412   106744224.180    20312745.463    83177294.712    20312744.998  
                                
  22903147.979   120356855.718    22903146.335    93784548.597    22903144.816  
  22903144.870    89876860.062  
  23018224.094   120961583.705    23018221.467    94255766.797    23018221.038  
  23018221.771    90328446.104  
  24243303.831   127399420.756                    99272259.218    24243299.578  
                                
  21982171.995   115517093.574    21982166.956    90013295.931    21982166.420  
  21982170.798    86262759.245  
  22093928.778   116104378.734    22093924.240    90470923.251    22093923.632  
                                
  22611635.937   118824948.585                    92590846.870    22611630.594  
                                
  21112409.436   110946460.276    21112407.524    86451776.966    21112406.934  
  21112406.809    82849618.615  
  21853802.293   116616076.683                    90701398.943    21853803.829  
                                
  23075961.605   123527429.146                    96076879.027    23075959.193  
                                
  20538564.436   109713324.625                    85332590.130    20538565.419  
                                
  21638572.145   115792369.670                    90060737.450    21638573.252  
                                
  19848022.530   105950091.867                    82405622.700    19848021.422  
                                
  25651741.722   134800812.252                                                  
  25651741.704   100662943.975  
  24571041.743   129121696.795                                                  
  24571043.405    96422051.622  
  25388490.808   133417419.746                                                  
  25388490.254    99629889.565  
 21  8 31  7 48 11.0000000  0 17G 1G 7G 8G 9G13G14G17G21G30R 2R 3R12
                                R21R22E 4E31E33
  22639635.213   118972085.581    22639634.409    92705516.549    22639634.051  
  22639632.979    88842782.4051 
  20312721.679   106744073.206    20312716.711    83177177.074    20312716.265  
                                
  22903756.312   120360052.705    22903754.722    93787039.760    22903753.203  
  22903753.221    89879247.432  
  23018859.195   120964921.077    23018856.550    94258367.349    23018856.103  
  23018856.836    90330938.295  
  24242765.383   127396591.150                    99270054.339    24242761.041  
                                
  21981920.489   115515771.980    21981915.468    90012266.120    21981914.932  
  21981919.310    86261772.339  
  22093398.211   116101590.550    22093393.690    90468750.640    22093393.065  
                                
  22611578.667   118824647.589                    92590612.333    22611573.306  
                                
  21112046.945   110944555.365    21112045.033    86450292.622    21112044.443  
  21112044.300    82848196.123  
  21854219.248   116618301.683                    90703129.502    21854220.803  
                                
  23075810.398   123526619.722                    96076249.475    23075808.021  
                                
  20538379.277   109712335.641                    85331820.923    20538380.278  
                                
  21639039.866   115794872.480                    90062684.081    21639040.992  
                                
  19847794.754   105948875.900                    82404676.953    19847793.628  
                                
  25652197.739   134803208.579                                                  
  25652197.739   100664733.436  
  24570934.314   129121132.295                                                  
  24570935.976    96421630.082  
  25388072.744   133415222.686                                                  
  25388072.155    99628248.906  
 21  8 31  7 48 12.0000000  0 17G 1G 7G 8G 9G13G14G17G21G30R 2R 3R12
                                R21R22E 4E31E33
  22639166.866   118969624.465    22639166.062    92703598.792    22639165.704  
  22639164.650    88840944.5611 
  20312693.035   106743922.704    20312688.085    83177059.795    20312687.621  
                                
  22904364.717   120363249.948    22904363.126    93789531.116    22904361.625  
  22904361.607    89881634.975  
  23019494.313   120968258.607    23019491.651    94260968.024    23019491.186  
  23019491.955    90333430.604  
  24242227.007   127393761.928                    99267849.748    24242222.647  
                                
  21981669.018   115514450.551    21981664.015    90011236.437    21981663.479  
  21981667.857    86260785.562  
  22092867.716   116098802.748    22092863.195    90466578.329    22092862.552  
                                
  22611521.486   118824347.134                    92590378.205    22611516.107  
                                
  21111684.507   110942650.740    21111682.595    86448808.499    21111682.006  
  21111681.863    82846773.841  
  21854636.293   116620527.244                    90704860.489    21854637.884  
                                
  23075659.351   123525811.082                    96075620.530    23075656.974  
                                
  20538194.154   109711346.729                    85331051.771    20538195.137  
                                
  21639507.713   115797375.981                    90064631.250    21639508.839  
                                
  19847567.120   105947660.828                    82403731.901    19847565.995  
                                
  25652653.774   134805605.104                                                  
  25652653.792   100666523.047  
  24570826.904   129120567.821                                                  
  24570828.565    96421208.555  
  25387654.716   133413025.890                                                  
  25387654.091    99626608.435  
 21  8 31  7 48 13.0000000  0 17G 1G 7G 8G 9G13G14G17G21G30R 2R 3R12
                                R21R22E 4E31E33
  22638698.662   118967163.922    22638697.858    92701681.485    22638697.500  
  22638696.410    88839107.1421 
  20312664.516   106743772.874    20312659.566    83176943.044    20312659.120  
                                
  22904973.210   120366447.626    22904971.620    93792022.804    22904970.119  
  22904970.066    89884022.851  
  23020129.521   120971596.542    23020126.841    94263569.015    23020126.394  
  23020127.127    90335923.211  
  24241688.721   127390933.305                    99265645.632    24241684.361  
                                
  21981417.619   115513129.536    21981412.651    90010207.073    21981412.097  
  21981416.493    86259799.087  
  22092337.345   116096015.553    22092332.807    90464406.486    22092332.163  
                                
  22611464.484   118824047.456                    92590144.688    22611459.069  
                                
  21111322.177   110940746.641    21111320.247    86447324.785    21111319.675  
  21111319.497    82845351.946  
  21855053.517   116622753.583                    90706592.083    21855055.090  
                                
  23075508.465   123525003.437                    96074992.360    23075506.106  
                                
  20538009.085   109710358.154                    85330282.875    20538010.086  
                                
  21639975.774   115799880.447                    90066579.170    21639976.864  
                                
  19847339.755   105946446.909                    82402787.737    19847338.611  
                                
  25653109.917   134808002.038                                                  
  25653109.935   100668312.967  
  24570719.547   129120003.606                                                  
  24570721.190    96420787.221  
  25387236.796   133410829.594                                                  
  25387236.135    99624968.348  
 21  8 31  7 48 14.0000000  0 17G 1G 7G 8G 9G13G14G17G21G30R 2R 3R12
                                R21R22E 4E31E33
  22638230.511   118964703.833    22638229.725    92699764.540    22638229.385  
  22638228.260    88837270.0731 
  20312636.122   106743623.637    20312631.154    83176826.758    20312630.726  
                                
  22905581.776   120369645.667    22905580.185    93794514.784    22905578.702  
  22905578.613    89886411.002  
  23020764.783   120974934.756    23020762.103    94266170.216    23020761.602  
  23020762.353    90338416.034  
  24241150.560   127388105.171                    99263441.878    24241146.182  
                                
  21981166.291   115511808.805    21981161.324    90009177.934    21981160.787  
  21981165.183    86258812.825  
  22091807.046   116093228.883    22091802.508    90462235.055    22091801.864  
                                
  22611407.607   118823748.448                    92589911.692    22611402.174  
                                
  21110959.918   110938842.968    21110958.006    86445841.401    21110957.417  
  21110957.238    82843930.367  
  21855470.848   116624980.610                    90708324.213    21855472.439  
                                
  23075357.722   123524196.698                    96074364.896    23075355.417  
                                
  20537824.033   109709369.836                    85329514.187    20537825.070  
                                
  21640443.978   115802385.794                    90068527.779    21640445.068  
                                
  19847112.514   105945234.001                    82401844.367    19847111.389  
                                
  25653566.095   134810399.295                                                  
  25653566.113   100670103.133  
  24570612.189   129119439.532                                                  
  24570613.869    96420366.003  
  25386818.929   133408633.696                                                  
  25386818.250    99623328.552  
 21  8 31  7 48 15.0000000  0 17G 1G 7G 8G 9G13G14G17G21G30R 2R 3R12
                                R21R22E 4E31E33
  22637762.486   118962244.213    22637761.682    92697847.960    22637761.324  
  22637760.198    88835433.3441 
  20312607.853   106743474.989    20312602.886    83176710.926    20312602.421  
                                
  22906190.395   120372844.057    22906188.858    93797007.038    22906187.357  
  22906187.214    89888799.420  
  23021400.063   120978273.263    23021397.400    94268771.645    23021396.882  
  23021397.650    90340909.081  
  24240612.488   127385277.581                    99261238.557    24240608.145  
                                
  21980914.999   115510488.380    21980910.067    90008149.029    21980909.513  
  21980913.909    86257826.799  
  22091276.872   116090442.751    22091272.334    90460064.043    22091271.690  
                                
  22611350.855   118823450.105                    92589679.217    22611345.387  
                                
  21110597.731   110936939.705    21110595.837    86444358.337    21110595.247  
  21110595.051    82842509.106  
  21855888.304   116627208.310                    90710056.866    21855889.930  
                                
  23075207.175   123523390.870                    96073738.139    23075204.906  
                                
  20537639.089   109708381.759                    85328745.681    20537640.090  
                                
  21640912.325   115804892.011                    90070477.058    21640913.451  
                                
  19846885.471   105944022.139                    82400901.807    19846884.381  
                                
  25654022.345   134812796.892                                                  
  25654022.399   100671893.546  
  24570504.886   129118875.625                                                  
  24570506.566    96419944.904  
  25386401.151   133406438.206                                                  
  25386400.436    99621689.065  
 21  8 31  7 48 16.0000000  0 17G 1G 7G 8G 9G13G14G17G21G30R 2R 3R12
                                R21R22E 4E31E33
  22637294.496   118959784.972    22637293.710    92695931.671    22637293.334  
  22637292.209    88833596.8961 
  20312579.638   106743326.850    20312574.706    83176595.493    20312574.224  
                                
  22906799.103   120376042.750    22906797.531    93799499.533    22906796.083  
  22906795.869    89891188.041  
  23022035.431   120981611.991    23022032.733    94271373.244    23022032.215  
  23022032.983    90343402.274  
  24240074.505   127382450.433                    99259035.585    24240070.109  
                                
  21980663.761   115509168.175    21980658.847    90007120.300    21980658.311  
  21980662.706    86256840.932  
  22090746.752   116087657.055    22090742.231    90457893.369    22090741.588  
                                
  22611294.210   118823152.373                    92589447.218    22611288.742  
                                
  21110235.615   110935036.803    21110233.721    86442875.556    21110233.114  
  21110232.917    82841088.100  
  21856305.886   116629436.624                    90711789.997    21856307.512  
                                
  23075056.789   123522585.847                    96073112.010    23075054.538  
                                
  20537454.127   109707393.849                    85327977.306    20537455.145  
                                
  21641380.815   115807398.972                    90072426.917    21641381.941  
                                
  19846658.588   105942811.266                    82399960.018    19846657.569  
                                
  25654478.666   134815194.741                                                  
  25654478.702   100673684.139  
  24570397.600   129118311.800                                                  
  24570399.280    96419523.864  
  25385983.427   133404243.045                                                  
  25385982.712    99620049.821  
 21  8 31  7 48 17.0000000  0 17G 1G 7G 8G 9G13G14G17G21G30R 2R 3R12
                                R21R22E 4E31E33
  22636826.578   118957325.990    22636825.791    92694015.580    22636825.398  
  22636824.273    88831759.6391 
  20312551.530   106743179.077    20312546.580    83176480.345    20312546.116  
                                
  22907407.811   120379241.562    22907406.275    93801992.110    22907404.809  
  22907404.541    89893576.762  
  23022670.782   120984950.797    23022668.102    94273974.907    23022667.548  
  23022668.316    90345895.525  
  24239536.576   127379623.568                    99256832.850    24239532.162  
                                
  21980412.540   115507848.063    21980407.644    90006091.637    21980407.090  
  21980411.504    86255855.126  
  22090216.703   116084871.647    22090212.218    90455722.924    22090211.539  
                                
  22611237.672   118822855.087                    92589215.567    22611232.186  
                                
  21109873.553   110933134.101    21109871.659    86441392.933    21109871.052  
  21109870.837    82839667.251  
  21856723.556   116631665.400                    90713523.490    21856725.182  
                                
  23074906.493   123521781.520                    96072486.422    23074904.313  
                                
  20537269.182   109706405.960                    85327208.944    20537270.219  
                                
  21641849.448   115809906.528                    90074377.238    21641850.574  
                                
  19846431.919   105941601.172                    82399018.831    19846430.883  
                                
  25654934.970   134817592.687                                                  
  25654935.023   100675474.811  
  24570290.279   129117747.910                                                  
  24570291.977    96419102.773  
  25385565.756   133402048.066                                                  
  25385565.006    99618410.702  
 21  8 31  7 48 18.0000000  0 17G 1G 7G 8G 9G13G14G17G21G30R 2R 3R12
                                R21R22E 4E31E33
  22636358.659   118954867.224    22636357.909    92692099.659    22636357.516  
  22636356.372    88829923.5481 
  20312523.476   106743031.644    20312518.526    83176365.460    20312518.061  
                                
  22908016.555   120382440.478    22908015.001    93804484.767    22908013.535  
  22908013.249    89895965.567  
  23023306.151   120988289.648    23023303.471    94276576.598    23023302.917  
  23023303.685    90348388.825  
  24238998.700   127376796.949                    99254630.304    24238994.305  
                                
  21980161.301   115506528.001    21980156.423    90005063.015    21980155.905  
  21980160.319    86254869.367  
  22089686.708   116082086.524    22089682.241    90453552.698    22089681.544  
                                
  22611181.170   118822558.236                    92588984.251    22611175.720  
                                
  21109511.527   110931231.578    21109509.597    86439910.445    21109509.025  
  21109508.793    82838246.533  
  21857141.316   116633894.662                    90715257.358    21857142.942  
                                
  23074756.375   123520977.866                    96071861.355    23074754.213  
                                
  20537084.256   109705418.053                    85326440.569    20537085.274  
                                
  21642318.153   115812414.714                    90076328.049    21642319.296  
                                
  19846205.340   105940391.859                    82398078.249    19846204.321  
                                
  25655391.327   134819990.724                                                  
  25655391.380   100677265.540  
  24570182.958   129117183.927                                                  
  24570184.655    96418681.616  
  25385148.104   133399853.245                                                  
  25385147.335    99616771.709  
 21  8 31  7 48 19.0000000  0 17G 1G 7G 8G 9G13G14G17G21G30R 2R 3R12
                                R21R22E 4E31E33
  22635890.866   118952408.905    22635890.116    92690184.076    22635889.705  
  22635888.561    88828087.7721 
  20312495.511   106742884.796    20312490.597    83176251.031    20312490.114  
                                
  22908625.371   120385639.763    22908623.834    93806977.702    22908622.351  
  22908622.011    89898354.635  
  23023941.574   120991628.754    23023938.893    94279178.498    23023938.304  
  23023939.072    90350882.322  
  24238460.914   127373970.849                    99252428.150    24238456.501  
                                
  21979910.170   115505208.227    21979905.310    90004034.615    21979904.756  
  21979909.170    86253883.817  
  22089156.820   116079301.897    22089152.353    90451382.854    22089151.656  
                                
  22611124.829   118822262.029                    92588753.441    22611119.344  
                                
  21109149.554   110929329.474    21109147.642    86438428.282    21109147.052  
  21109146.820    82836826.122  
  21857559.183   116636124.567                    90716991.728    21857560.827  
                                
  23074606.437   123520175.093                    96071236.977    23074604.256  
                                
  20536899.347   109704430.340                    85325672.348    20536900.383  
                                
  21642787.072   115814923.793                    90078279.553    21642788.180  
                                
  19845978.993   105939183.586                    82397138.481    19845977.992  
                                
  25655847.719   134822389.061                                                  
  25655847.773   100679056.510  
  24570075.672   129116620.087                                                  
  24570077.370    96418260.570  
  25384730.540   133397658.809                                                  
  25384729.718    99615133.008  
 21  8 31  7 48 20.0000000  0 17G 1G 7G 8G 9G13G14G17G21G30R 2R 3R12
                                R21R22E 4E31E33
  22635423.180   118949951.193    22635422.394    92688268.980    22635422.037  
  22635420.875    88826252.4741 
  20312467.707   106742738.669    20312462.775    83176137.161    20312462.310  
                                
  22909234.293   120388839.530    22909232.721    93809471.025    22909231.238  
  22909230.880    89900744.080  
  23024577.068   120994968.312    23024574.387    94281780.749    23024573.798  
  23024574.584    90353376.154  
  24237923.235   127371145.386                    99250226.489    24237918.822  
                                
  21979659.075   115503888.896    21979654.250    90003006.567    21979653.714  
  21979658.110    86252898.612  
  22088627.039   116076517.933    22088622.572    90449213.529    22088621.893  
                                
  22611068.613   118821966.633                    92588523.262    22611063.128  
                                
  21108787.688   110927427.908    21108785.794    86436946.542    21108785.223  
  21108784.955    82835406.141  
  21857977.211   116638355.334                    90718726.767    21857978.891  
                                
  23074456.658   123519373.400                    96070613.435    23074454.514  
                                
  20536714.528   109703443.003                    85324904.417    20536715.564  
                                
  21643256.152   115817433.874                    90080231.836    21643257.259  
                                
  19845752.843   105937976.481                    82396199.620    19845751.860  
                                
  25656304.184   134824787.864                                                  
  25656304.255   100680847.830  
  24569968.422   129116056.544                                                  
  24569970.138    96417839.748  
  25384313.066   133395464.901                                                  
  25384312.226    99613494.716  
 21  8 31  7 48 21.0000000  0 17G 1G 7G 8G 9G13G14G17G21G30R 2R 3R12
                                R21R22E 4E31E33
  22634955.530   118947493.704    22634954.780    92686354.056    22634954.387  
  22634953.207    88824417.3471 
  20312439.974   106742592.903    20312435.060    83176023.582    20312434.577  
                                
  22909843.216   120392039.426    22909841.644    93811964.452    22909840.178  
  22909839.767    89903133.623  
  23025212.579   120998307.946    23025209.917    94284383.066    23025209.309  
  23025210.078    90355870.024  
  24237385.646   127368320.213                    99248025.049    24237381.232  
                                
  21979408.033   115502569.633    21979403.208    90001978.577    21979402.672  
  21979407.068    86251913.447  
  22088097.312   116073734.271    22088092.881    90447044.449    22088092.202  
                                
  22611012.523   118821671.695                    92588293.442    22611007.001  
                                
  21108425.894   110925526.561    21108423.965    86435464.976    21108423.411  
  21108423.125    82833986.304  
  21858395.328   116640586.586                    90720462.185    21858397.008  
                                
  23074307.005   123518572.349                    96069990.398    23074304.879  
                                
  20536529.691   109702455.680                    85324136.500    20536530.745  
                                
  21643725.356   115819944.558                    90082184.593    21643726.446  
                                
  19845526.889   105936770.196                    82395261.398    19845525.888  
                                
  25656760.683   134827186.775                                                  
  25656760.773   100682639.223  
  24569861.154   129115492.928                                                  
  24569862.888    96417418.868  
  25383895.628   133393271.181                                                  
  25383894.770    99611856.544  
 21  8 31  7 48 22.0000000  0 17G 1G 7G 8G 9G13G14G17G21G30R 2R 3R12
                                R21R22E 4E31E33
  22634487.934   118945036.505    22634487.183    92684439.356    22634486.808  
  22634485.611    88822582.4221 
  20312412.295   106742447.539    20312407.399    83175910.314    20312406.916  
                                
  22910452.192   120395239.503    22910450.602    93814458.024    22910449.155  
  22910448.690    89905523.292  
  23025848.109   121001647.651    23025845.447    94286985.433    23025844.821  
  23025845.607    90358363.968  
  24236848.092   127365495.369                    99245823.874    24236843.714  
                                
  21979157.009   115501250.469    21979152.202    90000950.657    21979151.666  
  21979156.062    86250928.366  
  22087567.656   116070950.935    22087563.207    90444875.620    22087562.528  
                                
  22610956.485   118821377.223                    92588063.986    22610950.964  
                                
  21108064.118   110923625.438    21108062.206    86433983.578    21108061.616  
  21108061.348    82832566.632  
  21858813.535   116642818.315                    90722197.977    21858815.232  
                                
  23074157.477   123517772.003                    96069367.909    23074155.405  
                                
  20536344.871   109701468.406                    85323368.617    20536345.926  
                                
  21644194.668   115822455.876                    90084137.840    21644195.776  
                                
  19845301.024   105935564.722                    82394323.810    19845300.095  
                                
  25657217.219   134829585.798                                                  
  25657217.326   100684430.706  
  24569753.905   129114929.285                                                  
  24569755.620    96416997.959  
  25383478.243   133391077.672                                                  
  25383477.350    99610218.534  
 21  8 31  7 48 23.0000000  0 17G 1G 7G 8G 9G13G14G17G21G30R 2R 3R12
                                R21R22E 4E31E33
  22634020.391   118942579.582    22634019.640    92682524.873    22634019.301  
  22634018.086    88820747.7071 
  20312384.705   106742302.601    20312379.809    83175797.372    20312379.326  
                                
  22911061.187   120398439.763    22911059.596    93816951.737    22911058.149  
  22911057.631    89907913.094  
  23026483.657   121004987.502    23026480.994    94289587.921    23026480.387  
  23026481.155    90360858.008  
  24236310.592   127362670.872                    99243622.976    24236306.250  
                                
  21978906.003   115499931.452    21978901.196    89999922.854    21978900.678  
  21978905.056    86249943.380  
  22087038.054   116068167.948    22087033.623    90442707.061    22087032.979  
                                
  22610900.537   118821083.264                    92587834.925    22610895.034  
                                
  21107702.396   110921724.578    21107700.484    86432502.392    21107699.912  
  21107699.626    82831147.157  
  21859231.849   116645050.574                    90723934.178    21859233.564  
                                
  23074008.110   123516972.420                    96068746.014    23074006.073  
                                
  20536160.052   109700481.233                    85322600.818    20536161.124  
                                
  21644664.105   115824967.902                    90086091.640    21644665.213  
                                
  19845075.374   105934360.154                    82393386.928    19845074.445  
                                
  25657673.773   134831984.995                                                  
  25657673.880   100686222.316  
  24569646.637   129114365.624                                                  
  24569648.370    96416577.046  
  25383060.894   133388884.400                                                  
  25383059.983    99608580.701  
 21  8 31  7 48 24.0000000  0 17G 1G 7G 8G 9G13G14G17G21G30R 2R 3R12
                                R21R22E 4E31E33
  22633552.937   118940123.135    22633552.204    92680610.763    22633551.847  
  22633550.632    88818913.3541 
  20312357.240   106742158.261    20312352.326    83175684.905    20312351.880  
                                
  22911670.252   120401640.389    22911668.662    93819445.732    22911667.232  
  22911666.661    89910303.174  
  23027119.258   121008327.652    23027116.595    94292190.641    23027116.006  
  23027116.756    90363352.267  
  24235773.199   127359846.873                    99241422.444    24235768.839  
                                
  21978655.032   115498612.732    21978650.261    89998895.279    21978649.743  
  21978654.121    86248958.614  
  22086508.559   116065385.504    22086504.128    90440538.925    22086503.502  
                                
  22610844.732   118820790.002                    92587606.411    22610839.247  
                                
  21107340.780   110919824.153    21107338.850    86431021.545    21107338.278  
  21107337.957    82829727.997  
  21859650.288   116647283.516                    90725670.908    21859652.039  
                                
  23073858.904   123516173.797                    96068124.862    23073856.902  
                                
  20535975.286   109699494.271                    85321833.184    20535976.394  
                                
  21645133.721   115827480.812                    90088046.133    21645134.829  
                                
  19844849.885   105933156.588                    82392450.823    19844848.974  
                                
  25658130.380   134834384.514                                                  
  25658130.505   100688014.160  
  24569539.405   129113802.119                                                  
  24569541.138    96416156.243  
  25382643.599   133386691.522                                                  
  25382642.670    99606943.160  
 21  8 31  7 48 25.0000000  0 17G 1G 7G 8G 9G13G14G17G21G30R 2R 3R12
                                R21R22E 4E31E33
  22633085.537   118937667.081    22633084.840    92678696.957    22633084.501  
  22633083.268    88817079.2921 
  20312329.883   106742014.429    20312324.951    83175572.828    20312324.504  
                                
  22912279.407   120404841.306    22912277.799    93821939.953    22912276.370  
  22912275.744    89912693.476  
  23027754.913   121011668.011    23027752.250    94294793.515    23027751.660  
  23027752.411    90365846.696  
  24235235.913   127357023.317                    99239222.268    24235231.482  
                                
  21978404.133   115497294.249    21978399.362    89997867.892    21978398.862  
  21978403.240    86247974.039  
  22085979.136   116062603.498    22085974.758    90438371.128    22085974.115  
                                
  22610789.035   118820497.317                    92587378.340    22610783.549  
                                
  21106979.200   110917924.060    21106977.271    86429540.955    21106976.681  
  21106976.359    82828309.103  
  21860068.870   116649517.077                    90727408.128    21860070.603  
                                
  23073709.840   123515375.965                    96067504.324    23073707.911  
                                
  20535790.556   109698507.474                    85321065.672    20535791.664  
                                
  21645603.480   115829994.493                    90090001.220    21645604.570  
                                
  19844624.557   105931953.969                    82391515.453    19844623.699  
                                
  25658587.058   134836784.297                                                  
  25658587.166   100689806.203  
  24569432.191   129113238.699                                                  
  24569433.942    96415735.513  
  25382226.411   133384498.993                                                  
  25382225.446    99605305.878  
 21  8 31  7 48 26.0000000  0 17G 1G 7G 8G 9G13G14G17G21G30R 2R 3R12
                                R21R22E 4E31E33
  22632618.137   118935211.094    22632617.476    92676783.201    22632617.136  
  22632615.903    88815245.2651 
  20312302.507   106741870.768    20312297.629    83175460.879    20312297.165  
                                
  22912888.527   120408042.158    22912886.936    93824434.123    22912885.471  
  22912884.810    89915083.718  
  23028390.532   121015008.229    23028387.869    94297396.281    23028387.279  
  23028388.048    90368341.014  
  24234698.627   127354199.865                    99237022.184    24234694.160  
                                
  21978153.199   115495975.643    21978148.463    89996840.402    21978147.927  
  21978152.323    86246989.361  
  22085449.748   116059821.593    22085445.370    90436203.413    22085444.727  
                                
  22610733.391   118820204.876                    92587150.462    22610727.905  
                                
  21106617.639   110916023.984    21106615.709    86428060.374    21106615.119  
  21106614.797    82826890.208  
  21860487.469   116651750.880                    90729145.530    21860489.238  
                                
  23073560.866   123514578.606                    96066884.154    23073559.008  
                                
  20535605.773   109697520.459                    85320297.996    20535606.899  
                                
  21646073.292   115832508.572                    90091956.615    21646074.400  
                                
  19844399.407   105930751.965                    82390580.561    19844398.514  
                                
  25659043.683   134839183.965                                                  
  25659043.826   100691598.170  
  24569324.923   129112675.021                                                  
  24569326.674    96415314.581  
  25381809.169   133382306.435                                                  
  25381808.222    99603668.578  
 21  8 31  7 48 27.0000000  0 17G 1G 7G 8G 9G13G14G17G21G30R 2R 3R12
                                R21R22E 4E31E33
  22632150.808   118932755.228    22632150.165    92674869.539    22632149.790  
  22632148.557    88813411.343  
  20312275.239   106741727.390    20312270.361    83175349.154    20312269.879  
                                
  22913497.664   120411243.040    22913496.055    93826928.319    22913494.608  
  22913493.875    89917473.994  
  23029026.133   121018348.433    23029023.488    94299999.032    23029022.916  
  23029023.649    90370835.318  
  24234161.395   127351376.611                    99234822.242    24234156.874  
                                
  21977902.264   115494657.019    21977897.529    89995812.906    21977897.028  
  21977901.406    86246004.675  
  22084920.396   116057039.904    22084916.036    90434035.864    22084915.411  
                                
  22610677.836   118819912.804                    92586922.876    22610672.332  
                                
  21106256.077   110914124.002    21106254.165    86426579.869    21106253.575  
  21106253.236    82825471.399  
  21860906.158   116653985.047                    90730883.215    21860907.945  
                                
  23073412.000   123513781.824                    96066264.432    23073410.231  
                                
  20535421.007   109696533.393                    85319530.281    20535422.151  
                                
  21646543.212   115835023.189                    90093912.428    21646544.356  
                                
  19844174.365   105929550.688                    82389646.232    19844173.489  
                                
  25659500.326   134841583.655                                                  
  25659500.469   100693390.139  
  24569217.619   129112111.178                                                  
  24569219.388    96414893.529  
  25381391.981   133380113.953                                                  
  25381391.016    99602031.339  
 21  8 31  7 48 28.0000000  0 17G 1G 7G 8G 9G13G14G17G21G30R 2R 3R12
                                R21R22E 4E31E33
  22631683.462   118930299.482    22631682.819    92672955.968    22631682.479  
  22631681.246    88811577.500  
  20312247.989   106741584.222    20312243.093    83175237.594    20312242.664  
                                
  22914106.783   120414443.913    22914105.157    93829422.503    22914103.709  
  22914102.941    89919864.258  
  23029661.716   121021688.557    23029659.089    94302601.721    23029658.500  
  23029659.268    90373329.566  
  24233624.181   127348553.502                    99232622.416    24233619.624  
                                
  21977651.329   115493338.322    21977646.612    89994785.350    21977646.076  
  21977650.489    86245019.940  
  22084391.098   116054258.358    22084386.738    90431868.426    22084386.113  
                                
  22610622.299   118819621.029                    92586695.514    22610616.813  
                                
  21105894.551   110912224.102    21105892.603    86425099.423    21105892.031  
  21105891.692    82824052.639  
  21861324.901   116656219.505                    90732621.125    21861326.688  
                                
  23073263.240   123512985.565                    96065645.119    23073261.524  
                                
  20535236.206   109695546.199                    85318762.461    20535237.349  
                                
  21647013.239   115837538.304                    90095868.627    21647014.364  
                                
  19843949.447   105928350.069                    82388712.415    19843948.572  
                                
  25659956.987   134843983.294                                                  
  25659957.094   100695182.082  
  24569110.298   129111547.122                                                  
  24569112.049    96414472.320  
  25380974.775   133377921.521                                                  
  25380973.793    99600394.131  
 21  8 31  7 48 29.0000000  0 18G 1G 7G 8G 9G13G14G17G21G30R 2R 3R12
                                R21R22E 1E 4E31E33
  22631216.169   118927843.915    22631215.544    92671042.537    22631215.186  
  22631213.989    88809743.806  
  20312220.810   106741441.396    20312215.932    83175126.301    20312215.485  
                                
  22914715.938   120417644.915    22914714.294    93831916.782    22914712.847  
  22914712.025    89922254.614  
  23030297.335   121025028.708    23030294.690    94305204.441    23030294.119  
  23030294.869    90375823.843  
  24233087.020   127345730.641                    99230422.785    24233082.410  
                                
  21977400.377   115492019.675    21977395.677    89993757.830    21977395.159  
  21977399.555    86244035.238  
  22083861.835   116051477.076    22083857.475    90429701.189    22083856.850  
                                
  22610566.869   118819329.670                    92586468.479    22610561.365  
                                
  21105533.043   110910324.352    21105531.113    86423619.096    21105530.505  
  21105530.166    82822633.992  
  21861743.715   116658454.393                    90734359.373    21861745.538  
                                
  23073114.605   123512189.960                    96065026.316    23073112.961  
                                
  20535051.386   109694558.999                    85317994.634    20535052.548  
                                
  21647483.355   115840054.017                    90097825.285    21647484.498  
                                
  19843724.744   105927150.259                    82387779.229    19843723.815  
                                
  25285295.664   132875125.951                                                  
  25285291.822    99224919.890  
  25660413.630   134846383.004                                                  
  25660413.755   100696974.076  
  24569002.941   129110982.974                                                  
  24569004.710    96414051.039  
  25380557.605   133375729.215                                                  
  25380556.605    99598757.026  
 21  8 31  7 48 30.0000000  0 18G 1G 7G 8G 9G13G14G17G21G30R 2R 3R12
                                R21R22E 1E 4E31E33
  22630748.948   118925388.732    22630748.340    92669129.406    22630747.983  
  22630746.786    88807910.389  
  20312193.739   106741299.049    20312188.843    83175015.382    20312188.396  
                                
  22915325.146   120420846.154    22915323.485    93834411.259    22915322.037  
  22915321.180    89924645.155  
  23030932.972   121028369.061    23030930.345    94307807.313    23030929.755  
  23030930.506    90378318.256  
  24232549.949   127342908.207                    99228223.478    24232545.356  
                                
  21977149.460   115490701.224    21977144.778    89992730.466    21977144.296  
  21977148.674    86243050.677  
  22083332.626   116048696.225    22083328.284    90427534.294    22083327.695  
                                
  22610511.529   118819038.884                    92586241.897    22610506.043  
                                
  21105171.606   110908424.918    21105169.640    86422139.018    21105169.068  
  21105168.693    82821215.588  
  21862162.637   116660689.858                    90736098.066    21862164.459  
                                
  23072966.132   123511395.145                    96064408.124    23072964.523  
                                
  20534866.621   109693571.913                    85317226.903    20534867.782  
                                
  21647953.614   115842570.475                    90099782.528    21647954.793  
                                
  19843500.131   105925951.360                    82386846.750    19843499.237  
                                
  25285472.692   132876056.283                                                  
  25285468.832    99225614.623  
  25660870.326   134848782.942                                                  
  25660870.469   100698766.227  
  24568895.602   129110418.870                                                  
  24568897.371    96413629.791  
  25380140.506   133373537.226                                                  
  25380139.488    99597120.145  
 21  8 31  7 48 31.0000000  0 17G 1G 7G 8G 9G13G14G17G21G30R 2R 3R12
                                R21R22E 1E31E33
  22630281.762   118922933.846    22630281.190    92667216.512    22630280.851  
  22630279.636    88806077.196  
  20312166.721   106741157.121    20312161.842    83174904.786    20312161.396  
                                
  22915934.391   120424047.611    22915932.711    93836905.898    22915931.264  
  22915930.370    89927035.849  
  23031568.627   121031709.528    23031566.036    94310410.277    23031565.428  
  23031566.179    90380812.768  
  24232012.931   127340086.080                    99226024.419    24232008.303  
                                
  21976898.597   115489382.905    21976893.933    89991703.207    21976893.432  
  21976897.810    86242066.218  
  22082803.507   116045915.715    22082799.165    90425367.663    22082798.593  
                                
  22610456.278   118818748.597                    92586015.704    22610450.846  
                                
  21104810.205   110906525.752    21104808.239    86420659.148    21104807.632  
  21104807.292    82819797.375  
  21862581.647   116662925.836                    90737837.155    21862583.506  
                                
  23072817.783   123510601.059                    96063790.501    23072816.246  
                                
  20534681.837   109692584.874                    85316459.206    20534683.016  
                                
  21648423.980   115845087.589                    90101740.284    21648425.213  
                                
  19843275.731   105924753.362                    82385914.974    19843274.838  
                                
  25285649.721   132876986.576                                                  
  25285645.843    99226309.320  
  24568788.263   129109854.755                                                  
  24568790.014    96413208.535  
  25379723.426   133371345.463                                                  
  25379722.407    99595483.439  
 21  8 31  7 48 32.0000000  0 17G 1G 7G 8G 9G13G14G17G21G30R 2R 3R12
                                R21R22E 1E31E33
  22629814.648   118920479.277    22629814.094    92665303.858    22629813.737  
  22629812.557    88804244.250  
  20312139.792   106741015.652    20312134.914    83174794.550    20312134.485  
                                
  22916543.671   120427249.282    22916541.973    93839400.711    22916540.526  
  22916539.597    89929426.714  
  23032204.353   121035050.172    23032201.726    94313013.376    23032201.119  
  23032201.869    90383307.396  
  24231476.003   127337264.370                    99223825.693    24231471.410  
                                
  21976647.751   115488064.751    21976643.087    89990676.076    21976642.605  
  21976646.983    86241081.886  
  22082274.459   116043135.589    22082270.152    90423201.333    22082269.580  
                                
  22610401.134   118818458.861                    92585789.940    22610395.702  
                                
  21104448.857   110904626.868    21104446.892    86419179.498    21104446.284  
  21104445.945    82818379.384  
  21863000.801   116665162.381                    90739576.692    21863002.641  
                                
  23072669.560   123509807.786                    96063173.516    23072668.094  
                                
  20534497.089   109691597.942                    85315691.592    20534498.269  
                                
  21648894.525   115847605.448                    90103698.618    21648895.740  
                                
  19843051.475   105923556.246                    82384983.884    19843050.582  
                                
  25285826.749   132877916.896                                                  
  25285822.836    99227004.038  
  24568680.923   129109290.657                                                  
  24568682.692    96412787.300  
  25379306.416   133369153.973                                                  
  25379305.380    99593846.938  
 21  8 31  7 48 33.0000000  0 17G 1G 7G 8G 9G13G14G17G21G30R 2R 3R12
                                R21R22E 1E31E33
  22629347.588   118918024.987    22629347.069    92663391.429    22629346.748  
  22629345.550    88802411.492  
  20312112.953   106740874.552    20312108.075    83174684.604    20312107.628  
                                
  22917153.005   120430451.077    22917151.236    93841895.616    22917149.842  
  22917148.841    89931817.677  
  23032840.026   121038390.862    23032837.435    94315616.512    23032836.827  
  23032837.577    90385802.076  
  24230939.128   127334442.957                    99221627.193    24230934.482  
                                
  21976396.942   115486746.697    21976392.278    89989649.023    21976391.795  
  21976396.155    86240097.625  
  22081745.464   116040355.789    22081741.176    90421035.258    22081740.604  
                                
  22610346.097   118818169.574                    92585564.527    22610340.629  
                                
  21104087.546   110902728.197    21104085.580    86417700.019    21104084.990  
  21104084.651    82816961.552  
  21863420.008   116667399.390                    90741316.590    21863421.867  
                                
  23072521.497   123509015.222                    96062557.077    23072520.067  
                                
  20534312.341   109690611.053                    85314924.014    20534313.539  
                                
  21649365.159   115850123.952                    90105657.455    21649366.392  
                                
  19842827.362   105922359.956                    82384053.445    19842826.469  
                                
  25286003.742   132878847.146                                                  
  25285999.828    99227698.711  
  24568573.584   129108726.518                                                  
  24568575.317    96412366.025  
  25378889.425   133366962.671                                                  
  25378888.388    99592210.589  
 21  8 31  7 48 34.0000000  0 17G 1G 7G 8G 9G13G14G17G21G30R 2R 3R12
                                R21R22E 1E31E33
  22628880.616   118915571.236    22628880.116    92661479.418    22628879.794  
  22628878.597    88800579.150  
  20312086.239   106740734.141    20312081.360    83174575.194    20312080.914  
                                
  22917762.392   120433653.326    22917760.605    93844390.877    22917759.193  
  22917758.175    89934208.963  
  23033475.823   121041731.961    23033473.232    94318219.965    23033472.607  
  23033473.357    90388297.043  
  24230402.342   127331622.130                    99219429.154    24230397.750  
                                
  21976146.168   115485429.027    21976141.540    89988622.267    21976141.075  
  21976145.435    86239113.648  
  22081216.595   116037576.599    22081212.306    90418869.658    22081211.752  
                                
  22610291.168   118817881.068                    92585339.719    22610285.754  
                                
  21103726.359   110900830.061    21103724.376    86416220.950    21103723.786  
  21103723.447    82815544.102  
  21863839.394   116669637.194                    90743057.100    21863841.235  
                                
  23072373.613   123508223.662                    96061941.417    23072372.237  
                                
  20534127.665   109689624.482                    85314156.681    20534128.862  
                                
  21649835.972   115852643.407                    90107617.028    21649837.223  
                                
  19842603.445   105921164.778                    82383123.860    19842602.570  
                                
  25286180.824   132879777.621                                                  
  25286176.857    99228393.538  
  24568466.281   129108162.611                                                  
  24568468.014    96411944.928  
  25378472.558   133364771.876                                                  
  25378471.504    99590574.589  
 21  8 31  7 48 35.0000000  0 17G 1G 7G 8G 9G13G14G17G21G30R 2R 3R12
                                R21R22E 1E31E33
  22628413.752   118913117.899    22628413.288    92659567.729    22628412.948  
  22628411.769    88798747.121  
  20312059.614   106740594.277    20312054.736    83174466.206    20312054.307  
                                
  22918371.833   120436855.909    22918370.010    93846886.404    22918368.616  
  22918367.580    89936600.494  
  23034111.657   121045073.294    23034109.066    94320823.599    23034108.458  
  23034109.173    90390792.190  
  24229865.682   127328801.800                    99217231.505    24229861.090  
                                
  21975895.465   115484111.624    21975890.855    89987595.712    21975890.391  
  21975894.751    86238129.865  
  22080687.832   116034797.885    22080683.544    90416704.428    22080682.990  
                                
  22610236.382   118817593.193                    92585115.398    22610230.967  
                                
  21103365.244   110898932.304    21103363.261    86414742.180    21103362.635  
  21103362.296    82814126.938  
  21864258.887   116671875.649                    90744798.123    21864260.746  
                                
  23072225.872   123507432.930                    96061326.403    23072224.567  
                                
  20533943.007   109688638.102                    85313389.499    20533944.204  
                                
  21650306.964   115855163.683                    90109577.243    21650308.215  
                                
  19842379.761   105919970.601                    82382195.058    19842378.849  
                                
  25286357.888   132880708.205                                                  
  25286353.921    99229088.454  
  24568359.013   129107598.833                                                  
  24568360.746    96411523.921  
  25378055.728   133362581.440                                                  
  25378054.673    99588938.869  
 21  8 31  7 48 36.0000000  0 17G 1G 7G 8G 9G13G14G17G21G30R 2R 3R12
                                R21R22E 1E31E33
  22627946.978   118910665.158    22627946.531    92657656.509    22627946.192  
  22627945.048    88796915.522  
  20312033.132   106740455.122    20312028.254    83174357.774    20312027.843  
                                
  22918981.381   120440058.942    22918979.540    93849382.276    22918978.129  
  22918977.057    89938992.384  
  23034747.544   121048415.041    23034744.971    94323427.553    23034744.381  
  23034745.078    90393287.648  
  24229329.129   127325982.065                    99215034.295    24229324.465  
                                
  21975644.852   115482794.617    21975640.242    89986569.471    21975639.760  
  21975644.120    86237146.390  
  22080159.177   116032019.816    22080154.907    90414539.699    22080154.371  
                                
  22610181.756   118817306.092                    92584891.684    22610176.377  
                                
  21103004.218   110897035.071    21103002.217    86413263.815    21103001.592  
  21103001.270    82812710.174  
  21864678.488   116674114.875                    90746539.741    21864680.382  
                                
  23072078.327   123506643.199                    96060712.161    23072077.058  
                                
  20533758.437   109687652.075                    85312622.589    20533759.635  
                                
  21650778.099   115857684.885                    90111538.178    21650779.368  
                                
  19842156.219   105918777.533                    82381267.121    19842155.362  
                                
  25286535.006   132881639.036                                                  
  25286531.021    99229783.559  
  24568251.781   129107035.319                                                  
  24568253.532    96411103.115  
  25377639.022   133360391.511                                                  
  25377637.932    99587303.535  
 21  8 31  7 48 37.0000000  0 17G 1G 7G 8G 9G13G14G17G21G30R 2R 3R12
                                R21R22E 1E31E33
  22627480.346   118908212.966    22627479.881    92655745.710    22627479.560  
  22627478.398    88795084.346  
  20312006.793   106740316.657    20312001.897    83174249.877    20312001.486  
                                
  22919591.036   120443262.459    22919589.160    93851878.525    22919587.730  
  22919586.658    89941384.616  
  23035383.538   121051757.184    23035380.947    94326031.818    23035380.375  
  23035381.054    90395783.391  
  24228792.701   127323162.970                    99212837.588    24228787.948  
                                
  21975394.311   115481478.033    21975389.701    89985543.559    21975389.236  
  21975393.596    86236163.215  
  22079630.629   116029242.370    22079626.377    90412375.453    22079625.841  
                                
  22610127.255   118817019.781                    92584668.582    22610121.895  
                                
  21102643.282   110895138.382    21102641.281    86411785.877    21102640.655  
  21102640.334    82811293.808  
  21865098.285   116676354.875                    90748281.964    21865100.161  
                                
  23071930.961   123505854.497                    96060098.719    23071929.746  
                                
  20533573.922   109686666.414                    85311855.961    20533575.119  
                                
  21651249.412   115860207.059                    90113499.869    21651250.699  
                                
  19841932.946   105917585.660                    82380340.104    19841932.070  
                                
  25286712.195   132882570.119                                                  
  25286708.174    99230478.840  
  24568144.602   129106472.063                                                  
  24568146.336    96410682.502  
  25377222.388   133358202.098                                                  
  25377221.280    99585668.573  
 21  8 31  7 48 38.0000000  0 17G 1G 7G 8G 9G13G14G17G21G30R 2R 3R12
                                R21R22E 1E31E33
  22627013.786   118905761.296    22627013.357    92653835.320    22627013.000  
  22627011.874    88793253.549  
  20311980.561   106740178.820    20311975.683    83174142.467    20311975.254  
                                
  22920200.727   120446466.369    22920198.869    93854375.073    22920197.439  
  22920196.314    89943777.149  
  23036019.568   121055099.647    23036016.977    94328636.332    23036016.423  
  23036017.102    90398279.391  
  24228256.362   127320344.429                    99210641.316    24228251.537  
                                
  21975143.823   115480161.771    21975139.230    89984517.900    21975138.766  
  21975143.126    86235180.293  
  22079102.207   116026465.492    22079097.954    90410211.648    22079097.436  
                                
  22610072.898   118816734.168                    92584446.019    22610067.573  
                                
  21102282.453   110893242.141    21102280.451    86410308.282    21102279.808  
  21102279.487    82809877.796  
  21865518.225   116678595.636                    90750024.775    21865520.065  
                                
  23071783.828   123505066.706                    96059485.986    23071782.613  
                                
  20533389.442   109685681.001                    85311089.527    20533390.639  
                                
  21651720.904   115862730.150                    90115462.270    21651722.209  
                                
  19841709.851   105916394.822                    82379413.892    19841708.976  
                                
  25286889.402   132883501.389                                                  
  25286885.363    99231174.269  
  24568037.478   129105909.010                                                  
  24568039.193    96410262.031  
  25376805.861   133356013.123                                                  
  25376804.753    99584033.950  
 21  8 31  7 48 39.0000000  0 17G 1G 7G 8G 9G13G14G17G21G30R 2R 3R12
                                R21R22E 1E31E33
  22626547.297   118903310.045    22626546.922    92651925.257    22626546.511  
  22626545.421    88791423.077  
  20311954.437   106740041.520    20311949.541    83174035.480    20311949.147  
                                
  22920810.490   120449670.584    22920808.614    93856871.858    22920807.166  
  22920806.023    89946169.891  
  23036655.634   121058442.344    23036653.078    94331241.029    23036652.507  
  23036653.186    90400775.570  
  24227720.131   127317526.349                    99208445.391    24227715.252  
                                
  21974893.371   115478845.747    21974888.814    89983492.425    21974888.332  
  21974892.692    86234197.556  
  22078573.891   116023689.061    22078569.621    90408048.195    22078569.102  
                                
  22610018.683   118816449.184                    92584223.953    22610013.340  
                                
  21101921.677   110891346.279    21101919.658    86408830.983    21101919.015  
  21101918.729    82808462.054  
  21865938.236   116680837.014                    90751768.066    21865940.130  
                                
  23071636.855   123504279.836                    96058873.971    23071635.604  
                                
  20533204.998   109684695.752                    85310323.222    20533206.213  
                                
  21652192.539   115865254.039                    90117425.290    21652193.862  
                                
  19841486.935   105915204.967                    82378488.447    19841486.059  
                                
  25287066.627   132884432.736                                                  
  25287062.571    99231869.760  
  24567930.353   129105346.042                                                  
  24567932.068    96409841.638  
  25376389.370   133353824.476                                                  
  25376388.262    99582399.591  
 21  8 31  7 48 40.0000000  0 17G 1G 7G 8G 9G13G14G17G21G30R 2R 3R12
                                R21R22E 1E31E33
  22626080.898   118900859.179    22626080.558    92650015.493    22626080.112  
  22626079.057    88789592.885  
  20311928.402   106739904.737    20311923.523    83173928.896    20311923.112  
                                
  22921420.324   120452875.066    22921418.394    93859368.857    22921416.964  
  22921415.821    89948562.855  
  23037291.771   121061785.265    23037289.216    94333845.898    23037288.662  
  23037289.323    90403271.902  
  24227183.953   127314708.700                    99206249.828    24227179.092  
                                
  21974642.972   115477529.961    21974638.451    89982467.139    21974637.969  
  21974642.311    86233215.000  
  22078045.647   116020913.111    22078041.394    90405885.121    22078040.858  
                                
  22609964.558   118816164.794                    92584002.356    22609959.215  
                                
  21101560.973   110889450.772    21101558.954    86407353.964    21101558.311  
  21101558.025    82807046.581  
  21866358.408   116683079.044                    90753511.867    21866360.267  
                                
  23071490.007   123503493.800                    96058262.605    23071488.774  
                                
  20533020.590   109683710.670                    85309557.049    20533021.787  
                                
  21652664.335   115867778.722                    90119388.933    21652665.657  
                                
  19841264.198   105914016.117                    82377563.788    19841263.358  
                                
  25287243.870   132885364.165                                                  
  25287239.796    99232565.308  
  24567823.246   129104783.165                                                  
  24567824.961    96409421.309  
  25375972.950   133351636.191                                                  
  25375971.860    99580765.469  
 21  8 31  7 48 41.0000000  0 17G 1G 7G 8G 9G13G14G17G21G30R 2R 3R12
                                R21R22E 1E31E33
  22625614.552   118898408.639    22625614.213    92648105.981    22625613.819  
  22625612.729    88787762.938  
  20311902.474   106739768.400    20311897.577    83173822.659    20311897.184  
                                
  22922030.158   120456079.769    22922028.228    93861866.027    22922026.781  
  22922025.619    89950955.975  
  23037927.926   121065128.324    23037925.389    94336450.884    23037924.835  
  23037925.478    90405768.342  
  24226647.846   127311891.424                    99204054.555    24226642.896  
                                
  21974392.609   115476214.351    21974388.106    89981441.991    21974387.624  
  21974391.966    86232232.553  
  22077517.457   116018137.519    22077513.222    90403722.322    22077512.704  
                                
  22609910.522   118815880.963                    92583781.188    22609905.179  
                                
  21101200.341   110887555.547    21101198.286    86405877.165    21101197.660  
  21101197.374    82805631.315  
  21866778.706   116685321.598                    90755256.074    21866780.546  
                                
  23071343.356   123502708.535                    96057651.839    23071342.070  
                                
  20532836.217   109682725.710                    85308790.969    20532837.414  
                                
  21653136.238   115870304.102                    90121353.120    21653137.578  
                                
  19841041.639   105912828.149                    82376639.816    19841040.799  
                                
  25287421.095   132886295.594                                                  
  25287417.021    99233260.849  
  24567716.139   129104220.306                                                  
  24567717.854    96409000.988  
  25375556.602   133349448.157                                                  
  25375555.476    99579131.548  
 21  8 31  7 48 42.0000000  0 17G 1G 7G 8G 9G13G14G17G21G30R 2R 3R12
                                R21R22E 1E31E33
  22625148.188   118895958.105    22625147.903    92646196.476    22625147.492  
  22625146.402    88785932.998  
  20311876.564   106739632.182    20311871.667    83173716.515    20311871.274  
                                
  22922640.010   120459284.333    22922638.026    93864363.095    22922636.597  
  22922635.435    89953349.009  
  23038564.081   121068471.215    23038561.526    94339055.736    23038560.954  
  23038561.579    90408264.657  
  24226111.775   127309074.213                    99201859.323    24226106.754  
                                
  21974142.210   115474898.562    21974137.725    89980416.701    21974137.243  
  21974141.585    86231249.983  
  22076989.302   116015361.997    22076985.049    90401559.583    22076984.549  
                                
  22609856.540   118815597.316                    92583560.165    22609851.233  
                                
  21100839.690   110885660.301    21100837.653    86404400.348    21100836.992  
  21100836.706    82804216.025  
  21867198.985   116687564.394                    90757000.471    21867200.825  
                                
  23071196.723   123501923.683                    96057041.396    23071195.472  
                                
  20532651.791   109681740.514                    85308024.704    20532652.988  
                                
  21653608.230   115872829.838                    90123317.579    21653609.571  
                                
  19840819.170   105911640.736                    82375716.272    19840818.366  
                                
  25287598.284   132887226.680                                                  
  25287594.192    99233956.149  
  24567608.978   129103657.138                                                  
  24567610.712    96408580.443  
  25375140.218   133347260.048                                                  
  25375139.092    99577497.576  
 21  8 31  7 48 43.0000000  0 17G 1G 7G 8G 9G13G14G17G21G30R 2R 3R12
                                R21R22E 1E31E33
  22624681.896   118893507.661    22624681.610    92644287.042    22624681.164  
  22624680.109    88784103.117  
  20311850.671   106739496.191    20311845.775    83173610.546    20311845.400  
                                
  22923249.844   120462488.889    22923247.842    93866860.151    22923246.413  
  22923245.216    89955742.015  
  23039200.183   121071814.016    23039197.627    94341660.513    23039197.091  
  23039197.699    90410760.900  
  24225575.723   127306257.125                    99199664.187    24225570.612  
                                
  21973891.812   115473582.708    21973887.345    89979391.358    21973886.844  
  21973891.186    86230267.365  
  22076461.165   116012586.614    22076456.930    90399396.948    22076456.430  
                                
  22609802.593   118815313.992                    92583339.393    22609797.322  
                                
  21100479.040   110883765.082    21100476.985    86402923.554    21100476.341  
  21100476.055    82802800.762  
  21867619.336   116689807.532                    90758745.134    21867621.212  
                                
  23071050.197   123501139.336                    96056431.348    23071048.964  
                                
  20532467.311   109680755.173                    85307258.325    20532468.526  
                                
  21654080.312   115875356.051                    90125282.414    21654081.652  
                                
  19840596.861   105910454.038                    82374793.285    19840596.057  
                                
  25287775.437   132888157.543                                                  
  25287771.292    99234651.274  
  24567501.764   129103093.747                                                  
  24567503.498    96408159.725  
  25374723.834   133345071.982                                                  
  25374722.726    99575863.625  
 21  8 31  7 48 44.0000000  0 17G 1G 7G 8G 9G13G14G17G21G30R 2R 3R12
                                R21R22E 1E31E33
  22624215.622   118891057.494    22624215.354    92642377.821    22624214.907  
  22624213.871    88782273.435  
  20311824.886   106739360.558    20311819.972    83173504.860    20311819.597  
                                
  22923859.696   120465693.570    22923857.659    93869357.304    22923856.211  
  22923855.032    89958135.135  
  23039836.320   121075156.883    23039833.782    94344265.348    23039833.246  
  23039833.818    90413257.211  
  24225039.706   127303440.339                    99197469.280    24225034.559  
                                
  21973641.377   115472266.928    21973636.964    89978366.079    21973636.481  
  21973640.806    86229284.811  
  22075933.082   116009811.538    22075928.847    90397234.550    22075928.364  
                                
  22609748.754   118815031.103                    92583118.964    22609743.482  
                                
  21100118.443   110881870.071    21100116.388    86401446.920    21100115.727  
  21100115.459    82801385.663  
  21868039.776   116692051.124                    90760490.143    21868041.652  
                                
  23070903.814   123500355.670                    96055821.830    23070902.563  
                                
  20532282.849   109679769.825                    85306491.941    20532284.082  
                                
  21654552.483   115877882.889                    90127247.730    21654553.877  
                                
  19840374.678   105909268.115                    82373870.902    19840373.874  
                                
  25287952.537   132889088.338                                                  
  25287948.410    99235346.348  
  24567394.568   129102530.283                                                  
  24567396.284    96407738.969  
  25374307.486   133342884.090                                                  
  25374306.360    99574229.818  
 21  8 31  7 48 45.0000000  0 17G 1G 7G 8G 9G13G14G17G21G30R 2R 3R12
                                R21R22E 1E31E33
  22623749.455   118888607.860    22623749.205    92640469.015    22623748.740  
  22623747.722    88780444.190  
  20311799.191   106739225.653    20311794.295    83173399.739    20311793.937  
                                
  22924469.655   120468898.766    22924467.582    93871854.861    22924466.170  
  22924464.955    89960528.620  
  23040472.529   121078500.171    23040469.973    94346870.502    23040469.455  
  23040470.009    90415753.826  
  24224503.831   127300624.199                    99195274.882    24224498.667  
                                
  21973391.086   115470951.564    21973386.655    89977341.128    21973386.172  
  21973390.496    86228302.570  
  22075405.124   116007037.108    22075400.907    90395072.658    22075400.406  
                                
  22609695.075   118814749.029                    92582899.169    22609689.804  
                                
  21099757.935   110879975.620    21099755.898    86399970.727    21099755.219  
  21099754.951    82799970.976  
  21868460.359   116694295.517                    90762235.784    21868462.253  
                                
  23070757.628   123499573.056                    96055213.128    23070756.359  
                                
  20532098.459   109678784.839                    85305725.842    20532099.692  
                                
  21655024.869   115880410.723                    90129213.820    21655026.245  
                                
  19840152.727   105908083.376                    82372949.441    19840151.940  
                                
  25288129.709   132890019.404                                                  
  25288125.563    99236041.631  
  24567287.390   129101967.122                                                  
  24567289.123    96407318.424  
  25373891.262   133340696.746                                                  
  25373890.137    99572596.401  
 21  8 31  7 48 46.0000000  0 17G 1G 7G 8G 9G13G14G17G21G30R 2R 3R12
                                R21R22E 1E31E33
  22623283.377   118886158.655    22623283.127    92638560.548    22623282.662  
  22623281.662    88778615.223  
  20311773.620   106739091.229    20311768.724    83173294.993    20311768.367  
                                
  22925079.667   120472104.243    22925077.577    93874352.640    22925076.129  
  22925074.932    89962922.310  
  23041108.755   121081843.693    23041106.218    94349475.847    23041105.682  
  23041106.253    90418250.592  
  24223968.029   127297808.493                    99193080.833    24223962.811  
                                
  21973140.813   115469636.450    21973136.399    89976316.363    21973135.916  
  21973140.241    86227320.488  
  22074877.237   116004263.133    22074873.020    90392911.119    22074872.538  
                                
  22609641.486   118814467.548                    92582679.837    22609636.268  
                                
  21099397.499   110878081.513    21099395.444    86398494.799    21099394.747  
  21099394.515    82798556.543  
  21868881.068   116696540.503                    90763981.889    21868882.962  
                                
  23070611.584   123498791.286                    96054605.080    23070610.315  
                                
  20531914.104   109677800.040                    85304959.888    20531915.337  
                                
  21655497.397   115882939.375                    90131180.547    21655498.773  
                                
  19839930.990   105906899.614                    82372028.737    19839930.186  
                                
  25288306.916   132890950.539                                                  
  25288302.734    99236736.935  
  24567180.247   129101404.030                                                  
  24567181.962    96406897.927  
  25373475.093   133338509.716                                                  
  25373473.967    99570963.229  
 21  8 31  7 48 47.0000000  0 17G 1G 7G 8G 9G13G14G17G21G30R 2R 3R12
                                R21R22E 1E31E33
  22622817.317   118883709.503    22622817.049    92636652.118    22622816.585  
  22622815.602    88776787.3271 
  20311748.085   106738956.983    20311743.171    83173190.384    20311742.814  
                                
  22925689.662   120475309.673    22925687.536    93876850.373    22925686.124  
  22925684.909    89965315.988  
  23041744.982   121085187.072    23041742.444    94352081.074    23041741.908  
  23041742.462    90420747.282  
  24223432.280   127294992.916                    99190886.884    24223427.026  
                                
  21972890.521   115468321.210    21972886.107    89975291.501    21972885.661  
  21972889.949    86226338.344  
  22074349.368   116001489.275    22074345.169    90390749.674    22074344.704  
                                
  22609587.950   118814186.325                    92582460.703    22609582.768  
                                
  21099037.063   110876187.420    21099035.008    86397018.885    21099034.311  
  21099034.097    82797142.138  
  21869301.812   116698785.736                    90765728.179    21869303.741  
                                
  23070465.648   123498010.003                    96053997.413    23070464.343  
                                
  20531729.732   109676815.077                    85304193.803    20531730.929  
                                
  21655969.997   115885468.439                    90133147.595    21655971.391  
                                
  19839709.307   105905716.436                    82371108.488    19839708.556  
                                
  25288484.033   132891881.396                                                  
  25288479.870    99237432.076  
  24567073.069   129100840.693                                                  
  24567074.784    96406477.264  
  25373058.888   133336322.686                                                  
  25373057.780    99569330.066  
 21  8 31  7 48 48.0000000  0 17G 1G 7G 8G 9G13G14G17G21G30R 2R 3R12
                                R21R22E 1E31E33
  22622351.293   118881260.576    22622351.043    92634743.871    22622350.561  
  22622349.596    88774958.5881 
  20311722.604   106738823.090    20311717.690    83173086.056    20311717.333  
                                
  22926299.693   120478515.211    22926297.549    93879348.195    22926296.119  
  22926294.904    89967709.741  
  23042381.244   121088530.506    23042378.671    94354686.350    23042378.170  
  23042378.724    90423244.011  
  24222896.531   127292177.583                    99188693.122    24222891.259  
                                
  21972640.230   115467006.028    21972635.852    89974266.686    21972635.387  
  21972639.694    86225356.230  
  22073821.589   115998715.690    22073817.372    90388588.437    22073816.889  
                                
  22609534.504   118813905.521                    92582241.902    22609529.322  
                                
  21098676.663   110874293.521    21098674.608    86395543.122    21098673.911  
  21098673.679    82795727.861  
  21869722.663   116701031.389                    90767474.801    21869724.575  
                                
  23070319.837   123497229.371                    96053390.267    23070318.496  
                                
  20531545.341   109675830.090                    85303427.707    20531546.538  
                                
  21656442.704   115887998.092                    90135115.105    21656444.116  
                                
  19839487.802   105904534.054                    82370188.860    19839487.034  
                                
  25288661.169   132892812.153                                                  
  25288656.970    99238127.130  
  24566965.837   129100277.261                                                  
  24566967.570    96406056.524  
  25372642.736   133334135.821                                                  
  25372641.646    99567697.017  
 21  8 31  7 48 49.0000000  0 17G 1G 7G 8G 9G13G14G17G21G30R 2R 3R12
                                R21R22E 1E31E33
  22621885.394   118878812.334    22621885.126    92632836.142    22621884.679  
  22621883.714    88773130.3411 
  20311697.284   106738689.996    20311692.370    83172982.351    20311692.012  
                                
  22926909.795   120481721.296    22926907.651    93881846.450    22926906.185  
  22926905.006    89970103.902  
  23043017.542   121091874.442    23043015.005    94357292.019    23043014.504  
  23043015.040    90425741.099  
  24222360.960   127289362.983                    99186499.916    24222355.635  
                                
  21972390.028   115465691.360    21972385.668    89973242.274    21972385.239  
  21972389.509    86224374.495  
  22073293.934   115995942.833    22073289.717    90386427.771    22073289.235  
                                
  22609481.237   118813625.625                    92582023.798    22609476.055  
                                
  21098316.405   110872400.250    21098314.350    86394067.848    21098313.618  
  21098313.421    82794314.053  
  21870143.675   116703277.916                    90769222.097    21870145.569  
                                
  23070174.222   123496449.884                    96052783.999    23070172.882  
                                
  20531361.040   109674845.536                    85302661.938    20531362.237  
                                
  21656915.644   115890528.820                    90137083.454    21656917.020  
                                
  19839266.512   105903352.928                    82369270.206    19839265.780  
                                
  25288838.358   132893743.274                                                  
  25288834.141    99238822.439  
  24566858.694   129099714.202                                                  
  24566860.409    96405636.049  
  25372226.709   133331949.554                                                  
  25372225.601    99566064.416  
 21  8 31  7 48 50.0000000  0 17G 1G 7G 8G 9G13G14G17G21G30R 2R 3R12
                                R21R22E 1E31E33
  22621419.567   118876364.364    22621419.281    92630928.627    22621418.834  
  22621417.869    88771302.3141 
  20311672.035   106738557.303    20311667.139    83172878.954    20311666.781  
                                
  22927519.951   120484927.550    22927517.771    93884344.828    22927516.287  
  22927515.126    89972498.183  
  23043653.894   121095218.448    23043651.374    94359897.741    23043650.838  
  23043651.374    90428238.258  
  24221825.408   127286548.703                    99184306.955    24221820.047  
                                
  21972139.879   115464376.795    21972135.537    89972217.940    21972135.090  
  21972139.343    86223392.839  
  22072766.334   115993170.325    22072762.134    90384267.375    22072761.652  
                                
  22609428.023   118813346.201                    92581806.065    22609422.894  
                                
  21097956.166   110870507.223    21097954.093    86392592.762    21097953.378  
  21097953.200    82792900.426  
  21870564.776   116705524.913                    90770969.764    21870566.652  
                                
  23070028.768   123495671.139                    96052178.306    23070027.392  
                                
  20531176.739   109673861.030                    85301896.213    20531177.936  
                                
  21657388.708   115893060.207                    90139052.312    21657390.066  
                                
  19839045.383   105902172.615                    82368352.189    19839044.668  
                                
  25289015.530   132894674.340                                                  
  25289011.277    99239517.709  
  24566751.551   129099151.090                                                  
  24566753.267    96405215.546  
  25371810.718   133329763.511                                                  
  25371809.611    99564431.980  
 21  8 31  7 48 51.0000000  0 17G 1G 7G 8G 9G13G14G17G21G30R 2R 3R12
                                R21R22E 1E31E33
  22620953.775   118873916.600    22620953.489    92629021.278    22620953.024  
  22620952.077    88769474.4341 
  20311646.839   106738424.945    20311641.943    83172775.820    20311641.586  
                                
  22928130.124   120488133.928    22928127.944    93886843.304    22928126.425  
  22928125.299    89974892.547  
  23044290.245   121098562.511    23044287.726    94362503.503    23044287.208  
  23044287.726    90430735.436  
  24221289.945   127283734.696                    99182114.215    24221284.584  
                                
  21971889.713   115463062.288    21971885.371    89971193.649    21971884.942  
  21971889.213    86222411.214  
  22072238.786   115990398.066    22072234.587    90382107.171    22072234.105  
                                
  22609374.934   118813067.188                    92581588.655    22609369.788  
                                
  21097595.980   110868614.363    21097593.889    86391117.808    21097593.157  
  21097592.996    82791486.925  
  21870985.949   116707772.333                    90772717.750    21870987.843  
                                
  23069883.404   123494893.003                    96051573.085    23069882.028  
                                
  20530992.456   109672876.526                    85301130.491    20530993.635  
                                
  21657861.880   115895592.193                    90141021.633    21657863.220  
                                
  19838824.433   105900993.103                    82367434.791    19838823.700  
                                
  25289192.665   132895605.285                                                  
  25289188.430    99240212.901  
  24566644.391   129098587.890                                                  
  24566646.106    96404794.974  
  25371394.745   133327577.611                                                  
  25371393.638    99562799.655  
 21  8 31  7 48 52.0000000  0 17G 1G 7G 8G 9G13G14G17G21G30R 2R 3R12
                                R21R22E 1E31E33
  22620488.037   118871469.193    22620487.769    92627114.210    22620487.304  
  22620486.357    88767646.8301 
  20311621.733   106738293.056    20311616.855    83172673.049    20311616.498  
                                
  22928740.333   120491340.526    22928738.118    93889341.949    22928736.617  
  22928735.491    89977287.091  
  23044926.633   121101906.728    23044924.113    94365109.390    23044923.613  
  23044924.113    90433232.746  
  24220754.535   127280921.053                    99179921.761    24220749.067  
                                
  21971639.564   115461747.916    21971635.276    89970169.461    21971634.847  
  21971639.082    86221429.726  
  22071711.311   115987626.207    22071707.129    90379947.279    22071706.629  
                                
  22609321.916   118812788.706                    92581371.660    22609316.806  
                                
  21097235.830   110866721.793    21097233.739    86389643.081    21097233.006  
  21097232.846    82790073.651  
  21871407.211   116710020.314                    90774466.180    21871409.105  
                                
  23069738.236   123494115.645                    96050968.471    23069736.788  
                                
  20530808.172   109671892.154                    85300364.870    20530809.352  
                                
  21658335.177   115898124.894                    90142991.509    21658336.517  
                                
  19838603.643   105899814.510                    82366518.103    19838602.910  
                                
  25289369.837   132896536.250                                                  
  25289365.584    99240908.101  
  24566537.230   129098024.714                                                  
  24566538.946    96404374.421  
  25370978.826   133325391.995                                                  
  25370977.736    99561167.530  
 21  8 31  7 48 53.0000000  0 17G 1G 7G 8G 9G13G14G17G21G30R 2R 3R12
                                R21R22E 1E31E33
  22620022.388   118869022.066    22620022.102    92625207.355    22620021.637  
  22620020.690    88765819.4251 
  20311596.735   106738161.592    20311591.839    83172570.610    20311591.499  
                                
  22929350.578   120494547.303    22929348.345    93891840.737    22929346.844  
  22929345.718    89979681.753  
  23045563.056   121105251.072    23045560.536    94367715.377    23045560.018  
  23045560.518    90435730.142  
  24220219.197   127278107.798                    99177729.609    24220213.658  
                                
  21971389.452   115460433.706    21971385.163    89969145.398    21971384.770  
  21971388.987    86220448.325  
  22071183.907   115984854.706    22071179.725    90377787.667    22071179.225  
                                
  22609269.042   118812510.766                    92581155.084    22609263.896  
                                
  21096875.733   110864829.491    21096873.643    86388168.557    21096872.910  
  21096872.767    82788660.561  
  21871828.581   116712268.849                    90776215.045    21871830.511  
                                
  23069593.139   123493338.983                    96050364.402    23069591.692  
                                
  20530623.907   109670907.842                    85299599.296    20530625.086  
                                
  21658808.616   115900658.279                    90144961.920    21658809.939  
                                
  19838382.996   105898636.779                    82365602.090    19838382.300  
                                
  25289547.008   132897467.195                                                  
  25289542.702    99241603.280  
  24566430.070   129097461.537                                                  
  24566431.785    96403953.858  
  25370562.960   133323206.612                                                  
  25370561.870    99559535.586  
 21  8 31  7 48 54.0000000  0 17G 1G 7G 8G 9G13G14G17G21G30R 2R 3R12
                                R21R22E 1E31E33
  22619556.739   118866575.041    22619556.435    92623300.587    22619555.970  
  22619555.059    88763992.0951 
  20311571.754   106738030.355    20311566.858    83172468.350    20311566.518  
                                
  22929960.841   120497754.048    22929958.536    93894339.501    22929957.071  
  22929955.981    89982076.405  
  23046199.443   121108595.319    23046196.924    94370321.281    23046196.423  
  23046196.906    90438227.469  
  24219683.895   127275294.671                    99175537.533    24219678.302  
                                
  21971139.321   115459119.408    21971135.068    89968121.277    21971134.675  
  21971138.892    86219466.879  
  22070656.520   115982083.354    22070652.339    90375628.175    22070651.856  
                                
  22609216.185   118812233.103                    92580938.721    22609211.057  
                                
  21096515.672   110862937.250    21096513.564    86386694.084    21096512.813  
  21096512.688    82787247.522  
  21872250.022   116714517.697                    90777964.146    21872251.951  
                                
  23069448.186   123492562.862                    96049760.753    23069446.685  
                                
  20530439.606   109669923.341                    85298833.569    20530440.767  
                                
  21659282.128   115903192.157                    90146932.716    21659283.450  
                                
  19838162.564   105897459.733                    82364686.605    19838161.796  
                                
  25289724.090   132898397.908                                                  
  25289719.784    99242298.295  
  24566322.856   129096898.132                                                  
  24566324.571    96403533.131  
  25370147.077   133321021.258                                                  
  25370146.022    99557903.672  
 21  8 31  7 48 55.0000000  0 17G 1G 7G 8G 9G13G14G17G21G30R 2R 3R12
                                R21R22E 1E31E33
  22619091.179   118864128.539    22619090.876    92621394.231    22619090.411  
  22619089.500    88762165.1721 
  20311546.916   106737899.757    20311542.020    83172366.581    20311541.662  
                                
  22930571.140   120500961.221    22930568.799    93896838.602    22930567.369  
  22930566.279    89984471.363  
  23046835.902   121111939.913    23046833.382    94372927.451    23046832.882  
  23046833.365    90440725.055  
  24219148.700   127272482.102                    99173345.912    24219143.053  
                                
  21970889.280   115457805.473    21970885.045    89967097.434    21970884.652  
  21970888.851    86218485.688  
  22070129.259   115979312.586    22070125.078    90373469.132    22070124.595  
                                
  22609163.490   118811956.173                    92580722.938    22609158.326  
                                
  21096155.665   110861045.479    21096153.557    86385219.974    21096152.824  
  21096152.699    82785834.840  
  21872671.588   116716767.322                    90779713.855    21872673.553  
                                
  23069303.429   123491787.740                    96049157.875    23069301.838  
                                
  20530255.358   109668939.136                    85298068.074    20530256.520  
                                
  21659755.835   115905726.899                    90148904.182    21659757.104  
                                
  19837942.257   105896283.775                    82363771.968    19837941.506  
                                
  25289901.244   132899328.812                                                  
  25289896.919    99242993.444  
  24566215.695   129096334.938                                                  
  24566217.410    96403112.566  
  25369731.318   133318836.346                                                  
  25369730.246    99556272.085  
 21  8 31  7 48 56.0000000  0 17G 1G 7G 8G 9G13G14G17G21G30R 2R 3R12
                                R21R22E 1E31E33
  22618625.727   118861682.579    22618625.423    92619488.288    22618624.959  
  22618624.065    88760338.6531 
  20311522.185   106737769.835    20311517.289    83172265.342    20311516.949  
                                
  22931181.581   120504168.831    22931179.169    93899338.036    22931177.775  
  22931176.703    89986866.661  
  23047472.432   121115284.879    23047469.913    94375533.913    23047469.412  
  23047469.895    90443222.915  
  24218613.612   127269670.126                    99171154.761    24218607.947  
                                
  21970639.310   115456491.938    21970635.075    89966073.900    21970634.682  
  21970638.881    86217504.799  
  22069602.123   115976542.411    22069597.924    90371310.559    22069597.459  
                                
  22609110.901   118811679.998                    92580507.739    22609105.755  
                                
  21095795.765   110859154.224    21095793.674    86383746.269    21095792.924  
  21095792.799    82784422.543  
  21873093.297   116719017.686                    90781464.131    21873095.262  
                                
  23069158.833   123491013.592                    96048555.758    23069157.189  
                                
  20530071.182   109667955.298                    85297302.866    20530072.326  
                                
  21660229.686   115908262.561                    90150876.366    21660230.973  
                                
  19837722.200   105895108.928                    82362858.197    19837721.414  
                                
  25290078.433   132900259.945                                                  
  25290074.108    99243688.780  
  24566108.570   129095771.976                                                  
  24566110.286    96402692.183  
  25369315.613   133316651.955                                                  
  25369314.577    99554640.884  
 21  8 31  7 48 57.0000000  0 17G 1G 7G 8G 9G13G14G17G21G30R 2R 3R12
                                R21R22E 1E31E33
  22618160.346   118859236.889    22618160.042    92617582.549    22618159.560  
  22618158.649    88758512.3151 
  20311497.526   106737640.282    20311492.630    83172164.390    20311492.290  
                                
  22931792.005   120507376.594    22931789.611    93901837.598    22931788.163  
  22931787.127    89989262.062  
  23048108.963   121118629.903    23048106.461    94378140.424    23048105.961  
  23048106.443    90445720.823  
  24218078.560   127266858.455                    99168963.856    24218072.913  
                                
  21970389.323   115455178.461    21970385.123    89965050.407    21970384.766  
  21970388.929    86216523.956  
  22069075.022   115973772.559    22069070.841    90369152.235    22069070.359  
                                
  22609058.438   118811404.277                    92580292.887    22609053.291  
                                
  21095435.919   110857263.177    21095433.810    86382272.726    21095433.060  
  21095432.953    82783010.387  
  21873515.095   116721268.510                    90783214.772    21873517.060  
                                
  23069014.379   123490240.122                    96047954.168    23069012.700  
                                
  20529887.006   109666971.472                    85296537.666    20529888.150  
                                
  21660703.662   115910798.851                    90152849.038    21660704.931  
                                
  19837502.250   105893934.875                    82361945.047    19837501.482  
                                
  25290255.586   132901190.996                                                  
  25290251.244    99244384.038  
  24566001.445   129095208.958                                                  
  24566003.161    96402271.739  
  25368899.962   133314467.730                                                  
  25368898.943    99553009.802  
 21  8 31  7 48 58.0000000  0 17G 1G 7G 8G 9G13G14G17G21G30R 2R 3R12
                                R21R22E 1E31E33
  22617695.001   118856791.420    22617694.679    92615676.986    22617694.215  
  22617693.304    88756686.1591 
  20311472.956   106737511.099    20311468.042    83172063.730    20311467.702  
                                
  22932402.465   120510584.475    22932400.034    93904337.248    22932398.587  
  22932397.586    89991657.559  
  23048745.511   121121975.001    23048743.027    94380746.994    23048742.527  
  23048742.991    90448218.790  
  24217543.561   127264047.083                    99166773.181    24217537.950  
                                
  21970139.388   115453865.058    21970135.207    89964026.980    21970134.832  
  21970138.995    86215543.170  
  22068547.958   115971002.956    22068543.794    90366994.105    22068543.312  
                                
  22609006.046   118811129.014                    92580078.396    22609000.917  
                                
  21095076.090   110855372.321    21095074.000    86380799.330    21095073.231  
  21095073.142    82781598.391  
  21873937.000   116723519.801                    90784965.776    21873938.966  
                                
  23068870.016   123489467.337                    96047353.115    23068868.300  
                                
  20529702.848   109665987.666                    85295772.489    20529703.956  
                                
  21661177.763   115913335.804                    90154822.226    21661179.014  
                                
  19837282.425   105892761.615                    82361032.515    19837281.711  
                                
  25290432.758   132902121.973                                                  
  25290428.398    99245079.250  
  24565894.285   129094645.870                                                  
  24565896.018    96401851.253  
  25368484.346   133312283.685                                                  
  25368483.328    99551378.864  
 21  8 31  7 48 59.0000000  0 17G 1G 7G 8G 9G13G14G17G21G30R 2R 3R12
                                R21R22E 1E31E33
  22617229.727   118854346.335    22617229.370    92613771.728    22617228.923  
  22617228.030    88754860.2771 
  20311448.457   106737382.414    20311443.561    83171963.456    20311443.222  
                                
  22933012.960   120513792.607    22933010.512    93906837.087    22933009.046  
  22933008.099    89994053.234  
  23049382.095   121125320.293    23049379.611    94383353.717    23049379.111  
  23049379.575    90450716.891  
  24217008.670   127261236.125                    99164582.835    24217003.041  
                                
  21969889.472   115452551.863    21969885.309    89963003.709    21969884.934  
  21969889.097    86214562.533  
  22068021.000   115968233.811    22068016.837    90364836.330    22068016.354  
                                
  22608953.761   118810854.326                    92579864.358    22608948.633  
                                
  21094716.333   110853481.800    21094714.225    86379326.198    21094713.474  
  21094713.385    82780186.634  
  21874359.013   116725771.685                    90786717.241    21874360.961  
                                
  23068725.830   123488695.339                    96046752.679    23068724.043  
                                
  20529518.708   109665003.986                    85295007.406    20529519.816  
                                
  21661651.989   115915873.531                    90156796.016    21661653.258  
                                
  19837062.815   105891589.281                    82360120.703    19837062.100  
                                
  25290609.929   132903052.985                                                  
  25290605.551    99245774.485  
  24565787.160   129094082.843                                                  
  24565788.876    96401430.809  
  25368068.802   133310099.951                                                  
  25368067.801    99549748.151  
 21  8 31  7 49  0.0000000  0 17G 1G 7G 8G 9G13G14G17G21G30R 2R 3R12
                                R21R22E 1E31E33
  22616764.543   118851901.681    22616764.168    92611866.809    22616763.721  
  22616762.828    88753034.7371 
  20311424.084   106737254.282    20311419.188    83171863.612    20311418.849  
                                
  22933623.508   120517001.072    22933621.043    93909337.184    22933619.577  
  22933618.666    89996449.178  
  23050018.750   121128665.837    23050016.249    94385960.634    23050015.766  
  23050016.195    90453215.200  
  24216473.886   127258425.645                    99162392.849    24216468.150  
                                
  21969639.610   115451238.935    21969635.446    89961980.648    21969635.071  
  21969639.235    86213582.110  
  22067494.132   115965465.147    22067489.969    90362678.929    22067489.486  
                                
  22608901.619   118810580.293                    92579650.830    22608896.455  
                                
  21094356.666   110851591.669    21094354.557    86377853.369    21094353.789  
  21094353.717    82778775.181  
  21874781.133   116728024.231                    90788469.217    21874783.081  
                                
  23068581.788   123487924.251                    96046152.947    23068579.983  
                                
  20529334.586   109664020.494                    85294242.466    20529335.693  
                                
  21662126.394   115918412.092                    90158770.452    21662127.662  
                                
  19836843.401   105890417.985                    82359209.690    19836842.687  
                                
  25290787.118   132903984.127                                                  
  25290782.740    99246469.818  
  24565680.053   129093519.942                                                  
  24565681.786    96401010.466  
  25367653.312   133307916.589                                                  
  25367652.329    99548117.727  
 21  8 31  7 49  1.0000000  0 17G 1G 7G 8G 9G13G14G17G21G30R 2R 3R12
                                R21R22E 1E31E33
  22616299.430   118849457.400    22616299.037    92609962.173    22616298.591  
  22616297.679    88751209.4341 
  20311399.782   106737126.627    20311394.886    83171764.139    20311394.547  
                                
  22934234.111   120520209.774    22934231.609    93911837.467    22934230.162  
  22934229.268    89998845.265  
  23050655.406   121132011.546    23050652.940    94388567.675    23050652.457  
  23050652.868    90455713.597  
  24215939.155   127255615.579                    99160203.171    24215933.366  
                                
  21969389.783   115449926.189    21969385.655    89960957.727    21969385.244  
  21969389.408    86212601.798  
  22066967.335   115962696.876    22066963.172    90360521.835    22066962.707  
                                
  22608849.567   118810306.779                    92579437.696    22608844.420  
                                
  21093997.069   110849701.852    21093994.925    86376380.782    21093994.157  
  21093994.085    82777363.939  
  21875203.378   116730277.301                    90790221.600    21875205.308  
                                
  23068437.889   123487153.942                    96045553.815    23068436.066  
                                
  20529150.499   109663037.103                    85293477.604    20529151.589  
                                
  21662600.941   115920951.345                    90160745.427    21662602.174  
                                
  19836624.166   105889247.610                    82358299.394    19836623.434  
                                
  25290964.325   132904915.268                                                  
  25290959.894    99247165.142  
  24565572.928   129092957.062                                                  
  24565574.680    96400590.124  
  25367237.857   133305733.494                                                  
  25367236.910    99546487.488  
 21  8 31  7 49  2.0000000  0 17G 1G 7G 8G 9G13G14G17G21G30R 2R 3R12
                                R21R22E 1E31E33
  22615834.353   118847013.260    22615833.924    92608057.645    22615833.496  
  22615832.584    88749384.2771 
  20311375.570   106736999.249    20311370.638    83171664.881    20311370.298  
                                
  22934844.749   120523418.528    22934842.229    93914337.795    22934840.746  
  22934839.889    90001241.426  
  23051292.079   121135357.237    23051289.595    94391174.703    23051289.113  
  23051289.542    90458212.013  
  24215404.460   127252805.722                    99158013.667    24215398.635  
                                
  21969139.956   115448613.437    21969135.846    89959934.799    21969135.453  
  21969139.599    86211621.498  
  22066440.557   115959928.817    22066436.429    90358364.906    22066435.946  
                                
  22608797.586   118810033.661                    92579224.870    22608792.457  
                                
  21093637.491   110847812.152    21093635.329    86374908.286    21093634.543  
  21093634.507    82775952.806  
  21875625.641   116732530.710                    90791974.252    21875627.589  
                                
  23068294.097   123486384.236                    96044955.157    23068292.256  
                                
  20528966.394   109662053.668                    85292712.707    20528967.484  
                                
  21663075.578   115923491.125                    90162720.811    21663076.811  
                                
  19836405.056   105888077.962                    82357389.668    19836404.342  
                                
  25291141.479   132905846.257                                                  
  25291137.047    99247860.365  
  24565465.821   129092394.047                                                  
  24565467.555    96400169.693  
  25366822.438   133303550.526                                                  
  25366821.509    99544857.351  
 21  8 31  7 49  3.0000000  0 17G 1G 7G 8G 9G13G14G17G21G30R 2R 3R12
                                R21R22E 1E31E33
  22615369.330   118844569.557    22615368.901    92606153.461    22615368.490  
  22615367.561    88747559.4321 
  20311351.429   106736872.431    20311346.515    83171566.062    20311346.175  
                                
  22935455.423   120526627.615    22935452.885    93916838.380    22935451.402  
  22935450.580    90003637.817  
  23051928.806   121138703.171    23051926.304    94393781.926    23051925.840  
  23051926.251    90460710.607  
  24214869.873   127249996.328                    99155824.524    24214864.030  
                                
  21968890.165   115447300.931    21968886.073    89958912.074    21968885.698  
  21968889.826    86210641.389  
  22065913.903   115957161.265    22065909.757    90356208.374    22065909.293  
                                
  22608745.748   118809761.153                    92579012.526    22608740.566  
                                
  21093277.966   110845922.834    21093275.804    86373436.090    21093275.018  
  21093274.982    82774541.956  
  21876048.047   116734784.773                    90793727.411    21876049.994  
                                
  23068150.501   123485615.399                    96044357.178    23068148.607  
                                
  20528782.326   109661070.423                    85291947.964    20528783.416  
                                
  21663550.358   115926031.706                    90164696.821    21663551.591  
                                
  19836186.125   105886909.343                    82356480.739    19836185.410  
                                
  25291318.668   132906777.346                                                  
  25291314.201    99248555.659  
  24565358.715   129091831.144                                                  
  24565360.430    96399749.343  
  25366407.090   133301367.907                                                  
  25366406.179    99543227.482  
 21  8 31  7 49  4.0000000  0 17G 1G 7G 8G 9G13G14G17G21G30R 2R 3R12
                                R21R22E 1E31E33
  22614904.378   118842126.086    22614903.913    92604249.455    22614903.502  
  22614902.591    88745734.7601 
  20311327.359   106736745.973    20311322.463    83171467.524    20311322.106  
                                
  22936066.132   120529836.801    22936063.524    93919339.053    22936062.058  
  22936061.290    90006034.274  
  23052565.533   121142049.173    23052563.049    94396389.203    23052562.602  
  23052562.960    90463209.232  
  24214335.321   127247187.236                    99153635.613    24214329.442  
                                
  21968640.410   115445988.511    21968636.336    89957889.414    21968635.943  
  21968640.070    86209661.326  
  22065387.303   115954393.998    22065383.157    90354052.063    22065382.675  
                                
  22608693.963   118809489.097                    92578800.537    22608688.799  
                                
  21092918.477   110844033.715    21092916.297    86371964.050    21092915.529  
  21092915.493    82773131.246  
  21876470.542   116737039.276                    90795480.914    21876472.472  
                                
  23068007.013   123484847.227                    96043759.701    23068005.083  
                                
  20528598.275   109660087.181                    85291183.220    20528599.329  
                                
  21664025.245   115928572.923                    90166673.321    21664026.478  
                                
  19835967.355   105885741.487                    82355572.409    19835966.622  
                                
  25291495.839   132907708.350                                                  
  25291491.354    99249250.889  
  24565251.572   129091268.161                                                  
  24565253.305    96399328.932  
  25365991.760   133299185.466                                                  
  25365990.885    99541597.731  
 21  8 31  7 49  5.0000000  0 17G 1G 7G 8G 9G13G14G17G21G30R 2R 3R12
                                R21R22E 1E31E33
  22614439.444   118839682.808    22614438.997    92602345.601    22614438.568  
  22614437.657    88743910.2321 
  20311303.361   106736619.821    20311298.465    83171369.221    20311298.090  
                                
  22936676.824   120533046.052    22936674.233    93921839.771    22936672.732  
  22936672.017    90008430.803  
  23053202.242   121145395.166    23053199.776    94398996.470    23053199.347  
  23053199.687    90465707.872  
  24213800.805   127244378.379                    99151446.886    24213794.890  
                                
  21968390.637   115444676.097    21968386.598    89956866.753    21968386.205  
  21968390.315    86208681.287  
  22064860.756   115951626.990    22064856.593    90351895.949    22064856.110  
                                
  22608642.268   118809217.450                    92578588.859    22608637.086  
                                
  21092559.024   110842144.740    21092556.844    86370492.121    21092556.058  
  21092556.040    82771720.648  
  21876893.126   116739294.211                    90797234.752    21876895.038  
                                
  23067863.668   123484079.676                    96043162.717    23067861.702  
                                
  20528414.188   109659103.886                    85290418.437    20528415.260  
                                
  21664500.276   115931114.708                    90168650.265    21664501.473  
                                
  19835748.727   105884574.426                    82354664.700    19835748.012  
                                
  25291672.975   132908639.210                                                  
  25291668.472    99249946.007  
  24565144.429   129090705.055                                                  
  24565146.163    96398908.428  
  25365576.466   133297003.141                                                  
  25365575.627    99539968.079  
 21  8 31  7 49  6.0000000  0 17G 1G 7G 8G 9G13G14G17G21G30R 2R 3R12
                                R21R22E 1E31E33
  22613974.581   118837239.856    22613974.081    92600442.006    22613973.688  
  22613972.794    88742085.9551 
  20311279.417   106736494.116    20311274.538    83171271.271    20311274.181  
                                
  22937287.569   120536255.528    22937284.943    93924340.664    22937283.460  
  22937282.781    90010827.488  
  23053838.987   121148741.309    23053836.556    94401603.856    23053836.110  
  23053836.431    90468206.617  
  24213266.378   127241569.883                    99149258.427    24213260.392  
                                
  21968140.899   115443363.841    21968136.879    89955844.216    21968136.485  
  21968140.595    86207701.358  
  22064334.281   115948860.342    22064330.118    90349740.122    22064329.635  
                                
  22608590.680   118808946.318                    92578377.594    22608585.498  
                                
  21092199.624   110840256.050    21092197.444    86369020.419    21092196.658  
  21092196.640    82770310.267  
  21877315.818   116741549.707                    90798989.031    21877317.712  
                                
  23067720.448   123483312.905                    96042566.342    23067718.464  
                                
  20528230.137   109658120.668                    85289653.710    20528231.191  
                                
  21664975.413   115933657.210                    90170627.766    21664976.610  
                                
  19835530.243   105883408.245                    82353757.670    19835529.546  
                                
  25291850.111   132909570.072                                                  
  25291845.590    99250641.136  
  24565037.269   129090141.949                                                  
  24565039.020    96398487.936  
  25365161.244   133294821.088                                                  
  25365160.422    99538338.621  
 21  8 31  7 49  7.0000000  0 17G 1G 7G 8G 9G13G14G17G21G30R 2R 3R12
                                R21R22E 1E31E33
  22613509.790   118834797.201    22613509.254    92598538.648    22613508.861  
  22613507.967    88740261.8811 
  20311255.579   106736368.826    20311250.701    83171173.645    20311250.326  
                                
  22937898.333   120539465.175    22937895.688    93926841.687    22937894.205  
  22937893.597    90013224.298  
  23054475.767   121152087.560    23054473.319    94404211.325    23054472.908  
  23054473.194    90470705.434  
  24212732.005   127238761.718                    99147070.254    24212725.947  
                                
  21967891.197   115442051.708    21967887.177    89954821.773    21967886.784  
  21967890.894    86206721.514  
  22063807.842   115946094.058    22063803.696    90347584.579    22063803.232  
                                
  22608539.200   118808675.701                    92578166.730    22608533.982  
                                
  21091840.278   110838367.612    21091838.080    86367548.907    21091837.294  
  21091837.294    82768900.063  
  21877738.599   116743805.721                    90800743.709    21877740.476  
                                
  23067577.353   123482546.855                    96041970.520    23067575.351  
                                
  20528046.086   109657137.513                    85288889.038    20528047.140  
                                
  21665450.675   115936200.363                    90172605.777    21665451.872  
                                
  19835311.937   105882242.896                    82352851.288    19835311.258  
                                
  25292027.246   132910500.897                                                  
  25292022.725    99251336.228  
  24564930.126   129089578.831                                                  
  24564931.859    96398067.415  
  25364746.022   133292639.243                                                  
  25364745.253    99536709.320  
 21  8 31  7 49  8.0000000  0 17G 1G 7G 8G 9G13G14G17G21G30R 2R 3R12
                                R21R22E 1E31E33
  22613045.035   118832354.865    22613044.516    92596635.529    22613044.105  
  22613043.194    88738438.0691 
  20311231.813   106736243.986    20311226.953    83171076.365    20311226.578  
                                
  22938509.132   120542675.054    22938506.505    93929342.887    22938505.004  
  22938504.432    90015621.292  
  23055112.548   121155433.946    23055110.135    94406818.896    23055109.706  
  23055110.010    90473204.374  
  24212197.721   127235953.944                    99144882.373    24212191.610  
                                
  21967641.531   115440739.739    21967637.511    89953799.459    21967637.100  
  21967641.245    86205741.804  
  22063281.528   115943328.152    22063277.346    90345429.325    22063276.900  
                                
  22608487.808   118808405.608                    92577956.269    22608482.591  
                                
  21091480.968   110836479.456    21091478.752    86366077.617    21091478.002  
  21091478.002    82767490.085  
  21878161.488   116746062.295                    90802498.818    21878163.346  
                                
  23067434.418   123481781.534                    96041375.268    23067432.381  
                                
  20527862.053   109656154.489                    85288124.457    20527863.125  
                                
  21665926.063   115938744.225                    90174584.331    21665927.260  
                                
  19835093.792   105881078.459                    82351945.619    19835093.131  
                                
  25292204.364   132911431.719                                                  
  25292199.825    99252031.336  
  24564822.966   129089015.734                                                  
  24564824.717    96397646.927  
  25364330.870   133290457.686                                                  
  25364330.138    99535080.244  
 21  8 31  7 49  9.0000000  0 17G 1G 7G 8G 9G13G14G17G21G30R 2R 3R12
                                R21R22E 1E31E33
  22612580.386   118829912.976    22612579.832    92594732.749    22612579.404  
  22612578.528    88736614.5761 
  20311208.173   106736119.715    20311203.312    83170979.533    20311202.937  
                                
  22939120.002   120545885.250    22939117.340    93931844.329    22939115.856  
  22939115.338    90018018.507  
  23055749.400   121158780.597    23055746.969    94409426.683    23055746.594  
  23055746.844    90475703.490  
  24211663.509   127233146.654                    99142694.861    24211657.398  
                                
  21967391.901   115439428.050    21967387.881    89952777.361    21967387.487  
  21967391.633    86204762.289  
  22062755.285   115940562.754    22062751.122    90343274.472    22062750.657  
                                
  22608436.524   118808136.182                    92577746.326    22608431.306  
                                
  21091121.747   110834591.717    21091119.531    86364606.651    21091118.763  
  21091118.763    82766080.405  
  21878584.501   116748319.504                    90804254.427    21878586.324  
                                
  23067291.609   123481017.095                    96040780.702    23067289.572  
                                
  20527678.074   109655171.686                    85287360.062    20527679.128  
                                
  21666401.611   115941288.917                    90176563.541    21666402.808  
                                
  19834875.861   105879915.011                    82351040.717    19834875.200  
                                
  25292381.518   132912362.661                                                  
  25292376.979    99252726.520  
  24564715.841   129088452.757                                                  
  24564717.592    96397226.520  
  25363915.791   133288276.499                                                  
  25363915.094    99533451.433  
 21  8 31  7 49 10.0000000  0 17G 1G 7G 8G 9G13G14G17G21G30R 2R 3R12
                                R21R22E 1E31E33
  22612115.810   118827471.547    22612115.238    92592830.339    22612114.809  
  22612113.933    88734791.4331 
  20311184.621   106735996.034    20311179.761    83170883.155    20311179.386  
                                
  22939730.908   120549095.771    22939728.264    93934346.038    22939726.798  
  22939726.316    90020415.983  
  23056386.305   121162127.535    23056383.911    94412034.691    23056383.500  
  23056383.750    90478202.824  
  24211129.422   127230339.887                    99140507.767    24211123.221  
                                
  21967142.324   115438116.651    21967138.358    89951755.492    21967137.929  
  21967142.056    86203782.993  
  22062229.114   115937797.867    22062224.968    90341120.012    22062224.521  
                                
  22608385.401   118807867.392                    92577536.877    22608380.147  
                                
  21090762.597   110832704.388    21090760.364    86363136.007    21090759.613  
  21090759.631    82764671.043  
  21879007.639   116750577.354                    90806010.532    21879009.444  
                                
  23067148.996   123480253.564                    96040186.848    23067146.959  
                                
  20527494.112   109654189.101                    85286595.829    20527495.184  
                                
  21666877.320   115943834.476                    90178543.422    21666878.500  
                                
  19834658.127   105878752.607                    82350136.625    19834657.448  
                                
  25292558.707   132913293.744                                                  
  25292554.150    99253421.811  
  24564608.734   129087889.933                                                  
  24564610.503    96396806.236  
  25363500.801   133286095.711                                                  
  25363500.122    99531822.929  
 21  8 31  7 49 11.0000000  0 17G 1G 7G 8G 9G13G14G17G21G30R 2R 3R12
                                R21R22E 1E31E33
  22611651.269   118825030.274    22611650.697    92590928.041    22611650.250  
  22611649.375    88732968.4071 
  20311161.141   106735872.638    20311156.281    83170787.004    20311155.906  
                                
  22940341.850   120552306.371    22940339.205    93936847.807    22940337.722  
  22940337.276    90022813.497  
  23057023.193   121165474.431    23057020.834    94414642.663    23057020.405  
  23057020.638    90480702.137  
  24210595.352   127227533.307                    99138320.824    24210589.116  
                                
  21966892.748   115436805.240    21966888.799    89950733.613    21966888.388  
  21966892.498    86202803.684  
  22061702.996   115935033.206    22061698.868    90338965.731    22061698.422  
                                
  22608334.331   118807598.969                    92577327.710    22608329.060  
                                
  21090403.466   110830817.174    21090401.250    86361665.448    21090400.482  
  21090400.500    82763261.757  
  21879430.831   116752835.522                    90807766.883    21879432.618  
                                
  23067006.491   123479490.641                    96039593.460    23067004.454  
                                
  20527310.168   109653206.411                    85285831.514    20527311.222  
                                
  21667353.154   115946380.546                    90180523.694    21667354.298  
                                
  19834440.536   105877590.924                    82349233.092    19834439.821  
                                
  25292735.878   132914224.656                                                  
  25292731.268    99254116.964  
  24564501.609   129087326.962                                                  
  24564503.378    96396385.824  
  25363085.828   133283915.028                                                  
  25363085.185    99530194.486  
 21  8 31  7 49 12.0000000  0 17G 1G 7G 8G 9G13G14G17G21G30R 2R 3R12
                                R21R22E 1E31E33
  22611186.763   118822589.209    22611186.156    92589025.913    22611185.727  
  22611184.834    88731145.5341 
  20311137.715   106735749.549    20311132.891    83170691.091    20311132.480  
                                
  22940952.774   120555517.034    22940950.165    93939349.627    22940948.682  
  22940948.271    90025211.073  
  23057660.081   121168821.364    23057657.740    94417250.655    23057657.347  
  23057657.543    90483201.467  
  24210061.319   127224726.953                    99136134.062    24210055.011  
                                
  21966643.171   115435493.835    21966639.240    89949711.739    21966638.811  
  21966642.939    86201824.406  
  22061176.950   115932268.782    22061172.822    90336811.630    22061172.375  
                                
  22608283.333   118807330.957                    92577118.865    22608278.026  
                                
  21090044.388   110828930.121    21090042.154    86360195.018    21090041.404  
  21090041.404    82761852.599  
  21879854.077   116755094.060                    90809523.524    21879855.864  
                                
  23066864.111   123478728.378                    96039000.587    23066862.073  
                                
  20527126.171   109652223.676                    85285067.165    20527127.261  
                                
  21667829.042   115948927.165                    90182504.398    21667830.204  
                                
  19834223.052   105876430.001                    82348330.152    19834222.373  
                                
  25292912.978   132915155.437                                                  
  25292908.386    99254812.030  
  24564394.448   129086763.856                                                  
  24564396.235    96395965.330  
  25362670.874   133281734.466                                                  
  25362670.266    99528566.153  
 21  8 31  7 49 13.0000000  0 17G 1G 7G 8G 9G13G14G17G21G30R 2R 3R12
                                R21R22E 1E31E33
  22610722.383   118820148.687    22610721.758    92587124.207    22610721.311  
  22610720.436    88729323.0661 
  20311114.414   106735627.142    20311109.589    83170595.709    20311109.178  
                                
  22941563.805   120558728.151    22941561.214    93941851.793    22941559.713  
  22941559.338    90027608.966  
  23058297.022   121172168.636    23058294.735    94419858.921    23058294.306  
  23058294.502    90485701.065  
  24209527.374   127221921.218                    99133947.775    24209521.067  
                                
  21966393.684   115434182.835    21966389.753    89948690.179    21966389.360  
  21966393.434    86200845.401  
  22060651.011   115929504.978    22060646.848    90334658.019    22060646.437  
                                
  22608232.478   118807063.705                    92576910.619    22608227.153  
                                
  21089685.399   110827043.579    21089683.148    86358724.983    21089682.397  
  21089682.433    82760443.806  
  21880277.484   116757353.361                    90811280.758    21880279.253  
                                
  23066721.927   123477967.095                    96038408.478    23066719.890  
                                
  20526942.245   109651241.282                    85284303.083    20526943.353  
                                
  21668305.127   115951474.729                    90184485.837    21668306.288  
                                
  19834005.765   105875270.220                    82347428.100    19834005.104  
                                
  25293090.149   132916086.444                                                  
  25293085.521    99255507.258  
  24564287.359   129086200.994                                                  
  24564289.128    96395545.006  
  25362255.991   133279554.406                                                  
  25362255.437    99526938.175  
 21  8 31  7 49 14.0000000  0 17G 1G 7G 8G 9G13G14G17G21G30R 2R 3R12
                                R21R22E 1E31E33
  22610258.021   118817708.502    22610257.413    92585222.760    22610256.949  
  22610256.073    88727500.8391 
  20311091.220   106735505.177    20311086.360    83170500.672    20311085.984  
                                
  22942174.890   120561939.464    22942172.281    93944354.107    22942170.762  
  22942170.441    90030007.022  
  23058934.017   121175516.091    23058931.730    94422467.325    23058931.336  
  23058931.497    90488200.763  
  24208993.555   127219115.847                    99131761.781    24208987.194  
                                
  21966144.232   115432871.976    21966140.301    89947668.732    21966139.908  
  21966143.982    86199866.509  
  22060125.144   115926741.549    22060120.980    90332504.697    22060120.569  
                                
  22608181.730   118806796.958                    92576702.761    22608176.387  
                                
  21089326.464   110825157.309    21089324.177    86357255.162    21089323.462  
  21089323.480    82759035.231  
  21880701.015   116759613.183                    90813038.402    21880702.731  
                                
  23066579.868   123477206.542                    96037816.939    23066577.831  
                                
  20526758.373   109650259.004                    85283539.089    20526759.481  
                                
  21668781.336   115954022.998                    90186467.826    21668782.515  
                                
  19833788.674   105874111.345                    82346526.755    19833788.031  
                                
  25293267.321   132917017.453                                                  
  25293262.675    99256202.481  
  24564180.252   129085638.143                                                  
  24564182.039    96395124.695  
  25361841.180   133277374.597                                                  
  25361840.661    99525310.389  
 21  8 31  7 49 15.0000000  0 17G 1G 7G 8G 9G13G14G17G21G30R 2R 3R12
                                R21R22E 1E31E33
  22609793.730   118815268.611    22609793.123    92583321.551    22609792.640  
  22609791.765    88725678.8451 
  20311068.080   106735383.612    20311063.237    83170405.943    20311062.844  
                                
  22942785.993   120565150.954    22942783.420    93946856.568    22942781.901  
  22942781.597    90032405.215  
  23059571.030   121178863.621    23059568.760    94425075.786    23059568.367  
  23059568.528    90490700.554  
  24208459.754   127216310.823                    99129576.038    24208453.375  
                                
  21965894.781   115431561.234    21965890.885    89946647.375    21965890.474  
  21965894.566    86198887.719  
  22059599.348   115923978.452    22059595.184    90330351.635    22059594.755  
                                
  22608131.071   118806530.724                    92576495.300    22608125.710  
                                
  21088967.565   110823271.307    21088965.295    86355785.550    21088964.563  
  21088964.581    82757626.852  
  21881124.600   116761873.527                    90814796.447    21881126.316  
                                
  23066437.916   123476446.683                    96037225.937    23066435.915  
                                
  20526574.483   109649276.779                    85282775.134    20526575.608  
                                
  21669257.671   115956571.943                    90188450.336    21669258.850  
                                
  19833571.726   105872953.316                    82345626.066    19833571.083  
                                
  25293444.456   132917948.413                                                  
  25293439.828    99256897.689  
  24564073.128   129085075.260                                                  
  24564074.932    96394704.365  
  25361426.404   133275194.992                                                  
  25361425.921    99523682.779  
 21  8 31  7 49 16.0000000  0 17G 1G 7G 8G 9G13G14G17G21G30R 2R 3R12
                                R21R22E 1E31E33
  22609329.511   118812829.004    22609328.867    92581420.563    22609328.385  
  22609327.509    88723857.0691 
  20311045.029   106735262.484    20311040.186    83170311.560    20311039.775  
                                
  22943397.149   120568362.628    22943394.558    93949359.170    22943393.039  
  22943392.771    90034803.543  
  23060208.060   121182211.293    23060205.809    94427684.361    23060205.416  
  23060205.576    90493200.438  
  24207926.078   127213506.159                    99127390.581    24207919.645  
                                
  21965645.365   115430250.639    21965641.487    89945626.132    21965641.076  
  21965645.151    86197909.023  
  22059073.623   115921215.742    22059069.460    90328198.876    22059069.031  
                                
  22608080.520   118806264.992                    92576288.236    22608075.141  
                                
  21088608.719   110821385.548    21088606.432    86354316.130    21088605.717  
  21088605.735    82756218.663  
  21881548.293   116764134.410                    90816554.911    21881550.008  
                                
  23066296.108   123475687.555                    96036635.507    23066294.142  
                                
  20526390.646   109648294.626                    85282011.242    20526391.736  
                                
  21669734.130   115959121.596                    90190433.395    21669735.310  
                                
  19833354.993   105871796.194                    82344726.084    19833354.332  
                                
  25293621.628   132918879.363                                                  
  25293616.964    99257592.875  
  24563966.039   129084512.371                                                  
  24563967.826    96394284.026  
  25361011.682   133273015.650                                                  
  25361011.253    99522055.351  
 21  8 31  7 49 17.0000000  0 17G 1G 7G 8G 9G13G14G17G21G30R 2R 3R12
                                R21R22E 1E31E33
  22608865.381   118810389.864    22608864.720    92579519.942    22608864.219  
  22608863.362    88722035.6381 
  20311022.085   106735141.936    20311017.260    83170217.627    20311016.831  
                                
  22944008.377   120571574.641    22944005.804    93951862.045    22944004.231  
  22944004.017    90037202.117  
  23060845.127   121185559.220    23060842.893    94430293.135    23060842.518  
  23060842.661    90495700.514  
  24207392.437   127210701.997                    99125205.520    24207386.022  
                                
  21965396.021   115428940.314    21965392.143    89944605.102    21965391.696  
  21965395.824    86196930.538  
  22058547.970   115918453.508    22058543.824    90326046.486    22058543.413  
                                
  22608030.093   118805999.933                    92576081.698    22608024.697  
                                
  21088249.963   110819500.206    21088247.675    86352847.032    21088246.961  
  21088246.979    82754810.775  
  21881972.128   116766395.969                    90818313.904    21881973.826  
                                
  23066154.496   123474929.367                    96036045.809    23066152.530  
                                
  20526206.828   109647312.661                    85281247.489    20526207.935  
                                
  21670210.751   115961672.034                    90192417.069    21670211.912  
                                
  19833138.456   105870640.029                    82343826.847    19833137.741  
                                
  25293798.799   132919810.432                                                  
  25293794.135    99258288.151  
  24563858.950   129083949.617                                                  
  24563860.754    96393863.794  
  25360597.031   133270836.685                                                  
  25360596.638    99520428.206  
 21  8 31  7 49 18.0000000  0 17G 1G 7G 8G 9G13G14G17G21G30R 2R 3R12
                                R21R22E 1E31E33
  22608401.287   118807951.033    22608400.625    92577619.553    22608400.107  
  22608399.249    88720214.4301 
  20310999.230   106735021.803    20310994.406    83170124.017    20310993.977  
                                
  22944619.605   120574786.817    22944617.050    93954365.035    22944615.459  
  22944615.281    90039600.831  
  23061482.229   121188907.267    23061480.031    94432902.001    23061479.656  
  23061479.781    90498200.676  
  24206858.886   127207898.182                    99123020.729    24206852.453  
                                
  21965146.658   115427630.121    21965142.799    89943584.174    21965142.352  
  21965146.480    86195952.149  
  22058022.406   115915691.652    22058018.261    90323894.392    22058017.832  
                                
  22607979.721   118805735.363                    92575875.540    22607974.324  
                                
  21087891.242   110817615.128    21087888.955    86351378.143    21087888.240  
  21087888.258    82753403.081  
  21882396.053   116768658.032                    90820073.287    21882397.715  
                                
  23066013.009   123474171.943                    96035456.705    23066011.079  
                                
  20526023.027   109646330.789                    85280483.813    20526024.117  
                                
  21670687.496   115964223.166                    90194401.276    21670688.676  
                                
  19832922.009   105869484.751                    82342928.293    19832921.330  
                                
  25293975.970   132920741.465                                                  
  25293971.307    99258983.414  
  24563751.878   129083386.857                                                  
  24563753.665    96393443.549  
  25360182.434   133268657.968                                                  
  25360182.076    99518801.236  
 21  8 31  7 49 19.0000000  0 17G 1G 7G 8G 9G13G14G17G21G30R 2R 3R12
                                R21R22E 1E31E33
  22607937.299   118805512.656    22607936.620    92575719.512    22607936.120  
  22607935.245    88718393.5471 
  20310976.465   106734902.245    20310971.640    83170030.852    20310971.212  
                                
  22945230.904   120577999.325    22945228.367    93956868.288    22945226.776  
  22945226.616    90041999.778  
  23062119.367   121192255.555    23062117.169    94435511.059    23062116.794  
  23062116.954    90500701.028  
  24206325.442   127205094.853                    99120836.349    24206318.938  
                                
  21964897.386   115426320.209    21964893.526    89942563.462    21964893.079  
  21964897.207    86194973.964  
  22057496.950   115912930.298    22057492.786    90321742.686    22057492.375  
                                
  22607929.509   118805471.465                    92575669.903    22607924.094  
                                
  21087532.611   110815730.453    21087530.324    86349909.560    21087529.591  
  21087529.609    82751995.688  
  21882820.103   116770920.786                    90821833.204    21882821.747  
                                
  23065871.719   123473415.419                    96034868.297    23065869.771  
                                
  20525839.262   109645349.158                    85279720.320    20525840.352  
                                
  21671164.403   115966775.158                    90196386.154    21671165.582  
                                
  19832705.793   105868330.476                    82342030.521    19832705.079  
                                
  25294153.178   132921672.633                                                  
  25294148.478    99259678.754  
  24563644.807   129082824.239                                                  
  24563646.612    96393023.408  
  25359767.908   133266479.639                                                  
  25359767.587    99517174.553  
 21  8 31  7 49 20.0000000  0 17G 1G 7G 8G 9G13G14G17G21G30R 2R 3R12
                                R21R22E 1E31E33
  22607473.348   118803074.628    22607472.669    92573819.753    22607472.169  
  22607471.293    88716572.9591 
  20310953.807   106734783.174    20310949.000    83169938.067    20310948.536  
                                
  22945842.275   120581212.112    22945839.720    93959371.756    22945838.147  
  22945837.986    90044398.934  
  23062756.540   121195604.057    23062754.378    94438120.277    23062754.003  
  23062754.164    90503201.526  
  24205792.088   127202291.959                    99118652.244    24205785.512  
                                
  21964648.131   115425010.500    21964644.307    89941542.909    21964643.842  
  21964647.970    86193995.937  
  22056971.547   115910169.360    22056967.401    90319591.303    22056966.990  
                                
  22607879.422   118805208.139                    92575464.709    22607873.990  
                                
  21087174.033   110813846.114    21087171.728    86348441.239    21087171.013  
  21087171.049    82750588.552  
  21883244.242   116773184.110                    90823593.567    21883245.886  
                                
  23065730.535   123472659.679                    96034280.499    23065728.623  
                                
  20525655.515   109644367.649                    85278956.925    20525656.622  
                                
  21671641.434   115969327.874                    90198371.595    21671642.613  
                                
  19832489.793   105867177.154                    82341133.490    19832489.024  
                                
  25294330.385   132922603.842                                                  
  25294325.685    99260374.137  
  24563537.754   129082261.667                                                  
  24563539.559    96392603.305  
  25359353.418   133264301.600                                                  
  25359353.168    99515548.104  
 21  8 31  7 49 21.0000000  0 17G 1G 7G 8G 9G13G14G17G21G30R 2R 3R12
                                R21R22E 1E31E33
  22607009.486   118800636.987    22607008.807    92571920.288    22607008.307  
  22607007.431    88714752.6351 
  20310931.239   106734664.607    20310926.450    83169845.678    20310925.985  
                                
  22946453.664   120584425.130    22946451.144    93961875.405    22946449.589  
  22946449.429    90046798.282  
  23063393.768   121198952.738    23063391.605    94440729.641    23063391.230  
  23063391.409    90505702.167  
  24205258.804   127199489.476                    99116468.477    24205252.175  
                                
  21964398.911   115423700.991    21964395.123    89940522.515    21964394.658  
  21964398.768    86193018.061  
  22056446.269   115907408.866    22056442.106    90317440.267    22056441.695  
                                
  22607829.442   118804945.386                    92575259.964    22607823.956  
                                
  21086815.509   110811962.101    21086813.222    86346973.175    21086812.489  
  21086812.543    82749181.664  
  21883668.524   116775448.041                    90825354.400    21883670.114  
                                
  23065589.495   123471904.716                    96033693.305    23065587.619  
                                
  20525471.803   109643386.266                    85278193.626    20525472.911  
                                
  21672118.591   115971881.324                    90200357.610    21672119.806  
                                
  19832273.917   105866024.783                    82340237.200    19832273.131  
                                
  25294507.592   132923535.092                                                  
  25294502.892    99261069.562  
  24563430.718   129081699.154                                                  
  24563432.523    96392183.255  
  25358938.982   133262123.888                                                  
  25358938.786    99513921.896  
 21  8 31  7 49 22.0000000  0 17G 1G 7G 8G 9G13G14G17G21G30R 2R 3R12
                                R21R22E 1E31E33
  22606545.714   118798199.749    22606545.017    92570021.141    22606544.498  
  22606543.641    88712932.6301 
  20310908.777   106734546.560    20310903.970    83169753.698    20310903.524  
                                
  22947065.141   120587638.445    22947062.622    93964379.284    22947061.085  
  22947060.907    90049197.828  
  23064031.013   121202301.636    23064028.904    94443339.174    23064028.493  
  23064028.690    90508202.972  
  24204725.611   127196687.436                    99114285.050    24204718.928  
                                
  21964149.763   115422391.708    21964145.940    89939502.296    21964145.529  
  21964149.638    86192040.361  
  22055921.045   115904648.821    22055916.864    90315289.587    22055916.470  
                                
  22607779.552   118804683.237                    92575055.694    22607774.066  
                                
  21086457.074   110810078.444    21086454.769    86345505.395    21086454.054  
  21086454.090    82747775.043  
  21884092.895   116777712.577                    90827115.711    21884094.468  
                                
  23065448.598   123471150.565                    96033106.746    23065446.757  
                                
  20525288.110   109642405.053                    85277430.463    20525289.235  
                                
  21672595.908   115974435.540                    90202344.222    21672597.123  
                                
  19832058.184   105864873.378                    82339341.667    19832057.434  
                                
  25294684.817   132924466.418                                                  
  25294680.099    99261765.038  
  24563323.683   129081136.725                                                  
  24563325.506    96391763.267  
  25358524.635   133259946.500                                                  
  25358524.492    99512295.934  
 21  8 31  7 49 23.0000000  0 17G 1G 7G 8G 9G13G14G17G21G30R 2R 3R12
                                R21R22E 1E31E33
  22606081.995   118795762.789    22606081.262    92568122.214    22606080.744  
  22606079.886    88711112.8251 
  20310886.387   106734428.927    20310881.598    83169662.035    20310881.116  
                                
  22947676.619   120590851.918    22947674.136    93966883.289    22947672.599  
  22947672.420    90051597.494  
  23064668.276   121205650.651    23064666.185    94445948.799    23064665.810  
  23064665.988    90510703.842  
  24204192.470   127193885.768                    99112101.928    24204185.716  
                                
  21963900.598   115421082.553    21963896.810    89938482.176    21963896.381  
  21963900.508    86191062.739  
  22055395.874   115901889.131    22055391.711    90313139.179    22055391.336  
                                
  22607729.769   118804421.587                    92574851.818    22607724.283  
                                
  21086098.693   110808195.041    21086096.370    86344037.808    21086095.655  
  21086095.691    82746368.604  
  21884517.374   116779977.647                    90828877.431    21884518.929  
                                
  23065307.862   123470397.138                    96032520.750    23065306.021  
                                
  20525104.416   109641423.896                    85276667.341    20525105.560  
                                
  21673073.350   115976990.478                    90204331.401    21673074.583  
                                
  19831842.630   105863722.840                    82338446.809    19831841.898  
                                
  25294862.042   132925397.712                                                  
  25294857.306    99262460.476  
  24563216.665   129080574.283                                                  
  24563218.470    96391343.254  
  25358110.324   133257769.348                                                  
  25358110.217    99510670.130  
 21  8 31  7 49 24.0000000  0 17G 1G 7G 8G 9G13G14G17G21G30R 2R 3R12
                                R21R22E 1E31E33
  22605618.383   118793326.502    22605617.632    92566223.813    22605617.150  
  22605616.274    88709293.4991 
  20310864.158   106734312.066    20310859.352    83169570.977    20310858.887  
                                
  22948288.222   120594065.926    22948285.739    93969387.713    22948284.238  
  22948284.041    90053997.555  
  23065305.646   121209000.098    23065303.573    94448558.755    23065303.180  
  23065303.376    90513205.055  
  24203659.473   127191084.778                    99109919.334    24203652.594  
                                
  21963651.557   115419773.860    21963647.769    89937462.417    21963647.358  
  21963651.468    86190085.472  
  22054870.847   115899130.136    22054866.701    90310989.315    22054866.308  
                                
  22607680.146   118804160.776                    92574648.589    22607674.643  
                                
  21085740.419   110806312.246    21085738.078    86342570.698    21085737.381  
  21085737.417    82744962.617  
  21884942.013   116782243.583                    90830639.824    21884943.568  
                                
  23065167.304   123469644.838                    96031935.623    23065165.481  
                                
  20524920.830   109640443.166                    85275904.551    20524921.973  
                                
  21673550.989   115979546.445                    90206319.377    21673552.204  
                                
  19831627.344   105862573.522                    82337552.897    19831626.576  
                                
  25295039.338   132926329.315                                                  
  25295034.567    99263156.149  
  24563109.684   129080012.166                                                  
  24563111.506    96390923.483  
  25357696.120   133255592.785                                                  
  25357696.084    99509044.768  
 21  8 31  7 49 25.0000000  0 17G 1G 7G 8G 9G13G14G17G21G30R 2R 3R12
                                R21R22E 1E31E33
  22605154.807   118790890.405    22605154.074    92564325.551    22605153.592  
  22605152.680    88707474.3531 
  20310841.983   106734195.512    20310837.176    83169480.156    20310836.711  
                                
  22948899.861   120597280.027    22948897.377    93971892.205    22948895.876  
  22948895.644    90056397.703  
  23065942.998   121212349.578    23065940.961    94451168.734    23065940.586  
  23065940.782    90515706.294  
  24203126.512   127188284.026                    99107736.937    24203119.686  
                                
  21963402.517   115418465.213    21963398.746    89936442.692    21963398.317  
  21963402.445    86189108.232  
  22054345.891   115896371.396    22054341.727    90308839.648    22054341.352  
                                
  22607630.596   118803900.373                    92574445.687    22607625.074  
                                
  21085382.145   110804429.604    21085379.804    86341103.704    21085379.125  
  21085379.179    82743556.752  
  21885366.724   116784509.881                    90832402.495    21885368.261  
                                
  23065026.889   123468893.163                    96031350.985    23065025.066  
                                
  20524737.225   109639462.403                    85275141.738    20524738.387  
                                
  21674028.700   115982102.949                    90208307.767    21674029.951  
                                
  19831412.165   105861424.949                    82336659.562    19831411.415  
                                
  25295216.599   132927260.797                                                  
  25295211.810    99263851.738  
  24563002.720   129079449.928                                                  
  24563004.524    96390503.639  
  25357281.916   133253416.349                                                  
  25357281.952    99507419.512  
 21  8 31  7 49 26.0000000  0 17G 1G 7G 8G 9G13G14G17G21G30R 2R 3R12
                                R21R22E 1E31E33
  22604691.284   118788454.408    22604690.498    92562427.376    22604690.016  
  22604689.140    88705655.2561 
  20310819.843   106734079.197    20310815.018    83169389.520    20310814.572  
                                
  22949511.464   120600494.120    22949508.981    93974396.695    22949507.515  
  22949507.283    90058797.828  
  23066580.350   121215698.963    23066578.331    94453778.638    23066577.938  
  23066578.153    90518207.454  
  24202593.568   127185483.433                    99105554.668    24202586.706  
                                
  21963153.440   115417156.475    21963149.688    89935422.899    21963149.259  
  21963153.387    86188130.932  
  22053820.952   115893612.803    22053816.771    90306690.095    22053816.413  
                                
  22607581.098   118803640.287                    92574243.018    22607575.577  
                                
  21085023.889   110802547.020    21085021.566    86339636.755    21085020.869  
  21085020.941    82742150.920  
  21885791.489   116786776.443                    90834165.375    21885792.990  
                                
  23064886.599   123468142.029                    96030766.762    23064884.741  
                                
  20524553.603   109638481.506                    85274378.818    20524554.765  
                                
  21674506.535   115984659.884                    90210296.494    21674507.768  
                                
  19831197.112   105860277.016                    82335766.726    19831196.361  
                                
  25295393.806   132928192.044                                                  
  25295389.017    99264547.143  
  24562895.684   129078887.485                                                  
  24562897.507    96390083.627  
  25356867.748   133251239.948                                                  
  25356867.819    99505794.275  
 21  8 31  7 49 27.0000000  0 17G 1G 7G 8G 9G13G14G17G21G30R 2R 3R12
                                R21R22E 1E31E33
  22604227.726   118786018.334    22604226.922    92560529.134    22604226.439  
  22604225.564    88703836.1211 
  20310797.721   106733962.916    20310792.897    83169298.912    20310792.450  
                                
  22950123.050   120603708.022    22950120.601    93976901.034    22950119.100  
  22950118.868    90061197.837  
  23067217.631   121219048.105    23067215.648    94456388.348    23067215.273  
  23067215.487    90520708.434  
  24202060.625   127182682.783                    99103372.341    24202053.763  
                                
  21962904.328   115415847.494    21962900.594    89934402.914    21962900.165  
  21962904.293    86187153.455  
  22053295.996   115890854.193    22053291.833    90304540.528    22053291.475  
                                
  22607531.655   118803380.318                    92574040.449    22607526.115  
                                
  21084665.633   110800664.316    21084663.292    86338169.713    21084662.613  
  21084662.667    82740745.013  
  21886216.236   116789043.077                    90835928.312    21886217.737  
                                
  23064746.345   123467391.221                    96030182.800    23064744.505  
                                
  20524369.910   109637500.272                    85273615.634    20524371.071  
                                
  21674984.371   115987217.124                    90212285.451    21674985.657  
                                
  19830982.165   105859129.569                    82334874.265    19830981.415  
                                
  25295570.942   132929122.889                                                  
  25295566.153    99265242.261  
  24562788.577   129078324.638                                                  
  24562790.418    96389663.325  
  25356453.544   133249063.412                                                  
  25356453.687    99504168.941  
 21  8 31  7 49 28.0000000  0 17G 1G 7G 8G 9G13G14G17G21G30R 2R 3R12
                                R21R22E 1E31E33
  22603764.257   118783582.689    22603763.435    92558631.234    22603762.953  
  22603762.095    88702017.2951 
  20310775.707   106733847.187    20310770.882    83169208.732    20310770.400  
                                
  22950734.706   120606922.246    22950732.258    93979405.627    22950730.775  
  22950730.525    90063598.061  
  23067854.966   121222397.458    23067853.000    94458998.233    23067852.643  
  23067852.857    90523209.576  
  24201527.770   127179882.621                    99101190.381    24201520.873  
                                
  21962655.252   115414538.777    21962651.553    89933383.141    21962651.142  
  21962655.252    86186176.159  
  22052771.129   115888096.070    22052766.984    90302391.343    22052766.608  
                                
  22607482.283   118803120.992                    92573838.370    22607476.779  
                                
  21084307.449   110798782.006    21084305.108    86336702.975    21084304.429  
  21084304.465    82739339.385  
  21886641.143   116791310.355                    90837691.746    21886642.626  
                                
  23064606.252   123466641.282                    96029599.510    23064604.412  
                                
  20524186.270   109636519.220                    85272852.593    20524187.413  
                                
  21675462.421   115989775.209                    90214275.073    21675463.689  
                                
  19830767.344   105857983.145                    82333982.602    19830766.647  
                                
  25295748.095   132930053.834                                                  
  25295743.306    99265937.448  
  24562681.488   129077761.901                                                  
  24562683.329    96389243.102  
  25356039.412   133246887.228                                                  
  25356039.608    99502543.869  
 21  8 31  7 49 29.0000000  0 17G 1G 7G 8G 9G13G14G17G21G30R 2R 3R12
                                R21R22E 1E31E33
  22603300.931   118781147.787    22603300.056    92556733.914    22603299.645  
  22603298.751    88700199.0261 
  20310753.835   106733732.313    20310749.010    83169119.223    20310748.546  
                                
  22951346.452   120610137.093    22951344.040    93981910.698    22951342.521  
  22951342.271    90065998.754  
  23068492.407   121225747.380    23068490.442    94461608.567    23068490.120  
  23068490.335    90525711.142  
  24200995.095   127177083.228                    99099009.012    24200988.179  
                                
  21962406.319   115413230.618    21962402.620    89932363.796    21962402.191  
  21962406.319    86185199.285  
  22052246.423   115885338.724    22052242.278    90300242.762    22052241.920  
                                
  22607433.143   118802862.593                    92573637.016    22607427.603  
                                
  21083949.389   110796900.385    21083947.048    86335236.779    21083946.369  
  21083946.405    82737934.280  
  21887066.211   116793578.550                    90839455.898    21887067.695  
                                
  23064466.374   123465892.515                    96029017.140    23064464.551  
                                
  20524002.701   109635538.696                    85272089.961    20524003.863  
                                
  21675940.667   115992334.412                    90216265.562    21675941.936  
                                
  19830552.844   105856838.018                    82333091.949    19830552.112  
                                
  25295925.320   132930985.175                                                  
  25295920.531    99266632.938  
  24562574.488   129077199.585                                                  
  24562576.329    96388823.190  
  25355625.404   133244711.710                                                  
  25355625.654    99500919.305  
 21  8 31  7 49 30.0000000  0 17G 1G 7G 8G 9G13G14G17G21G30R 2R 3R12
                                R21R22E 1E31E33
  22602837.641   118778713.154    22602836.766    92554836.800    22602836.337  
  22602835.461    88698380.9561 
  20310732.053   106733617.837    20310727.210    83169030.019    20310726.763  
                                
  22951958.252   120613352.095    22951955.857    93984415.890    22951954.356  
  22951954.070    90068399.563  
  23069129.849   121229097.381    23069127.955    94464218.962    23069127.615  
  23069127.812    90528212.755  
  24200462.419   127174284.178                    99096827.944    24200455.557  
                                
  21962157.385   115411922.561    21962153.686    89931344.533    21962153.275  
  21962157.403    86184222.487  
  22051721.807   115882581.719    22051717.661    90298094.447    22051717.286  
                                
  22607384.057   118802604.676                    92573436.044    22607378.535  
                                
  21083591.365   110795018.978    21083589.007    86333770.748    21083588.346  
  21083588.417    82736529.329  
  21887491.387   116795847.258                    90841220.446    21887492.852  
                                
  23064326.656   123465144.472                    96028435.324    23064324.815  
                                
  20523819.169   109634558.240                    85271327.389    20523820.312  
                                
  21676418.985   115994894.257                    90218256.550    21676420.308  
                                
  19830338.452   105855693.767                    82332201.979    19830337.737  
                                
  25296102.563   132931916.469                                                  
  25296097.756    99267328.388  
  24562467.489   129076637.233                                                  
  24562469.311    96388403.250  
  25355211.415   133242536.412                                                  
  25355211.736    99499294.890  
 21  8 31  7 49 31.0000000  0 17G 1G 7G 8G 9G13G14G17G21G30R 2R 3R12
                                R21R22E 1E31E33
  22602374.387   118776278.662    22602373.475    92552939.791    22602373.064  
  22602372.189    88696562.9871 
  20310710.306   106733503.610    20310705.464    83168941.014    20310705.017  
                                
  22952570.051   120616567.080    22952567.657    93986921.075    22952566.192  
  22952565.852    90070800.369  
  23069767.326   121232447.333    23069765.414    94466829.312    23069765.093  
  23069765.307    90530714.343  
  24199929.815   127171485.301                    99094647.010    24199922.953  
                                
  21961908.434   115410614.463    21961904.771    89930325.236    21961904.342  
  21961908.470    86183245.661  
  22051197.190   115879824.904    22051193.062    90295946.280    22051192.669  
                                
  22607335.024   118802347.096                    92573235.327    22607329.520  
                                
  21083233.377   110793137.676    21083231.037    86332304.797    21083230.375  
  21083230.411    82735124.466  
  21887916.616   116798116.326                    90842985.275    21887918.081  
                                
  23064187.027   123464397.023                    96027853.971    23064185.204  
                                
  20523635.600   109633577.674                    85270564.722    20523636.726  
                                
  21676897.428   115997454.559                    90220247.892    21676898.751  
                                
  19830124.202   105854550.222                    82331312.557    19830123.505  
                                
  25296279.752   132932847.576                                                  
  25296274.927    99268023.683  
  24562360.435   129076074.696                                                  
  24562362.276    96387983.167  
  25354797.461   133240361.185                                                  
  25354797.836    99497670.532  
 21  8 31  7 49 32.0000000  0 17G 1G 7G 8G 9G13G14G17G21G30R 2R 3R12
                                R21R22E 1E31E33
  22601911.186   118773844.555    22601910.292    92551043.079    22601909.864  
  22601908.988    88694745.3121 
  20310688.684   106733389.895    20310683.842    83168852.404    20310683.360  
                                
  22953181.922   120619782.349    22953179.510    93989426.480    22953178.063  
  22953177.688    90073201.387  
  23070404.804   121235797.478    23070402.928    94469439.812    23070402.624  
  23070402.802    90533216.079  
  24199397.265   127168686.852                    99092466.396    24199390.349  
                                
  21961659.572   115409306.571    21961655.909    89929306.099    21961655.462  
  21961659.608    86182269.001  
  22050672.681   115877068.521    22050668.535    90293798.446    22050668.178  
                                
  22607286.117   118802090.097                    92573035.068    22607280.613  
                                
  21082875.443   110791256.721    21082873.084    86330839.120    21082872.423  
  21082872.477    82733719.859  
  21888341.970   116800386.011                    90844750.585    21888343.436  
                                
  23064047.541   123463650.364                    96027273.238    23064045.755  
                                
  20523452.085   109632597.252                    85269802.171    20523453.193  
                                
  21677376.032   116000015.663                    90222239.861    21677377.355  
                                
  19829910.185   105853407.640                    82330423.885    19829909.452  
                                
  25296456.923   132933778.738                                                  
  25296452.135    99268719.032  
  24562253.400   129075512.224                                                  
  24562255.258    96387563.150  
  25354383.561   133238186.271                                                  
  25354384.007    99496046.421  
 21  8 31  7 49 33.0000000  0 17G 1G 7G 8G 9G13G14G17G21G30R 2R 3R12
                                R21R22E 1E31E33
  22601448.057   118771410.668    22601447.127    92549146.544    22601446.699  
  22601445.841    88692927.8121 
  20310667.099   106733276.513    20310662.256    83168764.057    20310661.809  
                                
  22953793.811   120622997.721    22953791.381    93991931.964    22953789.952  
  22953789.559    90075602.467  
  23071042.299   121239147.656    23071040.441    94472050.338    23071040.137  
  23071040.316    90535717.846  
  24198864.786   127165888.686                    99090286.013    24198857.852  
                                
  21961410.675   115407998.746    21961407.011    89928287.015    21961406.600  
  21961410.728    86181292.374  
  22050148.207   115874312.417    22050144.061    90291650.832    22050143.686  
                                
  22607237.280   118801833.535                    92572835.148    22607231.777  
                                
  21082517.544   110789375.948    21082515.204    86329373.580    21082514.525  
  21082514.596    82732315.383  
  21888767.414   116802656.164                    90846516.258    21888768.861  
                                
  23063908.181   123462904.344                    96026693.000    23063906.412  
                                
  20523268.535   109631616.799                    85269039.601    20523269.625  
                                
  21677854.726   116002577.366                    90224232.298    21677856.048  
                                
  19829696.275   105852265.839                    82329535.820    19829695.560  
                                
  25296634.113   132934709.797                                                  
  25296629.306    99269414.303  
  24562146.365   129074949.670                                                  
  24562148.205    96387143.057  
  25353969.678   133236011.516                                                  
  25353970.197    99494422.416  
 21  8 31  7 49 34.0000000  0 17G 1G 7G 8G 9G13G14G17G21G30R 2R 3R12
                                R21R22E 1E31E33
  22600984.945   118768976.924    22600983.980    92547250.118    22600983.605  
  22600982.711    88691110.4061 
  20310645.584   106733163.408    20310640.742    83168675.923    20310640.259  
                                
  22954405.683   120626213.093    22954403.270    93994437.451    22954401.859  
  22954401.430    90078003.563  
  23071679.794   121242497.795    23071677.936    94474660.839    23071677.650  
  23071677.829    90538219.560  
  24198332.342   127163090.704                    99088105.761    24198325.427  
                                
  21961161.777   115406690.865    21961158.150    89927267.892    21961157.703  
  21961161.848    86180315.721  
  22049623.769   115871556.515    22049619.641    90289503.379    22049619.266  
                                
  22607188.534   118801577.302                    92572635.490    22607183.030  
                                
  21082159.664   110787495.269    21082157.305    86327908.116    21082156.644  
  21082156.715    82730910.980  
  21889192.929   116804926.678                    90848282.213    21889194.376  
                                
  23063768.910   123462158.881                    96026113.202    23063767.177  
                                
  20523084.984   109630636.266                    85268276.969    20523086.056  
                                
  21678333.544   116005139.578                    90226225.134    21678334.848  
                                
  19829482.525   105851124.700                    82328648.262    19829481.775  
                                
  25296811.266   132935640.654                                                  
  25296806.442    99270109.428  
  24562039.258   129074386.928                                                  
  24562041.116    96386722.834  
  25353555.850   133233836.849                                                  
  25353556.404    99492798.465  
 21  8 31  7 49 35.0000000  0 17G 1G 7G 8G 9G13G14G17G21G30R 2R 3R12
                                R21R22E 1E31E33
  22600521.923   118766543.656    22600520.958    92545354.067    22600520.547  
  22600519.671    88689293.3421 
  20310624.159   106733050.878    20310619.335    83168588.242    20310618.852  
                                
  22955017.661   120629428.814    22955015.213    93996943.210    22955013.801  
  22955013.336    90080404.911  
  23072317.343   121245848.196    23072315.503    94477271.536    23072315.181  
  23072315.395    90540721.478  
  24197799.970   127160293.203                    99085925.881    24197793.127  
                                
  21960912.951   115405383.289    21960909.306    89926249.002    21960908.877  
  21960913.022    86179339.282  
  22049099.438   115868801.126    22049095.328    90287356.325    22049094.935  
                                
  22607139.876   118801321.744                    92572436.356    22607134.409  
                                
  21081801.872   110785615.018    21081799.513    86326442.987    21081798.852  
  21081798.906    82729506.890  
  21889618.533   116807197.865                    90850048.687    21889620.016  
                                
  23063629.799   123461414.311                    96025534.095    23063628.102  
                                
  20522901.451   109629655.965                    85267514.513    20522902.541  
                                
  21678812.523   116007702.627                    90228218.618    21678813.810  
                                
  19829268.901   105849984.589                    82327761.509    19829268.204  
                                
  25296988.438   132936571.658                                                  
  25296983.613    99270804.649  
  24561932.204   129073824.341                                                  
  24561934.063    96386302.714  
  25353142.075   133231662.564                                                  
  25353142.682    99491174.819  
 21  8 31  7 49 36.0000000  0 17G 1G 7G 8G 9G13G14G17G21G30R 2R 3R12
                                R21R22E 1E31E33
  22600058.954   118764110.743    22600058.007    92543458.293    22600057.596  
  22600056.703    88687476.5581 
  20310602.842   106732938.844    20310598.017    83168500.943    20310597.535  
                                
  22955629.639   120632644.761    22955627.227    93999449.129    22955625.779  
  22955625.315    90082806.448  
  23072954.928   121249198.787    23072953.087    94479882.388    23072952.801  
  23072952.980    90543223.552  
  24197267.706   127157496.160                    99083746.374    24197260.862  
                                
  21960664.160   115404075.908    21960660.515    89925230.267    21960660.104  
  21960664.232    86178363.002  
  22048575.197   115866046.161    22048571.069    90285209.601    22048570.676  
                                
  22607091.380   118801066.764                    92572237.670    22607085.876  
                                
  21081444.134   110783735.082    21081441.793    86324978.097    21081441.114  
  21081441.168    82728103.045  
  21890044.281   116809469.586                    90851815.581    21890045.746  
                                
  23063490.886   123460670.563                    96024955.626    23063489.188  
                                
  20522717.990   109628675.820                    85266752.177    20522719.027  
                                
  21679291.609   116010266.404                    90230212.672    21679292.914  
                                
  19829055.492   105848845.411                    82326875.480    19829054.795  
                                
  25297165.609   132937502.700                                                  
  25297160.784    99271499.912  
  24561825.151   129073261.799                                                  
  24561827.027    96385882.638  
  25352728.353   133229488.587                                                  
  25352729.032    99489551.404  
 21  8 31  7 49 37.0000000  0 17G 1G 7G 8G 9G13G14G17G21G30R 2R 3R12
                                R21R22E 1E31E33
  22599596.075   118761678.247    22599595.092    92541562.835    22599594.735  
  22599593.806    88685660.0661 
  20310581.631   106732827.332    20310576.807    83168414.052    20310576.288  
                                
  22956241.689   120635861.016    22956239.259    94001955.302    22956237.829  
  22956237.329    90085208.184  
  23073592.566   121252549.587    23073590.726    94482493.401    23073590.422  
  23073590.600    90545725.762  
  24196735.495   127154699.522                    99081567.189    24196728.669  
                                
  21960415.406   115402768.772    21960411.778    89924211.718    21960411.349  
  21960415.477    86177386.874  
  22048051.027   115863291.667    22048046.899    90283063.240    22048046.524  
                                
  22607042.973   118800812.385                    92572039.447    22607037.487  
                                
  21081086.450   110781855.503    21081084.109    86323513.490    21081083.430  
  21081083.484    82726699.460  
  21890470.135   116811741.884                    90853582.924    21890471.618  
                                
  23063352.079   123459927.682                    96024377.832    23063350.435  
                                
  20522534.529   109627695.821                    85265989.956    20522535.565  
                                
  21679770.857   116012830.965                    90232207.330    21679772.143  
                                
  19828842.278   105847707.196                    82325990.204    19828841.581  
                                
  25297342.798   132938433.821                                                  
  25297337.974    99272195.223  
  24561718.133   129072699.347                                                  
  24561720.010    96385462.614  
  25352314.685   133227314.967                                                  
  25352315.436    99487928.229  
 21  8 31  7 49 38.0000000  0 17G 1G 7G 8G 9G13G14G17G21G30R 2R 3R12
                                R21R22E 1E31E33
  22599133.250   118759246.058    22599132.267    92539667.621    22599131.892  
  22599130.980    88683843.8311 
  20310560.510   106732716.257    20310555.667    83168327.501    20310555.167  
                                
  22956853.792   120639077.468    22956851.326    94004461.633    22956849.933  
  22956849.396    90087610.075  
  23074230.222   121255900.513    23074228.382    94485104.512    23074228.042  
  23074228.274    90548228.083  
  24196203.391   127151903.292                    99079388.302    24196196.547  
                                
  21960166.687   115401461.763    21960163.059    89923193.267    21960162.613  
  21960166.776    86176410.865  
  22047526.946   115860537.532    22047522.819    90280917.163    22047522.443  
                                
  22606994.655   118800558.529                    92571841.641    22606989.205  
                                
  21080728.837   110779976.214    21080726.496    86322049.107    21080725.817  
  21080725.889    82725296.104  
  21890896.079   116814014.695                    90855350.663    21890897.544  
                                
  23063213.469   123459185.557                    96023800.624    23063211.807  
                                
  20522351.103   109626715.896                    85265227.790    20522352.104  
                                
  21680250.247   116015396.227                    90234202.530    21680251.515  
                                
  19828629.190   105846569.932                    82325105.663    19828628.511  
                                
  25297519.952   132939364.918                                                  
  25297515.163    99272890.526  
  24561611.098   129072136.892                                                  
  24561612.974    96385042.606  
  25351901.089   133225141.568                                                  
  25351901.875    99486305.253  
 21  8 31  7 49 39.0000000  0 17G 1G 7G 8G 9G13G14G17G21G30R 2R 3R12
                                R21R22E 1E31E33
  22598670.513   118756814.178    22598669.477    92537772.654    22598669.138  
  22598668.208    88682027.8231 
  20310539.442   106732605.608    20310534.600    83168241.278    20310534.100  
                                
  22957465.914   120642294.090    22957463.465    94006968.096    22957462.054  
  22957461.500    90090012.116  
  23074867.896   121259251.542    23074866.056    94487715.710    23074865.716  
  23074865.930    90550730.490  
  24195671.341   127149107.391                    99077209.675    24195664.479  
                                
  21959918.004   115400154.886    21959914.340    89922174.926    21959913.912  
  21959918.075    86175434.959  
  22047002.919   115857783.757    22046998.774    90278771.365    22046998.416  
                                
  22606946.444   118800305.184                    92571644.231    22606941.012  
                                
  21080371.278   110778097.184    21080368.937    86320584.930    21080368.258  
  21080368.312    82723892.930  
  21891322.112   116816287.983                    90857118.771    21891323.578  
                                
  23063074.966   123458444.209                    96023224.021    23063073.358  
                                
  20522167.678   109625736.040                    85264465.677    20522168.661  
                                
  21680729.744   116017962.145                    90236198.245    21680731.013  
                                
  19828416.317   105845433.521                    82324221.789    19828415.638  
                                
  25297697.141   132940295.989                                                  
  25297692.352    99273585.810  
  24561504.045   129071574.429                                                  
  24561505.957    96384622.591  
  25351487.510   133222968.421                                                  
  25351488.368    99484682.451  
 21  8 31  7 49 40.0000000  0 17G 1G 7G 8G 9G13G14G17G21G30R 2R 3R12
                                R21R22E 1E31E33
  22598207.813   118754382.595    22598206.759    92535877.911    22598206.437  
  22598205.490    88680212.0341 
  20310518.464   106732495.378    20310513.640    83168155.385    20310513.121  
                                
  22958078.070   120645510.909    22958075.640    94009474.708    22958074.229  
  22958073.639    90092414.288  
  23075505.606   121262602.705    23075503.747    94490327.004    23075503.444  
  23075503.640    90553232.973  
  24195139.362   127146311.853                    99075031.316    24195132.447  
                                
  21959669.338   115398848.152    21959665.675    89921156.690    21959665.228  
  21959669.428    86174459.143  
  22046478.946   115855030.347    22046474.818    90276625.852    22046474.479  
                                
  22606898.341   118800052.343                    92571447.205    22606892.891  
                                
  21080013.755   110776218.410    21080011.414    86319120.952    21080010.735  
  21080010.806    82722489.951  
  21891748.253   116818561.789                    90858887.287    21891749.700  
                                
  23062936.624   123457703.585                    96022647.984    23062935.016  
                                
  20521984.270   109624756.306                    85263703.660    20521985.253  
                                
  21681209.384   116020528.752                    90238194.496    21681210.653  
                                
  19828203.586   105844298.012                    82323338.614    19828202.907  
                                
  25297874.312   132941227.046                                                  
  25297869.523    99274281.071  
  24561397.009   129071011.945                                                  
  24561398.921    96384202.557  
  25351074.021   133220795.524                                                  
  25351074.914    99483059.829  
 21  8 31  7 49 41.0000000  0 17G 1G 7G 8G 9G13G14G17G21G30R 2R 3R12
                                R21R22E 1E31E33
  22597745.220   118751951.542    22597744.112    92533983.582    22597743.826  
  22597742.879    88678396.6251 
  20310497.593   106732385.785    20310492.769    83168069.988    20310492.250  
                                
  22958690.281   120648728.094    22958687.851    94011981.606    22958686.457  
  22958685.832    90094816.718  
  23076143.369   121265954.183    23076141.511    94492938.543    23076141.207  
  23076141.403    90555735.691  
  24194607.491   127143516.868                    99072853.393    24194600.611  
                                
  21959420.727   115397541.727    21959417.063    89920138.698    21959416.599  
  21959420.816    86173483.572  
  22045955.098   115852277.488    22045950.970    90274480.765    22045950.630  
                                
  22606850.363   118799800.191                    92571250.724    22606844.930  
                                
  21079656.321   110774340.107    21079653.980    86317657.338    21079653.301  
  21079653.372    82721087.316  
  21892174.483   116820836.307                    90860656.355    21892175.930  
                                
  23062798.443   123456963.894                    96022072.666    23062796.853  
                                
  20521800.916   109623776.832                    85262941.844    20521801.863  
                                
  21681689.186   116023096.244                    90240191.431    21681690.436  
                                
  19827991.070   105843163.556                    82322456.259    19827990.391  
                                
  25298051.519   132942158.269                                                  
  25298046.748    99274976.465  
  24561290.027   129070449.658                                                  
  24561291.921    96383782.658  
  25350660.603   133218623.061                                                  
  25350661.515    99481437.532  
 21  8 31  7 49 42.0000000  0 17G 1G 7G 8G 9G13G14G17G21G30R 2R 3R12
                                R21R22E 1E31E33
  22597282.698   118749520.815    22597281.554    92532089.511    22597281.268  
  22597280.321    88676581.4741 
  20310476.829   106732276.647    20310472.005    83167984.943    20310471.487  
                                
  22959302.581   120651945.491    22959300.115    94014488.666    22959298.703  
  22959298.060    90097219.337  
  23076781.150   121269305.807    23076779.292    94495550.196    23076778.988  
  23076779.202    90558238.530  
  24194075.691   127140722.237                    99070675.775    24194068.865  
                                
  21959172.151   115396235.490    21959168.487    89919120.846    21959168.023  
  21959172.258    86172508.124  
  22045431.339   115849525.025    22045427.193    90272335.991    22045426.836  
                                
  22606802.474   118799548.621                    92571054.695    22606797.077  
                                
  21079298.958   110772462.093    21079296.617    86316193.950    21079295.920  
  21079296.010    82719684.909  
  21892600.873   116823111.404                    90862425.879    21892602.285  
                                
  23062660.405   123456224.950                    96021497.934    23062658.850  
                                
  20521617.598   109622797.426                    85262180.084    20521618.509  
                                
  21682169.130   116025664.453                    90242188.930    21682170.363  
                                
  19827778.732   105842030.000                    82321574.600    19827778.053  
                                
  25298228.726   132943089.508                                                  
  25298223.955    99275671.871  
  24561183.028   129069887.391                                                  
  24561184.922    96383362.784  
  25350247.221   133216450.879                                                  
  25350248.204    99479815.444  
 21  8 31  7 49 43.0000000  0 17G 1G 7G 8G 9G13G14G17G21G30R 2R 3R12
                                R21R22E 1E31E33
  22596820.212   118747090.344    22596819.033    92530195.637    22596818.729  
  22596817.817    88674766.5181 
  20310456.119   106732167.876    20310451.312    83167900.182    20310450.794  
                                
  22959914.863   120655163.035    22959912.415    94016995.847    22959910.986  
  22959910.324    90099622.046  
  23077418.967   121272657.490    23077417.109    94498161.890    23077416.787  
  23077417.002    90560741.414  
  24193543.927   127137927.944                    99068498.403    24193537.118  
                                
  21958923.575   115394929.308    21958919.947    89918103.042    21958919.447  
  21958923.700    86171532.747  
  22044907.633   115846772.877    22044903.488    90270191.460    22044903.148  
                                
  22606754.692   118799297.465                    92570858.991    22606749.313  
                                
  21078941.613   110770584.278    21078939.290    86314730.717    21078938.593  
  21078938.683    82718282.651  
  21893027.300   116825386.950                    90864195.744    21893028.729  
                                
  23062522.528   123455486.666                    96020923.709    23062520.955  
                                
  20521434.244   109621818.003                    85261418.311    20521435.155  
                                
  21682649.145   116028233.269                    90244186.900    21682650.414  
                                
  19827566.555   105840897.246                    82320693.571    19827565.858  
                                
  25298405.916   132944020.658                                                  
  25298401.163    99276367.212  
  24561076.010   129069325.045                                                  
  24561077.922    96382942.859  
  25349833.875   133214278.865                                                  
  25349834.894    99478193.499  
 21  8 31  7 49 44.0000000  0 17G 1G 7G 8G 9G13G14G17G21G30R 2R 3R12
                                R21R22E 1E31E33
  22596357.797   118744660.239    22596356.600    92528302.047    22596356.278  
  22596355.403    88672951.8291 
  20310435.534   106732059.589    20310430.674    83167815.805    20310430.173  
                                
  22960527.235   120658380.795    22960524.751    94019503.189    22960523.321  
  22960522.642    90102024.917  
  23078056.784   121276009.346    23078054.926    94500773.726    23078054.622  
  23078054.818    90563244.424  
  24193012.252   127135134.032                    99066321.325    24193005.426  
                                
  21958675.070   115393623.326    21958671.407    89917085.396    21958670.907  
  21958675.177    86170557.494  
  22044384.017   115844021.136    22044379.854    90268047.246    22044379.514  
                                
  22606706.999   118799046.892                    92570663.737    22606701.639  
                                
  21078584.340   110768706.806    21078582.017    86313267.750    21078581.320  
  21078581.392    82716880.636  
  21893453.851   116827663.051                    90865966.042    21893455.263  
                                
  23062384.757   123454749.174                    96020350.107    23062383.203  
                                
  20521250.925   109620838.737                    85260656.660    20521251.819  
                                
  21683129.357   116030802.807                    90246185.435    21683130.572  
                                
  19827354.521   105839765.362                    82319813.222    19827353.807  
                                
  25298583.105   132944951.844                                                  
  25298578.370    99277062.585  
  24560969.010   129068762.761                                                  
  24560970.922    96382522.964  
  25349420.600   133212107.159                                                  
  25349421.655    99476571.773  
 21  8 31  7 49 45.0000000  0 17G 1G 7G 8G 9G13G14G17G21G30R 2R 3R12
                                R21R22E 1E31E33
  22595895.472   118742230.606    22595894.239    92526408.825    22595893.900  
  22595893.042    88671137.4931 
  20310415.038   106731951.915    20310410.178    83167731.905    20310409.695  
                                
  22961139.624   120661598.888    22961137.122    94022010.793    22961135.728  
  22961135.031    90104428.051  
  23078694.672   121279361.484    23078692.814    94503385.784    23078692.528  
  23078692.725    90565747.641  
  24192480.666   127132340.660                    99064144.658    24192473.929  
                                
  21958426.583   115392317.643    21958422.938    89916067.981    21958422.438  
  21958426.709    86169582.471  
  22043860.455   115841269.932    22043856.309    90265903.453    22043855.988  
                                
  22606659.450   118798797.015                    92570469.037    22606654.125  
                                
  21078227.138   110766829.768    21078224.833    86311805.123    21078224.136  
  21078224.226    82715478.948  
  21893880.528   116829939.855                    90867736.894    21893881.921  
                                
  23062247.148   123454012.592                    96019777.207    23062245.629  
                                
  20521067.661   109619859.743                    85259895.222    20521068.536  
                                
  21683609.695   116033373.201                    90248184.632    21683610.910  
                                
  19827142.666   105838634.554                    82318933.707    19827141.987  
                                
  25298760.330   132945883.179                                                  
  25298755.595    99277758.062  
  24560862.046   129068200.626                                                  
  24560863.958    96382103.191  
  25349007.397   133209935.867                                                  
  25349008.505    99474950.353  
 21  8 31  7 49 46.0000000  0 17G 1G 7G 8G 9G13G14G17G21G30R 2R 3R12
                                R21R22E 1E31E33
  22595433.272   118739801.661    22595432.039    92524516.142    22595431.699  
  22595430.824    88669323.6681 
  20310394.685   106731845.028    20310389.825    83167648.614    20310389.325  
                                
  22961752.138   120664817.570    22961749.637    94024518.855    22961748.225  
  22961747.510    90106831.610  
  23079332.632   121282714.115    23079330.792    94505998.223    23079330.506  
  23079330.720    90568251.236  
  24191949.259   127129548.007                    99061968.560    24191942.451  
                                
  21958178.240   115391012.465    21958174.577    89915050.964    21958174.076  
  21958178.329    86168607.834  
  22043337.071   115838519.456    22043332.890    90263760.225    22043332.586  
                                
  22606612.061   118798547.995                    92570275.005    22606606.736  
                                
  21077870.080   110764953.338    21077867.757    86310342.975    21077867.060  
  21077867.131    82714077.729  
  21894307.365   116832217.505                    90869508.398    21894308.723  
                                
  23062109.753   123453277.145                    96019205.197    23062108.270  
                                
  20520884.503   109618881.209                    85259134.140    20520885.361  
                                
  21684090.246   116035944.628                    90250184.633    21684091.426  
                                
  19826931.061   105837505.008                    82318055.173    19826930.382  
                                
  25298937.626   132946814.861                                                  
  25298932.909    99278453.799  
  24560755.154   129067638.855                                                  
  24560757.048    96381683.687  
  25348594.319   133207765.182                                                  
  25348595.462    99473329.389  
 21  8 31  7 49 47.0000000  0 17G 1G 7G 8G 9G13G14G17G21G30R 2R 3R12
                                R21R22E 1E31E33
  22594971.233   118737373.540    22594969.964    92522624.102    22594969.624  
  22594968.785    88667510.4561 
  20310374.529   106731739.088    20310369.669    83167566.064    20310369.168  
                                
  22962364.813   120668036.962    22962362.294    94027027.474    22962360.882  
  22962360.132    90109235.704  
  23079970.717   121286067.391    23079968.877    94508611.171    23079968.609  
  23079968.805    90570755.297  
  24191417.995   127126756.243                    99059793.173    24191411.187  
                                
  21957929.985   115389707.950    21957926.322    89914034.461    21957925.822  
  21957930.075    86167633.674  
  22042813.866   115835769.875    22042809.667    90261617.690    22042809.346  
                                
  22606564.869   118798300.007                    92570081.772    22606559.562  
                                
  21077513.164   110763077.727    21077510.841    86308881.461    21077510.144  
  21077510.215    82712677.099  
  21894734.399   116834496.189                    90871280.707    21894735.721  
                                
  23061972.644   123452542.995                    96018634.192    23061971.161  
                                
  20520701.435   109617903.256                    85258373.510    20520702.275  
                                
  21684570.994   116038517.280                    90252185.585    21684572.192  
                                
  19826719.742   105836376.912                    82317177.768    19826719.045  
                                
  25299115.012   132947747.053                                                  
  25299110.295    99279149.905  
  24560648.333   129067077.598                                                  
  24560650.263    96381264.566  
  25348181.401   133205595.272                                                  
  25348182.563    99471708.997  
 21  8 31  7 49 48.0000000  0 17G 1G 7G 8G 9G13G14G17G21G30R 2R 3R12
                                R21R22E 1E31E33
  22594509.265   118734945.750    22594507.960    92520732.318    22594507.621  
  22594506.799    88665697.5011 
  20310354.462   106731633.601    20310349.602    83167483.866    20310349.102  
                                
  22962977.489   120671256.568    22962974.987    94029536.263    22962973.557  
  22962972.789    90111639.960  
  23080608.856   121289420.805    23080607.033    94511224.218    23080606.729  
  23080606.944    90573259.468  
  24190886.803   127123964.840                    99057618.061    24190879.959  
                                
  21957681.767   115388403.585    21957678.104    89913018.070    21957677.603  
  21957681.874    86166659.639  
  22042290.697   115833020.666    22042286.534    90259475.449    22042286.194  
                                
  22606517.784   118798052.560                    92569888.958    22606512.513  
                                
  21077156.284   110761202.385    21077153.978    86307420.159    21077153.282  
  21077153.353    82711276.681  
  21895161.522   116836775.365                    90873053.397    21895162.809  
                                
  23061835.642   123451809.596                    96018063.773    23061834.195  
                                
  20520518.385   109616925.398                    85257612.952    20520519.189  
                                
  21685051.921   116041090.626                    90254187.081    21685053.083  
                                
  19826508.566   105835249.694                    82316301.042    19826507.887  
                                
  25299292.398   132948679.221                                                  
  25299287.698    99279846.014  
  24560541.548   129066516.347                                                  
  24560543.460    96380845.450  
  25347768.520   133203425.608                                                  
  25347769.699    99470088.807  
 21  8 31  7 49 49.0000000  0 17G 1G 7G 8G 9G13G14G17G21G30R 2R 3R12
                                R21R22E 1E31E33
  22594047.333   118732518.193    22594045.992    92518840.719    22594045.671  
  22594044.849    88663884.7141 
  20310334.449   106731528.468    20310329.606    83167401.944    20310329.088  
                                
  22963590.199   120674476.295    22963587.680    94032045.143    22963586.286  
  22963585.464    90114044.301  
  23081246.976   121292774.228    23081245.172    94513837.284    23081244.904  
  23081245.100    90575763.661  
  24190355.646   127121173.716                    99055443.143    24190348.892  
                                
  21957433.566   115387099.270    21957429.885    89912001.720    21957429.403  
  21957433.655    86165685.640  
  22041767.617   115830271.742    22041763.418    90257333.433    22041763.096  
                                
  22606470.789   118797805.535                    92569696.469    22606465.500  
                                
  21076799.457   110759327.226    21076797.152    86305958.998    21076796.437  
  21076796.527    82709876.404  
  21895588.735   116839054.931                    90874826.393    21895589.986  
                                
  23061698.766   123451076.824                    96017493.837    23061697.318  
                                
  20520335.352   109615947.532                    85256852.386    20520336.139  
                                
  21685532.938   116043664.578                    90256189.041    21685534.081  
                                
  19826297.497   105834123.256                    82315424.931    19826296.854  
                                
  25299469.784   132949611.305                                                  
  25299465.084    99280542.055  
  24560434.727   129065955.001                                                  
  24560436.639    96380426.263  
  25347355.692   133201256.123                                                  
  25347356.889    99468468.727  
 21  8 31  7 49 50.0000000  0 17G 1G 7G 8G 9G13G14G17G21G30R 2R 3R12
                                R21R22E 1E31E33
  22593585.401   118730090.582    22593584.007    92516949.077    22593583.721  
  22593582.899    88662071.8801 
  20310314.454   106731423.412    20310309.593    83167320.082    20310309.093  
                                
  22964202.893   120677695.840    22964200.373    94034553.882    22964198.943  
  22964198.104    90116448.500  
  23081885.079   121296127.449    23081883.257    94516450.181    23081882.989  
  23081883.185    90578267.672  
  24189824.507   127118382.586                    99053268.246    24189817.806  
                                
  21957185.312   115385794.734    21957181.631    89910985.199    21957181.130  
  21957185.419    86164711.467  
  22041244.537   115827522.833    22041240.320    90255191.428    22041239.999  
                                
  22606423.793   118797558.684                    92569504.124    22606418.558  
                                
  21076442.613   110757451.969    21076440.308    86304497.761    21076439.593  
  21076439.682    82708476.055  
  21896015.965   116841334.634                    90876599.496    21896017.180  
                                
  23061561.978   123450344.468                    96016924.224    23061560.495  
                                
  20520152.266   109614969.385                    85256091.603    20520153.017  
                                
  21686014.025   116046238.868                    90258191.267    21686015.151  
                                
  19826086.553   105832997.319                    82314549.204    19826085.946  
                                
  25299647.080   132950543.013                                                  
  25299642.398    99281237.795  
  24560327.834   129065393.295                                                  
  24560329.746    96380006.807  
  25346942.828   133199086.513                                                  
  25346944.043    99466848.571  
 21  8 31  7 49 51.0000000  0 17G 1G 7G 8G 9G13G14G17G21G30R 2R 3R12
                                R21R22E 1E31E33
  22593123.451   118727662.995    22593122.039    92515057.453    22593121.735  
  22593120.931    88660259.0781 
  20310294.494   106731318.476    20310289.633    83167238.310    20310289.115  
                                
  22964815.550   120680915.261    22964813.012    94037062.524    22964811.601  
  22964810.725    90118852.624  
  23082523.128   121299480.458    23082521.324    94519062.916    23082521.056  
  23082521.234    90580771.549  
  24189293.368   127115591.515                    99051093.380    24189286.668  
                                
  21956937.040   115384490.034    21956933.341    89909968.550    21956932.858  
  21956937.147    86163737.183  
  22040721.422   115824773.968    22040717.222    90253049.455    22040716.883  
                                
  22606376.869   118797312.034                    92569311.928    22606371.651  
                                
  21076085.768   110755576.693    21076083.445    86303036.504    21076082.748  
  21076082.820    82707075.684  
  21896443.249   116843614.561                    90878372.774    21896444.393  
                                
  23061425.245   123449612.504                    96016354.916    23061423.761  
                                
  20519969.091   109613991.003                    85255330.639    20519969.859  
                                
  21686495.167   116048813.526                    90260193.780    21686496.292  
                                
  19825875.717   105831871.927                    82313673.902    19825875.091  
                                
  25299824.305   132951474.380                                                  
  25299819.641    99281933.303  
  24560220.870   129064831.287                                                  
  24560222.818    96379587.123  
  25346529.964   133196916.861                                                  
  25346531.179    99465228.377  
 21  8 31  7 49 52.0000000  0 17G 1G 7G 8G 9G13G14G17G21G30R 2R 3R12
                                R21R22E 1E31E33
  22592661.536   118725235.628    22592660.125    92513165.996    22592659.839  
  22592659.017    88658446.4311 
  20310274.588   106731213.881    20310269.727    83167156.802    20310269.209  
                                
  22965428.207   120684134.771    22965425.670    94039571.235    22965424.240  
  22965423.365    90121256.808  
  23083161.160   121302833.491    23083159.391    94521675.664    23083159.087  
  23083159.301    90583275.452  
  24188762.301   127112800.731                    99048918.762    24188755.672  
                                
  21956688.785   115383185.373    21956685.068    89908951.935    21956684.550  
  21956688.875    86162762.931  
  22040198.395   115822025.399    22040194.196    90250907.716    22040193.857  
                                
  22606329.999   118797065.796                    92569120.051    22606324.817  
                                
  21075728.942   110753701.601    21075726.654    86301575.394    21075725.904  
  21075726.011    82705675.459  
  21896870.587   116845894.905                    90880146.380    21896871.713  
                                
  23061288.618   123448881.233                    96015786.150    23061287.171  
                                
  20519785.934   109613012.590                    85254569.649    20519786.684  
                                
  21686976.415   116051388.736                    90262196.722    21686977.541  
                                
  19825664.970   105830747.332                    82312799.217    19825664.416  
                                
  25300001.530   132952405.651                                                  
  25299996.866    99282628.742  
  24560113.924   129064269.170                                                  
  24560115.836    96379167.369  
  25346117.118   133194747.353                                                  
  25346118.369    99463608.300  
 21  8 31  7 49 53.0000000  0 17G 1G 7G 8G 9G13G14G17G21G30R 2R 3R12
                                R21R22E 1E31E33
  22592199.711   118722808.599    22592198.246    92511274.802    22592197.960  
  22592197.174    88656634.0391 
  20310254.753   106731109.767    20310249.928    83167075.674    20310249.375  
                                
  22966040.918   120687354.515    22966038.381    94042080.129    22966036.951  
  22966036.022    90123661.156  
  23083799.245   121306186.712    23083797.476    94524288.561    23083797.172  
  23083797.386    90585779.459  
  24188231.323   127110010.338                    99046744.418    24188224.712  
                                
  21956440.549   115381880.896    21956436.832    89907935.464    21956436.314  
  21956440.620    86161788.800  
  22039675.441   115819277.227    22039671.241    90248766.285    22039670.884  
                                
  22606283.235   118796820.118                    92568928.619    22606278.089  
                                
  21075372.169   110751826.799    21075369.864    86300114.514    21075369.149  
  21075369.256    82704275.443  
  21897298.050   116848175.839                    90881920.442    21897299.140  
                                
  23061152.170   123448150.751                    96015218.002    23061150.705  
                                
  20519602.812   109612034.277                    85253808.739    20519603.545  
                                
  21687457.807   116053964.666                    90264200.223    21687458.897  
                                
  19825454.472   105829623.657                    82311925.252    19825453.936  
                                
  25300178.737   132953336.933                                                  
  25300174.109    99283324.173  
  24560006.942   129063707.079                                                  
  24560008.890    96378747.624  
  25345704.344   133192578.141                                                  
  25345705.613    99461988.419  
 21  8 31  7 49 54.0000000  0 17G 1G 7G 8G 9G13G14G17G21G30R 2R 3R12
                                R21R22E 1E31E33
  22591737.958   118720381.974    22591736.457    92509383.923    22591736.171  
  22591735.385    88654821.9471 
  20310235.044   106731006.142    20310230.201    83166994.926    20310229.665  
                                
  22966653.665   120690574.503    22966651.127    94044589.199    22966649.698  
  22966648.751    90126065.688  
  23084437.383   121309540.114    23084435.614    94526901.597    23084435.328  
  23084435.525    90588283.614  
  24187700.417   127107220.376                    99044570.435    24187693.805  
                                
  21956192.366   115380576.622    21956188.613    89906919.144    21956188.095  
  21956192.420    86160814.831  
  22039152.557   115816529.489    22039148.340    90246625.186    22039147.983  
                                
  22606236.597   118796575.021                    92568737.636    22606231.451  
                                
  21075015.467   110749952.361    21075013.162    86298653.911    21075012.448  
  21075012.555    82702875.690  
  21897725.602   116850457.386                    90883694.981    21897726.674  
                                
  23061015.883   123447421.076                    96014650.479    23061014.400  
                                
  20519419.690   109611056.139                    85253047.967    20519420.423  
                                
  21687939.323   116056541.374                    90266204.329    21687940.431  
                                
  19825244.136   105828500.960                    82311052.043    19825243.600  
                                
  25300355.962   132954268.272                                                  
  25300351.352    99284019.655  
  24559900.014   129063145.062                                                  
  24559901.926    96378327.936  
  25345291.605   133190409.234                                                  
  25345292.892    99460368.792  
 21  8 31  7 49 55.0000000  0 17G 1G 7G 8G 9G13G14G17G21G30R 2R 3R12
                                R21R22E 1E31E33
  22591276.258   118717955.681    22591274.721    92507493.301    22591274.453  
  22591273.685    88653010.1121 
  20310215.406   106730902.985    20310210.581    83166914.539    20310210.027  
                                
  22967266.483   120693794.714    22967263.928    94047098.448    22967262.516  
  22967261.515    90128470.391  
  23085075.540   121312893.652    23085073.735    94529514.741    23085073.449  
  23085073.663    90590787.881  
  24187169.564   127104430.778                    99042396.713    24187162.988  
                                
  21955944.201   115379272.512    21955940.448    89905902.955    21955939.930  
  21955944.255    86159840.985  
  22038629.745   115813782.141    22038625.546    90244484.393    22038625.189  
                                
  22606190.049   118796330.467                    92568547.075    22606184.920  
                                
  21074658.837   110748078.200    21074656.532    86297193.521    21074655.818  
  21074655.889    82701476.162  
  21898153.279   116852739.515                    90885469.965    21898154.351  
                                
  23060879.739   123446692.167                    96014083.545    23060878.238  
                                
  20519236.622   109610078.111                    85252287.272    20519237.337  
                                
  21688420.983   116059118.777                    90268208.976    21688422.073  
                                
  19825033.979   105827379.184                    82310179.549    19825033.460  
                                
  25300533.223   132955199.621                                                  
  25300528.595    99284715.139  
  24559793.068   129062583.065                                                  
  24559794.998    96377908.259  
  25344878.920   133188240.606                                                  
  25344880.225    99458749.360  
 21  8 31  7 49 56.0000000  0 17G 1G 7G 8G 9G13G14G17G21G30R 2R 3R12
                                R21R22E 1E31E33
  22590814.666   118715529.914    22590813.075    92505603.088    22590812.789  
  22590812.057    88651198.6461 
  20310195.910   106730800.458    20310191.050    83166834.650    20310190.532  
                                
  22967879.373   120697015.309    22967876.782    94049608.005    22967875.370  
  22967874.333    90130875.379  
  23085713.750   121316247.518    23085711.945    94532128.144    23085711.659  
  23085711.891    90593292.394  
  24186638.818   127101641.743                    99040223.444    24186632.278  
                                
  21955696.107   115377968.751    21955692.337    89904887.033    21955691.819  
  21955696.143    86158867.389  
  22038107.059   115811035.368    22038102.859    90242344.052    22038102.484  
                                
  22606143.625   118796086.650                    92568357.087    22606138.550  
                                
  21074302.279   110746204.519    21074299.974    86295733.508    21074299.259  
  21074299.348    82700076.983  
  21898581.099   116855022.374                    90887245.520    21898582.153  
                                
  23060743.774   123445964.217                    96013517.362    23060742.255  
                                
  20519053.590   109609100.373                    85251526.807    20519054.269  
                                
  21688902.785   116061697.077                    90270214.318    21688903.911  
                                
  19824824.071   105826258.511                    82309307.914    19824823.499  
                                
  25300710.484   132956131.153                                                  
  25300705.873    99285410.764  
  24559686.157   129062021.262                                                  
  24559688.069    96377488.735  
  25344466.342   133186072.436                                                  
  25344467.647    99457130.268  
 21  8 31  7 49 57.0000000  0 17G 1G 7G 8G 9G13G14G17G21G30R 2R 3R12
                                R21R22E 1E31E33
  22590353.162   118713104.730    22590351.590    92503713.330    22590351.304  
  22590350.553    88649387.6331 
  20310176.523   106730698.636    20310171.680    83166755.299    20310171.144  
                                
  22968492.334   120700236.374    22968489.725    94052117.928    22968488.313  
  22968487.241    90133280.710  
  23086352.049   121319601.772    23086350.226    94534741.848    23086349.923  
  23086350.191    90595797.194  
  24186108.215   127098853.360                    99038050.676    24186101.711  
                                
  21955448.085   115376665.398    21955444.315    89903871.433    21955443.779  
  21955448.121    86157894.097  
  22037584.461   115808289.238    22037580.298    90240204.208    22037579.869  
                                
  22606097.380   118795843.584                    92568167.690    22606092.305  
                                
  21073945.846   110744331.376    21073943.540    86294273.915    21073942.826  
  21073942.897    82698678.209  
  21899009.044   116857306.016                    90889021.686    21899010.099  
                                
  23060607.969   123445237.286                    96012951.969    23060606.432  
                                
  20518870.611   109608122.960                    85250766.594    20518871.308  
                                
  21689384.802   116064276.327                    90272220.404    21689385.910  
                                
  19824614.342   105825138.965                    82308437.152    19824613.806  
                                
  25300887.816   132957062.943                                                  
  25300883.188    99286106.577  
  24559579.301   129061459.723                                                  
  24559581.213    96377069.399  
  25344053.854   133183904.771                                                  
  25344055.176    99455511.561  
 21  8 31  7 49 58.0000000  0 17G 1G 7G 8G 9G13G14G17G21G30R 2R 3R12
                                R21R22E 1E31E33
  22589891.766   118710680.013    22589890.158    92501823.930    22589889.854  
  22589889.122    88647576.9691 
  20310157.278   106730597.424    20310152.417    83166676.430    20310151.881  
                                
  22969105.348   120703457.770    22969102.704    94054628.107    22969101.310  
  22969100.256    90135686.312  
  23086990.402   121322956.319    23086988.562    94537355.780    23086988.240  
  23086988.526    90598302.206  
  24185577.702   127096065.510                    99035878.326    24185571.269  
                                
  21955200.135   115375362.339    21955196.347    89902856.060    21955195.810  
  21955200.153    86156921.033  
  22037061.989   115805543.627    22037057.825    90238064.767    22037057.379  
                                
  22606051.260   118795601.230                    92567978.845    22606046.185  
                                
  21073589.466   110742458.678    21073587.179    86292814.668    21073586.464  
  21073586.535    82697279.762  
  21899437.115   116859590.308                    90890798.351    21899438.151  
                                
  23060472.361   123444511.270                    96012387.288    23060470.824  
                                
  20518687.686   109607145.780                    85250006.563    20518688.365  
                                
  21689866.944   116066856.423                    90274227.150    21689868.088  
                                
  19824404.775   105824020.489                    82307567.228    19824404.274  
                                
  25301065.166   132957994.877                                                  
  25301060.556    99286802.497  
  24559472.480   129060898.351                                                  
  24559474.410    96376650.191  
  25343641.437   133181737.531                                                  
  25343642.777    99453893.157  
 21  8 31  7 49 59.0000000  0 17G 1G 7G 8G 9G13G14G17G21G30R 2R 3R12
                                R21R22E 1E31E33
  22589430.460   118708255.639    22589428.798    92499934.810    22589428.494  
  22589427.779    88645766.5581 
  20310138.086   106730496.631    20310133.226    83166597.890    20310132.690  
                                
  22969718.417   120706679.369    22969715.772    94057138.439    22969714.360  
  22969713.270    90138092.056  
  23087628.791   121326310.995    23087626.915    94539969.807    23087626.611  
  23087626.915    90600807.326  
  24185047.260   127093278.001                    99033706.250    24185040.791  
                                
  21954952.184   115374059.423    21954948.396    89901840.796    21954947.842  
  21954952.220    86155948.081  
  22036539.588   115802798.397    22036535.424    90235925.627    22036534.960  
                                
  22606005.265   118795359.405                    92567790.410    22606000.172  
                                
  21073233.157   110740586.254    21073230.852    86291355.636    21073230.138  
  21073230.227    82695881.522  
  21899865.292   116861875.083                    90892575.403    21899866.311  
                                
  23060336.842   123443785.989                    96011823.178    23060335.323  
                                
  20518504.796   109606168.698                    85249246.615    20518505.439  
                                
  21690349.229   116069437.212                    90276234.428    21690350.390  
                                
  19824195.439   105822902.875                    82306697.970    19824194.921  
                                
  25301242.498   132958926.799                                                  
  25301237.906    99287498.415  
  24559365.677   129060336.979                                                  
  24559367.571    96376230.980  
  25343229.073   133179570.541                                                  
  25343230.413    99452274.956  
 21  8 31  7 50  0.0000000  0 17G 1G 7G 8G 9G13G14G17G21G30R 2R 3R12
                                R21R22E 1E31E33
  22588969.171   118705831.520    22588967.491    92498045.889    22588967.169  
  22588966.473    88643956.3421 
  20310118.966   106730396.238    20310114.124    83166519.662    20310113.588  
                                
  22970331.521   120709901.141    22970328.858    94059648.908    22970327.447  
  22970326.321    90140497.924  
  23088267.179   121329665.738    23088265.303    94542583.895    23088264.982  
  23088265.303    90603312.491  
  24184516.871   127090490.815                    99031534.412    24184510.456  
                                
  21954704.269   115372756.595    21954700.481    89900825.606    21954699.909  
  21954704.305    86154975.197  
  22036017.258   115800053.473    22036013.077    90233786.725    22036012.612  
                                
  22605959.324   118795118.021                    92567602.314    22605954.249  
                                
  21072876.885   110738714.046    21072874.598    86289896.775    21072873.883  
  21072873.936    82694483.450  
  21900293.541   116864160.290                    90894352.786    21900294.542  
                                
  23060201.467   123443061.411                    96011259.613    23060199.948  
                                
  20518321.889   109605191.657                    85248486.697    20518322.550  
                                
  21690831.639   116072018.626                    90278242.192    21690832.800  
                                
  19823986.228   105821786.080                    82305829.347    19823985.692  
                                
  25301419.848   132959858.657                                                  
  25301415.256    99288194.285  
  24559258.820   129059775.543                                                  
  24559260.732    96375811.730  
  25342816.746   133177403.747                                                  
  25342818.121    99450656.902  
 21  8 31  7 50  1.0000000  0 17G 1G 7G 8G 9G13G14G17G21G30R 2R 3R12
                                R21R22E 1E31E33
  22588507.953   118703407.681    22588506.220    92496157.180    22588505.881  
  22588505.219    88642145.3331 
  20310099.936   106730296.252    20310095.076    83166441.749    20310094.557  
                                
  22970944.643   120713123.039    22970941.980    94062159.483    22970940.568  
  22970939.389    90142903.894  
  23088905.586   121333020.582    23088903.692    94545198.063    23088903.370  
  23088903.710    90605817.721  
  24183986.572   127087703.961                    99029362.833    24183980.193  
                                
  21954456.372   115371453.879    21954452.566    89899810.505    21954451.995  
  21954456.390    86154002.385  
  22035494.947   115797308.901    22035490.801    90231648.098    22035490.319  
                                
  22605913.472   118794877.135                    92567414.610    22605908.415  
                                
  21072520.648   110736842.088    21072518.361    86288438.107    21072517.664  
  21072517.717    82693085.557  
  21900721.880   116866445.956                    90896130.526    21900722.862  
                                
  23060066.234   123442337.524                    96010696.589    23060064.697  
                                
  20518138.982   109604214.653                    85247726.807    20518139.643  
                                
  21691314.174   116074600.712                    90280250.483    21691315.335  
                                
  19823777.161   105820670.134                    82304961.387    19823776.643  
                                
  25301597.145   132960790.465                                                  
  25301592.588    99288890.115  
  24559151.981   129059214.072                                                  
  24559153.875    96375392.452  
  25342404.454   133175237.173                                                  
  25342405.847    99449039.006  
 21  8 31  7 50  2.0000000  0 17G 1G 7G 8G 9G13G14G17G21G30R 2R 3R12
                                R21R22E 1E31E33
  22588046.754   118700984.076    22588045.021    92494268.659    22588044.645  
  22588044.020    88640335.4931 
  20310080.977   106730196.596    20310076.117    83166364.090    20310075.598  
                                
  22971557.782   120716345.064    22971555.102    94064670.153    22971553.726  
  22971552.493    90145309.951  
  23089544.011   121336375.428    23089542.099    94547812.227    23089541.741  
  23089542.134    90608322.972  
  24183456.309   127084917.382                    99027191.477    24183449.930  
                                
  21954208.475   115370151.213    21954204.687    89898795.438    21954204.098  
  21954208.475    86153029.613  
  22034972.725   115794564.605    22034968.597    90229509.683    22034968.097  
                                
  22605867.727   118794636.689                    92567227.257    22605862.688  
                                
  21072164.465   110734970.306    21072162.195    86286979.573    21072161.463  
  21072161.534    82691687.791  
  21901150.289   116868732.032                    90897908.583    21901151.254  
                                
  23059931.144   123441614.282                    96010134.067    23059929.589  
                                
  20517956.074   109603237.655                    85246966.915    20517956.735  
                                
  21691796.798   116077183.372                    90282259.216    21691797.978  
                                
  19823568.272   105819554.943                    82304094.016    19823567.700  
                                
  25301774.459   132961722.167                                                  
  25301769.902    99289585.860  
  24559045.124   129058652.521                                                  
  24559047.036    96374973.105  
  25341992.215   133173070.782                                                  
  25341993.591    99447421.240  
 21  8 31  7 50  3.0000000  0 17G 1G 7G 8G 9G13G14G17G21G30R 2R 3R12
                                R21R22E 1E31E33
  22587585.644   118698560.911    22587583.857    92492380.472    22587583.464  
  22587582.910    88638525.9891 
  20310062.107   106730097.511    20310057.247    83166286.881    20310056.729  
                                
  22972170.976   120719567.422    22972168.260    94067181.078    22972166.920  
  22972165.633    90147716.247  
  23090182.471   121339730.536    23090180.541    94550426.594    23090180.201  
  23090180.577    90610828.403  
  24182926.135   127082131.259                    99025020.467    24182919.667  
                                
  21953960.632   115368848.805    21953956.844    89897780.577    21953956.254  
  21953960.650    86152057.040  
  22034450.574   115791820.793    22034446.464    90227371.648    22034445.946  
                                
  22605822.072   118794396.877                    92567040.383    22605817.033  
                                
  21071808.353   110733098.923    21071806.048    86285521.350    21071805.369  
  21071805.405    82690290.330  
  21901578.806   116871018.771                    90899687.155    21901579.789  
                                
  23059796.233   123440891.942                    96009572.243    23059794.643  
                                
  20517773.238   109602260.853                    85246207.185    20517773.882  
                                
  21692279.584   116079766.832                    90284268.572    21692280.763  
                                
  19823359.544   105818440.768                    82303227.434    19823359.008  
                                
  25301951.791   132962653.971                                                  
  25301947.252    99290281.695  
  24558938.285   129058091.085                                                  
  24558940.179    96374553.847  
  25341580.030   133170904.739                                                  
  25341581.442    99445803.738  
 21  8 31  7 50  4.0000000  0 17G 1G 7G 8G 9G13G14G17G21G30R 2R 3R12
                                R21R22E 1E31E33
  22587124.587   118696138.022    22587122.800    92490492.507    22587122.354  
  22587121.835    88636716.7051 
  20310043.345   106729998.834    20310038.484    83166209.992    20310037.948  
                                
  22972784.205   120722789.949    22972781.489    94069692.133    22972780.131  
  22972778.844    90150122.677  
  23090820.967   121343085.743    23090819.001    94553041.037    23090818.662  
  23090819.055    90613333.919  
  24182396.015   127079345.507                    99022849.738    24182389.582  
                                
  21953712.825   115367546.532    21953709.018    89896765.819    21953708.411  
  21953712.825    86151084.556  
  22033928.495   115789077.333    22033924.403    90225233.891    22033923.885  
                                
  22605776.524   118794157.558                    92566853.897    22605771.502  
                                
  21071452.295   110731227.787    21071449.990    86284063.322    21071449.311  
  21071449.346    82688893.055  
  21902007.449   116873306.034                    90901466.131    21902008.413  
                                
  23059661.429   123440170.347                    96009011.000    23059659.821  
                                
  20517590.367   109601284.108                    85245447.487    20517591.028  
                                
  21692762.494   116082350.959                    90286278.446    21692763.709  
                                
  19823150.995   105817327.488                    82302361.547    19823150.423  
                                
  25302129.087   132963585.753                                                  
  25302124.567    99290977.501  
  24558831.446   129057529.616                                                  
  24558833.340    96374134.573  
  25341167.899   133168738.931                                                  
  25341169.293    99444186.421  
 21  8 31  7 50  5.0000000  0 17G 1G 7G 8G 9G13G14G17G21G30R 2R 3R12
                                R21R22E 1E31E33
  22586663.549   118693715.271    22586661.744    92488604.651    22586661.297  
  22586660.797    88634907.4961 
  20310024.600   106729900.384    20310019.740    83166133.275    20310019.204  
                                
  22973397.452   120726012.434    22973394.700    94072203.162    22973393.324  
  22973392.038    90152529.093  
  23091459.427   121346440.850    23091457.461    94555655.408    23091457.086  
  23091457.533    90615839.356  
  24181865.912   127076559.891                    99020679.119    24181859.480  
                                
  21953464.999   115366244.153    21953461.193    89895750.981    21953460.550  
  21953464.981    86150112.016  
  22033406.451   115786334.026    22033402.377    90223096.251    22033401.841  
                                
  22605731.047   118793918.536                    92566667.645    22605725.990  
                                
  21071096.237   110729356.712    21071093.932    86282605.339    21071093.253  
  21071093.288    82687495.826  
  21902436.126   116875593.609                    90903245.351    21902437.109  
                                
  23059526.697   123439449.263                    96008450.153    23059525.124  
                                
  20517407.495   109600307.217                    85244687.683    20517408.156  
                                
  21693245.512   116084935.534                    90288288.667    21693246.691  
                                
  19822942.535   105816214.848                    82301496.160    19822941.998  
                                
  25302306.366   132964517.293                                                  
  25302301.845    99291673.130  
  24558724.572   129056967.930                                                  
  24558726.448    96373715.136  
  25340755.750   133166573.153                                                  
  25340757.180    99442569.121  
 21  8 31  7 50  6.0000000  0 17G 1G 7G 8G 9G13G14G17G21G30R 2R 3R12
                                R21R22E 1E31E33
  22586202.546   118691292.675    22586200.705    92486716.919    22586200.258  
  22586199.794    88633098.4181 
  20310005.927   106729802.217    20310001.049    83166056.784    20310000.531  
                                
  22974010.681   120729234.974    22974007.929    94074714.235    22974006.571  
  22974005.231    90154935.536  
  23092097.887   121349795.937    23092095.886    94558269.764    23092095.528  
  23092095.975    90618344.783  
  24181335.882   127073774.492                    99018508.667    24181329.467  
                                
  21953217.174   115364941.795    21953213.332    89894736.154    21953212.724  
  21953217.156    86149139.470  
  22032884.461   115783590.959    22032880.387    90220958.799    22032879.833  
                                
  22605685.606   118793679.906                    92566481.696    22605680.567  
                                
  21070740.196   110727485.772    21070737.909    86281147.471    21070737.212  
  21070737.266    82686098.693  
  21902864.911   116877881.593                    90905024.892    21902865.859  
                                
  23059392.107   123438728.763                    96007889.768    23059390.517  
                                
  20517224.588   109599330.281                    85243927.847    20517225.267  
                                
  21693728.601   116087520.653                    90290299.315    21693729.798  
                                
  19822734.235   105815102.984                    82300631.377    19822733.735  
                                
  25302483.609   132965448.673                                                  
  25302479.106    99292368.645  
  24558617.644   129056406.104                                                  
  24558619.538    96373295.584  
  25340343.637   133164407.489                                                  
  25340345.067    99440951.902  
 21  8 31  7 50  7.0000000  0 17G 1G 7G 8G 9G13G14G17G21G30R 2R 3R12
                                R21R22E 1E31E33
  22585741.614   118688870.347    22585739.756    92484829.388    22585739.256  
  22585738.827    88631289.5321 
  20309987.325   106729704.442    20309982.447    83165980.593    20309981.911  
                                
  22974623.946   120732457.633    22974621.158    94077225.400    22974619.818  
  22974618.478    90157342.060  
  23092736.347   121353151.083    23092734.328    94560884.166    23092733.971  
  23092734.435    90620850.253  
  24180805.886   127070989.398                    99016338.475    24180799.489  
                                
  21952969.348   115363639.513    21952965.506    89893721.391    21952964.881  
  21952969.330    86148166.984  
  22032362.525   115780848.172    22032358.469    90218821.560    22032357.897  
                                
  22605640.290   118793441.729                    92566296.098    22605635.233  
                                
  21070384.210   110725615.032    21070381.923    86279689.751    21070381.243  
  21070381.279    82684701.714  
  21903293.768   116880170.051                    90906804.801    21903294.733  
                                
  23059257.643   123438008.961                    96007329.920    23059256.034  
                                
  20517041.681   109598353.387                    85243168.038    20517042.413  
                                
  21694211.833   116090106.412                    90292310.460    21694213.012  
                                
  19822526.115   105813991.966                    82299767.251    19822525.614  
                                
  25302660.834   132966379.984                                                  
  25302656.349    99293064.096  
  24558510.715   129055844.213                                                  
  24558512.592    96372875.994  
  25339931.577   133162242.030                                                  
  25339933.007    99439334.830  
 21  8 31  7 50  8.0000000  0 17G 1G 7G 8G 9G13G14G17G21G30R 2R 3R12
                                R21R22E 1E31E33
  22585280.701   118686448.215    22585278.842    92482942.012    22585278.288  
  22585277.895    88629480.8101 
  20309968.777   106729606.992    20309963.917    83165904.653    20309963.363  
                                
  22975237.193   120735680.358    22975234.387    94079736.610    22975233.029  
  22975231.689    90159748.643  
  23093374.843   121356506.246    23093372.806    94563498.585    23093372.449  
  23093372.895    90623355.730  
  24180275.945   127068204.586                    99014168.501    24180269.601  
                                
  21952721.540   115362337.249    21952717.717    89892706.637    21952717.055  
  21952721.523    86147194.521  
  22031840.660   115778105.662    22031836.568    90216684.537    22031836.014  
                                
  22605595.046   118793203.936                    92566110.810    22605589.989  
                                
  21070028.241   110723744.474    21070025.989    86278232.174    21070025.293  
  21070025.328    82683304.869  
  21903722.678   116882458.902                    90908585.017    21903723.643  
                                
  23059123.285   123437289.766                    96006770.553    23059121.695  
                                
  20516858.809   109597376.443                    85242408.194    20516859.506  
                                
  21694695.136   116092692.735                    90294322.045    21694696.351  
                                
  19822318.137   105812881.708                    82298903.720    19822317.619  
                                
  25302838.041   132967311.170                                                  
  25302833.574    99293759.464  
  24558403.769   129055282.204                                                  
  24558405.645    96372456.313  
  25339519.500   133160076.698                                                  
  25339520.983    99437717.861  
 21  8 31  7 50  9.0000000  0 17G 1G 7G 8G 9G13G14G17G21G30R 2R 3R12
                                R21R22E 1E31E33
  22584819.859   118684026.547    22584818.000    92481054.998    22584817.410  
  22584817.053    88627672.4081 
  20309950.354   106729510.087    20309945.458    83165829.143    20309944.922  
                                
  22975850.511   120738903.389    22975847.688    94082248.056    22975846.330  
  22975844.990    90162155.443  
  23094013.357   121359861.647    23094011.302    94566113.181    23094010.927  
  23094011.409    90625861.380  
  24179746.075   127065420.223                    99011998.863    24179739.803  
                                
  21952473.786   115361035.249    21952469.927    89891692.090    21952469.283  
  21952473.769    86146222.250  
  22031318.849   115775363.629    22031314.793    90214547.892    22031314.221  
                                
  22605549.909   118792966.803                    92565926.031    22605544.834  
                                
  21069672.344   110721874.285    21069670.092    86276774.882    21069669.413  
  21069669.431    82681908.300  
  21904151.713   116884748.317                    90910365.677    21904152.678  
                                
  23058989.089   123436571.457                    96006211.863    23058987.517  
                                
  20516675.973   109596399.689                    85241648.495    20516676.670  
                                
  21695178.636   116095279.838                    90296334.239    21695179.815  
                                
  19822110.356   105811772.442                    82298040.958    19822109.802  
                                
  25303015.266   132968242.446                                                  
  25303010.799    99294454.898  
  24558296.859   129054720.298                                                  
  24558298.717    96372036.708  
  25339107.512   133157911.709                                                  
  25339109.013    99436101.159  
 21  8 31  7 50 10.0000000  0 17G 1G 7G 8G 9G13G14G17G21G30R 2R 3R12
                                R21R22E 1E31E33
  22584359.088   118681605.178    22584357.194    92479168.220    22584356.640  
  22584356.282    88625864.2561 
  20309931.985   106729413.641    20309927.107    83165753.993    20309926.571  
                                
  22976463.883   120742126.634    22976461.060    94084759.680    22976459.702  
  22976458.344    90164562.425  
  23094651.924   121363217.180    23094649.852    94568727.887    23094649.476  
  23094649.923    90628367.137  
  24179216.294   127062636.274                    99009829.549    24179210.057  
                                
  21952226.068   115359733.410    21952222.173    89890677.670    21952221.512  
  21952226.015    86145250.098  
  22030797.127   115772621.991    22030793.071    90212411.556    22030792.499  
                                
  22605504.897   118792730.195                    92565741.664    22605499.822  
                                
  21069316.536   110720004.411    21069314.266    86275317.834    21069313.587  
  21069313.605    82680511.965  
  21904580.874   116887038.285                    90912146.763    21904581.803  
                                
  23058855.054   123435853.918                    96005653.778    23058853.481  
                                
  20516493.102   109595423.013                    85240888.857    20516493.852  
                                
  21695662.225   116097867.649                    90298346.981    21695663.405  
                                
  19821902.736   105810664.074                    82297178.894    19821902.182  
                                
  25303192.491   132969173.738                                                  
  25303188.024    99295150.345  
  24558189.913   129054158.410                                                  
  24558191.789    96371617.125  
  25338695.559   133155747.022                                                  
  25338697.096    99434484.672  
 21  8 31  7 50 11.0000000  0 17G 1G 7G 8G 9G13G14G17G21G30R 2R 3R12
                                R21R22E 1E31E33
  22583898.407   118679184.346    22583896.495    92477281.852    22583895.941  
  22583895.601    88624056.4791 
  20309913.759   106729317.822    20309908.880    83165679.326    20309908.326  
                                
  22977077.309   120745350.258    22977074.486    94087271.597    22977073.128  
  22977071.770    90166969.670  
  23095290.527   121366573.027    23095288.437    94571342.835    23095288.062  
  23095288.544    90630873.127  
  24178686.638   127059852.873                    99007660.659    24178680.437  
                                
  21951978.404   115358431.903    21951974.508    89889663.511    21951973.847  
  21951978.350    86144278.185  
  22030275.512   115769880.926    22030271.474    90210275.661    22030270.884  
                                
  22605460.010   118792494.298                    92565557.857    22605454.935  
                                
  21068960.799   110718134.991    21068958.530    86273861.148    21068957.851  
  21068957.851    82679115.967  
  21905010.159   116889328.918                    90913928.372    21905011.070  
                                
  23058721.179   123435137.336                    96005096.438    23058719.642  
                                
  20516310.319   109594446.632                    85240129.452    20516311.088  
                                
  21696145.994   116100456.369                    90300360.434    21696147.155  
                                
  19821695.277   105809556.767                    82296317.657    19821694.741  
                                
  25303369.734   132970105.199                                                  
  25303365.302    99295845.908  
  24558083.020   129053596.716                                                  
  24558084.896    96371197.675  
  25338283.714   133153582.769                                                  
  25338285.269    99432868.497  
 21  8 31  7 50 12.0000000  0 17G 1G 7G 8G 9G13G14G17G21G30R 2R 3R12
                                R21R22E 1E31E33
  22583437.797   118676763.981    22583435.903    92475395.844    22583435.331  
  22583435.009    88622249.0501 
  20309895.639   106729222.573    20309890.761    83165605.106    20309890.207  
                                
  22977690.788   120748574.213    22977687.965    94089783.767    22977686.589  
  22977685.249    90169377.173  
  23095929.184   121369929.147    23095927.094    94573957.993    23095926.700  
  23095927.183    90633379.307  
  24178157.107   127057069.960                    99005492.171    24178150.871  
                                
  21951730.793   115357130.666    21951726.897    89888649.560    21951726.236  
  21951730.739    86143306.482  
  22029753.987   115767140.356    22029749.967    90208140.152    22029749.377  
                                
  22605415.248   118792259.064                    92565374.557    22605410.173  
                                
  21068605.116   110716265.971    21068602.883    86272404.768    21068602.221  
  21068602.204    82677720.274  
  21905439.534   116891620.207                    90915710.485    21905440.463  
                                
  23058587.465   123434421.651                    96004539.792    23058585.946  
                                
  20516127.591   109593470.498                    85239370.242    20516128.341  
                                
  21696629.922   116103045.914                    90302374.522    21696631.084  
                                
  19821487.960   105808450.462                    82295457.198    19821487.460  
                                
  25303547.030   132971036.778                                                  
  25303542.581    99296541.568  
  24557976.163   129053035.159                                                  
  24557978.040    96370778.327  
  25337871.958   133151418.895                                                  
  25337873.495    99431252.623  
 21  8 31  7 50 13.0000000  0 17G 1G 7G 8G 9G13G14G17G21G30R 2R 3R12
                                R21R22E 1E31E33
  22582977.276   118674344.000    22582975.382    92473510.143    22582974.793  
  22582974.489    88620441.9281 
  20309877.610   106729127.843    20309872.731    83165531.291    20309872.177  
                                
  22978304.303   120751798.441    22978301.516    94092296.158    22978300.104  
  22978298.800    90171784.876  
  23096567.859   121373285.460    23096565.768    94576573.300    23096565.357  
  23096565.840    90635885.654  
  24177627.613   127054287.489                    99003324.017    24177621.412  
                                
  21951483.235   115355829.661    21951479.322    89887635.792    21951478.643  
  21951483.164    86142334.952  
  22029232.551   115764400.248    22029228.531    90206005.000    22029227.959  
                                
  22605370.611   118792024.425                    92565191.724    22605365.518  
                                
  21068249.523   110714397.334    21068247.271    86270948.684    21068246.628  
  21068246.592    82676324.860  
  21905869.034   116893912.106                    90917493.076    21905869.981  
                                
  23058453.894   123433706.772                    96003983.776    23058452.393  
                                
  20515944.844   109592494.523                    85238611.153    20515945.648  
                                
  21697113.994   116105636.208                    90304389.202    21697115.138  
                                
  19821280.948   105807345.119                    82294597.487    19821280.412  
                                
  25303724.309   132971968.436                                                  
  25303719.895    99297237.286  
  24557869.325   129052473.679                                                  
  24557871.183    96370359.037  
  25337460.238   133149255.370                                                  
  25337461.810    99429637.011  
 21  8 31  7 50 14.0000000  0 17G 1G 7G 8G 9G13G14G17G21G30R 2R 3R12
                                R21R22E 1E31E33
  22582516.827   118671924.347    22582514.933    92471624.708    22582514.308  
  22582514.022    88618635.0621 
  20309859.669   106729033.568    20309854.791    83165457.830    20309854.219  
                                
  22978917.890   120755022.881    22978915.067    94094808.710    22978913.673  
  22978912.368    90174192.734  
  23097206.587   121376641.923    23097204.461    94579188.728    23097204.085  
  23097204.568    90638392.104  
  24177098.225   127051505.424                    99001156.180    24177092.060  
                                
  21951235.678   115354528.799    21951231.782    89886622.140    21951231.085  
  21951235.624    86141363.544  
  22028711.187   115761660.515    22028707.166    90203870.143    22028706.630  
                                
  22605326.046   118791790.318                    92565009.299    22605320.953  
                                
  21067893.983   110712528.974    21067891.767    86269492.828    21067891.106  
  21067891.070    82674929.667  
  21906298.641   116896204.527                    90919276.074    21906299.570  
                                
  23058320.502   123432992.653                    96003428.357    23058319.001  
                                
  20515762.133   109591518.622                    85237852.126    20515762.955  
                                
  21697598.191   116108227.199                    90306404.417    21697599.335  
                                
  19821073.971   105806240.677                    82293738.478    19821073.506  
                                
  25303901.605   132972900.082                                                  
  25303897.209    99297933.005  
  24557762.486   129051912.213                                                  
  24557764.326    96369939.768  
  25337048.589   133147092.116                                                  
  25337050.180    99428021.595  
 21  8 31  7 50 15.0000000  0 17G 1G 7G 8G 9G13G14G17G21G30R 2R 3R12
                                R21R22E 1E31E33
  22582056.468   118669505.159    22582054.574    92469739.626    22582053.930  
  22582053.644    88616828.5121 
  20309841.836   106728939.862    20309836.958    83165384.815    20309836.404  
                                
  22979531.494   120758247.599    22979528.707    94097321.475    22979527.242  
  22979525.991    90176600.803  
  23097845.351   121379998.616    23097843.242    94581804.330    23097842.832  
  23097843.314    90640898.720  
  24176568.927   127048723.854                    98998988.730    24176562.780  
                                
  21950988.174   115353228.211    21950984.296    89885608.692    21950983.581  
  21950988.120    86140392.317  
  22028189.947   115758921.295    22028185.945    90201735.691    22028185.373  
                                
  22605281.641   118791556.886                    92564827.401    22605276.495  
                                
  21067538.532   110710661.010    21067536.298    86268037.271    21067535.637  
  21067535.602    82673534.752  
  21906728.355   116898497.576                    90921059.559    21906729.284  
                                
  23058187.270   123432279.431                    96002873.631    23058185.769  
                                
  20515579.476   109590542.939                    85237093.264    20515580.298  
                                
  21698082.549   116110818.981                    90308420.248    21698083.693  
                                
  19820867.262   105805137.269                    82292880.274    19820866.779  
                                
  25304078.902   132973831.852                                                  
  25304074.524    99298628.798  
  24557655.647   129051350.877                                                  
  24557657.487    96369520.575  
  25336637.012   133144929.219                                                  
  25336638.584    99426406.445  
 21  8 31  7 50 16.0000000  0 17G 1G 7G 8G 9G13G14G17G21G30R 2R 3R12
                                R21R22E 1E31E33
  22581596.144   118667086.275    22581594.250    92467854.778    22581593.624  
  22581593.338    88615022.2121 
  20309824.092   106728846.576    20309819.214    83165312.122    20309818.660  
                                
  22980145.170   120761472.517    22980142.347    94099834.403    22980140.917  
  22980139.684    90179009.025  
  23098484.133   121383355.428    23098482.006    94584420.026    23098481.613  
  23098482.096    90643405.441  
  24176039.664   127045942.616                    98996821.541    24176033.553  
                                
  21950740.724   115351927.760    21950736.810    89884595.356    21950736.113  
  21950740.652    86139421.208  
  22027668.762   115756182.436    22027664.759    90199601.513    22027664.187  
                                
  22605237.326   118791323.929                    92564645.878    22605232.162  
                                
  21067183.117   110708793.327    21067180.884    86266581.934    21067180.222  
  21067180.187    82672140.054  
  21907158.159   116900791.115                    90922843.423    21907159.088  
                                
  23058054.164   123431566.932                    96002319.462    23058052.663  
                                
  20515396.819   109589567.316                    85236334.443    20515397.659  
                                
  21698567.014   116113411.433                    90310436.600    21698568.140  
                                
  19820660.750   105804034.728                    82292022.738    19820660.231  
                                
  25304256.216   132974763.595                                                  
  25304251.856    99299324.587  
  24557548.844   129050789.514                                                  
  24557550.666    96369101.384  
  25336225.471   133142766.589                                                  
  25336227.061    99424791.499  
 21  8 31  7 50 17.0000000  0 17G 1G 7G 8G 9G13G14G17G21G30R 2R 3R12
                                R21R22E 1E31E33
  22581135.891   118664667.600    22581133.979    92465970.105    22581133.354  
  22581133.068    88613216.0651 
  20309806.401   106728753.619    20309801.523    83165239.685    20309800.951  
                                
  22980758.810   120764697.546    22980756.041    94102347.415    22980754.611  
  22980753.396    90181417.313  
  23099122.915   121386712.243    23099120.788    94587035.728    23099120.377  
  23099120.860    90645912.154  
  24175510.473   127043161.660                    98994654.549    24175504.397  
                                
  21950493.255   115350627.353    21950489.324    89883582.050    21950488.627  
  21950493.184    86138450.116  
  22027147.629   115753443.842    22027143.627    90197467.543    22027143.037  
                                
  22605193.082   118791091.394                    92564464.682    22605187.918  
                                
  21066827.738   110706925.809    21066825.504    86265126.723    21066824.879  
  21066824.808    82670745.478  
  21907588.034   116903085.034                    90924627.582    21907588.981  
                                
  23057921.165   123430855.079                    96001765.797    23057919.664  
                                
  20515214.180   109588591.678                    85235575.611    20515215.038  
                                
  21699051.586   116116004.483                    90312453.413    21699052.712  
                                
  19820454.345   105802932.981                    82291165.823    19820453.844  
                                
  25304433.512   132975695.221                                                  
  25304429.152    99300020.277  
  24557441.987   129050228.051                                                  
  24557443.810    96368682.105  
  25335813.965   133140604.103                                                  
  25335815.555    99423176.653  
 21  8 31  7 50 18.0000000  0 17G 1G 7G 8G 9G13G14G17G21G30R 2R 3R12
                                R21R22E 1E31E33
  22580675.675   118662249.286    22580673.781    92464085.709    22580673.119  
  22580672.851    88611410.1721 
  20309788.818   106728661.119    20309783.922    83165167.610    20309783.350  
                                
  22981372.504   120767922.769    22981369.752    94104860.573    22981368.287  
  22981367.126    90183825.770  
  23099761.750   121390069.202    23099759.588    94589651.545    23099759.195  
  23099759.659    90648418.976  
  24174981.317   127040381.085                    98992487.856    24174975.313  
                                
  21950245.823   115349327.079    21950241.892    89882568.849    21950241.213  
  21950245.769    86137479.140  
  22026626.551   115750705.635    22026622.548    90195333.871    22026621.976  
                                
  22605148.928   118790859.417                    92564283.914    22605143.764  
                                
  21066472.413   110705058.590    21066470.215    86263671.747    21066469.536  
  21066469.500    82669351.129  
  21908018.016   116905379.490                    90926412.155    21908018.963  
                                
  23057788.344   123430144.015                    96001212.744    23057786.826  
                                
  20515031.541   109587616.144                    85234816.860    20515032.416  
                                
  21699536.301   116118598.231                    90314470.767    21699537.409  
                                
  19820248.136   105801832.151                    82290309.620    19820247.618  
                                
  25304610.791   132976626.852                                                  
  25304606.449    99300715.976  
  24557335.148   129049666.603                                                  
  24557336.971    96368262.851  
  25335402.495   133138441.878                                                  
  25335404.121    99421562.016  
 21  8 31  7 50 19.0000000  0 17G 1G 7G 8G 9G13G14G17G21G30R 2R 3R12
                                R21R22E 1E31E33
  22580215.512   118659831.042    22580213.582    92462201.358    22580212.903  
  22580212.670    88609604.3371 
  20309771.253   106728568.822    20309766.357    83165095.690    20309765.803  
                                
  22981986.198   120771147.977    22981983.482    94107373.718    22981981.999  
  22981980.873    90186234.178  
  23100400.532   121393426.053    23100398.352    94592267.273    23100397.977  
  23100398.459    90650925.709  
  24174452.198   127037600.631                    98990321.256    24174446.194  
                                
  21949998.391   115348026.734    21949994.424    89881555.589    21949993.763  
  21949998.301    86136508.095  
  22026105.508   115747967.560    22026101.523    90193200.308    22026100.951  
                                
  22605104.845   118790627.713                    92564103.363    22605099.609  
                                
  21066117.105   110703191.409    21066114.907    86262216.799    21066114.246  
  21066114.174    82667956.795  
  21908448.052   116907674.220                    90928196.942    21908448.999  
                                
  23057655.595   123429433.462                    96000660.083    23057654.077  
                                
  20514848.883   109586640.452                    85234057.984    20514849.759  
                                
  21700021.070   116121192.413                    90316488.454    21700022.196  
                                
  19820042.053   105800731.959                    82289453.918    19820041.534  
                                
  25304788.034   132977558.223                                                  
  25304783.710    99301411.478  
  24557228.256   129049104.920                                                  
  24557230.078    96367843.399  
  25334991.043   133136279.671                                                  
  25334992.669    99419947.374  
 21  8 31  7 50 20.0000000  0 17G 1G 7G 8G 9G13G14G17G21G30R 2R 3R12
                                R21R22E 1E31E33
  22579755.331   118657412.978    22579753.437    92460317.154    22579752.740  
  22579752.507    88607798.6391 
  20309753.741   106728476.815    20309748.863    83165023.994    20309748.274  
                                
  22982599.909   120774373.194    22982597.193    94109886.874    22982595.728  
  22982594.620    90188642.622  
  23101039.332   121396782.906    23101037.152    94594883.001    23101036.759  
  23101037.241    90653432.439  
  24173923.132   127034820.400                    98988154.838    24173917.146  
                                
  21949750.941   115346726.371    21949746.991    89880542.321    21949746.295  
  21949750.869    86135537.047  
  22025584.501   115745229.725    22025580.516    90191066.931    22025579.962  
                                
  22605060.833   118790396.388                    92563923.103    22605055.562  
                                
  21065761.797   110701324.352    21065759.599    86260761.946    21065758.956  
  21065758.885    82666562.568  
  21908878.159   116909969.323                    90929982.020    21908879.106  
                                
  23057522.954   123428723.498                    96000107.886    23057521.417  
                                
  20514666.191   109585664.665                    85233299.038    20514667.102  
                                
  21700505.964   116123787.127                    90318506.563    21700507.072  
                                
  19819836.148   105799632.489                    82288598.774    19819835.576  
                                
  25304965.241   132978489.441                                                  
  25304960.934    99302106.870  
  24557121.345   129048543.082                                                  
  24557123.150    96367423.851  
  25334579.608   133134117.590                                                  
  25334581.270    99418332.824  
 21  8 31  7 50 21.0000000  0 17G 1G 7G 8G 9G13G14G17G21G30R 2R 3R12
                                R21R22E 1E31E33
  22579295.239   118654995.338    22579293.381    92458433.277    22579292.666  
  22579292.434    88605993.2701 
  20309736.337   106728385.363    20309731.459    83164952.730    20309730.887  
                                
  22983213.675   120777598.690    22983210.994    94112400.245    22983209.440  
  22983208.421    90191051.280  
  23101678.185   121400139.959    23101676.005    94597498.886    23101675.558  
  23101676.059    90655939.338  
  24173394.155   127032040.652                    98985988.803    24173388.223  
                                
  21949503.562   115345426.270    21949499.577    89879529.257    21949498.898  
  21949503.455    86134566.190  
  22025063.619   115742492.363    22025059.634    90188933.921    22025059.044  
                                
  22605016.911   118790165.687                    92563743.341    22605011.640  
                                
  21065406.579   110699457.688    21065404.381    86259307.401    21065403.756  
  21065403.666    82665168.632  
  21909308.392   116912265.048                    90931767.582    21909309.321  
                                
  23057390.473   123428014.389                    95999556.359    23057388.900  
                                
  20514483.533   109584689.077                    85232540.246    20514484.463  
                                
  21700991.000   116126382.627                    90320525.283    21700992.108  
                                
  19819630.404   105798533.996                    82287744.389    19819629.778  
                                
  25305142.466   132979420.761                                                  
  25305138.159    99302802.332  
  24557014.453   129047981.349                                                  
  24557016.257    96367004.376  
  25334168.264   133131955.846                                                  
  25334169.907    99416718.544  
 21  8 31  7 50 22.0000000  0 17G 1G 7G 8G 9G13G14G17G21G30R 2R 3R12
                                R21R22E 1E31E33
  22578835.308   118652578.465    22578833.468    92456549.990    22578832.753  
  22578832.485    88604187.4561 
  20309719.111   106728294.788    20309714.215    83164882.155    20309713.643  
                                
  22983827.565   120780824.843    22983824.849    94114914.126    22983823.330  
  22983822.347    90193460.418  
  23102317.128   121403497.567    23102314.930    94600115.201    23102314.483  
  23102314.983    90658446.647  
  24172865.339   127029261.703                    98983823.395    24172859.407  
                                
  21949256.272   115344126.734    21949252.305    89878516.635    21949251.626  
  21949256.183    86133595.764  
  22024542.862   115739755.820    22024538.877    90186801.552    22024538.305  
                                
  22604973.222   118789935.931                    92563564.313    22604967.915  
                                
  21065051.504   110697591.734    21065049.306    86257853.413    21065048.680  
  21065048.591    82663775.225  
  21909738.785   116914561.736                    90933553.892    21909739.732  
                                
  23057258.170   123427306.485                    95999005.769    23057256.652  
                                
  20514301.001   109583714.012                    85231781.864    20514301.930  
                                
  21701476.252   116128979.274                    90322544.893    21701477.360  
                                
  19819424.857   105797436.842                    82286891.046    19819424.249  
                                
  25305319.780   132980352.490                                                  
  25305315.492    99303498.108  
  24556907.649   129047420.066                                                  
  24556909.436    96366585.233  
  25333757.044   133129794.816                                                  
  25333758.688    99415104.789  
 21  8 31  7 50 23.0000000  0 17G 1G 7G 8G 9G13G14G17G21G30R 2R 3R12
                                R21R22E 1E31E33
  22578375.503   118650162.264    22578373.662    92454667.241    22578372.947  
  22578372.679    88602383.1521 
  20309702.029   106728204.991    20309697.132    83164812.185    20309696.543  
                                
  22984441.562   120784051.551    22984438.846    94117428.439    22984437.345  
  22984436.380    90195869.953  
  23102956.124   121406855.668    23102953.926    94602731.903    23102953.515  
  23102953.997    90660954.306  
  24172336.666   127026483.476                    98981658.547    24172330.752  
                                
  21949009.090   115342827.689    21949005.087    89877504.392    21949004.408  
  21949008.983    86132625.691  
  22024022.230   115737019.995    22024018.281    90184669.741    22024017.691  
                                
  22604929.657   118789707.059                    92563385.973    22604924.350  
                                
  21064696.553   110695726.387    21064694.355    86256399.898    21064693.712  
  21064693.623    82662382.267  
  21910169.357   116916859.303                    90935340.886    21910170.268  
                                
  23057126.136   123426599.645                    95998456.002    23057124.582  
                                
  20514118.541   109582739.409                    85231023.839    20514119.506  
                                
  21701961.682   116131576.937                    90324565.300    21701962.772  
                                
  19819219.577   105796340.952                    82286038.687    19819218.952  
                                
  25305497.166   132981284.558                                                  
  25305492.877    99304194.129  
  24556800.900   129046859.111                                                  
  24556802.669    96366166.340  
  25333345.913   133127634.372                                                  
  25333347.575    99413491.469  
 21  8 31  7 50 24.0000000  0 17G 1G 7G 8G 9G13G14G17G21G30R 2R 3R12
                                R21R22E 1E31E33
  22577915.751   118647746.379    22577913.928    92452784.731    22577913.195  
  22577912.945    88600579.0831 
  20309685.017   106728115.634    20309680.121    83164742.559    20309679.549  
                                
  22985055.560   120787278.399    22985052.862    94119942.871    22985051.343  
  22985050.449    90198279.632  
  23103595.174   121410213.856    23103592.994    94605348.676    23103592.547  
  23103593.029    90663462.062  
  24171808.065   127023705.619                    98979493.981    24171802.222  
                                
  21948761.926   115341528.770    21948757.905    89876492.250    21948757.226  
  21948761.819    86131655.735  
  22023501.705   115734284.541    22023497.721    90182538.218    22023497.149  
                                
  22604886.200   118789478.721                    92563208.047    22604880.875  
                                
  21064341.657   110693861.325    21064339.441    86254946.601    21064338.798  
  21064338.726    82660989.535  
  21910600.018   116919157.380                    90937128.275    21910600.930  
                                
  23056994.227   123425893.558                    95997906.814    23056992.655  
                                
  20513936.098   109581764.901                    85230265.889    20513937.063  
                                
  21702447.236   116134175.300                    90326586.246    21702448.344  
                                
  19819014.459   105795245.905                    82285186.986    19819013.815  
                                
  25305674.534   132982216.607                                                  
  25305670.263    99304890.152  
  24556694.150   129046298.161                                                  
  24556695.919    96365747.458  
  25332934.854   133125474.184                                                  
  25332936.534    99411878.346  
 21  8 31  7 50 25.0000000  0 17G 1G 7G 8G 9G13G14G17G21G30R 2R 3R12
                                R21R22E 1E31E33
  22577456.088   118645330.797    22577454.247    92450902.464    22577453.533  
  22577453.264    88598775.2391 
  20309668.113   106728026.709    20309663.217    83164673.264    20309662.609  
                                
  22985669.611   120790505.456    22985666.931    94122457.454    22985665.412  
  22985664.554    90200689.445  
  23104234.242   121413572.180    23104232.061    94607965.549    23104231.633  
  23104232.079    90665969.879  
  24171279.517   127020928.072                    98977329.661    24171273.745  
                                
  21948514.797   115340229.983    21948510.759    89875480.206    21948510.098  
  21948514.672    86130685.859  
  22022981.234   115731549.432    22022977.232    90180406.964    22022976.678  
                                
  22604842.849   118789250.852                    92563030.487    22604837.489  
                                
  21063986.778   110691996.506    21063984.580    86253493.498    21063983.937  
  21063983.847    82659596.975  
  21911030.787   116921455.939                    90938916.043    21911031.645  
                                
  23056862.443   123425188.176                    95997358.177    23056860.871  
                                
  20513753.655   109580790.471                    85229507.996    20513754.656  
                                
  21702932.952   116136774.323                    90328607.706    21702934.024  
                                
  19818809.501   105794151.755                    82284335.979    19818808.840  
                                
  25305851.902   132983148.629                                                  
  25305847.631    99305586.132  
  24556587.419   129045737.195                                                  
  24556589.170    96365328.544  
  25332523.849   133123314.221                                                  
  25332525.511    99410265.391  
 21  8 31  7 50 26.0000000  0 17G 1G 7G 8G 9G13G14G17G21G30R 2R 3R12
                                R21R22E 1E31E33
  22576996.425   118642915.505    22576994.620    92449020.423    22576993.923  
  22576993.637    88596971.6031 
  20309651.263   106727938.165    20309646.367    83164604.273    20309645.777  
                                
  22986283.698   120793732.669    22986281.017    94124972.168    22986279.499  
  22986278.695    90203099.381  
  23104873.327   121416930.559    23104871.129    94610582.464    23104870.718  
  23104871.165    90668477.773  
  24170751.023   127018150.899                    98975165.650    24170745.251  
                                
  21948267.669   115338931.311    21948263.648    89874468.255    21948262.969  
  21948267.526    86129716.065  
  22022460.835   115728814.664    22022456.832    90178275.979    22022456.278  
                                
  22604799.588   118789023.500                    92562853.332    22604794.192  
                                
  21063631.988   110690131.955    21063629.773    86252040.600    21063629.147  
  21063629.022    82658204.613  
  21911461.627   116923754.945                    90940704.159    21911462.467  
                                
  23056730.784   123424483.554                    95996810.135    23056729.212  
                                
  20513571.213   109579816.080                    85228750.139    20513572.267  
                                
  21703418.757   116139373.958                    90330629.647    21703419.812  
                                
  19818604.704   105793058.446                    82283485.630    19818604.043  
                                
  25306029.252   132984080.607                                                  
  25306025.035    99306282.087  
  24556480.633   129045176.178                                                  
  24556482.402    96364909.605  
  25332112.861   133121154.482                                                  
  25332114.541    99408652.605  
 21  8 31  7 50 27.0000000  0 17G 1G 7G 8G 9G13G14G17G21G30R 2R 3R12
                                R21R22E 1E31E33
  22576536.869   118640500.745    22576535.100    92447138.787    22576534.386  
  22576534.118    88595168.3751 
  20309634.537   106727850.296    20309629.641    83164535.806    20309629.069  
                                
  22986897.856   120796960.304    22986895.176    94127487.210    22986893.639  
  22986892.906    90205509.619  
  23105512.466   121420289.276    23105510.268    94613199.641    23105509.911  
  23105510.286    90670985.910  
  24170222.672   127015374.288                    98973002.044    24170216.900  
                                
  21948020.612   115337632.985    21948016.573    89873456.570    21948015.930  
  21948020.469    86128746.538  
  22021940.542   115726080.477    22021936.522    90176145.446    22021935.968  
                                
  22604756.453   118788796.858                    92562676.728    22604751.038  
                                
  21063277.270   110688267.885    21063275.055    86250588.076    21063274.429  
  21063274.304    82656812.615  
  21911892.592   116926054.690                    90942492.847    21911893.396  
                                
  23056599.340   123423779.891                    95996262.840    23056597.767  
                                
  20513388.841   109578841.954                    85227992.488    20513389.896  
                                
  21703904.705   116141974.487                    90332652.285    21703905.760  
                                
  19818400.086   105791966.267                    82282636.157    19818399.461  
                                
  25306206.656   132985012.778                                                  
  25306202.438    99306978.191  
  24556373.938   129044615.379                                                  
  24556375.671    96364490.828  
  25331701.981   133118995.218                                                  
  25331703.661    99407040.166  
 21  8 31  7 50 28.0000000  0 17G 1G 7G 8G 9G13G14G17G21G30R 2R 3R12
                                R21R22E 1E31E33
  22576077.403   118638086.228    22576075.599    92445257.343    22576074.902  
  22576074.634    88593365.3161 
  20309617.901   106727762.755    20309612.987    83164467.593    20309612.397  
                                
  22987512.050   120800188.012    22987509.370    94130002.308    22987507.833  
  22987507.136    90207919.919  
  23106151.588   121423648.034    23106149.408    94615816.853    23106149.050  
  23106149.426    90673494.067  
  24169694.320   127012597.942                    98970838.632    24169688.584  
                                
  21947773.590   115336334.700    21947769.534    89872444.917    21947768.855  
  21947773.429    86127777.041  
  22021420.286   115723346.569    22021416.265    90174015.130    22021415.711  
                                
  22604713.406   118788570.635                    92562500.446    22604707.956  
                                
  21062922.570   110686403.996    21062920.372    86249135.695    21062919.729  
  21062919.622    82655420.750  
  21912323.646   116928354.870                    90944281.878    21912324.451  
                                
  23056467.984   123423076.904                    95995716.065    23056466.430  
                                
  20513206.470   109577867.816                    85227234.827    20513207.542  
                                
  21704390.814   116144575.610                    90334675.381    21704391.833  
                                
  19818195.646   105790874.830                    82281787.261    19818195.003  
                                
  25306384.023   132985944.826                                                  
  25306379.824    99307674.212  
  24556267.206   129044054.470                                                  
  24556268.939    96364071.973  
  25331291.136   133116836.121                                                  
  25331292.798    99405427.847  
 21  8 31  7 50 29.0000000  0 17G 1G 7G 8G 9G13G14G17G21G30R 2R 3R12
                                R21R22E 1E31E33
  22575617.973   118635672.069    22575616.222    92443376.182    22575615.471  
  22575615.239    88591562.5451 
  20309601.319   106727675.734    20309596.423    83164399.784    20309595.833  
                                
  22988126.280   120803415.953    22988123.618    94132517.588    22988122.009  
  22988121.402    90210330.392  
  23106790.780   121427006.974    23106788.600    94618434.213    23106788.261  
  23106788.618    90676002.371  
  24169166.094   127009822.062                    98968675.632    24169160.358  
                                
  21947526.587   115335036.641    21947522.530    89871433.440    21947521.869  
  21947526.408    86126807.709  
  22020900.136   115720613.119    22020896.098    90171885.173    22020895.562  
                                
  22604670.467   118788345.029                    92562324.651    22604664.981  
                                
  21062567.960   110684540.466    21062565.762    86247683.601    21062565.136  
  21062564.993    82654029.147  
  21912754.826   116930655.652                    90946071.375    21912755.577  
                                
  23056336.826   123422374.745                    95995169.946    23056335.235  
                                
  20513024.135   109576893.878                    85226477.320    20513025.225  
                                
  21704877.048   116147177.517                    90336699.088    21704878.067  
                                
  19817991.350   105789784.367                    82280939.126    19817990.742  
                                
  25306561.409   132986876.960                                                  
  25306557.210    99308370.271  
  24556160.474   129043493.653                                                  
  24556162.207    96363653.163  
  25330880.328   133114677.333                                                  
  25330882.007    99403815.766  
 21  8 31  7 50 30.0000000  0 17G 1G 7G 8G 9G13G14G17G21G30R 2R 3R12
                                R21R22E 1E31E33
  22575158.632   118633258.312    22575156.881    92441495.330    22575156.148  
  22575155.898    88589760.0621 
  20309584.861   106727589.194    20309579.983    83164332.351    20309579.358  
                                
  22988740.546   120806644.174    22988737.919    94135033.086    22988736.328  
  22988735.721    90212741.064  
  23107429.991   121430366.099    23107427.811    94621051.720    23107427.472  
  23107427.811    90678510.797  
  24168637.939   127007046.594                    98966512.943    24168632.132  
                                
  21947279.601   115333738.772    21947275.563    89870422.117    21947274.884  
  21947279.440    86125838.524  
  22020380.059   115717880.082    22020376.038    90169755.539    22020375.502  
                                
  22604627.635   118788119.974                    92562149.284    22604622.131  
                                
  21062213.402   110682677.264    21062211.205    86246231.755    21062210.579  
  21062210.454    82652637.792  
  21913186.095   116932957.024                    90947861.332    21913186.828  
                                
  23056205.792   123421673.392                    95994624.450    23056204.238  
                                
  20512841.817   109575920.071                    85225719.917    20512842.925  
                                
  21705363.407   116149780.137                    90338723.346    21705364.426  
                                
  19817787.250   105788694.901                    82280091.763    19817786.660  
                                
  25306738.813   132987809.131                                                  
  25306734.632    99309066.364  
  24556053.760   129042932.880                                                  
  24556055.476    96363234.408  
  25330469.608   133112518.864                                                  
  25330471.270    99402203.916  
 21  8 31  7 50 31.0000000  0 17G 1G 7G 8G 9G13G14G17G21G30R 2R 3R12
                                R21R22E 1E31E33
  22574699.291   118630844.570    22574697.575    92439614.490    22574696.825  
  22574696.575    88587957.5991 
  20309568.440   106727502.793    20309563.526    83164265.024    20309562.936  
                                
  22989354.811   120809872.253    22989352.166    94137548.473    22989350.576  
  22989350.022    90215151.644  
  23108069.184   121433725.036    23108067.004    94623669.075    23108066.664  
  23108067.004    90681019.098  
  24168109.785   127004271.166                    98964350.286    24168104.067  
                                
  21947032.633   115332440.734    21947028.541    89869410.658    21947027.898  
  21947032.455    86124869.207  
  22019859.981   115715147.116    22019855.960    90167625.952    22019855.424  
                                
  22604584.874   118787895.149                    92561974.090    22604579.317  
                                
  21061858.845   110680814.028    21061856.665    86244779.882    21061856.022  
  21061855.897    82651246.414  
  21913617.399   116935258.596                    90949651.441    21913618.132  
                                
  23056074.848   123420972.405                    95994079.233    23056073.258  
                                
  20512659.463   109574946.017                    85224962.322    20512660.589  
                                
  21705849.874   116152383.140                    90340747.904    21705850.839  
                                
  19817583.257   105787605.937                    82279244.790    19817582.667  
                                
  25306916.127   132988740.965                                                  
  25306911.982    99309762.223  
  24555946.975   129042371.793                                                  
  24555948.708    96362815.415  
  25330058.871   133110360.334                                                  
  25330060.550    99400592.035  
