     2.11           OBSERVATION DATA    M (MIXED)           RINEX VERSION / TYPE
CONVBIN 2.4.3                           20210831 165133 UTC PGM / RUN BY / DATE 
log: logs/21_08_31_06_17_36_momf_SNMO.rtcm                  COMMENT             
format: RTCM 3, station ID: 3915                            COMMENT             
3915                                                        MARKER NAME         
                                                            MARKER NUMBER       
                                                            OBSERVER / AGENCY   
1706591             LEICA GR30          4.50                REC # / TYPE / VERS 
                    GPPNULLANTENNA                          ANT # / TYPE        
  -261313.9276 -5070058.8207  3847994.0302                  APPROX POSITION XYZ 
        0.0000        0.0000        0.0000                  ANTENNA: DELTA H/E/N
     1     1                                                WAVELENGTH FACT L1/2
     7    C1    L1    C2    L2    P2    C5    L5            # / TYPES OF OBSERV 
  2021     8    31     6    17   43.0000000     GPS         TIME OF FIRST OBS   
  2021     8    31     6    47   40.0000000     GPS         TIME OF LAST OBS    
                                                            END OF HEADER       
 21  8 31  6 17 43.0000000  0 17G 4G 7G 8G 9G16G27G30R 1R 2R12R20R21
                                E 1E 4E19E21E31
  22451984.222   117985972.714    22451983.722    91937118.390    22451983.472  
  22451987.117    88106419.801  
  21135540.725   111068016.466    21135538.206    86546494.227    21135537.848  
                                
  20509212.922   107776641.056    20509213.512    83981798.061    20509212.779  
  20509211.904    80482552.353  
  20985966.353   110281997.741    20985966.103    85934022.078    20985965.835  
  20985966.264    82353438.732  
  23933643.741   125772146.873                    98004257.479    23933640.828  
                                
  21578373.979   113395120.533    21578373.979    88359832.181    21578373.497  
  21578373.211    84678171.089  
  23461814.459   123292667.425    23461814.870    96072207.244    23461814.226  
  23461814.208    92069197.945  
  21313706.463   113933975.642    21313708.339    88615322.115    21313709.072  
                                
  21475683.796   114598363.317    21475685.154    89132066.409    21475685.136  
                                
  21744607.445   116155790.164    21744608.553    90343396.421    21744608.499  
                                
  22117113.586   118270145.625    22117116.337    91987902.008    22117115.283  
                                
  21209897.125   113498443.323    21209896.553    88276565.276    21209896.446  
                                
  23949678.526   125856410.249                                                  
  23949679.795    93983687.860  
  24451395.250   128492950.021                                                  
  24451396.054    95952529.763  
  26402187.276   138744430.960                                                  
  26402189.098   103607859.964  
  26089723.500   137102422.923                                                  
  26089725.466   102381686.089  
  25674949.955   134922772.665                                                  
  25674952.582   100754028.685  
 21  8 31  6 17 44.0000000  0 17G 4G 7G 8G 9G16G27G30R 1R 2R12R20R21
                                E 1E 4E19E21E31
  22452614.731   117989285.988    22452614.212    91939700.162    22452613.962  
  22452617.625    88108893.999  
  21135201.321   111066232.864    21135198.801    86545104.410    21135198.426  
                                
  20509183.867   107776488.474    20509184.492    83981679.166    20509183.760  
  20509182.849    80482438.412  
  20986270.877   110283598.028    20986270.627    85935269.064    20986270.359  
  20986270.787    82354633.756  
  23934261.115   125775391.208                    98006785.532    23934258.203  
                                
  21578740.562   113397046.975    21578740.562    88361333.302    21578740.062  
  21578739.812    84679609.666  
  23461273.617   123289825.282    23461274.028    96069992.588    23461273.385  
  23461273.367    92067075.564  
  21314291.066   113937100.575    21314292.924    88617752.623    21314293.657  
                                
  21475454.071   114597137.456    21475455.412    89131112.964    21475455.394  
                                
  21744220.438   116153722.841    21744221.546    90341788.505    21744221.492  
                                
  22117388.393   118271615.094    22117391.127    91989044.929    22117390.073  
                                
  21209405.619   113495813.172    21209405.048    88274519.602    21209404.940  
                                
  23949751.396   125856793.206                                                  
  23949752.665    93983973.835  
  24451591.631   128493981.958                                                  
  24451592.417    95953300.365  
  26402767.268   138747478.816                                                  
  26402769.091   103610135.973  
  26090080.345   137104298.074                                                  
  26090082.293   102383086.364  
  25674661.174   134921255.039                                                  
  25674663.801   100752895.397  
 21  8 31  6 17 45.0000000  0 17G 4G 7G 8G 9G16G27G30R 1R 2R12R20R21
                                E 1E 4E19E21E31
  22453245.311   117992599.749    22453244.792    91942282.313    22453244.578  
  22453248.205    88111368.563  
  21134861.988   111064449.653    21134859.469    86543714.895    21134859.111  
                                
  20509155.009   107776336.769    20509155.616    83981560.956    20509154.866  
  20509153.990    80482325.128  
  20986575.544   110285199.116    20986575.293    85936516.660    20986575.025  
  20986575.472    82355829.369  
  23934878.508   125778635.730                    98009313.736    23934875.613  
                                
  21579107.306   113398974.203    21579107.306    88362835.043    21579106.806  
  21579106.538    84681048.832  
  23460732.811   123286983.375    23460733.240    96067778.114    23460732.597  
  23460732.579    92064953.353  
  21314875.776   113940226.219    21314877.635    88620183.677    21314878.367  
                                
  21475224.562   114595912.662    21475225.902    89130160.346    21475225.884  
                                
  21743833.466   116151655.839    21743834.610    90340180.840    21743834.556  
                                
  22117663.380   118273085.615    22117666.131    91990188.665    22117665.077  
                                
  21208914.275   113493183.880    21208913.685    88272474.596    21208913.578  
                                
  23949824.338   125857176.477                                                  
  23949825.606    93984260.044  
  24451788.119   128495014.523                                                  
  24451788.905    95954071.436  
  26403347.297   138750526.931                                                  
  26403349.102   103612412.165  
  26090437.189   137106173.424                                                  
  26090439.155   102384486.787  
  25674372.428   134919737.729                                                  
  25674375.073   100751762.346  
 21  8 31  6 17 46.0000000  0 17G 4G 7G 8G 9G16G27G30R 1R 2R12R20R21
                                E 1E 4E19E21E31
  22453875.926   117995913.792    22453875.426    91944864.684    22453875.194  
  22453878.839    88113843.346  
  21134522.691   111062666.638    21134520.154    86542325.530    21134519.814  
                                
  20509126.257   107776185.727    20509126.865    83981443.261    20509126.132  
  20509125.239    80482212.341  
  20986880.318   110286800.770    20986880.085    85937764.700    20986879.799  
  20986880.246    82357025.414  
  23935495.936   125781880.238                    98011841.926    23935493.006  
                                
  21579474.139   113400902.010    21579474.139    88364337.230    21579473.639  
  21579473.389    84682488.441  
  23460192.023   123284141.467    23460192.416    96065563.643    23460191.808  
  23460191.773    92062831.158  
  21315460.594   113943352.376    21315462.452    88622615.133    21315463.185  
                                
  21474995.177   114594688.708    21474996.517    89129208.384    21474996.499  
                                
  21743446.548   116149588.936    21743447.692    90338573.249    21743447.620  
                                
  22117938.527   118274556.933    22117941.279    91991333.023    22117940.224  
                                
  21208423.038   113490555.223    21208422.448    88270430.090    21208422.359  
                                
  23949897.297   125857559.877                                                  
  23949898.565    93984546.354  
  24451984.678   128496047.528                                                  
  24451985.482    95954842.834  
  26403927.379   138753575.150                                                  
  26403929.166   103614688.422  
  26090794.069   137108048.774                                                  
  26090796.035   102385887.209  
  25674083.718   134918220.528                                                  
  25674086.327   100750629.371  
 21  8 31  6 17 47.0000000  0 17G 4G 7G 8G 9G16G27G30R 1R 2R12R20R21
                                E 1E 4E19E21E31
  22454506.649   117999228.187    22454506.131    91947447.330    22454505.899  
  22454509.562    88116318.375  
  21134183.448   111060883.852    21134180.910    86540936.348    21134180.553  
                                
  20509097.667   107776035.416    20509098.274    83981326.133    20509097.524  
  20509096.630    80482100.087  
  20987185.235   110288403.052    20987184.985    85939013.232    20987184.717  
  20987185.145    82358221.919  
  23936113.347   125785124.794                    98014370.156    23936110.434  
                                
  21579841.133   113402830.476    21579841.133    88365839.931    21579840.633  
  21579840.365    84683928.514  
  23459651.253   123281299.644    23459651.646    96063349.231    23459651.038  
  23459650.985    92060709.007  
  21316045.500   113946479.095    21316047.359    88625047.025    21316048.109  
                                
  21474765.971   114593465.636    21474767.311    89128257.106    21474767.293  
                                
  21743059.648   116147522.167    21743060.774    90336965.760    21743060.720  
                                
  22118213.817   118276029.090    22118216.587    91992478.032    22118215.532  
                                
  21207931.943   113487927.284    21207931.371    88268386.138    21207931.264  
                                
  23949970.292   125857943.427                                                  
  23949971.560    93984832.762  
  24452181.344   128497080.985                                                  
  24452182.148    95955614.567  
  26404507.443   138756623.473                                                  
  26404509.248   103616964.765  
  26091150.949   137109924.151                                                  
  26091152.897   102387287.655  
  25673795.027   134916703.480                                                  
  25673797.653   100749496.509  
 21  8 31  6 17 48.0000000  0 17G 4G 7G 8G 9G16G27G30R 1R 2R12R20R21
                                E 1E 4E19E21E31
  22455137.426   118002542.890    22455136.925    91950030.213    22455136.675  
  22455140.320    88118793.633  
  21133844.222   111059101.289    21133841.703    86539547.338    21133841.345  
                                
  20509069.202   107775885.791    20509069.791    83981209.545    20509069.059  
  20509068.183    80481988.361  
  20987490.259   110290005.945    20987490.009    85940262.237    20987489.741  
  20987490.170    82359418.886  
  23936730.757   125788369.328                    98016898.367    23936727.845  
                                
  21580208.217   113404759.542    21580208.217    88367343.097    21580207.716  
  21580207.448    84685369.056  
  23459110.482   123278457.863    23459110.875    96061134.856    23459110.250  
  23459110.214    92058586.900  
  21316630.514   113949606.350    21316632.391    88627479.332    21316633.105  
                                
  21474536.944   114592243.428    21474538.284    89127306.498    21474538.248  
                                
  21742672.784   116145455.512    21742673.892    90335358.359    21742673.838  
                                
  22118489.286   118277502.134    22118492.056    91993623.733    22118490.983  
                                
  21207440.992   113485300.020    21207440.384    88266342.713    21207440.277  
                                
  23950043.287   125858327.127                                                  
  23950044.573    93985119.298  
  24452378.100   128498114.902                                                  
  24452378.904    95956386.655  
  26405087.543   138759671.884                                                  
  26405089.330   103619241.180  
  26091507.812   137111799.557                                                  
  26091509.777   102388688.123  
  25673506.370   134915186.582                                                  
  25673508.997   100748363.757  
 21  8 31  6 17 49.0000000  0 17G 4G 7G 8G 9G16G27G30R 1R 2R12R20R21
                                E 1E 4E19E21E31
  22455768.184   118005857.602    22455767.684    91952613.098    22455767.452  
  22455771.079    88121268.907  
  21133504.997   111057318.646    21133502.477    86538158.264    21133502.120  
                                
  20509040.790   107775736.583    20509041.415    83981093.277    20509040.665  
  20509039.789    80481876.937  
  20987795.337   110291609.160    20987795.104    85941511.493    20987794.819  
  20987795.265    82360616.082  
  23937348.132   125791613.593                    98019426.363    23937345.202  
                                
  21580575.371   113406688.936    21580575.371    88368846.521    21580574.871  
  21580574.621    84686809.833  
  23458569.658   123275615.838    23458570.069    96058920.291    23458569.426  
  23458569.408    92056464.611  
  21317215.582   113952733.866    21317217.458    88629911.840    21317218.191  
                                
  21474307.988   114591021.783    21474309.328    89126356.322    21474309.310  
                                
  21742285.848   116143388.714    21742286.992    90333750.849    21742286.938  
                                
  22118764.880   118278975.718    22118767.614    91994769.847    22118766.559  
                                
  21206950.076   113482673.115    21206949.504    88264299.564    21206949.379  
                                
  23950116.282   125858710.680                                                  
  23950117.568    93985405.715  
  24452574.856   128499148.976                                                  
  24452575.660    95957158.850  
  26405667.572   138762720.092                                                  
  26405669.394   103621517.448  
  26091864.656   137113674.693                                                  
  26091866.604   102390088.380  
  25673217.696   134913669.513                                                  
  25673220.305   100747230.890  
 21  8 31  6 17 50.0000000  0 17G 4G 7G 8G 9G16G27G30R 1R 2R12R20R21
                                E 1E 4E19E21E31
  22456399.086   118009173.006    22456398.586    91955196.530    22456398.353  
  22456402.016    88123744.686  
  21133165.878   111055536.582    21133163.341    86536769.643    21133163.001  
                                
  20509012.610   107775588.437    20509013.200    83980977.841    20509012.467  
  20509011.592    80481766.309  
  20988100.611   110293213.326    20988100.361    85942761.493    20988100.093  
  20988100.522    82361814.000  
  23937965.543   125794858.221                    98021954.645    23937962.648  
                                
  21580942.705   113408619.304    21580942.705    88370350.701    21580942.205  
  21580941.954    84688251.338  
  23458028.906   123272774.227    23458029.335    96056706.044    23458028.692  
  23458028.674    92054342.622  
  21317800.810   113955862.294    21317802.704    88632345.060    21317803.419  
                                
  21474079.300   114589801.354    21474080.641    89125407.102    21474080.623  
                                
  21741899.037   116141322.416    21741900.181    90332143.731    21741900.109  
                                
  22119040.652   118280450.524    22119043.422    91995916.918    22119042.368  
                                
  21206459.375   113480047.259    21206458.803    88262257.234    21206458.678  
                                
  23950189.366   125859094.735                                                  
  23950190.652    93985692.511  
  24452771.808   128500183.871                                                  
  24452772.612    95957931.659  
  26406247.743   138765768.790                                                  
  26406249.566   103623794.049  
  26092221.554   137115550.196                                                  
  26092223.520   102391488.918  
  25672929.076   134912152.946                                                  
  25672931.720   100746098.393  
 21  8 31  6 17 51.0000000  0 17G 4G 7G 8G 9G16G27G30R 1R 2R12R20R21
                                E 1E 4E19E21E31
  22457030.059   118012488.698    22457029.559    91957780.189    22457029.309  
  22457032.954    88126220.691  
  21132826.814   111053754.732    21132824.276    86535381.191    21132823.919  
                                
  20508984.538   107775440.990    20508985.146    83980862.947    20508984.395  
  20508983.520    80481656.207  
  20988405.993   110294818.103    20988405.743    85944011.966    20988405.475  
  20988405.903    82363012.372  
  23938582.989   125798102.852                    98024482.933    23938580.058  
                                
  21581310.164   113410550.277    21581310.164    88371855.355    21581309.663  
  21581309.395    84689693.300  
  23457488.172   123269932.665    23457488.600    96054491.836    23457487.957  
  23457487.939    92052220.674  
  21318386.164   113958991.276    21318388.022    88634778.714    21318388.773  
                                
  21473850.738   114588581.757    21473852.078    89124458.524    21473852.060  
                                
  21741512.262   116139256.235    21741513.370    90330536.697    21741513.316  
                                
  22119316.604   118281926.153    22119319.373    91997064.632    22119318.301  
                                
  21205968.799   113477422.102    21205968.209    88260215.447    21205968.120  
                                
  23950262.468   125859478.927                                                  
  23950263.755    93985979.406  
  24452968.814   128501219.203                                                  
  24452969.618    95958704.794  
  26406827.897   138768817.550                                                  
  26406829.701   103626070.733  
  26092578.452   137117425.722                                                  
  26092580.400   102392889.480  
  25672640.527   134910636.511                                                  
  25672643.154   100744965.984  
 21  8 31  6 17 52.0000000  0 17G 4G 7G 8G 9G16G27G30R 1R 2R12R20R21
                                E 1E 4E19E21E31
  22457661.032   118015804.587    22457660.532    91960363.996    22457660.299  
  22457663.963    88128696.840  
  21132487.749   111051972.971    21132485.211    86533992.805    21132484.872  
                                
  20508956.591   107775294.139    20508957.198    83980748.517    20508956.448  
  20508955.572    80481546.543  
  20988711.446   110296423.357    20988711.214    85945262.814    20988710.928  
  20988711.374    82364211.101  
  23939200.399   125801347.369                    98027011.128    23939197.487  
                                
  21581677.711   113412481.731    21581677.711    88373360.384    21581677.211  
  21581676.943    84691135.619  
  23456947.419   123267091.007    23456947.848    96052277.557    23456947.205  
  23456947.187    92050098.661  
  21318971.571   113962120.665    21318973.465    88637212.684    21318974.180  
                                
  21473622.318   114587362.865    21473623.658    89123510.495    21473623.640  
                                
  21741125.451   116137190.051    21741126.595    90328929.665    21741126.541  
                                
  22119592.716   118283402.577    22119595.450    91998212.964    22119594.413  
                                
  21205478.330   113474797.506    21205477.740    88258174.097    21205477.651  
                                
  23950335.588   125859863.135                                                  
  23950336.857    93986266.318  
  24453165.892   128502254.855                                                  
  24453166.696    95959478.173  
  26407408.068   138771866.307                                                  
  26407409.873   103628347.396  
  26092935.332   137119301.137                                                  
  26092937.280   102394289.952  
  25672351.960   134909120.085                                                  
  25672354.569   100743833.586  
 21  8 31  6 17 53.0000000  0 17G 4G 7G 8G 9G16G27G30R 1R 2R12R20R21
                                E 1E 4E19E21E31
  22458292.059   118019120.604    22458291.558    91962947.905    22458291.308  
  22458294.954    88131173.091  
  21132148.702   111050191.250    21132146.165    86532604.453    21132145.825  
                                
  20508928.751   107775147.801    20508929.359    83980634.490    20508928.608  
  20508927.732    80481437.269  
  20989017.006   110298029.052    20989016.756    85946514.002    20989016.470  
  20989016.935    82365410.159  
  23939817.774   125804591.725                    98029539.188    23939814.861  
                                
  21582045.349   113414413.633    21582045.331    88374865.761    21582044.848  
  21582044.563    84692578.276  
  23456406.649   123264249.228    23456407.078    96050063.184    23456406.435  
  23456406.399    92047976.567  
  21319557.067   113965250.429    21319558.926    88639646.946    21319559.658  
                                
  21473394.023   114586144.635    21473395.363    89122562.978    21473395.346  
                                
  21740738.641   116135123.819    21740739.784    90327322.591    21740739.731  
                                
  22119868.935   118284879.685    22119871.687    91999361.828    22119870.615  
                                
  21204987.950   113472173.386    21204987.361    88256133.117    21204987.271  
                                
  23950408.690   125860247.322                                                  
  23950409.977    93986553.207  
  24453363.041   128503290.788                                                  
  24453363.845    95960251.764  
  26407988.186   138774914.970                                                  
  26407990.009   103630623.991  
  26093292.177   137121176.399                                                  
  26093294.142   102395690.310  
  25672063.393   134907603.624                                                  
  25672066.002   100742701.172  
 21  8 31  6 17 54.0000000  0 17G 4G 7G 8G 9G16G27G30R 1R 2R12R20R21
                                E 1E 4E19E21E31
  22458923.139   118022436.963    22458922.639    91965532.078    22458922.406  
  22458926.052    88133649.584  
  21131809.709   111048409.770    21131807.171    86531216.284    21131806.814  
                                
  20508901.054   107775002.199    20508901.644    83980521.034    20508900.911  
  20508900.018    80481328.538  
  20989322.674   110299635.366    20989322.441    85947765.673    20989322.155  
  20989322.602    82366609.673  
  23940435.167   125807836.098                    98032067.267    23940432.254  
                                
  21582413.075   113416346.167    21582413.075    88376371.634    21582412.593  
  21582412.325    84694021.396  
  23455865.897   123261407.541    23455866.325    96047848.882    23455865.682  
  23455865.664    92045854.514  
  21320142.653   113968380.738    21320144.511    88642081.631    21320145.262  
                                
  21473165.907   114584927.282    21473167.248    89121616.152    21473167.230  
                                
  21740351.884   116133057.722    21740353.027    90325715.631    21740352.938  
                                
  22120145.333   118286357.629    22120148.067    92000511.345    22120147.013  
                                
  21204497.678   113469549.947    21204497.106    88254092.667    21204496.999  
                                
  23950481.846   125860631.658                                                  
  23950483.115    93986840.207  
  24453560.243   128504327.188                                                  
  24453561.065    95961025.693  
  26408568.357   138777963.756                                                  
  26408570.180   103632900.682  
  26093649.039   137123051.699                                                  
  26093650.987   102397090.692  
  25671774.844   134906087.321                                                  
  25671777.471   100741568.864  
 21  8 31  6 17 55.0000000  0 17G 4G 7G 8G 9G16G27G30R 1R 2R12R20R21
                                E 1E 4E19E21E31
  22459554.273   118025753.614    22459553.773    91968116.477    22459553.540  
  22459557.203    88136126.304  
  21131470.733   111046628.495    21131468.196    86529828.278    21131467.839  
                                
  20508873.464   107774857.290    20508874.072    83980408.118    20508873.339  
  20508872.464    80481220.329  
  20989628.466   110301242.276    20989628.234    85949017.811    20989627.948  
  20989628.395    82367809.640  
  23941052.541   125811080.480                    98034595.359    23941049.647  
                                
  21582780.945   113418279.291    21582780.945    88377877.964    21582780.445  
  21582780.177    84695464.969  
  23455325.144   123258565.877    23455325.573    96045634.596    23455324.930  
  23455324.894    92043732.497  
  21320728.346   113971511.570    21320730.222    88644516.723    21320730.937  
                                
  21472937.916   114583710.789    21472939.257    89120669.991    21472939.239  
                                
  21739965.109   116130991.740    21739966.252    90324108.752    21739966.199  
                                
  22120421.874   118287836.442    22120424.608    92001661.533    22120423.554  
                                
  21204007.548   113466927.153    21204006.977    88252052.717    21204006.869  
                                
  23950555.002   125861016.135                                                  
  23950556.271    93987127.317  
  24453757.553   128505364.041                                                  
  24453758.357    95961799.966  
  26409148.529   138781012.610                                                  
  26409150.351   103635177.438  
  26094005.901   137124927.003                                                  
  26094007.849   102398491.081  
  25671486.313   134904571.123                                                  
  25671488.940   100740436.641  
 21  8 31  6 17 56.0000000  0 17G 4G 7G 8G 9G16G27G30R 1R 2R12R20R21
                                E 1E 4E19E21E31
  22460185.460   118029070.515    22460184.978    91970701.069    22460184.746  
  22460188.373    88138603.197  
  21131131.794   111044847.364    21131129.256    86528440.384    21131128.917  
                                
  20508846.017   107774713.015    20508846.607    83980295.696    20508845.874  
  20508844.999    80481112.587  
  20989934.348   110302849.729    20989934.134    85950270.369    20989933.830  
  20989934.295    82369010.004  
  23941669.916   125814324.783                    98037123.385    23941667.003  
                                
  21583148.922   113420212.960    21583148.922    88379384.717    21583148.421  
  21583148.135    84696908.940  
  23454784.392   123255724.178    23454784.803    96043420.289    23454784.160  
  23454784.142    92041610.457  
  21321314.128   113974642.867    21321315.987    88646952.174    21321316.737  
                                
  21472710.104   114582495.095    21472711.444    89119724.447    21472711.427  
                                
  21739578.387   116128925.801    21739579.513    90322501.912    21739579.441  
                                
  22120698.558   118289316.031    22120701.310    92002812.322    22120700.238  
                                
  21203517.526   113464304.955    21203516.954    88250013.229    21203516.847  
                                
  23950628.176   125861400.674                                                  
  23950629.462    93987414.474  
  24453954.934   128506401.257                                                  
  24453955.738    95962574.503  
  26409728.718   138784061.502                                                  
  26409730.541   103637454.202  
  26094362.745   137126802.259                                                  
  26094364.693   102399891.428  
  25671197.800   134903054.997                                                  
  25671200.427   100739304.472  
 21  8 31  6 17 57.0000000  0 17G 4G 7G 8G 9G16G27G30R 1R 2R12R20R21
                                E 1E 4E19E21E31
  22460816.702   118032387.692    22460816.201    91973285.875    22460815.969  
  22460819.632    88141080.310  
  21130792.890   111043066.421    21130790.353    86527052.638    21130790.013  
                                
  20508818.696   107774569.430    20508819.303    83980183.811    20508818.553  
  20508817.677    80481005.362  
  20990240.355   110304457.751    20990240.105    85951523.373    20990239.837  
  20990240.266    82370210.800  
  23942287.291   125817569.076                    98039651.411    23942284.378  
                                
  21583516.988   113422147.217    21583516.988    88380891.932    21583516.488  
  21583516.219    84698353.348  
  23454243.640   123252882.516    23454244.050    96041206.008    23454243.425  
  23454243.389    92039488.433  
  21321900.000   113977774.684    21321901.876    88649388.029    21321902.591  
                                
  21472482.453   114581280.235    21472483.793    89118779.553    21472483.775  
                                
  21739191.666   116126859.975    21739192.774    90320895.156    21739192.720  
                                
  22120975.403   118290796.466    22120978.155    92003963.776    22120977.083  
                                
  21203027.629   113461683.407    21203027.057    88247974.249    21203026.950  
                                
  23950701.385   125861785.331                                                  
  23950702.654    93987701.718  
  24454152.405   128507438.910                                                  
  24454153.209    95963349.374  
  26410308.925   138787110.476                                                  
  26410310.748   103639731.031  
  26094719.572   137128677.495                                                  
  26094721.538   102401291.773  
  25670909.322   134901538.990                                                  
  25670911.967   100738172.385  
 21  8 31  6 17 58.0000000  0 17G 4G 7G 8G 9G16G27G30R 1R 2R12R20R21
                                E 1E 4E19E21E31
  22461448.032   118035705.370    22461447.532    91975871.081    22461447.281  
  22461450.945    88143557.808  
  21130454.058   111041285.894    21130451.520    86525665.211    21130451.181  
                                
  20508791.553   107774426.751    20508792.142    83980072.631    20508791.410  
  20508790.516    80480898.820  
  20990546.505   110306066.583    20990546.255    85952777.008    20990545.969  
  20990546.434    82371412.203  
  23942904.701   125820813.582                    98042179.599    23942901.789  
                                
  21583885.215   113424082.286    21583885.215    88382399.783    21583884.714  
  21583884.446    84699798.378  
  23453702.923   123250041.093    23453703.352    96038991.918    23453702.708  
  23453702.673    92037366.593  
  21322485.997   113980907.220    21322487.891    88651824.446    21322488.605  
                                
  21472254.998   114580066.430    21472256.338    89117835.485    21472256.303  
                                
  21738804.998   116124794.501    21738806.124    90319288.679    21738806.052  
                                
  22121252.444   118292277.915    22121255.196    92005116.010    22121254.142  
                                
  21202537.911   113459062.768    21202537.321    88245935.975    21202537.232  
                                
  23950774.630   125862170.342                                                  
  23950775.917    93987989.229  
  24454349.983   128508477.203                                                  
  24454350.769    95964124.727  
  26410889.204   138790159.735                                                  
  26410891.027   103642008.064  
  26095076.488   137130552.962                                                  
  26095078.418   102402692.285  
  25670620.916   134900023.324                                                  
  25670623.525   100737040.552  
 21  8 31  6 17 59.0000000  0 17G 4G 7G 8G 9G16G27G30R 1R 2R12R20R21
                                E 1E 4E19E21E31
  22462079.398   118039023.249    22462078.934    91978456.443    22462078.683  
  22462082.329    88146035.431  
  21130115.261   111039505.438    21130112.723    86524277.844    21130112.384  
                                
  20508764.499   107774284.644    20508765.124    83979961.900    20508764.356  
  20508763.480    80480792.697  
  20990852.744   110307675.878    20990852.494    85954031.000    20990852.226  
  20990852.673    82372613.943  
  23943522.094   125824057.964                    98044707.691    23943519.163  
                                
  21584253.549   113426017.839    21584253.549    88383908.004    21584253.049  
  21584252.763    84701243.750  
  23453162.224   123247199.605    23453162.635    96036777.765    23453161.992  
  23453161.956    92035244.699  
  21323072.083   113984040.159    21323073.941    88654261.181    21323074.692  
                                
  21472027.651   114578853.358    21472028.991    89116891.992    21472028.973  
                                
  21738418.330   116122728.991    21738419.456    90317682.171    21738419.384  
                                
  22121529.629   118293760.105    22121532.363    92006268.831    22121531.326  
                                
  21202048.281   113456442.670    21202047.710    88243898.123    21202047.585  
                                
  23950847.911   125862555.353                                                  
  23950849.180    93988276.733  
  24454547.614   128509515.821                                                  
  24454548.418    95964900.321  
  26411469.429   138793208.952                                                  
  26411471.252   103644285.081  
  26095433.350   137132428.313                                                  
  26095435.298   102404092.711  
  25670332.474   134898507.640                                                  
  25670335.101   100735908.717  
 21  8 31  6 18  0.0000000  0 17G 4G 7G 8G 9G16G27G30R 1R 2R12R20R21
                                E 1E 4E19E21E31
  22462710.818   118042341.385    22462710.318    91981042.004    22462710.085  
  22462713.748    88148513.267  
  21129776.500   111037725.179    21129773.963    86522890.629    21129773.623  
                                
  20508737.570   107774143.195    20508738.178    83979851.680    20508737.427  
  20508736.552    80480687.078  
  20991159.091   110309285.758    20991158.859    85955285.456    20991158.591  
  20991159.020    82373816.128  
  23944139.451   125827302.287                    98047235.739    23944136.538  
                                
  21584621.973   113427953.968    21584621.973    88385416.678    21584621.472  
  21584621.204    84702689.563  
  23452621.507   123244358.123    23452621.901    96034563.625    23452621.293  
  23452621.239    92033122.815  
  21323658.258   113987173.612    21323660.134    88656698.313    21323660.849  
                                
  21471800.482   114577641.115    21471801.822    89115949.138    21471801.786  
                                
  21738031.680   116120663.588    21738032.824    90316075.749    21738032.735  
                                
  22121806.956   118295243.096    22121809.690    92007422.266    22121808.653  
                                
  21201558.760   113453823.220    21201558.206    88241860.773    21201558.081  
                                
  23950921.192   125862940.482                                                  
  23950922.478    93988564.331  
  24454745.335   128510554.854                                                  
  24454746.121    95965676.222  
  26412049.690   138796258.240                                                  
  26412051.512   103646562.138  
  26095790.212   137134303.642                                                  
  26095792.178   102405493.121  
  25670044.068   134896992.068                                                  
  25670046.677   100734776.963  
 21  8 31  6 18  1.0000000  0 17G 4G 7G 8G 9G16G27G30R 1R 2R12R20R21
                                E 1E 4E19E21E31
  22463342.309   118045659.894    22463341.827    91983627.848    22463341.577  
  22463345.240    88150991.374  
  21129437.775   111035945.186    21129435.237    86521503.618    21129434.880  
                                
  20508710.803   107774002.506    20508711.410    83979742.052    20508710.660  
  20508709.784    80480582.018  
  20991465.545   110310896.286    20991465.330    85956540.411    20991465.044  
  20991465.491    82375018.801  
  23944756.861   125830546.707                    98049763.857    23944753.931  
                                
  21584990.521   113429890.768    21584990.521    88386925.873    21584990.021  
  21584989.771    84704135.879  
  23452080.791   123241516.731    23452081.202    96032349.550    23452080.576  
  23452080.541    92031001.003  
  21324244.559   113990307.661    21324246.417    88659135.905    21324247.150  
                                
  21471573.474   114576429.795    21471574.814    89115007.000    21471574.796  
                                
  21737645.048   116118598.362    21737646.192    90314469.464    21737646.120  
                                
  22122084.462   118296727.033    22122087.196    92008576.434    22122086.159  
                                
  21201069.399   113451204.475    21201068.809    88239823.976    21201068.720  
                                
  23950994.526   125863325.796                                                  
  23950995.777    93988852.070  
  24454943.163   128511594.391                                                  
  24454943.949    95966452.498  
  26412629.968   138799307.669                                                  
  26412631.809   103648839.320  
  26096147.093   137136179.057                                                  
  26096149.058   102406893.587  
  25669755.698   134895476.690                                                  
  25669758.325   100733645.354  
 21  8 31  6 18  2.0000000  0 17G 4G 7G 8G 9G16G27G30R 1R 2R12R20R21
                                E 1E 4E19E21E31
  22463973.890   118048978.787    22463973.390    91986213.997    22463973.139  
  22463976.802    88153469.766  
  21129099.085   111034165.482    21129096.566    86520116.839    21129096.208  
                                
  20508684.178   107773862.600    20508684.803    83979633.037    20508684.070  
  20508683.177    80480477.537  
  20991772.177   110312507.515    20991771.927    85957795.910    20991771.659  
  20991772.106    82376221.983  
  23945374.254   125833791.212                    98052292.040    23945371.341  
                                
  21585359.231   113431828.253    21585359.231    88388435.599    21585358.730  
  21585358.444    84705582.698  
  23451540.146   123238675.508    23451540.539    96030135.607    23451539.931  
  23451539.878    92028879.295  
  21324830.966   113993442.353    21324832.825    88661573.998    21324833.557  
                                
  21471346.662   114575219.423    21471348.002    89114065.597    21471347.984  
                                
  21737258.488   116116533.341    21737259.613    90312863.342    21737259.542  
                                
  22122362.129   118298211.886    22122364.880    92009731.323    22122363.826  
                                
  21200580.145   113448586.505    21200579.591    88237787.779    21200579.466  
                                
  23951067.896   125863711.344                                                  
  23951069.147    93989139.975  
  24455141.080   128512634.459                                                  
  24455141.884    95967229.166  
  26413210.301   138802357.274                                                  
  26413212.105   103651116.627  
  26096503.991   137138054.563                                                  
  26096505.956   102408294.125  
  25669467.381   134893961.528                                                  
  25669470.008   100732513.895  
 21  8 31  6 18  3.0000000  0 17G 4G 7G 8G 9G16G27G30R 1R 2R12R20R21
                                E 1E 4E19E21E31
  22464605.488   118052297.860    22464604.988    91988800.289    22464604.738  
  22464608.401    88155948.297  
  21128760.449   111032385.868    21128757.912    86518730.125    21128757.572  
                                
  20508657.660   107773723.249    20508658.285    83979524.452    20508657.535  
  20508656.659    80480373.478  
  20992078.881   110314119.208    20992078.631    85959051.772    20992078.345  
  20992078.792    82377425.516  
  23945991.647   125837035.570                    98054820.114    23945988.716  
                                
  21585728.011   113433766.212    21585728.011    88389945.697    21585727.511  
  21585727.225    84707029.880  
  23450999.447   123235834.172    23450999.858    96027921.579    23450999.215  
  23450999.197    92026757.529  
  21325417.446   113996577.444    21325419.304    88664012.405    21325420.019  
                                
  21471119.958   114574009.789    21471121.298    89113124.772    21471121.280  
                                
  21736871.891   116114468.314    21736873.035    90311257.210    21736872.963  
                                
  22122639.938   118299697.424    22122642.672    92010886.738    22122641.636  
                                
  21200091.034   113445969.081    21200090.444    88235752.003    21200090.355  
                                
  23951141.249   125864096.890                                                  
  23951142.517    93989427.886  
  24455339.051   128513674.839                                                  
  24455339.855    95968006.079  
  26413790.615   138805406.850                                                  
  26413792.438   103653393.905  
  26096860.871   137139929.951                                                  
  26096862.818   102409694.582  
  25669179.047   134892446.355                                                  
  25669181.674   100731382.437  
 21  8 31  6 18  4.0000000  0 17G 4G 7G 8G 9G16G27G30R 1R 2R12R20R21
                                E 1E 4E19E21E31
  22465237.123   118055617.138    22465236.640    91991386.740    22465236.408  
  22465240.035    88158426.972  
  21128421.831   111030606.354    21128419.294    86517343.495    21128418.919  
                                
  20508631.268   107773584.514    20508631.875    83979416.347    20508631.125  
  20508630.249    80480269.875  
  20992385.656   110315731.391    20992385.442    85960308.019    20992385.156  
  20992385.603    82378629.416  
  23946609.003   125840279.838                    98057348.122    23946606.091  
                                
  21586096.882   113435704.688    21586096.882    88391456.196    21586096.381  
  21586096.113    84708477.439  
  23450458.766   123232992.784    23450459.159    96025707.513    23450458.534  
  23450458.498    92024635.704  
  21326004.014   113999712.974    21326005.872    88666451.160    21326006.605  
                                
  21470893.432   114572800.910    21470894.772    89112184.537    21470894.755  
                                
  21736485.313   116112403.294    21736486.457    90309651.087    21736486.385  
                                
  22122917.891   118301183.708    22122920.625    92012042.751    22122919.571  
                                
  21199602.012   113443352.228    21199601.423    88233716.675    21199601.333  
                                
  23951214.637   125864482.479                                                  
  23951215.888    93989715.822  
  24455537.093   128514715.564                                                  
  24455537.897    95968783.240  
  26414370.929   138808456.417                                                  
  26414372.770   103655671.166  
  26097217.733   137141805.246                                                  
  26097219.681   102411094.966  
  25668890.730   134890931.226                                                  
  25668893.357   100730251.003  
 21  8 31  6 18  5.0000000  0 17G 4G 7G 8G 9G16G27G30R 1R 2R12R20R21
                                E 1E 4E19E21E31
  22465868.846   118058936.812    22465868.346    91993973.494    22465868.096  
  22465871.759    88160905.947  
  21128083.249   111028827.165    21128080.712    86515957.117    21128080.372  
                                
  20508605.000   107773446.566    20508605.625    83979308.859    20508604.893  
  20508603.999    80480166.868  
  20992692.575   110317344.264    20992692.343    85961564.807    20992692.057  
  20992692.521    82379833.839  
  23947226.396   125843524.194                    98059876.184    23947223.465  
                                
  21586465.913   113437643.848    21586465.877    88392967.229    21586465.377  
  21586465.126    84709925.517  
  23449918.085   123230151.510    23449918.496    96023493.533    23449917.853  
  23449917.817    92022513.985  
  21326590.690   114002849.131    21326592.548    88668890.391    21326593.281  
                                
  21470667.050   114571592.975    21470668.390    89111245.030    21470668.372  
                                
  21736098.788   116110338.467    21736099.932    90308045.111    21736099.860  
                                
  22123196.004   118302670.917    22123198.756    92013199.472    22123197.702  
                                
  21199113.134   113440736.140    21199112.562    88231681.944    21199112.437  
                                
  23951288.043   125864868.294                                                  
  23951289.329    93990003.931  
  24455735.243   128515756.821                                                  
  24455736.047    95969560.799  
  26414951.280   138811506.148                                                  
  26414953.102   103657948.569  
  26097574.613   137143680.649                                                  
  26097576.561   102412495.431  
  25668602.431   134889416.302                                                  
  25668605.076   100729119.735  
 21  8 31  6 18  6.0000000  0 17G 4G 7G 8G 9G16G27G30R 1R 2R12R20R21
                                E 1E 4E19E21E31
  22466500.588   118062256.726    22466500.105    91996560.440    22466499.855  
  22466503.518    88163385.110  
  21127744.721   111027048.118    21127742.183    86514570.839    21127741.826  
                                
  20508578.876   107773309.272    20508579.501    83979201.877    20508578.733  
  20508577.875    80480064.346  
  20992999.600   110318957.691    20992999.368    85962822.023    20992999.082  
  20992999.547    82381038.673  
  23947843.753   125846768.490                    98062404.210    23947840.840  
                                
  21586835.033   113439583.574    21586834.997    88394478.709    21586834.533  
  21586834.247    84711374.014  
  23449377.404   123227310.242    23449377.797    96021279.558    23449377.154  
  23449377.136    92020392.263  
  21327177.473   114005985.766    21327179.331    88671329.993    21327180.064  
                                
  21470440.863   114570385.857    21470442.204    89110306.157    21470442.168  
                                
  21735712.263   116108273.718    21735713.407    90306439.192    21735713.317  
                                
  22123474.261   118304158.954    22123477.030    92014356.832    22123475.958  
                                
  21198624.362   113438120.685    21198623.808    88229647.699    21198623.683  
                                
  23951361.484   125865254.195                                                  
  23951362.753    93990292.103  
  24455933.446   128516798.483                                                  
  24455934.250    95970338.668  
  26415531.630   138814555.926                                                  
  26415533.435   103660225.997  
  26097931.475   137145556.017                                                  
  26097933.441   102413895.864  
  25668314.186   134887901.467                                                  
  25668316.813   100727988.523  
 21  8 31  6 18  7.0000000  0 17G 4G 7G 8G 9G16G27G30R 1R 2R12R20R21
                                E 1E 4E19E21E31
  22467132.418   118065577.014    22467131.936    91999147.680    22467131.704  
  22467135.367    88165864.546  
  21127406.245   111025269.349    21127403.708    86513184.774    21127403.369  
                                
  20508552.912   107773172.755    20508553.519    83979095.503    20508552.769  
  20508551.893    80479962.397  
  20993306.751   110320571.782    20993306.519    85964079.756    20993306.251  
  20993306.680    82382243.996  
  23948461.145   125850012.855                    98064932.288    23948458.215  
                                
  21587204.261   113441523.969    21587204.261    88395990.703    21587203.760  
  21587203.492    84712823.008  
  23448836.741   123224469.092    23448837.152    96019065.677    23448836.527  
  23448836.491    92018270.618  
  21327764.345   114009123.012    21327766.221    88673770.074    21327766.954  
                                
  21470214.820   114569179.656    21470216.161    89109367.997    21470216.125  
                                
  21735325.774   116106209.183    21735326.918    90304833.443    21735326.846  
                                
  22123752.714   118305647.884    22123755.448    92015514.890    22123754.411  
                                
  21198135.734   113435505.968    21198135.162    88227614.033    21198135.055  
                                
  23951434.962   125865640.292                                                  
  23951436.231    93990580.423  
  24456131.774   128517840.637                                                  
  24456132.578    95971116.896  
  26416112.016   138817605.857                                                  
  26416113.820   103662503.547  
  26098288.355   137147431.446                                                  
  26098290.303   102415296.356  
  25668025.959   134886386.819                                                  
  25668028.586   100726857.454  
 21  8 31  6 18  8.0000000  0 17G 4G 7G 8G 9G16G27G30R 1R 2R12R20R21
                                E 1E 4E19E21E31
  22467764.321   118068897.694    22467763.838    92001735.223    22467763.606  
  22467767.251    88168344.273  
  21127067.806   111023490.868    21127065.287    86511798.940    21127064.929  
                                
  20508527.073   107773037.020    20508527.681    83978989.732    20508526.948  
  20508526.073    80479861.038  
  20993614.045   110322186.564    20993613.812    85965338.026    20993613.526  
  20993613.991    82383449.836  
  23949078.556   125853257.301                    98067460.428    23949075.608  
                                
  21587573.631   113443465.046    21587573.631    88397503.232    21587573.131  
  21587572.863    84714272.519  
  23448296.114   123221628.052    23448296.507    96016851.882    23448295.899  
  23448295.864    92016149.065  
  21328351.343   114012260.868    21328353.237    88676210.624    21328353.951  
                                
  21469988.938   114567974.391    21469990.278    89108430.569    21469990.260  
                                
  21734939.321   116104144.866    21734940.464    90303227.861    21734940.411  
                                
  22124031.345   118307137.796    22124034.079    92016673.706    22124033.043  
                                
  21197647.266   113432891.999    21197646.677    88225580.946    21197646.569  
                                
  23951508.475   125866026.612                                                  
  23951509.726    93990868.911  
  24456330.210   128518883.335                                                  
  24456330.996    95971895.536  
  26416692.419   138820655.963                                                  
  26416694.260   103664781.219  
  26098645.271   137149306.993                                                  
  26098647.201   102416696.922  
  25667737.785   134884872.385                                                  
  25667740.394   100725726.544  
 21  8 31  6 18  9.0000000  0 17G 4G 7G 8G 9G16G27G30R 1R 2R12R20R21
                                E 1E 4E19E21E31
  22468396.276   118072218.624    22468395.794    92004322.965    22468395.562  
  22468399.207    88170824.192  
  21126729.403   111021712.539    21126726.865    86510413.225    21126726.526  
                                
  20508501.360   107772901.918    20508501.985    83978884.460    20508501.235  
  20508500.359    80479760.150  
  20993921.428   110323801.887    20993921.195    85966596.722    20993920.909  
  20993921.374    82384656.088  
  23949695.931   125856501.724                    98069988.555    23949693.018  
                                
  21587943.127   113445406.688    21587943.127    88399016.200    21587942.627  
  21587942.341    84715722.436  
  23447755.487   123218787.022    23447755.880    96014638.093    23447755.272  
  23447755.219    92014027.519  
  21328938.447   114015399.198    21328940.323    88678651.545    21328941.056  
                                
  21469763.234   114566769.910    21469764.575    89107493.754    21469764.557  
                                
  21734552.885   116102080.591    21734554.029    90301622.316    21734553.957  
                                
  22124310.102   118308628.428    22124312.836    92017833.089    22124311.800  
                                
  21197158.870   113430278.624    21197158.316    88223548.323    21197158.209  
                                
  23951582.006   125866413.020                                                  
  23951583.257    93991157.456  
  24456528.681   128519926.414                                                  
  24456529.485    95972674.456  
  26417272.859   138823706.114                                                  
  26417274.681   103667058.927  
  26099002.151   137151182.496                                                  
  26099004.117   102418097.458  
  25667449.594   134883358.028                                                  
  25667452.220   100724595.702  
 21  8 31  6 18 10.0000000  0 17G 4G 7G 8G 9G16G27G30R 1R 2R12R20R21
                                E 1E 4E19E21E31
  22469028.268   118075539.774    22469027.786    92006910.872    22469027.553  
  22469031.216    88173304.272  
  21126391.017   111019934.340    21126388.497    86509027.615    21126388.140  
                                
  20508475.771   107772767.426    20508476.379    83978779.662    20508475.628  
  20508474.753    80479659.720  
  20994228.918   110325417.724    20994228.685    85967855.813    20994228.417  
  20994228.846    82385862.717  
  23950313.305   125859746.033                    98072516.583    23950310.375  
                                
  21588312.712   113447348.844    21588312.712    88400529.568    21588312.212  
  21588311.926    84717172.749  
  23447214.859   123215945.942    23447215.252    96012424.268    23447214.609  
  23447214.573    92011905.938  
  21329525.623   114018537.961    21329527.482    88681092.802    21329528.232  
                                
  21469537.656   114565566.186    21469538.996    89106557.527    21469538.978  
                                
  21734166.468   116100016.322    21734167.611    90300016.776    21734167.522  
                                
  22124589.002   118310119.874    22124591.736    92018993.105    22124590.699  
                                
  21196670.617   113427665.862    21196670.045    88221516.175    21196669.956  
                                
  23951655.537   125866799.475                                                  
  23951656.806    93991446.047  
  24456727.259   128520969.854                                                  
  24456728.064    95973453.646  
  26417853.263   138826756.256                                                  
  26417855.103   103669336.640  
  26099359.049   137153057.919                                                  
  26099360.979   102419497.947  
  25667161.420   134881843.709                                                  
  25667164.064   100723464.883  
 21  8 31  6 18 11.0000000  0 17G 4G 7G 8G 9G16G27G30R 1R 2R12R20R21
                                E 1E 4E19E21E31
  22469660.313   118078861.138    22469659.831    92009498.946    22469659.581  
  22469663.244    88175784.509  
  21126052.667   111018156.258    21126050.147    86507642.099    21126049.772  
                                
  20508450.290   107772633.562    20508450.915    83978675.350    20508450.165  
  20508449.289    80479559.753  
  20994536.497   110327034.071    20994536.247    85969115.297    20994535.979  
  20994536.426    82387069.729  
  23950930.662   125862990.265                    98075044.558    23950927.732  
                                
  21588682.368   113449291.513    21588682.368    88402043.336    21588681.868  
  21588681.600    84718623.446  
  23446674.196   123213104.827    23446674.607    96010210.410    23446673.964  
  23446673.946    92009784.321  
  21330112.871   114021677.168    21330114.747    88683534.408    21330115.462  
                                
  21469312.220   114564363.203    21469313.560    89105621.874    21469313.543  
                                
  21733780.032   116097952.083    21733781.176    90298411.257    21733781.086  
                                
  22124868.027   118311612.035    22124870.779    92020153.675    22124869.742  
                                
  21196182.471   113425053.676    21196181.899    88219484.480    21196181.792  
                                
  23951729.104   125867185.983                                                  
  23951730.373    93991734.671  
  24456925.874   128522013.649                                                  
  24456926.678    95974233.108  
  26418433.684   138829806.404                                                  
  26418435.525   103671614.343  
  26099715.912   137154933.273                                                  
  26099717.877   102420898.365  
  25666873.264   134880329.440                                                  
  25666875.909   100722334.095  
 21  8 31  6 18 12.0000000  0 17G 4G 7G 8G 9G16G27G30R 1R 2R12R20R21
                                E 1E 4E19E21E31
  22470292.394   118082182.702    22470291.912    92012087.179    22470291.662  
  22470295.325    88178264.893  
  21125714.317   111016378.287    21125711.798    86506256.670    21125711.440  
                                
  20508424.916   107772500.274    20508425.541    83978571.489    20508424.809  
  20508423.933    80479460.226  
  20994844.148   110328650.917    20994843.934    85970375.177    20994843.648  
  20994844.112    82388277.110  
  23951548.001   125866234.392                    98077572.451    23951545.071  
                                
  21589052.150   113451234.687    21589052.150    88403557.498    21589051.650  
  21589051.364    84720074.520  
  23446133.533   123210263.623    23446133.926    96007996.492    23446133.283  
  23446133.265    92007662.652  
  21330700.208   114024816.794    21330702.084    88685976.337    21330702.799  
                                
  21469086.928   114563160.960    21469088.268    89104686.795    21469088.214  
                                
  21733393.597   116095887.880    21733394.740    90296805.765    21733394.687  
                                
  22125147.230   118313104.966    22125149.964    92021314.848    22125148.928  
                                
  21195694.432   113422442.067    21195693.842    88217453.231    21195693.753  
                                
  23951802.653   125867572.515                                                  
  23951803.921    93992023.312  
  24457124.577   128523057.782                                                  
  24457125.363    95975012.813  
  26419014.106   138832856.537                                                  
  26419015.946   103673892.049  
  26100072.756   137156808.526                                                  
  26100074.722   102422298.723  
  25666585.108   134878815.194                                                  
  25666587.753   100721203.325  
 21  8 31  6 18 13.0000000  0 17G 4G 7G 8G 9G16G27G30R 1R 2R12R20R21
                                E 1E 4E19E21E31
  22470924.511   118085504.583    22470924.028    92014675.656    22470923.778  
  22470927.441    88180745.521  
  21125376.021   111014600.531    21125373.501    86504871.403    21125373.162  
                                
  20508399.703   107772367.722    20508400.310    83978468.201    20508399.578  
  20508398.702    80479361.244  
  20995151.960   110330268.364    20995151.728    85971635.525    20995151.460  
  20995151.888    82389484.950  
  23952165.322   125869478.521                    98080100.349    23952162.410  
                                
  21589422.039   113453178.472    21589422.021    88405072.135    21589421.538  
  21589421.270    84721526.045  
  23445592.888   123207422.485    23445593.281    96005782.618    23445592.638  
  23445592.602    92005541.033  
  21331287.634   114027956.948    21331289.492    88688418.681    21331290.243  
                                
  21468861.760   114561959.592    21468863.100    89103752.401    21468863.082  
                                
  21733007.215   116093823.840    21733008.358    90295200.399    21733008.269  
                                
  22125426.577   118314598.760    22125429.311    92022476.688    22125428.256  
                                
  21195206.501   113419831.110    21195205.947    88215422.486    21195205.822  
                                
  23951876.220   125867959.199                                                  
  23951877.506    93992312.072  
  24457323.352   128524102.375                                                  
  24457324.156    95975792.873  
  26419594.563   138835906.782                                                  
  26419596.404   103676169.811  
  26100429.600   137158683.809                                                  
  26100431.566   102423699.094  
  25666297.006   134877301.083                                                  
  25666299.615   100720072.660  
 21  8 31  6 18 14.0000000  0 17G 4G 7G 8G 9G16G27G30R 1R 2R12R20R21
                                E 1E 4E19E21E31
  22471556.699   118088826.760    22471556.217    92017264.363    22471555.984  
  22471559.647    88183226.367  
  21125037.778   111012822.998    21125035.241    86503486.316    21125034.901  
                                
  20508374.615   107772235.877    20508375.240    83978365.468    20508374.490  
  20508373.614    80479262.782  
  20995459.861   110331886.407    20995459.629    85972896.338    20995459.361  
  20995459.790    82390693.227  
  23952782.679   125872722.639                    98082628.231    23952779.731  
                                
  21589792.053   113455122.875    21589792.053    88406587.255    21589791.552  
  21589791.266    84722978.033  
  23445052.225   123204581.404    23445052.636    96003568.787    23445051.993  
  23445051.957    92003419.447  
  21331875.150   114031097.636    21331877.044    88690861.432    21331877.759  
                                
  21468636.789   114560759.107    21468638.129    89102818.688    21468638.111  
                                
  21732620.833   116091759.896    21732621.977    90293595.116    21732621.905  
                                
  22125706.066   118316093.393    22125708.836    92023639.166    22125707.764  
                                
  21194718.712   113417220.833    21194718.140    88213392.269    21194718.051  
                                
  23951949.840   125868346.021                                                  
  23951951.109    93992600.930  
  24457522.217   128525147.417                                                  
  24457523.021    95976573.257  
  26420175.020   138838957.103                                                  
  26420176.843   103678447.655  
  26100786.481   137160559.103                                                  
  26100788.410   102425099.472  
  25666008.904   134875787.119                                                  
  25666011.530   100718942.096  
 21  8 31  6 18 15.0000000  0 17G 4G 7G 8G 9G16G27G30R 1R 2R12R20R21
                                E 1E 4E19E21E31
  22472188.994   118092149.456    22472188.512    92019853.475    22472188.280  
  22472191.943    88185707.595  
  21124699.607   111011045.881    21124697.069    86502101.552    21124696.730  
                                
  20508349.705   107772104.933    20508350.331    83978263.433    20508349.580  
  20508348.705    80479164.997  
  20995767.923   110333505.281    20995767.691    85974157.798    20995767.423  
  20995767.852    82391902.120  
  23953400.054   125875966.997                    98085156.305    23953397.124  
                                
  21590162.209   113457068.071    21590162.209    88408102.995    21590161.709  
  21590161.423    84724430.614  
  23444511.634   123201740.571    23444512.045    96001355.155    23444511.401  
  23444511.383    92001298.039  
  21332462.826   114034239.079    21332464.702    88693304.779    21332465.435  
                                
  21468412.015   114559559.691    21468413.355    89101885.809    21468413.337  
                                
  21732234.523   116089696.284    21732235.666    90291990.086    21732235.595  
                                
  22125985.770   118317589.089    22125988.522    92024802.485    22125987.485  
                                
  21194231.084   113414611.448    21194230.530    88211362.749    21194230.423  
                                
  23952023.532   125868733.186                                                  
  23952024.783    93992890.047  
  24457721.206   128526193.108                                                  
  24457722.010    95977354.126  
  26420755.531   138842007.726                                                  
  26420757.372   103680725.713  
  26101143.361   137162434.624                                                  
  26101145.326   102426500.019  
  25665720.873   134874273.478                                                  
  25665723.482   100717811.777  
 21  8 31  6 18 16.0000000  0 17G 4G 7G 8G 9G16G27G30R 1R 2R12R20R21
                                E 1E 4E19E21E31
  22472821.343   118095472.531    22472820.879    92022442.886    22472820.629  
  22472824.292    88188189.121  
  21124361.489   111009269.061    21124358.952    86500717.017    21124358.612  
                                
  20508324.921   107771974.761    20508325.546    83978161.998    20508324.796  
  20508323.920    80479067.798  
  20996076.092   110335124.818    20996075.878    85975419.770    20996075.592  
  20996076.039    82393111.518  
  23954017.429   125879211.409                    98087684.415    23954014.516  
                                
  21590532.491   113459013.972    21590532.491    88409619.280    21590531.991  
  21590531.723    84725883.724  
  23443971.078   123198899.869    23443971.471    95999141.626    23443970.828  
  23443970.810    91999176.738  
  21333050.628   114037381.144    21333052.504    88695748.604    21333053.219  
                                
  21468187.419   114558361.235    21468188.759    89100953.676    21468188.741  
                                
  21731848.230   116087632.874    21731849.374    90290385.212    21731849.302  
                                
  22126265.652   118319085.684    22126268.386    92025966.503    22126267.350  
                                
  21193743.599   113412002.836    21193743.046    88209333.824    21193742.938  
                                
  23952097.242   125869120.577                                                  
  23952098.492    93993179.333  
  24457920.285   128527239.315                                                  
  24457921.089    95978135.389  
  26421336.078   138845058.508                                                  
  26421337.919   103683003.901  
  26101500.294   137164310.235                                                  
  26101502.224   102427900.640  
  25665432.878   134872760.048                                                  
  25665435.487   100716681.623  
 21  8 31  6 18 17.0000000  0 17G 4G 7G 8G 9G16G27G30R 1R 2R12R20R21
                                E 1E 4E19E21E31
  22473453.764   118098795.944    22473453.299    92025032.556    22473453.067  
  22473456.712    88190670.881  
  21124023.407   111007492.466    21124020.870    86499332.658    21124020.530  
                                
  20508300.297   107771845.299    20508300.905    83978061.119    20508300.172  
  20508299.297    80478971.119  
  20996384.404   110336744.973    20996384.172    85976682.234    20996383.904  
  20996384.351    82394321.377  
  23954634.839   125882455.858                    98090212.557    23954631.909  
                                
  21590902.916   113460960.491    21590902.916    88411136.049    21590902.416  
  21590902.130    84727337.296  
  23443430.522   123196059.232    23443430.915    95996928.142    23443430.272  
  23443430.236    91997055.481  
  21333638.518   114040523.772    21333640.395    88698192.871    21333641.127  
                                
  21467963.020   114557163.682    21467964.360    89100022.251    21467964.306  
                                
  21731462.009   116085569.610    21731463.117    90288780.449    21731463.063  
                                
  22126545.678   118320583.142    22126548.430    92027131.195    22126547.375  
                                
  21193256.240   113409394.926    21193255.704    88207305.452    21193255.579  
                                
  23952170.987   125869508.115                                                  
  23952172.256    93993468.730  
  24458119.453   128528286.003                                                  
  24458120.257    95978917.005  
  26421916.661   138848109.422                                                  
  26421918.465   103685282.176  
  26101857.228   137166185.885                                                  
  26101859.158   102429301.285  
  25665144.901   134871246.776                                                  
  25665147.527   100715551.578  
 21  8 31  6 18 18.0000000  0 17G 4G 7G 8G 9G16G27G30R 1R 2R12R20R21
                                E 1E 4E19E21E31
  22474086.238   118102119.585    22474085.773    92027622.409    22474085.541  
  22474089.186    88193152.815  
  21123685.361   111005716.019    21123682.824    86497948.413    21123682.484  
                                
  20508275.763   107771716.450    20508276.389    83977960.719    20508275.638  
  20508274.763    80478874.899  
  20996692.824   110338365.672    20996692.591    85977945.116    20996692.323  
  20996692.752    82395531.635  
  23955252.232   125885700.234                    98092740.643    23955249.301  
                                
  21591273.430   113462907.559    21591273.430    88412653.245    21591272.930  
  21591272.644    84728791.264  
  23442889.966   123193218.572    23442890.377    95994714.647    23442889.734  
  23442889.680    91994934.204  
  21334226.499   114043666.884    21334228.375    88700637.511    21334229.090  
                                
  21467738.746   114555966.930    21467740.086    89099091.439    21467740.032  
                                
  21731075.752   116083506.394    21731076.896    90287175.725    21731076.806  
                                
  22126825.846   118322081.385    22126828.598    92028296.498    22126827.562  
                                
  21192769.005   113406787.605    21192768.469    88205277.538    21192768.344  
                                
  23952244.750   125869895.732                                                  
  23952246.001    93993758.182  
  24458318.710   128529333.055                                                  
  24458319.497    95979698.894  
  26422497.225   138851160.344                                                  
  26422499.066   103687560.458  
  26102214.126   137168061.470                                                  
  26102216.074   102430701.886  
  25664856.959   134869733.563                                                  
  25664859.604   100714421.577  
 21  8 31  6 18 19.0000000  0 17G 4G 7G 8G 9G16G27G30R 1R 2R12R20R21
                                E 1E 4E19E21E31
  22474718.784   118105443.611    22474718.319    92030212.561    22474718.069  
  22474721.732    88195635.050  
  21123347.368   111003939.876    21123344.831    86496564.408    21123344.491  
                                
  20508251.426   107771588.432    20508252.015    83977860.965    20508251.283  
  20508250.407    80478779.301  
  20997001.368   110339987.052    20997001.136    85979208.531    20997000.868  
  20997001.297    82396742.405  
  23955869.625   125888944.716                    98095268.808    23955866.712  
                                
  21591644.070   113464855.296    21591644.070    88414170.964    21591643.569  
  21591643.283    84730245.754  
  23442349.410   123190378.020    23442349.821    95992501.239    23442349.178  
  23442349.142    91992813.026  
  21334814.604   114046810.599    21334816.480    88703082.618    21334817.213  
                                
  21467514.650   114554771.114    21467515.990    89098161.362    21467515.937  
                                
  21730689.567   116081443.407    21730690.693    90285571.183    21730690.621  
                                
  22127106.211   118323580.554    22127108.945    92029462.525    22127107.909  
                                
  21192281.896   113404181.040    21192281.359    88203250.210    21192281.234  
                                
  23952318.549   125870283.572                                                  
  23952319.818    93994047.803  
  24458518.075   128530380.659                                                  
  24458518.861    95980481.189  
  26423077.843   138854211.463                                                  
  26423079.666   103689838.889  
  26102571.060   137169937.166                                                  
  26102573.025   102432102.569  
  25664569.018   134868220.561                                                  
  25664571.662   100713291.747  
 21  8 31  6 18 20.0000000  0 17G 4G 7G 8G 9G16G27G30R 1R 2R12R20R21
                                E 1E 4E19E21E31
  22475351.365   118108767.895    22475350.918    92032802.907    22475350.668  
  22475354.313    88198117.466  
  21123009.412   111002163.898    21123006.874    86495180.525    21123006.535  
                                
  20508227.177   107771461.039    20508227.785    83977761.698    20508227.034  
  20508226.177    80478684.172  
  20997310.002   110341608.980    20997309.787    85980472.371    20997309.501  
  20997309.948    82397953.590  
  23956487.017   125892189.118                    98097796.916    23956484.105  
                                
  21592014.798   113466803.515    21592014.798    88415689.057    21592014.298  
  21592014.012    84731700.593  
  23441808.890   123187537.488    23441809.283    95990287.841    23441808.640  
  23441808.604    91990691.850  
  21335402.781   114049954.789    21335404.657    88705528.099    21335405.372  
                                
  21467290.698   114553576.067    21467292.038    89097231.883    21467291.984  
                                
  21730303.381   116079380.475    21730304.525    90283966.682    21730304.454  
                                
  22127386.719   118325080.526    22127389.453    92030629.172    22127388.399  
                                
  21191794.911   113401575.088    21191794.375    88201223.360    21191794.250  
                                
  23952392.366   125870671.495                                                  
  23952393.635    93994337.485  
  24458717.493   128531428.639                                                  
  24458718.297    95981263.778  
  26423658.444   138857262.594                                                  
  26423660.284   103692117.327  
  26102927.994   137171812.819                                                  
  26102929.959   102433503.212  
  25664281.130   134866707.639                                                  
  25664283.757   100712161.970  
 21  8 31  6 18 21.0000000  0 17G 4G 7G 8G 9G16G27G30R 1R 2R12R20R21
                                E 1E 4E19E21E31
  22475984.018   118112092.531    22475983.571    92035393.531    22475983.321  
  22475986.984    88200600.147  
  21122671.508   111000388.167    21122668.989    86493796.838    21122668.631  
                                
  20508203.072   107771334.376    20508203.680    83977662.997    20508202.947  
  20508202.071    80478589.588  
  20997618.761   110343231.536    20997618.546    85981736.701    20997618.260  
  20997618.707    82399165.239  
  23957104.428   125895433.568                    98100325.054    23957101.497  
                                
  21592385.670   113468752.467    21592385.670    88417207.721    21592385.170  
  21592384.901    84733155.979  
  23441268.352   123184697.048    23441268.781    95988074.508    23441268.138  
  23441268.102    91988570.737  
  21335991.065   114053099.554    21335992.959    88707974.028    21335993.674  
                                
  21467066.906   114552381.902    21467068.246    89096303.086    21467068.193  
                                
  21729917.232   116077317.688    21729918.375    90282362.288    21729918.286  
                                
  22127667.370   118326581.408    22127670.104    92031796.530    22127669.068  
                                
  21191308.069   113398969.871    21191307.516    88199197.080    21191307.426  
                                
  23952466.219   125871059.599                                                  
  23952467.488    93994627.306  
  24458917.001   128532477.106                                                  
  24458917.805    95982046.722  
  26424239.080   138860313.872                                                  
  26424240.920   103694395.883  
  26103284.927   137173688.530                                                  
  26103286.875   102434903.912  
  25663993.260   134865194.896                                                  
  25663995.904   100711032.319  
 21  8 31  6 18 22.0000000  0 17G 4G 7G 8G 9G16G27G30R 1R 2R12R20R21
                                E 1E 4E19E21E31
  22476616.778   118115417.684    22476616.313    92037984.559    22476616.081  
  22476619.744    88203083.219  
  21122333.694   110998612.875    21122331.139    86492413.496    21122330.800  
                                
  20508179.146   107771208.650    20508179.753    83977565.033    20508179.020  
  20508178.145    80478495.699  
  20997927.680   110344854.938    20997927.466    85983001.689    20997927.180  
  20997927.645    82400377.515  
  23957721.856   125898678.264                    98102853.395    23957718.943  
                                
  21592756.702   113470702.252    21592756.702    88418727.036    21592756.202  
  21592755.916    84734611.996  
  23440727.904   123181856.869    23440728.315    95985861.379    23440727.671  
  23440727.636    91986449.822  
  21336579.527   114056245.066    21336581.386    88710420.540    21336582.100  
                                
  21466843.311   114551188.785    21466844.651    89095375.109    21466844.598  
                                
  21729531.136   116075255.236    21729532.280    90280758.156    21729532.208  
                                
  22127948.235   118328083.357    22127950.987    92032964.712    22127949.951  
                                
  21190821.389   113396365.556    21190820.835    88197171.504    21190820.746  
                                
  23952540.143   125871448.067                                                  
  23952541.412    93994917.393  
  24459116.652   128533526.253                                                  
  24459117.438    95982830.174  
  26424819.787   138863365.458                                                  
  26424821.610   103696674.651  
  26103641.915   137175564.476                                                  
  26103643.845   102436304.778  
  25663705.461   134863682.507                                                  
  25663708.106   100709902.940  
 21  8 31  6 18 23.0000000  0 17G 4G 7G 8G 9G16G27G30R 1R 2R12R20R21
                                E 1E 4E19E21E31
  22477249.573   118118743.004    22477249.109    92040575.715    22477248.876  
  22477252.540    88205566.402  
  21121995.863   110996837.663    21121993.325    86491030.214    21121992.986  
                                
  20508155.308   107771083.481    20508155.934    83977467.499    20508155.201  
  20508154.308    80478402.229  
  20998236.689   110346478.782    20998236.457    85984267.020    20998236.189  
  20998236.636    82401590.133  
  23958339.284   125901922.804                    98105381.609    23958336.354  
                                
  21593127.824   113472652.504    21593127.824    88420246.713    21593127.324  
  21593127.038    84736068.351  
  23440187.401   123179016.569    23440187.795    95983648.156    23440187.151  
  23440187.116    91984328.830  
  21337168.008   114059390.961    21337169.884    88712867.346    21337170.617  
                                
  21466619.859   114549996.363    21466621.199    89094447.669    21466621.145  
                                
  21729145.040   116073192.771    21729146.184    90279154.014    21729146.112  
                                
  22128229.261   118329586.038    22128231.995    92034133.466    22128230.941  
                                
  21190334.815   113393761.761    21190334.261    88195146.333    21190334.154  
                                
  23952614.067   125871836.521                                                  
  23952615.318    93995207.470  
  24459316.356   128534575.682                                                  
  24459317.142    95983613.841  
  26425400.459   138866416.982                                                  
  26425402.281   103698953.404  
  26103998.866   137177440.289                                                  
  26104000.832   102437705.546  
  25663417.663   134862170.107                                                  
  25663420.308   100708773.553  
 21  8 31  6 18 24.0000000  0 17G 4G 7G 8G 9G16G27G30R 1R 2R12R20R21
                                E 1E 4E19E21E31
  22477882.405   118122068.614    22477881.940    92043167.097    22477881.708  
  22477885.371    88208049.821  
  21121658.102   110995062.654    21121655.547    86489647.092    21121655.208  
                                
  20508131.632   107770958.981    20508132.239    83977370.484    20508131.507  
  20508130.631    80478309.265  
  20998545.823   110348103.234    20998545.609    85985532.827    20998545.323  
  20998545.770    82402803.193  
  23958956.713   125905167.350                    98107909.826    23958953.764  
                                
  21593499.053   113474603.361    21593499.053    88421766.863    21593498.570  
  21593498.285    84737525.153  
  23439646.935   123176176.346    23439647.328    95981434.993    23439646.685  
  23439646.649    91982207.873  
  21337756.613   114062537.377    21337758.508    88715314.571    21337759.222  
                                
  21466396.568   114548804.784    21466397.872    89093520.883    21466397.836  
                                
  21728758.980   116071130.432    21728760.105    90277549.982    21728760.034  
                                
  22128510.413   118331089.524    22128513.147    92035302.849    22128512.110  
                                
  21189848.349   113391158.630    21189847.813    88193121.673    21189847.724  
                                
  23952688.009   125872225.112                                                  
  23952689.278    93995497.652  
  24459516.131   128535625.560                                                  
  24459516.936    95984397.843  
  26425981.166   138869468.600                                                  
  26425983.007   103701232.199  
  26104355.818   137179316.115                                                  
  26104357.783   102439106.325  
  25663129.900   134860657.825                                                  
  25663132.527   100707644.247  
 21  8 31  6 18 25.0000000  0 17G 4G 7G 8G 9G16G27G30R 1R 2R12R20R21
                                E 1E 4E19E21E31
  22478515.290   118125394.498    22478514.843    92045758.690    22478514.593  
  22478518.256    88210533.433  
  21121320.360   110993287.823    21121317.823    86488264.104    21121317.483  
                                
  20508108.063   107770835.153    20508108.688    83977273.997    20508107.937  
  20508107.062    80478216.796  
  20998855.047   110349728.244    20998854.815    85986799.073    20998854.547  
  20998854.993    82404016.674  
  23959574.123   125908411.867                    98110438.019    23959571.175  
                                
  21593870.389   113476554.766    21593870.389    88423287.441    21593869.889  
  21593869.603    84738982.380  
  23439106.451   123173336.122    23439106.862    95979221.830    23439106.218  
  23439106.183    91980086.929  
  21338345.308   114065684.286    21338347.185    88717762.162    21338347.917  
                                
  21466173.401   114547614.040    21466174.724    89092594.751    21466174.706  
                                
  21728372.919   116069068.201    21728374.063    90275946.024    21728373.974  
                                
  22128791.725   118332593.832    22128794.459    92036472.866    22128793.422  
                                
  21189362.008   113388556.147    21189361.472    88191097.519    21189361.382  
                                
  23952761.987   125872613.806                                                  
  23952763.256    93995787.908  
  24459715.997   128536675.849                                                  
  24459716.801    95985182.145  
  26426561.892   138872520.273                                                  
  26426563.714   103703511.039  
  26104712.787   137181191.923                                                  
  26104714.735   102440507.091  
  25662842.137   134859145.651                                                  
  25662844.764   100706515.026  
 21  8 31  6 18 26.0000000  0 17G 4G 7G 8G 9G16G27G30R 1R 2R12R20R21
                                E 1E 4E19E21E31
  22479148.228   118128720.557    22479147.764    92048350.427    22479147.532  
  22479151.195    88213017.179  
  21120982.636   110991513.063    21120980.080    86486881.174    21120979.741  
                                
  20508084.618   107770711.912    20508085.226    83977177.963    20508084.493  
  20508083.618    80478124.759  
  20999164.360   110351353.720    20999164.145    85988065.673    20999163.859  
  20999164.306    82405230.506  
  23960191.498   125911656.232                    98112966.095    23960188.550  
                                
  21594241.832   113478506.676    21594241.832    88424808.410    21594241.332  
  21594241.046    84740439.966  
  23438565.948   123170495.799    23438566.342    95977008.591    23438565.716  
  23438565.663    91977965.918  
  21338934.075   114068831.607    21338935.951    88720210.076    21338936.684  
                                
  21465950.414   114546424.061    21465951.736    89091669.212    21465951.718  
                                
  21727986.859   116067005.948    21727988.003    90274342.048    21727987.931  
                                
  22129073.180   118334098.871    22129075.914    92037643.450    22129074.859  
                                
  21188875.792   113385954.243    21188875.256    88189073.817    21188875.148  
                                
  23952835.947   125873002.506                                                  
  23952837.198    93996078.178  
  24459915.933   128537726.458                                                  
  24459916.719    95985966.693  
  26427142.581   138875571.906                                                  
  26427144.404   103705789.869  
  26105069.703   137183067.614                                                  
  26105071.669   102441907.769  
  25662554.375   134857633.468                                                  
  25662557.019   100705385.796  
 21  8 31  6 18 27.0000000  0 17G 4G 7G 8G 9G16G27G30R 1R 2R12R20R21
                                E 1E 4E19E21E31
  22479781.185   118132046.775    22479780.720    92050942.285    22479780.488  
  22479784.151    88215501.043  
  21120644.911   110989738.379    21120642.391    86485498.304    21120642.034  
                                
  20508061.264   107770589.229    20508061.889    83977082.367    20508061.138  
  20508060.263    80478033.147  
  20999473.780   110352979.663    20999473.565    85989332.639    20999473.279  
  20999473.726    82406444.675  
  23960808.873   125914900.487                    98115494.080    23960805.924  
                                
  21594613.347   113480459.015    21594613.347    88426329.715    21594612.847  
  21594612.561    84741897.890  
  23438025.464   123167655.415    23438025.857    95974795.300    23438025.214  
  23438025.178    91975844.836  
  21339522.931   114071979.316    21339524.807    88722658.296    21339525.522  
                                
  21465727.569   114545234.839    21465728.891    89090744.257    21465728.838  
                                
  21727600.799   116064943.660    21727601.925    90272738.050    21727601.853  
                                
  22129354.742   118335604.577    22129357.494    92038814.554    22129356.439  
                                
  21188389.647   113383352.860    21188389.111    88187050.516    21188389.022  
                                
  23952909.907   125873391.209                                                  
  23952911.176    93996368.436  
  24460115.905   128538777.366                                                  
  24460116.709    95986751.460  
  26427723.289   138878623.498                                                  
  26427725.129   103708068.644  
  26105426.619   137184943.172                                                  
  26105428.567   102443308.342  
  25662266.612   134856121.264                                                  
  25662269.239   100704256.555  
 21  8 31  6 18 28.0000000  0 17G 4G 7G 8G 9G16G27G30R 1R 2R12R20R21
                                E 1E 4E19E21E31
  22480414.249   118135373.530    22480413.802    92053534.561    22480413.552  
  22480417.215    88217985.305  
  21120307.294   110987964.144    21120304.756    86484115.783    21120304.417  
                                
  20508038.105   107770467.485    20508038.713    83976987.502    20508037.980  
  20508037.105    80477942.236  
  20999783.343   110354606.433    20999783.110    85990600.250    20999782.842  
  20999783.271    82407659.476  
  23961426.265   125918144.972                    98118022.243    23961423.353  
                                
  21594985.041   113482412.222    21594985.041    88427851.697    21594984.541  
  21594984.255    84743356.452  
  23437484.980   123164815.274    23437485.391    95972582.203    23437484.747  
  23437484.712    91973723.965  
  21340111.929   114075127.819    21340113.806    88725107.127    21340114.520  
                                
  21465504.921   114544046.741    21465506.226    89089820.173    21465506.208  
                                
  21727214.792   116062881.747    21727215.936    90271134.340    21727215.864  
                                
  22129636.536   118337111.384    22129639.270    92039986.511    22129638.216  
                                
  21187903.699   113380752.364    21187903.163    88185027.906    21187903.056  
                                
  23952983.956   125873780.276                                                  
  23952985.207    93996658.978  
  24460316.020   128539828.958                                                  
  24460316.807    95987536.739  
  26428304.050   138881675.400                                                  
  26428305.890   103710347.662  
  26105783.589   137186818.983                                                  
  26105785.518   102444709.112  
  25661978.921   134854609.442                                                  
  25661981.547   100703127.602  
 21  8 31  6 18 29.0000000  0 17G 4G 7G 8G 9G16G27G30R 1R 2R12R20R21
                                E 1E 4E19E21E31
  22481047.348   118138700.460    22481046.884    92056126.973    22481046.651  
  22481050.314    88220469.700  
  21119969.694   110986189.991    21119967.139    86482733.324    21119966.799  
                                
  20508015.054   107770346.333    20508015.644    83976893.098    20508014.911  
  20508014.054    80477851.766  
  21000092.977   110356233.655    21000092.763    85991868.213    21000092.477  
  21000092.941    82408874.611  
  23962043.658   125921389.283                    98120550.280    23962040.727  
                                
  21595356.788   113484365.889    21595356.788    88429374.031    21595356.288  
  21595356.020    84744815.355  
  23436944.495   123161975.062    23436944.924    95970369.060    23436944.281  
  23436944.245    91971603.027  
  21340701.000   114078276.725    21340702.876    88727556.272    21340703.573  
                                
  21465282.398   114542859.384    21465283.738    89088896.674    21465283.703  
                                
  21726828.804   116060819.808    21726829.947    90269530.610    21726829.858  
                                
  22129918.456   118338618.905    22129921.172    92041159.022    22129920.136  
                                
  21187417.840   113378152.409    21187417.286    88183005.721    21187417.197  
                                
  23953058.005   125874169.351                                                  
  23953059.256    93996949.517  
  24460516.171   128540880.861                                                  
  24460516.975    95988322.251  
  26428884.811   138884727.274                                                  
  26428886.652   103712626.650  
  26106140.504   137188694.665                                                  
  26106142.452   102446109.790  
  25661691.229   134853097.612                                                  
  25661693.874   100701998.631  
 21  8 31  6 18 30.0000000  0 17G 4G 7G 8G 9G16G27G30R 1R 2R12R20R21
                                E 1E 4E19E21E31
  22481680.501   118142027.773    22481680.055    92058719.681    22481679.804  
  22481683.468    88222954.385  
  21119632.130   110984416.140    21119629.593    86481351.105    21119629.254  
                                
  20507992.146   107770225.974    20507992.772    83976799.309    20507992.021  
  20507991.146    80477761.883  
  21000402.772   110357861.587    21000402.558    85993136.734    21000402.272  
  21000402.719    82410090.270  
  23962661.051   125924633.718                    98123078.406    23962658.120  
                                
  21595728.696   113486320.256    21595728.696    88430896.911    21595728.196  
  21595727.910    84746274.789  
  23436404.047   123159134.977    23436404.458    95968156.009    23436403.832  
  23436403.797    91969482.189  
  21341290.177   114081426.251    21341292.071    88730005.904    21341292.768  
                                
  21465060.072   114541672.966    21465061.412    89087973.900    21465061.376  
                                
  21726442.851   116058758.083    21726443.994    90267927.046    21726443.905  
                                
  22130200.554   118340127.390    22130203.288    92042332.289    22130202.234  
                                
  21186932.107   113375553.245    21186931.571    88180984.152    21186931.481  
                                
  23953132.072   125874558.659                                                  
  23953133.341    93997240.238  
  24460716.465   128541933.307                                                  
  24460717.269    95989108.162  
  26429465.590   138887779.311                                                  
  26429467.431   103714905.776  
  26106497.474   137190570.473                                                  
  26106499.422   102447510.545  
  25661403.574   134851586.001                                                  
  25661406.218   100700869.837  
 21  8 31  6 18 31.0000000  0 17G 4G 7G 8G 9G16G27G30R 1R 2R12R20R21
                                E 1E 4E19E21E31
  22482313.744   118145355.473    22482313.297    92061312.694    22482313.047  
  22482316.710    88225439.354  
  21119294.638   110982642.577    21119292.101    86479969.105    21119291.761  
                                
  20507969.381   107770106.383    20507969.989    83976706.119    20507969.256  
  20507968.380    80477672.585  
  21000712.675   110359490.182    21000712.460    85994405.767    21000712.174  
  21000712.639    82411306.434  
  23963278.461   125927878.223                    98125606.590    23963275.530  
                                
  21596100.747   113488275.297    21596100.747    88432420.322    21596100.229  
  21596099.961    84747734.722  
  23435863.616   123156295.029    23435864.027    95965943.060    23435863.384  
  23435863.348    91967361.455  
  21341879.480   114084576.366    21341881.356    88732455.993    21341882.071  
                                
  21464837.906   114540487.415    21464839.246    89087051.802    21464839.193  
                                
  21726056.915   116056696.541    21726058.059    90266323.624    21726057.970  
                                
  22130482.795   118341636.738    22130485.547    92043506.231    22130484.493  
                                
  21186446.534   113372954.844    21186445.998    88178963.175    21186445.890  
                                
  23953206.193   125874948.172                                                  
  23953207.444    93997531.108  
  24460916.831   128542986.266                                                  
  24460917.635    95989894.469  
  26430046.405   138890831.522                                                  
  26430048.245   103717185.019  
  26106854.426   137192446.349                                                  
  26106856.373   102448911.372  
  25661115.972   134850074.599                                                  
  25661118.617   100699741.188  
 21  8 31  6 18 32.0000000  0 17G 4G 7G 8G 9G16G27G30R 1R 2R12R20R21
                                E 1E 4E19E21E31
  22482947.040   118148683.463    22482946.575    92063905.933    22482946.343  
  22482950.006    88227924.541  
  21118957.164   110980869.199    21118954.644    86478587.257    21118954.305  
                                
  20507946.759   107769987.462    20507947.366    83976613.453    20507946.634  
  20507945.758    80477583.777  
  21001022.702   110361119.368    21001022.470    85995675.264    21001022.220  
  21001022.649    82412523.031  
  23963895.871   125931122.720                    98128134.769    23963892.959  
                                
  21596472.887   113490230.948    21596472.887    88433944.206    21596472.387  
  21596472.101    84749195.107  
  23435323.221   123153455.120    23435323.632    95963730.149    23435322.989  
  23435322.935    91965240.733  
  21342468.871   114087726.995    21342470.748    88734906.482    21342471.462  
                                
  21464615.866   114539302.654    21464617.206    89086130.324    21464617.170  
                                
  21725671.016   116054635.132    21725672.160    90264720.309    21725672.070  
                                
  22130765.215   118343146.947    22130767.967    92044680.837    22130766.913  
                                
  21185961.068   113370357.073    21185960.532    88176942.689    21185960.443  
                                
  23953280.350   125875337.811                                                  
  23953281.600    93997822.070  
  24461117.285   128544039.651                                                  
  24461118.089    95990681.086  
  26430627.220   138893883.795                                                  
  26430629.060   103719464.316  
  26107211.395   137194322.242                                                  
  26107213.361   102450312.188  
  25660828.370   134848563.305                                                  
  25660831.015   100698612.629  
 21  8 31  6 18 33.0000000  0 17G 4G 7G 8G 9G16G27G30R 1R 2R12R20R21
                                E 1E 4E19E21E31
  22483580.407   118152011.814    22483579.943    92066499.454    22483579.710  
  22483583.374    88230409.992  
  21118619.779   110979096.114    21118617.241    86477205.628    21118616.902  
                                
  20507924.262   107769869.300    20507924.887    83976521.379    20507924.137  
  20507923.261    80477495.536  
  21001332.855   110362749.213    21001332.641    85996945.271    21001332.355  
  21001332.819    82413740.121  
  23964513.282   125934367.269                    98130662.989    23964510.351  
                                
  21596845.170   113492187.251    21596845.170    88435468.596    21596844.670  
  21596844.384    84750655.973  
  23434782.808   123150615.290    23434783.201    95961517.294    23434782.558  
  23434782.522    91963120.092  
  21343058.353   114090878.196    21343060.247    88737357.418    21343060.961  
                                
  21464394.022   114538118.763    21464395.344    89085209.520    21464395.326  
                                
  21725285.152   116052573.915    21725286.296    90263117.140    21725286.207  
                                
  22131047.814   118344658.069    22131050.548    92045856.154    22131049.494  
                                
  21185475.763   113367760.017    21185475.209    88174922.756    21185475.120  
                                
  23953354.542   125875727.643                                                  
  23953355.793    93998113.181  
  24461317.829   128545093.547                                                  
  24461318.633    95991468.081  
  26431208.088   138896936.231                                                  
  26431209.928   103721743.726  
  26107568.382   137196198.193                                                  
  26107570.330   102451713.067  
  25660540.822   134847052.202                                                  
  25660543.448   100697484.212  
 21  8 31  6 18 34.0000000  0 17G 4G 7G 8G 9G16G27G30R 1R 2R12R20R21
                                E 1E 4E19E21E31
  22484213.811   118155340.338    22484213.364    92069093.105    22484213.096  
  22484216.759    88232895.576  
  21118282.376   110977323.103    21118279.839    86475824.063    21118279.499  
                                
  20507901.872   107769751.696    20507902.497    83976429.742    20507901.747  
  20507900.889    80477407.721  
  21001643.097   110364379.528    21001642.865    85998215.642    21001642.597  
  21001643.043    82414957.562  
  23965130.692   125937611.707                    98133191.125    23965127.762  
                                
  21597217.525   113494144.020    21597217.507    88436993.349    21597217.007  
  21597216.739    84752117.202  
  23434242.395   123147775.395    23434242.806    95959304.389    23434242.163  
  23434242.109    91960999.387  
  21343647.941   114094029.791    21343649.817    88739808.657    21343650.550  
                                
  21464172.285   114536935.566    21464173.607    89084289.265    21464173.572  
                                
  21724899.289   116050512.676    21724900.432    90261513.954    21724900.343  
                                
  22131330.520   118346169.886    22131333.272    92047032.010    22131332.217  
                                
  21184990.530   113365163.525    21184989.994    88172903.260    21184989.905  
                                
  23953428.716   125876117.485                                                  
  23953429.967    93998404.292  
  24461518.445   128546147.741                                                  
  24461519.249    95992255.309  
  26431788.938   138899988.609                                                  
  26431790.797   103724023.097  
  26107925.352   137198074.028                                                  
  26107927.300   102453113.844  
  25660253.273   134845541.096                                                  
  25660255.918   100696355.785  
 21  8 31  6 18 35.0000000  0 17G 4G 7G 8G 9G16G27G30R 1R 2R12R20R21
                                E 1E 4E19E21E31
  22484847.232   118158669.109    22484846.785    92071686.952    22484846.535  
  22484850.216    88235381.355  
  21117945.009   110975550.271    21117942.489    86474442.633    21117942.132  
                                
  20507879.625   107769634.756    20507880.250    83976338.620    20507879.500  
  20507878.624    80477320.395  
  21001953.428   110366010.398    21001953.214    85999486.449    21001952.946  
  21001953.393    82416175.423  
  23965748.085   125940856.086                    98135719.208    23965745.137  
                                
  21597590.005   113496101.356    21597589.969    88438518.543    21597589.469  
  21597589.219    84753578.851  
  23433701.983   123144935.506    23433702.393    95957091.487    23433701.750  
  23433701.714    91958878.688  
  21344237.601   114097181.879    21344239.477    88742260.281    21344240.210  
                                
  21463950.691   114535753.183    21463952.014    89083369.633    21463951.996  
                                
  21724513.425   116048451.509    21724514.569    90259910.822    21724514.497  
                                
  22131613.404   118347682.522    22131616.120    92048208.507    22131615.084  
                                
  21184505.440   113362567.699    21184504.921    88170884.285    21184504.814  
                                
  23953502.926   125876507.423                                                  
  23953504.177    93998695.484  
  24461719.132   128547202.359                                                  
  24461719.918    95993042.843  
  26432369.807   138903041.046                                                  
  26432371.647   103726302.519  
  26108282.303   137199949.839                                                  
  26108284.251   102454514.616  
  25659965.725   134844030.093                                                  
  25659968.370   100695227.442  
 21  8 31  6 18 36.0000000  0 17G 4G 7G 8G 9G16G27G30R 1R 2R12R20R21
                                E 1E 4E19E21E31
  22485480.760   118161998.232    22485480.313    92074281.074    22485480.063  
  22485483.726    88237867.373  
  21117607.695   110973777.676    21117605.176    86473061.393    21117604.818  
                                
  20507857.521   107769518.543    20507858.146    83976248.062    20507857.396  
  20507856.520    80477233.608  
  21002263.903   110367641.884    21002263.688    86000757.739    21002263.402  
  21002263.849    82417393.736  
  23966365.460   125944100.482                    98138247.307    23966362.547  
                                
  21597962.574   113498059.326    21597962.574    88440044.229    21597962.074  
  21597961.806    84755040.960  
  23433161.588   123142095.685    23433161.999    95954878.639    23433161.355  
  23433161.319    91956758.038  
  21344827.368   114100334.532    21344829.244    88744712.341    21344829.977  
                                
  21463729.294   114534571.706    21463730.599    89082450.711    21463730.581  
                                
  21724127.597   116046390.477    21724128.741    90258307.797    21724128.651  
                                
  22131896.414   118349195.997    22131899.166    92049385.654    22131898.093  
                                
  21184020.474   113359972.570    21184019.956    88168865.849    21184019.831  
                                
  23953577.136   125876897.514                                                  
  23953578.405    93998986.785  
  24461919.890   128548257.422                                                  
  24461920.694    95993830.718  
  26432950.675   138906093.588                                                  
  26432952.515   103728582.015  
  26108639.273   137201825.691                                                  
  26108641.221   102455915.406  
  25659678.230   134842519.224                                                  
  25659680.875   100694099.188  
 21  8 31  6 18 37.0000000  0 17G 4G 7G 8G 9G16G27G30R 1R 2R12R20R21
                                E 1E 4E19E21E31
  22486114.324   118165327.751    22486113.895    92076875.502    22486113.645  
  22486117.308    88240353.713  
  21117270.453   110972005.413    21117267.934    86471680.411    21117267.576  
                                
  20507835.560   107769403.163    20507836.167    83976158.156    20507835.435  
  20507834.577    80477147.453  
  21002574.502   110369274.097    21002574.287    86002029.592    21002574.002  
  21002574.448    82418612.595  
  23966982.888   125947345.008                    98140775.499    23966979.958  
                                
  21598335.304   113500018.011    21598335.304    88441570.478    21598334.804  
  21598334.518    84756503.619  
  23432621.210   123139256.028    23432621.621    95952665.919    23432620.996  
  23432620.924    91954637.520  
  21345417.278   114103487.852    21345419.154    88747164.926    21345419.851  
                                
  21463508.076   114533391.256    21463509.398    89081532.584    21463509.362  
                                
  21723741.823   116044329.680    21723742.948    90256704.955    21723742.877  
                                
  22132179.638   118350710.425    22132182.354    92050563.545    22132181.317  
                                
  21183535.652   113357378.218    21183535.134    88166848.019    21183535.045  
                                
  23953651.436   125877287.875                                                  
  23953652.686    93999278.287  
  24462120.774   128549313.069                                                  
  24462121.578    95994619.023  
  26433531.597   138909146.342                                                  
  26433533.437   103730861.671  
  26108996.260   137203701.669                                                  
  26108998.208   102457316.303  
  25659390.771   134841008.623                                                  
  25659393.416   100692971.141  
 21  8 31  6 18 38.0000000  0 17G 4G 7G 8G 9G16G27G30R 1R 2R12R20R21
                                E 1E 4E19E21E31
  22486747.977   118168657.584    22486747.549    92079470.179    22486747.298  
  22486750.962    88242840.272  
  21116933.247   110970233.355    21116930.709    86470299.582    21116930.352  
                                
  20507813.724   107769288.473    20507814.349    83976068.789    20507813.599  
  20507812.741    80477061.805  
  21002885.208   110370906.903    21002885.012    86003301.911    21002884.726  
  21002885.173    82419831.901  
  23967600.299   125950589.528                    98143303.692    23967597.386  
                                
  21598708.141   113501977.299    21598708.141    88443097.200    21598707.623  
  21598707.373    84757966.730  
  23432080.851   123136416.412    23432081.262    95950453.231    23432080.619  
  23432080.583    91952517.027  
  21346007.242   114106641.681    21346009.136    88749617.904    21346009.851  
                                
  21463287.036   114532211.698    21463288.340    89080615.152    21463288.305  
                                
  21723356.066   116042269.035    21723357.192    90255102.233    21723357.103  
                                
  22132462.987   118352225.721    22132465.739    92051742.106    22132464.667  
                                
  21183050.955   113354784.526    21183050.437    88164830.703    21183050.347  
                                
  23953725.753   125877678.368                                                  
  23953726.986    93999569.888  
  24462321.765   128550369.157                                                  
  24462322.551    95995407.662  
  26434112.537   138912199.190                                                  
  26434114.377   103733141.388  
  26109353.230   137205577.662                                                  
  26109355.195   102458717.207  
  25659103.330   134839498.139                                                  
  25659105.957   100691843.189  
 21  8 31  6 18 39.0000000  0 17G 4G 7G 8G 9G16G27G30R 1R 2R12R20R21
                                E 1E 4E19E21E31
  22487381.667   118171987.605    22487381.238    92082065.001    22487380.988  
  22487384.651    88245326.970  
  21116596.058   110968461.409    21116593.503    86468918.847    21116593.164  
                                
  20507792.013   107769174.373    20507792.639    83975979.880    20507791.906  
  20507791.030    80476976.594  
  21003196.022   110372540.206    21003195.808    86004574.611    21003195.540  
  21003195.986    82421051.568  
  23968217.709   125953833.945                    98145831.816    23968214.779  
                                
  21599081.086   113503937.082    21599081.068    88444624.308    21599080.567  
  21599080.299    84759430.206  
  23431540.474   123133576.720    23431540.885    95948240.477    23431540.242  
  23431540.188    91950396.478  
  21346597.313   114109795.939    21346599.189    88752071.227    21346599.904  
                                
  21463066.121   114531032.929    21463067.443    89079698.332    21463067.426  
                                
  21722970.310   116040208.402    21722971.435    90253499.521    21722971.364  
                                
  22132746.515   118353741.761    22132749.231    92052921.253    22132748.194  
                                
  21182566.383   113352191.410    21182565.864    88162813.840    21182565.757  
                                
  23953800.070   125878068.878                                                  
  23953801.303    93999861.506  
  24462522.773   128551425.567                                                  
  24462523.577    95996196.540  
  26434693.494   138915252.020                                                  
  26434695.335   103735421.088  
  26109710.217   137207453.540                                                  
  26109712.147   102460118.032  
  25658815.907   134837987.679                                                  
  25658818.552   100690715.244  
 21  8 31  6 18 40.0000000  0 17G 4G 7G 8G 9G16G27G30R 1R 2R12R20R21
                                E 1E 4E19E21E31
  22488015.445   118175318.078    22488014.998    92084660.172    22488014.766  
  22488018.394    88247814.013  
  21116258.924   110966689.824    21116256.404    86467538.391    21116256.064  
                                
  20507770.463   107769061.124    20507771.088    83975891.634    20507770.356  
  20507769.498    80476892.023  
  21003506.979   110374174.253    21003506.765    86005847.893    21003506.479  
  21003506.925    82422271.802  
  23968835.120   125957078.503                    98148360.045    23968832.207  
                                
  21599454.155   113505897.631    21599454.155    88446152.009    21599453.655  
  21599453.387    84760894.248  
  23431000.133   123130737.231    23431000.544    95946027.893    23430999.900  
  23430999.865    91948276.086  
  21347187.509   114112950.874    21347189.385    88754525.064    21347190.117  
                                
  21462845.403   114529855.197    21462846.743    89078782.316    21462846.707  
                                
  21722584.589   116038148.011    21722585.715    90251896.995    21722585.643  
                                
  22133030.203   118355258.813    22133032.919    92054101.183    22133031.883  
                                
  21182081.953   113349599.159    21182081.435    88160797.644    21182081.328  
                                
  23953874.423   125878459.682                                                  
  23953875.674    94000153.340  
  24462723.925   128552482.593                                                  
  24462724.729    95996985.867  
  26435274.452   138918305.081                                                  
  26435276.293   103737700.974  
  26110067.204   137209329.601                                                  
  26110069.170   102461518.982  
  25658528.520   134836477.494                                                  
  25658531.164   100689587.513  
 21  8 31  6 18 41.0000000  0 17G 4G 7G 8G 9G16G27G30R 1R 2R12R20R21
                                E 1E 4E19E21E31
  22488649.224   118178648.677    22488648.795    92087255.444    22488648.545  
  22488652.208    88250301.144  
  21115921.807   110964918.259    21115919.269    86466157.951    21115918.930  
                                
  20507749.020   107768948.379    20507749.646    83975803.781    20507748.895  
  20507748.020    80476807.837  
  21003817.989   110375808.712    21003817.775    86007121.497    21003817.525  
  21003817.954    82423492.335  
  23969452.512   125960322.891                    98150888.133    23969449.582  
                                
  21599827.332   113507858.579    21599827.332    88447680.022    21599826.796  
  21599826.545    84762358.597  
  23430459.756   123127897.600    23430460.184    95943815.198    23430459.541  
  23430459.505    91946155.581  
  21347777.776   114116106.120    21347779.652    88756979.142    21347780.367  
                                
  21462624.846   114528678.147    21462626.168    89077866.837    21462626.114  
                                
  21722198.868   116036087.533    21722200.012    90250294.401    21722199.922  
                                
  22133314.017   118356776.514    22133316.733    92055281.614    22133315.697  
                                
  21181597.631   113347007.406    21181597.095    88158781.837    21181597.006  
                                
  23953948.776   125878850.436                                                  
  23953950.027    94000445.134  
  24462925.112   128553539.855                                                  
  24462925.916    95997775.387  
  26435855.410   138921358.026                                                  
  26435857.250   103739980.787  
  26110424.192   137211205.485                                                  
  26110426.122   102462919.800  
  25658241.132   134834967.254                                                  
  25658243.777   100688459.736  
 21  8 31  6 18 42.0000000  0 17G 4G 7G 8G 9G16G27G30R 1R 2R12R20R21
                                E 1E 4E19E21E31
  22489283.074   118181979.557    22489282.627    92089850.931    22489282.395  
  22489286.058    88252788.490  
  21115584.725   110963146.900    21115582.206    86464777.671    21115581.866  
                                
  20507727.703   107768836.342    20507728.310    83975716.477    20507727.577  
  20507726.720    80476724.175  
  21004129.125   110377443.760    21004128.928    86008395.558    21004128.660  
  21004129.089    82424713.313  
  23970069.887   125963567.235                    98153416.193    23970066.956  
                                
  21600200.580   113509820.143    21600200.580    88449208.514    21600200.080  
  21600199.811    84763823.395  
  23429919.414   123125058.011    23429919.825    95941602.533    23429919.200  
  23429919.146    91944035.106  
  21348368.133   114119261.886    21348370.009    88759433.624    21348370.706  
                                
  21462404.413   114527501.935    21462405.736    89076952.003    21462405.718  
                                
  21721813.165   116034027.178    21721814.291    90248691.904    21721814.202  
                                
  22133597.991   118358295.026    22133600.708    92056462.679    22133599.671  
                                
  21181113.417   113344416.314    21181112.898    88156766.543    21181112.809  
                                
  23954023.165   125879241.320                                                  
  23954024.434    94000737.028  
  24463126.389   128554597.571                                                  
  24463127.193    95998565.233  
  26436436.385   138924411.076                                                  
  26436438.226   103742260.660  
  26110781.161   137213081.378                                                  
  26110783.109   102464320.625  
  25657953.780   134833457.137                                                  
  25657956.389   100687332.045  
 21  8 31  6 18 43.0000000  0 17G 4G 7G 8G 9G16G27G30R 1R 2R12R20R21
                                E 1E 4E19E21E31
  22489916.995   118185310.846    22489916.566    92092446.740    22489916.316  
  22489919.979    88255276.137  
  21115247.716   110961375.866    21115245.196    86463397.643    21115244.839  
                                
  20507706.528   107768725.097    20507707.153    83975629.795    20507706.403  
  20507705.527    80476641.103  
  21004440.403   110379079.504    21004440.189    86009670.166    21004439.903  
  21004440.350    82425934.818  
  23970687.280   125966811.722                    98155944.367    23970684.367  
                                
  21600573.989   113511782.391    21600573.989    88450737.536    21600573.471  
  21600573.185    84765288.721  
  23429379.091   123122218.568    23429379.502    95939389.985    23429378.858  
  23429378.823    91941914.747  
  21348958.579   114122418.290    21348960.473    88761888.605    21348961.188  
                                
  21462184.160   114526326.662    21462185.500    89076037.902    21462185.464  
                                
  21721427.516   116031967.112    21721428.642    90247089.633    21721428.570  
                                
  22133882.145   118359814.536    22133884.879    92057644.523    22133883.824  
                                
  21180629.345   113341826.004    21180628.844    88154751.858    21180628.755  
                                
  23954097.589   125879632.443                                                  
  23954098.840    94001029.105  
  24463327.773   128555655.821                                                  
  24463328.577    95999355.489  
  26437017.397   138927464.308                                                  
  26437019.237   103744540.664  
  26111138.149   137214957.383                                                  
  26111140.114   102465721.540  
  25657666.446   134831947.261                                                  
  25657669.091   100686204.544  
 21  8 31  6 18 44.0000000  0 17G 4G 7G 8G 9G16G27G30R 1R 2R12R20R21
                                E 1E 4E19E21E31
  22490550.988   118188642.501    22490550.541    92095042.831    22490550.309  
  22490553.972    88257764.065  
  21114910.741   110959605.094    21114908.222    86462017.822    21114907.882  
                                
  20507685.496   107768614.609    20507686.121    83975543.698    20507685.371  
  20507684.513    80476558.593  
  21004751.807   110380715.911    21004751.592    86010945.288    21004751.306  
  21004751.771    82427156.806  
  23971304.708   125970056.257                    98158472.578    23971301.795  
                                
  21600947.541   113513745.332    21600947.523    88452267.098    21600947.023  
  21600946.737    84766754.547  
  23428838.785   123119379.234    23428839.196    95937177.522    23428838.553  
  23428838.517    91939794.470  
  21349549.168   114125575.285    21349551.044    88764344.032    21349551.759  
                                
  21461964.085   114525152.288    21461965.407    89075124.493    21461965.371  
                                
  21721041.885   116029907.254    21721043.028    90245487.508    21721042.957  
                                
  22134166.477   118361334.921    22134169.193    92058827.035    22134168.156  
                                
  21180145.434   113339236.421    21180144.916    88152737.737    21180144.808  
                                
  23954172.067   125880023.770                                                  
  23954173.318    94001321.325  
  24463529.246   128556714.584                                                  
  24463530.050    96000146.122  
  26437598.426   138930517.698                                                  
  26437600.284   103746820.789  
  26111495.172   137216833.464                                                  
  26111497.101   102467122.507  
  25657379.166   134830437.569                                                  
  25657381.811   100685077.177  
 21  8 31  6 18 45.0000000  0 17G 4G 7G 8G 9G16G27G30R 1R 2R12R20R21
                                E 1E 4E19E21E31
  22491185.017   118191974.336    22491184.570    92097639.061    22491184.338  
  22491188.001    88260252.119  
  21114573.803   110957834.422    21114571.284    86460638.077    21114570.944  
                                
  20507664.589   107768504.699    20507665.215    83975458.056    20507664.464  
  20507663.588    80476476.518  
  21005063.282   110382352.790    21005063.085    86012220.776    21005062.799  
  21005063.246    82428379.156  
  23971922.118   125973300.680                    98161000.696    23971919.188  
                                
  21601321.146   113515708.724    21601321.146    88453797.017    21601320.628  
  21601320.360    84768220.725  
  23428298.444   123116539.826    23428298.872    95934964.996    23428298.229  
  23428298.193    91937674.131  
  21350139.811   114128732.690    21350141.705    88766799.791    21350142.420  
                                
  21461744.153   114523978.609    21461745.457    89074211.629    21461745.422  
                                
  21720656.289   116027847.334    21720657.415    90243885.346    21720657.325  
                                
  22134450.934   118362856.037    22134453.668    92060010.125    22134452.613  
                                
  21179661.594   113336647.361    21179661.094    88150724.029    21179660.987  
                                
  23954246.510   125880415.102                                                  
  23954247.778    94001613.556  
  24463730.791   128557773.662                                                  
  24463731.577    96000936.996  
  26438179.455   138933571.042                                                  
  26438181.295   103749100.888  
  26111852.141   137218709.433                                                  
  26111854.089   102468523.393  
  25657091.886   134828927.892                                                  
  25657094.530   100683949.812  
 21  8 31  6 18 46.0000000  0 17G 4G 7G 8G 9G16G27G30R 1R 2R12R20R21
                                E 1E 4E19E21E31
  22491819.063   118195306.279    22491818.617    92100235.380    22491818.384  
  22491822.047    88262740.256  
  21114236.847   110956063.764    21114234.328    86459258.346    21114233.988  
                                
  20507643.754   107768395.294    20507644.379    83975372.806    20507643.647  
  20507642.753    80476394.830  
  21005374.864   110383990.080    21005374.649    86013496.587    21005374.381  
  21005374.828    82429601.799  
  23972539.457   125976544.888                    98163528.648    23972536.527  
                                
  21601694.841   113517672.548    21601694.841    88455327.267    21601694.323  
  21601694.073    84769687.215  
  23427758.102   123113700.281    23427758.531    95932752.363    23427757.888  
  23427757.834    91935553.687  
  21350730.561   114131890.446    21350732.437    88769255.823    21350733.134  
                                
  21461524.310   114522805.588    21461525.633    89073299.277    21461525.615  
                                
  21720270.640   116025787.298    21720271.766    90242283.098    21720271.694  
                                
  22134735.498   118364377.774    22134738.232    92061193.696    22134737.177  
                                
  21179177.844   113334058.800    21179177.344    88148710.703    21179177.254  
                                
  23954320.988   125880806.387                                                  
  23954322.257    94001905.747  
  24463932.371   128558832.995                                                  
  24463933.157    96001728.061  
  26438760.502   138936624.306                                                  
  26438762.342   103751380.910  
  26112209.111   137220585.232                                                  
  26112211.058   102469924.144  
  25656804.588   134827418.145                                                  
  25656807.214   100682822.414  
 21  8 31  6 18 47.0000000  0 17G 4G 7G 8G 9G16G27G30R 1R 2R12R20R21
                                E 1E 4E19E21E31
  22492453.235   118198638.785    22492452.788    92102832.136    22492452.556  
  22492456.201    88265228.810  
  21113899.998   110954293.599    21113897.479    86457878.995    21113897.139  
                                
  20507623.133   107768286.872    20507623.758    83975288.323    20507623.008  
  20507622.150    80476313.859  
  21005686.589   110385628.233    21005686.374    86014773.072    21005686.088  
  21005686.535    82430825.097  
  23973156.886   125979789.355                    98166056.795    23973153.955  
                                
  21602068.733   113519637.240    21602068.715    88456858.200    21602068.214  
  21602067.928    84771154.347  
  23427217.814   123110861.029    23427218.243    95930539.962    23427217.600  
  23427217.546    91933433.472  
  21351321.436   114135049.000    21351323.312    88771712.476    21351324.009  
                                
  21461304.718   114521633.693    21461306.022    89072387.803    21461306.005  
                                
  21719885.080   116023727.650    21719886.188    90240681.149    21719886.116  
                                
  22135020.276   118365900.617    22135023.010    92062378.132    22135021.956  
                                
  21178694.290   113331471.209    21178693.790    88146698.133    21178693.701  
                                
  23954395.520   125881198.066                                                  
  23954396.788    94002198.234  
  24464134.095   128559893.038                                                  
  24464134.881    96002519.641  
  26439341.567   138939677.902                                                  
  26439343.407   103753661.188  
  26112566.098   137222461.296                                                  
  26112568.063   102471325.102  
  25656517.361   134825908.791                                                  
  25656520.023   100681695.297  
 21  8 31  6 18 48.0000000  0 17G 4G 7G 8G 9G16G27G30R 1R 2R12R20R21
                                E 1E 4E19E21E31
  22493087.442   118201971.576    22493086.996    92105429.116    22493086.763  
  22493090.408    88267717.582  
  21113563.203   110952523.624    21113560.665    86456499.796    21113560.326  
                                
  20507602.619   107768179.134    20507603.245    83975204.371    20507602.512  
  20507601.637    80476233.405  
  21005998.439   110387266.961    21005998.207    86016050.003    21005997.939  
  21005998.385    82432048.822  
  23973774.278   125983033.831                    98168584.949    23973771.366  
                                
  21602442.696   113521602.511    21602442.696    88458389.580    21602442.177  
  21602441.927    84772621.921  
  23426677.527   123108021.827    23426677.955    95928327.599    23426677.312  
  23426677.276    91931313.291  
  21351912.382   114138208.052    21351914.258    88774169.517    21351914.991  
                                
  21461085.268   114520462.630    21461086.591    89071476.976    21461086.537  
                                
  21719499.538   116021668.159    21719500.664    90239079.325    21719500.574  
                                
  22135305.216   118367424.328    22135307.968    92063563.243    22135306.896  
                                
  21178210.880   113328884.301    21178210.379    88144686.095    21178210.254  
                                
  23954470.087   125881589.873                                                  
  23954471.320    94002490.815  
  24464335.889   128560953.507                                                  
  24464336.694    96003311.556  
  26439922.667   138942731.577                                                  
  26439924.508   103755941.534  
  26112923.103   137224337.365                                                  
  26112925.069   102472726.061  
  25656230.170   134824399.557                                                  
  25656232.815   100680568.272  
 21  8 31  6 18 49.0000000  0 17G 4G 7G 8G 9G16G27G30R 1R 2R12R20R21
                                E 1E 4E19E21E31
  22493721.721   118205304.754    22493721.274    92108026.397    22493721.024  
  22493724.687    88270206.648  
  21113226.425   110950753.955    21113223.906    86455120.833    21113223.566  
                                
  20507582.284   107768072.173    20507582.892    83975121.026    20507582.159  
  20507581.302    80476153.532  
  21006310.396   110388906.385    21006310.182    86017327.480    21006309.914  
  21006310.343    82433273.074  
  23974391.689   125986278.331                    98171113.137    23974388.794  
                                
  21602816.801   113523568.486    21602816.801    88459921.504    21602816.301  
  21602816.033    84774090.017  
  23426137.257   123105182.748    23426137.686    95926115.329    23426137.060  
  23426137.007    91929193.198  
  21352503.471   114141367.730    21352505.330    88776627.042    21352506.062  
                                
  21460865.998   114519292.514    21460867.320    89070566.891    21460867.266  
                                
  21719114.032   116019608.905    21719115.157    90237477.680    21719115.068  
                                
  22135590.334   118368948.935    22135593.050    92064749.055    22135591.996  
                                
  21177727.576   113326298.124    21177727.076    88142674.622    21177726.987  
                                
  23954544.672   125881981.901                                                  
  23954545.941    94002783.568  
  24464537.792   128562014.512                                                  
  24464538.596    96004103.863  
  26440503.804   138945785.419                                                  
  26440505.644   103758221.998  
  26113280.126   137226213.525                                                  
  26113282.092   102474127.098  
  25655943.015   134822890.537                                                  
  25655945.642   100679441.407  
 21  8 31  6 18 50.0000000  0 17G 4G 7G 8G 9G16G27G30R 1R 2R12R20R21
                                E 1E 4E19E21E31
  22494356.000   118208638.056    22494355.589    92110623.771    22494355.321  
  22494358.984    88272695.804  
  21112889.684   110948984.330    21112887.164    86453741.903    21112886.824  
                                
  20507562.021   107767965.732    20507562.628    83975038.087    20507561.896  
  20507561.020    80476074.049  
  21006622.461   110390546.242    21006622.247    86018605.287    21006621.961  
  21006622.407    82434497.636  
  23975009.099   125989522.727                    98173641.234    23975006.169  
                                
  21603191.014   113525534.880    21603190.997    88461453.759    21603190.496  
  21603190.210    84775558.428  
  23425596.987   123102343.549    23425597.398    95923902.962    23425596.772  
  23425596.737    91927073.019  
  21353094.614   114144527.761    21353096.491    88779084.849    21353097.205  
                                
  21460646.852   114518123.108    21460648.174    89069657.355    21460648.121  
                                
  21718728.525   116017549.566    21718729.651    90235875.970    21718729.562  
                                
  22135875.577   118370474.247    22135878.293    92065935.413    22135877.239  
                                
  21177244.380   113323712.440    21177243.880    88140663.535    21177243.773  
                                
  23954619.275   125882373.896                                                  
  23954620.526    94003076.294  
  24464739.729   128563075.788                                                  
  24464740.533    96004896.367  
  26441084.904   138948839.185                                                  
  26441086.745   103760502.408  
  26113637.131   137228089.535                                                  
  26113639.061   102475528.011  
  25655655.842   134821381.486                                                  
  25655658.486   100678314.519  
 21  8 31  6 18 51.0000000  0 17G 4G 7G 8G 9G16G27G30R 1R 2R12R20R21
                                E 1E 4E19E21E31
  22494990.332   118211971.387    22494989.886    92113221.169    22494989.635  
  22494993.316    88275184.984  
  21112552.924   110947214.641    21112550.404    86452362.926    21112550.065  
                                
  20507541.847   107767859.711    20507542.454    83974955.472    20507541.722  
  20507540.864    80475994.877  
  21006934.579   110392186.411    21006934.365    86019883.343    21006934.079  
  21006934.526    82435722.433  
  23975626.420   125992766.839                    98176169.116    23975623.490  
                                
  21603565.263   113527501.597    21603565.245    88462986.266    21603564.745  
  21603564.459    84777027.087  
  23425056.663   123099504.109    23425057.074    95921690.407    23425056.449  
  23425056.413    91924952.658  
  21353685.811   114147688.040    21353687.687    88781542.841    21353688.402  
                                
  21460427.796   114516954.295    21460429.118    89068748.278    21460429.082  
                                
  21718342.983   116015490.031    21718344.091    90234274.107    21718344.020  
                                
  22136160.910   118372000.099    22136163.626    92067122.187    22136162.572  
                                
  21176761.255   113321127.148    21176760.755    88138652.754    21176760.666  
                                
  23954693.843   125882765.756                                                  
  23954695.094    94003368.910  
  24464941.721   128564137.231                                                  
  24464942.543    96005689.008  
  26441665.987   138951892.766                                                  
  26441667.846   103762782.667  
  26113994.065   137229965.279                                                  
  26113996.013   102476928.731  
  25655368.651   134819872.272                                                  
  25655371.295   100677187.510  
 21  8 31  6 18 52.0000000  0 17G 4G 7G 8G 9G16G27G30R 1R 2R12R20R21
                                E 1E 4E19E21E31
  22495624.683   118215304.955    22495624.254    92115818.753    22495624.004  
  22495627.667    88277674.331  
  21112216.200   110945445.098    21112213.663    86450984.061    21112213.305  
                                
  20507521.798   107767754.323    20507522.405    83974873.350    20507521.673  
  20507520.815    80475916.176  
  21007246.769   110393827.111    21007246.572    86021161.808    21007246.304  
  21007246.733    82436947.634  
  23976243.742   125996010.866                    98178696.929    23976240.829  
                                
  21603939.619   113529468.858    21603939.601    88464519.192    21603939.083  
  21603938.833    84778496.143  
  23424516.340   123096664.672    23424516.769    95919477.859    23424516.125  
  23424516.072    91922832.293  
  21354277.097   114150848.776    21354278.973    88784001.196    21354279.670  
                                
  21460208.918   114515786.307    21460210.240    89067839.845    21460210.205  
                                
  21717957.441   116013430.535    21717958.549    90232672.279    21717958.478  
                                
  22136446.421   118373526.766    22136449.137    92068309.597    22136448.065  
                                
  21176278.238   113318542.501    21176277.737    88136642.475    21176277.648  
                                
  23954768.428   125883157.673                                                  
  23954769.661    94003661.577  
  24465143.784   128565199.043                                                  
  24465144.588    96006481.920  
  26442247.052   138954946.347                                                  
  26442248.910   103765062.958  
  26114350.999   137231840.978                                                  
  26114352.947   102478329.411  
  25655081.478   134818363.127                                                  
  25655084.105   100676060.546  
 21  8 31  6 18 53.0000000  0 17G 4G 7G 8G 9G16G27G30R 1R 2R12R20R21
                                E 1E 4E19E21E31
  22496259.122   118218638.961    22496258.711    92118416.682    22496258.443  
  22496262.106    88280164.011  
  21111879.530   110943675.910    21111876.992    86449605.476    21111876.653  
                                
  20507501.910   107767649.774    20507502.517    83974791.883    20507501.767  
  20507500.909    80475838.104  
  21007559.137   110395468.548    21007558.941    86022440.847    21007558.655  
  21007559.102    82438173.382  
  23976861.081   125999255.048                    98181224.861    23976858.168  
                                
  21604314.118   113531436.869    21604314.118    88466052.705    21604313.600  
  21604313.332    84779965.753  
  23423976.034   123093825.403    23423976.445    95917265.445    23423975.820  
  23423975.766    91920712.065  
  21354868.508   114154010.186    21354870.366    88786460.068    21354871.081  
                                
  21459990.219   114514619.341    21459991.541    89066932.205    21459991.506  
                                
  21717571.953   116011371.361    21717573.079    90231070.699    21717572.989  
                                
  22136732.093   118375054.410    22136734.809    92069497.763    22136733.755  
                                
  21175795.417   113315958.679    21175794.916    88134632.836    21175794.809  
                                
  23954843.049   125883549.879                                                  
  23954844.300    94003954.463  
  24465345.936   128566261.457                                                  
  24465346.758    96007275.281  
  26442828.188   138958000.181                                                  
  26442830.029   103767343.412  
  26114707.968   137233716.824                                                  
  26114709.916   102479730.203  
  25654794.340   134816854.254                                                  
  25654796.985   100674933.792  
 21  8 31  6 18 54.0000000  0 17G 4G 7G 8G 9G16G27G30R 1R 2R12R20R21
                                E 1E 4E19E21E31
  22496893.687   118221973.636    22496893.276    92121015.130    22496893.026  
  22496896.689    88282654.179  
  21111542.967   110941907.298    21111540.447    86448227.334    21111540.108  
                                
  20507482.200   107767546.273    20507482.808    83974711.236    20507482.075  
  20507481.217    80475760.814  
  21007871.684   110397110.938    21007871.470    86023720.632    21007871.184  
  21007871.631    82439399.840  
  23977478.491   126002499.595                    98183753.072    23977475.596  
                                
  21604688.796   113533405.828    21604688.796    88467586.958    21604688.278  
  21604688.028    84781436.082  
  23423435.836   123090986.547    23423436.247    95915053.357    23423435.603  
  23423435.568    91918592.141  
  21355460.080   114157172.456    21355461.938    88788919.611    21355462.653  
                                
  21459771.752   114513453.578    21459773.075    89066025.494    21459773.039  
                                
  21717186.554   116009312.670    21717187.697    90229469.498    21717187.608  
                                
  22137017.997   118376583.239    22137020.713    92070686.847    22137019.659  
                                
  21175312.757   113313375.876    21175312.256    88132623.991    21175312.149  
                                
  23954917.777   125883942.576                                                  
  23954919.046    94004247.706  
  24465548.267   128567324.652                                                  
  24465549.071    96008069.229  
  26443409.378   138961054.440                                                  
  26443411.237   103769624.185  
  26115064.991   137235593.037                                                  
  26115066.957   102481131.278  
  25654507.292   134815345.868                                                  
  25654509.937   100673807.400  
 21  8 31  6 18 55.0000000  0 17G 4G 7G 8G 9G16G27G30R 1R 2R12R20R21
                                E 1E 4E19E21E31
  22497528.252   118225308.317    22497527.823    92123613.582    22497527.591  
  22497531.236    88285144.369  
  21111206.404   110940138.624    21111203.884    86446849.148    21111203.545  
                                
  20507462.580   107767443.186    20507463.205    83974630.908    20507462.455  
  20507461.615    80475683.836  
  21008184.285   110398753.654    21008184.071    86025000.666    21008183.803  
  21008184.249    82440626.539  
  23978095.866   126005743.850                    98186281.068    23978092.953  
                                
  21605063.545   113535375.113    21605063.545    88469121.466    21605063.027  
  21605062.741    84782906.650  
  23422895.566   123088147.465    23422895.977    95912841.085    23422895.333  
  23422895.298    91916472.049  
  21356051.688   114160334.964    21356053.546    88791379.340    21356054.261  
                                
  21459553.411   114512288.379    21459554.715    89065119.231    21459554.679  
                                
  21716801.137   116007253.809    21716802.280    90227868.161    21716802.173  
                                
  22137303.991   118378112.675    22137306.707    92071876.408    22137305.671  
                                
  21174830.150   113310793.476    21174829.668    88130615.461    21174829.560  
                                
  23954992.488   125884335.129                                                  
  23954993.739    94004540.846  
  24465750.634   128568388.026                                                  
  24465751.438    96008863.305  
  26443990.550   138964108.517                                                  
  26443992.409   103771904.829  
  26115421.979   137237468.986                                                  
  26115423.926   102482532.148  
  25654220.244   134813837.336                                                  
  25654222.889   100672680.897  
 21  8 31  6 18 56.0000000  0 17G 4G 7G 8G 9G16G27G30R 1R 2R12R20R21
                                E 1E 4E19E21E31
  22498162.888   118228643.388    22498162.477    92126212.341    22498162.209  
  22498165.872    88287634.849  
  21110869.894   110938370.246    21110867.357    86445471.194    21110867.017  
                                
  20507443.120   107767340.909    20507443.746    83974551.211    20507442.995  
  20507442.138    80475607.456  
  21008496.993   110400397.051    21008496.796    86026281.237    21008496.511  
  21008496.957    82441853.753  
  23978713.241   126008988.229                    98188809.158    23978710.346  
                                
  21605438.419   113537345.087    21605438.419    88470656.511    21605437.901  
  21605437.633    84784377.739  
  23422355.314   123085308.518    23422355.760    95910628.923    23422355.117  
  23422355.081    91914352.054  
  21356643.420   114163498.082    21356645.279    88793839.542    21356645.993  
                                
  21459335.230   114511124.104    21459336.534    89064213.681    21459336.481  
                                
  21716415.755   116005195.132    21716416.881    90226266.971    21716416.792  
                                
  22137590.181   118379643.018    22137592.915    92073066.673    22137591.843  
                                
  21174347.722   113308211.871    21174347.240    88128607.546    21174347.132  
                                
  23955067.234   125884727.905                                                  
  23955068.485    94004834.153  
  24465953.090   128569451.936                                                  
  24465953.894    96009657.779  
  26444571.758   138967162.779                                                  
  26444573.635   103774185.611  
  26115778.984   137239345.041                                                  
  26115780.914   102483933.100  
  25653933.232   134812329.017                                                  
  25653935.859   100671554.562  
 21  8 31  6 18 57.0000000  0 17G 4G 7G 8G 9G16G27G30R 1R 2R12R20R21
                                E 1E 4E19E21E31
  22498797.596   118231978.735    22498797.185    92128811.313    22498796.917  
  22498800.580    88290125.523  
  21110533.421   110936602.044    21110530.901    86444093.370    21110530.526  
                                
  20507423.768   107767239.277    20507424.394    83974472.015    20507423.643  
  20507422.785    80475531.566  
  21008809.862   110402041.008    21008809.629    86027562.243    21008809.361  
  21008809.790    82443081.381  
  23979330.615   126012232.523                    98191337.177    23979327.721  
                                
  21605813.401   113539315.634    21605813.401    88472192.002    21605812.883  
  21605812.597    84785849.249  
  23421815.080   123082469.571    23421815.508    95908416.753    23421814.883  
  23421814.829    91912232.062  
  21357235.224   114166661.683    21357237.101    88796300.119    21357237.798  
                                
  21459117.174   114509960.633    21459118.497    89063308.759    21459118.461  
                                
  21716030.374   116003136.516    21716031.500    90224665.825    21716031.411  
                                
  22137876.515   118381174.167    22137879.231    92074257.569    22137878.194  
                                
  21173865.401   113305630.894    21173864.919    88126600.119    21173864.794  
                                
  23955141.998   125885120.783                                                  
  23955143.231    94005127.534  
  24466155.617   128570516.237                                                  
  24466156.421    96010452.552  
  26445152.984   138970217.085                                                  
  26445154.842   103776466.420  
  26116135.989   137241221.069                                                  
  26116137.919   102485334.024  
  25653646.220   134810820.799                                                  
  25653648.865   100670428.288  
 21  8 31  6 18 58.0000000  0 17G 4G 7G 8G 9G16G27G30R 1R 2R12R20R21
                                E 1E 4E19E21E31
  22499432.375   118235314.587    22499431.964    92131410.671    22499431.714  
  22499435.377    88292616.577  
  21110197.018   110934834.268    21110194.481    86442715.884    21110194.141  
                                
  20507404.613   107767138.561    20507405.238    83974393.540    20507404.505  
  20507403.648    80475456.354  
  21009122.820   110403685.775    21009122.623    86028843.879    21009122.355  
  21009122.784    82444309.614  
  23979948.026   126015477.031                    98193865.360    23979945.131  
                                
  21606188.543   113541286.999    21606188.525    88473728.133    21606188.025  
  21606187.739    84787321.368  
  23421274.899   123079630.880    23421275.346    95906204.783    23421274.702  
  23421274.667    91910112.255  
  21357827.189   114169826.033    21357829.048    88798761.280    21357829.780  
                                
  21458899.351   114508798.229    21458900.655    89062404.663    21458900.620  
                                
  21715645.047   116001078.261    21715646.190    90223064.962    21715646.083  
                                
  22138163.044   118382706.386    22138165.760    92075449.290    22138164.706  
                                
  21173383.242   113303050.792    21173382.759    88124593.380    21173382.652  
                                
  23955216.816   125885514.005                                                  
  23955218.066    94005421.174  
  24466358.270   128571581.201                                                  
  24466359.074    96011247.819  
  26445734.263   138973271.690                                                  
  26445736.104   103778747.454  
  26116493.012   137243097.317                                                  
  26116494.960   102486735.118  
  25653359.279   134809312.906                                                  
  25653361.906   100669302.269  
 21  8 31  6 18 59.0000000  0 17G 4G 7G 8G 9G16G27G30R 1R 2R12R20R21
                                E 1E 4E19E21E31
  22500067.243   118238650.787    22500066.832    92134010.312    22500066.582  
  22500070.245    88295107.896  
  21109860.670   110933066.752    21109858.150    86441338.602    21109857.811  
                                
  20507385.582   107767038.582    20507386.208    83974315.629    20507385.475  
  20507384.617    80475381.692  
  21009435.939   110405331.179    21009435.724    86030126.012    21009435.456  
  21009435.903    82445538.331  
  23980565.454   126018721.601                    98196393.590    23980562.559  
                                
  21606563.793   113543258.999    21606563.793    88475264.761    21606563.274  
  21606562.988    84788793.978  
  23420734.736   123076792.285    23420735.183    95903992.889    23420734.540  
  23420734.504    91907992.525  
  21358419.262   114172990.948    21358421.120    88801222.899    21358421.835  
                                
  21458681.688   114507636.722    21458682.993    89061501.268    21458682.957  
                                
  21715259.791   115999020.199    21715260.916    90221464.254    21715260.827  
                                
  22138449.753   118384239.482    22138452.469    92076641.710    22138451.415  
                                
  21172901.225   113300471.416    21172900.724    88122587.199    21172900.635  
                                
  23955291.687   125885907.415                                                  
  23955292.938    94005714.958  
  24466561.012   128572646.664                                                  
  24466561.834    96012043.453  
  26446315.578   138976326.436                                                  
  26446317.437   103781028.583  
  26116850.071   137244973.630                                                  
  26116852.001   102488136.259  
  25653072.356   134807805.204                                                  
  25653075.001   100668176.387  
 21  8 31  6 19  0.0000000  0 17G 4G 7G 8G 9G16G27G30R 1R 2R12R20R21
                                E 1E 4E19E21E31
  22500702.148   118241987.214    22500701.719    92136610.130    22500701.487  
  22500705.150    88297599.385  
  21109524.339   110931299.384    21109521.819    86439961.436    21109521.480  
                                
  20507366.677   107766939.212    20507367.302    83974238.201    20507366.570  
  20507365.694    80475307.485  
  21009749.165   110406977.117    21009748.932    86031408.564    21009748.682  
  21009749.111    82446767.443  
  23981182.865   126021966.115                    98198921.769    23981179.988  
                                
  21606939.167   113545231.532    21606939.149    88476801.799    21606938.631  
  21606938.363    84790266.973  
  23420194.591   123073953.685    23420195.002    95901780.992    23420194.395  
  23420194.323    91905872.776  
  21359011.405   114176156.328    21359013.282    88803684.857    21359013.996  
                                
  21458464.187   114506476.017    21458465.491    89060598.500    21458465.437  
                                
  21714874.534   115996962.215    21714875.642    90219863.602    21714875.571  
                                
  22138736.569   118385773.328    22138739.285    92077834.703    22138738.248  
                                
  21172419.315   113297892.668    21172418.833    88120581.508    21172418.725  
                                
  23955366.576   125886300.895                                                  
  23955367.809    94006008.791  
  24466763.843   128573712.494                                                  
  24466764.647    96012839.365  
  26446896.840   138979381.171                                                  
  26446898.716   103783309.726  
  26117207.112   137246849.895                                                  
  26117209.060   102489537.362  
  25652785.469   134806297.555                                                  
  25652788.114   100667050.550  
 21  8 31  6 19  1.0000000  0 17G 4G 7G 8G 9G16G27G30R 1R 2R12R20R21
                                E 1E 4E19E21E31
  22501337.088   118245323.855    22501336.677    92139210.105    22501336.409  
  22501340.072    88300091.042  
  21109188.062   110929532.151    21109185.524    86438584.369    21109185.185  
                                
  20507347.896   107766840.468    20507348.522    83974161.260    20507347.753  
  20507346.896    80475233.756  
  21010062.444   110408623.572    21010062.248    86032691.518    21010061.980  
  21010062.409    82447996.938  
  23981800.257   126025210.500                    98201449.865    23981797.380  
                                
  21607314.613   113547204.596    21607314.613    88478339.257    21607314.095  
  21607313.827    84791740.368  
  23419654.411   123071115.034    23419654.840    95899569.052    23419654.197  
  23419654.161    91903753.009  
  21359603.656   114179322.162    21359605.515    88806147.172    21359606.229  
                                
  21458246.792   114505316.092    21458248.114    89059696.334    21458248.061  
                                
  21714489.260   115994904.264    21714490.386    90218262.981    21714490.297  
                                
  22139023.545   118387307.944    22139026.261    92079028.296    22139025.225  
                                
  21171937.530   113295314.520    21171937.030    88118576.284    21171936.941  
                                
  23955441.447   125886694.431                                                  
  23955442.680    94006302.663  
  24466966.728   128574778.688                                                  
  24466967.532    96013635.550  
  26447478.173   138982435.946                                                  
  26447480.013   103785590.885  
  26117564.135   137248726.085                                                  
  26117566.083   102490938.419  
  25652498.582   134804789.959                                                  
  25652501.227   100665924.747  
 21  8 31  6 19  2.0000000  0 17G 4G 7G 8G 9G16G27G30R 1R 2R12R20R21
                                E 1E 4E19E21E31
  22501972.063   118248660.681    22501971.652    92141810.232    22501971.420  
  22501975.048    88302582.816  
  21108851.785   110927764.996    21108849.247    86437207.366    21108848.908  
                                
  20507329.223   107766742.331    20507329.849    83974084.787    20507329.080  
  20507328.240    80475160.464  
  21010375.867   110410270.490    21010375.671    86033974.830    21010375.385  
  21010375.831    82449226.773  
  23982417.614   126028454.765                    98203977.854    23982414.737  
                                
  21607690.166   113549178.119    21607690.166    88479877.069    21607689.630  
  21607689.362    84793214.104  
  23419114.195   123068276.284    23419114.641    95897357.039    23419113.998  
  23419113.962    91901633.167  
  21360195.961   114182488.396    21360197.819    88808609.794    21360198.534  
                                
  21458029.576   114504156.882    21458030.881    89058794.728    21458030.827  
                                
  21714104.004   115992846.271    21714105.130    90216662.319    21714105.041  
                                
  22139310.682   118388843.331    22139313.416    92080222.483    22139312.344  
                                
  21171455.835   113292736.928    21171455.353    88116571.491    21171455.263  
                                
  23955516.336   125887087.970                                                  
  23955517.587    94006596.537  
  24467169.684   128575845.196                                                  
  24467170.488    96014431.966  
  26448059.452   138985490.654                                                  
  26448061.310   103787872.005  
  26117921.140   137250602.154                                                  
  26117923.106   102492339.373  
  25652211.695   134803282.359                                                  
  25652214.339   100664798.940  
 21  8 31  6 19  3.0000000  0 17G 4G 7G 8G 9G16G27G30R 1R 2R12R20R21
                                E 1E 4E19E21E31
  22502607.111   118251997.903    22502606.700    92144410.662    22502606.449  
  22502610.113    88305074.900  
  21108515.561   110925998.177    21108513.042    86435830.625    21108512.702  
                                
  20507310.693   107766644.996    20507311.319    83974008.944    20507310.568  
  20507309.710    80475087.782  
  21010689.397   110411918.121    21010689.183    86035258.696    21010688.915  
  21010689.361    82450457.149  
  23983035.007   126031699.152                    98206505.951    23983032.112  
                                
  21608065.845   113551152.366    21608065.845    88481415.443    21608065.327  
  21608065.041    84794688.377  
  23418574.032   123065437.704    23418574.461    95895145.158    23418573.835  
  23418573.764    91899513.459  
  21360788.390   114185655.268    21360790.267    88811072.917    21360790.963  
                                
  21457812.503   114502998.632    21457813.826    89057893.867    21457813.772  
                                
  21713718.784   115990788.481    21713719.892    90215061.818    21713719.820  
                                
  22139597.963   118390379.589    22139600.697    92081417.354    22139599.625  
                                
  21170974.301   113290160.113    21170973.818    88114567.301    21170973.693  
                                
  23955591.261   125887481.758                                                  
  23955592.530    94006890.600  
  24467372.730   128576912.258                                                  
  24467373.552    96015228.799  
  26448640.803   138988545.576                                                  
  26448642.643   103790153.274  
  26118278.163   137252478.355                                                  
  26118280.129   102493740.435  
  25651924.861   134801774.998                                                  
  25651927.488   100663673.320  
 21  8 31  6 19  4.0000000  0 17G 4G 7G 8G 9G16G27G30R 1R 2R12R20R21
                                E 1E 4E19E21E31
  22503242.229   118255335.471    22503241.818    92147011.363    22503241.568  
  22503245.231    88307567.240  
  21108179.391   110924231.618    21108176.854    86434454.084    21108176.514  
                                
  20507292.306   107766548.400    20507292.931    83973933.674    20507292.181  
  20507291.323    80475015.653  
  21011003.052   110413566.386    21011002.838    86036543.059    21011002.570  
  21011003.016    82451687.999  
  23983652.399   126034943.590                    98209034.091    23983649.522  
                                
  21608441.648   113553127.261    21608441.648    88482954.325    21608441.130  
  21608440.880    84796163.133  
  23418033.887   123062599.224    23418034.298    95892933.358    23418033.691  
  23418033.655    91897393.815  
  21361380.927   114188822.723    21361382.785    88813536.500    21361383.518  
                                
  21457595.627   114501841.297    21457596.949    89056993.724    21457596.878  
                                
  21713333.599   115988730.884    21713334.707    90213461.468    21713334.618  
                                
  22139885.440   118391916.804    22139888.156    92082612.974    22139887.119  
                                
  21170492.891   113287584.013    21170492.409    88112563.668    21170492.302  
                                
  23955666.239   125887875.729                                                  
  23955667.508    94007184.796  
  24467575.883   128577979.819                                                  
  24467576.687    96016025.994  
  26449222.154   138991600.628                                                  
  26449224.012   103792434.632  
  26118635.186   137254354.604                                                  
  26118637.152   102495141.525  
  25651638.046   134800267.815                                                  
  25651640.690   100662547.822  
 21  8 31  6 19  5.0000000  0 17G 4G 7G 8G 9G16G27G30R 1R 2R12R20R21
                                E 1E 4E19E21E31
  22503877.419   118258673.389    22503876.991    92149612.337    22503876.740  
  22503880.404    88310059.854  
  21107843.275   110922465.327    21107840.755    86433077.753    21107840.416  
                                
  20507274.079   107766452.560    20507274.705    83973858.992    20507273.937  
  20507273.097    80474944.083  
  21011316.832   110415215.308    21011316.635    86037827.933    21011316.350  
  21011316.796    82452919.337  
  23984269.792   126038188.083                    98211562.268    23984266.915  
                                
  21608817.577   113555102.805    21608817.577    88484493.710    21608817.058  
  21608816.790    84797638.387  
  23417493.760   123059760.852    23417494.207    95890721.640    23417493.564  
  23417493.528    91895274.247  
  21361973.571   114191990.757    21361975.429    88816000.528    21361976.162  
                                
  21457378.929   114500684.906    21457380.216    89056094.307    21457380.180  
                                
  21712948.432   115986673.464    21712949.558    90211861.257    21712949.469  
                                
  22140173.077   118393454.863    22140175.793    92083809.247    22140174.739  
                                
  21170011.625   113285008.659    21170011.143    88110560.612    21170011.035  
                                
  23955741.236   125888269.881                                                  
  23955742.504    94007479.133  
  24467779.125   128579047.864                                                  
  24467779.929    96016823.567  
  26449803.540   138994655.820                                                  
  26449805.399   103794716.118  
  26118992.263   137256230.922                                                  
  26118994.193   102496542.678  
  25651351.284   134798760.817                                                  
  25651353.910   100661422.473  
 21  8 31  6 19  6.0000000  0 17G 4G 7G 8G 9G16G27G30R 1R 2R12R20R21
                                E 1E 4E19E21E31
  22504512.681   118262011.623    22504512.252    92152213.557    22504512.002  
  22504515.665    88312552.678  
  21107507.212   110920699.258    21107504.675    86431701.596    21107504.335  
                                
  20507255.960   107766357.423    20507256.586    83973784.856    20507255.835  
  20507254.995    80474873.041  
  21011630.719   110416864.844    21011630.523    86039113.286    21011630.237  
  21011630.684    82454151.128  
  23984887.202   126041432.577                    98214090.445    23984884.326  
                                
  21609193.630   113557078.951    21609193.630    88486033.566    21609193.112  
  21609192.826    84799114.078  
  23416953.651   123056922.527    23416954.098    95888509.963    23416953.455  
  23416953.419    91893154.713  
  21362566.322   114195159.316    21362568.199    88818464.959    21362568.895  
                                
  21457162.375   114499529.382    21457163.679    89055195.566    21457163.643  
                                
  21712563.301   115984616.184    21712564.427    90210261.152    21712564.338  
                                
  22140460.858   118394993.794    22140463.574    92085006.191    22140462.520  
                                
  21169530.502   113282434.011    21169530.019    88108558.113    21169529.894  
                                
  23955816.286   125888664.177                                                  
  23955817.536    94007773.570  
  24467982.457   128580116.359                                                  
  24467983.261    96017621.465  
  26450384.927   138997711.079                                                  
  26450386.767   103796997.643  
  26119349.304   137258107.258                                                  
  26119351.270   102497943.832  
  25651064.521   134797253.946                                                  
  25651067.166   100660297.205  
 21  8 31  6 19  7.0000000  0 17G 4G 7G 8G 9G16G27G30R 1R 2R12R20R21
                                E 1E 4E19E21E31
  22505147.907   118265349.787    22505147.478    92154814.719    22505147.246  
  22505150.891    88315045.463  
  21107171.114   110918933.037    21107168.576    86430325.320    21107168.237  
                                
  20507237.913   107766262.634    20507238.556    83973710.999    20507237.805  
  20507236.966    80474802.255  
  21011944.660   110418514.602    21011944.464    86040398.814    21011944.178  
  21011944.642    82455383.091  
  23985504.559   126044676.736                    98216618.354    23985501.682  
                                
  21609569.737   113559055.357    21609569.720    88487573.618    21609569.219  
  21609568.933    84800589.964  
  23416413.470   123054083.874    23416413.917    95886298.027    23416413.274  
  23416413.238    91891034.946  
  21363159.091   114198328.004    21363160.968    88820929.496    21363161.682  
                                
  21456945.927   114498374.336    21456947.232    89054297.201    21456947.196  
                                
  21712178.117   115982558.629    21712179.242    90208660.835    21712179.171  
                                
  22140748.728   118396533.167    22140751.462    92086203.479    22140750.390  
                                
  21169049.414   113279859.658    21169048.931    88106555.836    21169048.824  
                                
  23955891.282   125889058.250                                                  
  23955892.515    94008067.846  
  24468185.806   128581184.941                                                  
  24468186.610    96018419.430  
  26450966.295   139000766.099                                                  
  26450968.136   103799278.986  
  26119706.291   137259983.239                                                  
  26119708.257   102499344.734  
  25650777.741   134795746.854                                                  
  25650780.368   100659171.780  
 21  8 31  6 19  8.0000000  0 17G 4G 7G 8G 9G16G27G30R 1R 2R12R20R21
                                E 1E 4E19E21E31
  22505783.186   118268688.227    22505782.758    92157416.103    22505782.525  
  22505786.171    88317538.453  
  21106835.051   110917167.010    21106832.514    86428949.192    21106832.174  
                                
  20507220.008   107766168.512    20507220.633    83973637.657    20507219.883  
  20507219.025    80474731.969  
  21012258.708   110420164.930    21012258.512    86041684.782    21012258.226  
  21012258.672    82456615.481  
  23986121.880   126047920.774                    98219146.167    23986119.004  
                                
  21609945.952   113561032.322    21609945.934    88489114.108    21609945.416  
  21609945.148    84802066.267  
  23415873.290   123051245.238    23415873.719    95884086.103    23415873.093  
  23415873.040    91888915.194  
  21363751.968   114201497.181    21363753.826    88823394.407    21363754.541  
                                
  21456729.623   114497220.087    21456730.909    89053399.450    21456730.873  
                                
  21711792.968   115980501.158    21711794.076    90207060.584    21711793.986  
                                
  22141036.759   118398073.388    22141039.475    92087401.428    22141038.420  
                                
  21168568.433   113277285.960    21168567.987    88104554.073    21168567.862  
                                
  23955966.278   125889452.431                                                  
  23955967.529    94008362.202  
  24468389.227   128582253.931                                                  
  24468390.031    96019217.702  
  26451547.610   139003821.144                                                  
  26451549.451   103801560.369  
  26120063.279   137261859.221                                                  
  26120065.244   102500745.624  
  25650490.962   134794239.860                                                  
  25650493.606   100658046.426  
 21  8 31  6 19  9.0000000  0 17G 4G 7G 8G 9G16G27G30R 1R 2R12R20R21
                                E 1E 4E19E21E31
  22506418.520   118272026.934    22506418.091    92160017.690    22506417.858  
  22506421.522    88320031.637  
  21106499.024   110915401.165    21106496.504    86427573.206    21106496.129  
                                
  20507202.246   107766075.064    20507202.854    83973564.843    20507202.103  
  20507201.263    80474662.186  
  21012572.864   110421815.822    21012572.667    86042971.193    21012572.381  
  21012572.828    82457848.289  
  23986739.202   126051164.881                    98221674.046    23986736.343  
                                
  21610322.256   113563009.858    21610322.238    88490655.048    21610321.737  
  21610321.452    84803542.999  
  23415333.127   123048406.644    23415333.556    95881874.216    23415332.913  
  23415332.877    91886795.466  
  21364344.898   114204666.857    21364346.774    88825859.705    21364347.489  
                                
  21456513.461   114496066.652    21456514.766    89052502.334    21456514.730  
                                
  21711407.819   115978443.816    21711408.945    90205460.431    21711408.837  
                                
  22141324.932   118399614.448    22141327.666    92088600.021    22141326.612  
                                
  21168087.632   113274712.928    21168087.149    88102552.824    21168087.024  
                                
  23956041.310   125889846.724                                                  
  23956042.579    94008656.642  
  24468592.737   128583323.341                                                  
  24468593.524    96020016.285  
  26452129.015   139006876.280                                                  
  26452130.855   103803841.800  
  26120420.266   137263735.172                                                  
  26120422.232   102502146.497  
  25650204.217   134792732.965                                                  
  25650206.862   100656921.150  
 21  8 31  6 19 10.0000000  0 17G 4G 7G 8G 9G16G27G30R 1R 2R12R20R21
                                E 1E 4E19E21E31
  22507053.924   118275365.981    22507053.495    92162619.545    22507053.245  
  22507056.890    88322525.088  
  21106163.033   110913635.586    21106160.513    86426197.431    21106160.174  
                                
  20507184.591   107765982.365    20507185.217    83973492.610    20507184.466  
  20507183.609    80474592.965  
  21012887.126   110423467.361    21012886.929    86044258.103    21012886.661  
  21012887.108    82459081.578  
  23987356.558   126054408.992                    98224201.924    23987353.682  
                                
  21610698.684   113564988.052    21610698.684    88492196.497    21610698.166  
  21610697.880    84805020.219  
  23414792.947   123045568.122    23414793.393    95879662.384    23414792.768  
  23414792.714    91884675.794  
  21364937.971   114207837.108    21364939.847    88828325.456    21364940.562  
                                
  21456297.478   114494914.102    21456298.783    89051605.902    21456298.747  
                                
  21711022.706   115976386.670    21711023.831    90203860.429    21711023.742  
                                
  22141613.303   118401156.383    22141616.001    92089799.302    22141614.964  
                                
  21167606.937   113272140.652    21167606.454    88100552.167    21167606.347  
                                
  23956116.378   125890241.193                                                  
  23956117.629    94008951.215  
  24468796.319   128584393.229                                                  
  24468797.123    96020815.234  
  26452710.419   139009931.540                                                  
  26452712.260   103806123.314  
  26120777.253   137265611.186                                                  
  26120779.219   102503547.419  
  25649917.491   134791226.251                                                  
  25649920.153   100655796.000  
 21  8 31  6 19 11.0000000  0 17G 4G 7G 8G 9G16G27G30R 1R 2R12R20R21
                                E 1E 4E19E21E31
  22507689.400   118278705.498    22507688.989    92165221.766    22507688.739  
  22507692.402    88325018.878  
  21105827.149   110911870.383    21105824.593    86424821.946    21105824.254  
                                
  20507167.116   107765890.517    20507167.741    83973421.042    20507167.008  
  20507166.133    80474524.373  
  21013201.567   110425119.661    21013201.371    86045545.611    21013201.085  
  21013201.531    82460315.436  
  23987973.915   126057653.260                    98226729.913    23987971.056  
                                
  21611075.274   113566967.006    21611075.274    88493738.539    21611074.756  
  21611074.470    84806498.007  
  23414252.855   123042729.821    23414253.284    95877450.725    23414252.659  
  23414252.605    91882556.283  
  21365531.168   114211008.061    21365533.027    88830791.753    21365533.742  
                                
  21456081.674   114493762.575    21456082.978    89050710.269    21456082.943  
                                
  21710637.646   115974329.796    21710638.772    90202260.637    21710638.682  
                                
  22141901.834   118402699.342    22141904.550    92090999.381    22141903.513  
                                
  21167126.403   113269569.204    21167125.921    88098552.154    21167125.814  
                                
  23956191.517   125890635.968                                                  
  23956192.750    94009246.014  
  24469000.026   128585463.739                                                  
  24469000.830    96021614.639  
  26453291.859   139012987.052                                                  
  26453293.718   103808405.021  
  26121134.277   137267487.387                                                  
  26121136.242   102504948.474  
  25649630.836   134789719.823                                                  
  25649633.481   100654671.072  
 21  8 31  6 19 12.0000000  0 17G 4G 7G 8G 9G16G27G30R 1R 2R12R20R21
                                E 1E 4E19E21E31
  22508324.984   118282045.475    22508324.573    92167824.343    22508324.322  
  22508327.986    88327513.017  
  21105491.300   110910105.548    21105488.781    86423446.749    21105488.424  
                                
  20507149.783   107765799.525    20507150.426    83973350.138    20507149.675  
  20507148.836    80474456.425  
  21013516.116   110426772.709    21013515.919    86046833.698    21013515.633  
  21013516.098    82461549.857  
  23988591.308   126060897.683                    98229258.039    23988588.449  
                                
  21611452.007   113568946.726    21611451.989    88495281.180    21611451.489  
  21611451.203    84807976.371  
  23413712.782   123039891.731    23413713.229    95875239.222    23413712.586  
  23413712.550    91880436.923  
  21366124.474   114214179.692    21366126.350    88833258.580    21366127.065  
                                
  21455866.102   114492612.087    21455867.371    89049815.445    21455867.335  
                                
  21710252.640   115972273.163    21710253.766    90200661.039    21710253.677  
                                
  22142190.543   118404243.275    22142193.260    92092200.223    22142192.205  
                                
  21166645.995   113266998.580    21166645.548    88096552.782    21166645.423  
                                
  23956266.692   125891031.044                                                  
  23956267.925    94009541.036  
  24469203.858   128586534.851                                                  
  24469204.680    96022414.486  
  26453873.353   139016042.811                                                  
  26453875.212   103810686.916  
  26121491.353   137269363.758                                                  
  26121493.319   102506349.662  
  25649344.235   134788213.691                                                  
  25649346.862   100653546.365  
 21  8 31  6 19 13.0000000  0 17G 4G 7G 8G 9G16G27G30R 1R 2R12R20R21
                                E 1E 4E19E21E31
  22508960.567   118285385.599    22508960.174    92170427.038    22508959.924  
  22508963.569    88330007.266  
  21105155.488   110908340.794    21105152.951    86422071.614    21105152.611  
                                
  20507132.575   107765709.074    20507133.200    83973279.656    20507132.467  
  20507131.592    80474388.884  
  21013830.789   110428426.224    21013830.593    86048122.154    21013830.307  
  21013830.753    82462784.625  
  23989208.665   126064141.956                    98231786.051    23989205.806  
                                
  21611828.811   113570926.894    21611828.811    88496824.167    21611828.293  
  21611828.025    84809455.071  
  23413172.709   123037053.542    23413173.138    95873027.645    23413172.494  
  23413172.459    91878317.498  
  21366717.886   114217351.699    21366719.744    88835725.698    21366720.459  
                                
  21455650.637   114491462.329    21455651.906    89048921.189    21455651.870  
                                
  21709867.634   115970216.473    21709868.760    90199061.389    21709868.653  
                                
  22142479.414   118405787.922    22142482.130    92093401.614    22142481.076  
                                
  21166165.711   113264428.465    21166165.246    88094553.806    21166165.139  
                                
  23956341.849   125891426.100                                                  
  23956343.118    94009836.046  
  24469407.726   128587606.259                                                  
  24469408.548    96023214.564  
  26454454.829   139019098.502                                                  
  26454456.670   103812968.761  
  26121848.376   137271239.995                                                  
  26121850.342   102507750.746  
  25649057.598   134786707.527                                                  
  25649060.260   100652421.639  
 21  8 31  6 19 14.0000000  0 17G 4G 7G 8G 9G16G27G30R 1R 2R12R20R21
                                E 1E 4E19E21E31
  22509596.239   118288725.920    22509595.811    92173029.883    22509595.578  
  22509599.206    88332501.659  
  21104819.693   110906576.131    21104817.138    86420696.555    21104816.798  
                                
  20507115.492   107765619.215    20507116.117    83973209.639    20507115.367  
  20507114.509    80474321.780  
  21014145.552   110430080.232    21014145.338    86049410.991    21014145.069  
  21014145.498    82464019.756  
  23989826.022   126067386.118                    98234313.974    23989823.145  
                                
  21612205.722   113572907.559    21612205.722    88498367.544    21612205.204  
  21612204.918    84810934.137  
  23412632.600   123034215.296    23412633.029    95870816.028    23412632.421  
  23412632.349    91876198.020  
  21367311.334   114220524.145    21367313.193    88838193.154    21367313.925  
                                
  21455435.316   114490313.358    21455436.602    89048027.535    21455436.567  
                                
  21709482.628   115968159.826    21709483.736    90197461.772    21709483.647  
                                
  22142768.410   118407333.303    22142771.108    92094603.573    22142770.072  
                                
  21165685.535   113261858.950    21165685.070    88092555.297    21165684.963  
                                
  23956417.060   125891821.188                                                  
  23956418.293    94010131.079  
  24469611.683   128588677.999                                                  
  24469612.487    96024014.893  
  26455036.287   139022154.163                                                  
  26455038.128   103815250.593  
  26122205.417   137273116.140                                                  
  26122207.365   102509151.755  
  25648770.997   134785201.403                                                  
  25648773.641   100651296.939  
 21  8 31  6 19 15.0000000  0 17G 4G 7G 8G 9G16G27G30R 1R 2R12R20R21
                                E 1E 4E19E21E31
  22510231.912   118292066.526    22510231.519    92175632.952    22510231.251  
  22510234.914    88334996.278  
  21104483.916   110904811.697    21104481.397    86419321.671    21104481.057  
                                
  20507098.516   107765530.076    20507099.142    83973140.179    20507098.409  
  20507097.534    80474255.214  
  21014460.404   110431734.812    21014460.190    86050700.272    21014459.922  
  21014460.351    82465255.323  
  23990443.361   126070630.271                    98236841.890    23990440.466  
                                
  21612582.741   113574888.814    21612582.741    88499911.379    21612582.222  
  21612581.937    84812413.654  
  23412092.491   123031377.074    23412092.937    95868604.426    23412092.312  
  23412092.258    91874078.582  
  21367904.907   114223697.095    21367906.784    88840661.002    21367907.498  
                                
  21455220.155   114489165.224    21455221.441    89047134.540    21455221.406  
                                
  21709097.640   115966103.318    21709098.748    90195862.268    21709098.676  
                                
  22143057.548   118408879.523    22143060.282    92095806.186    22143059.210  
                                
  21165205.483   113259290.128    21165205.019    88090557.320    21165204.911  
                                
  23956492.253   125892216.415                                                  
  23956493.486    94010426.220  
  24469815.711   128589750.185                                                  
  24469816.515    96024815.558  
  26455617.781   139025209.936                                                  
  26455619.639   103817532.482  
  26122562.422   137274992.283                                                  
  26122564.388   102510552.777  
  25648484.413   134783695.400                                                  
  25648487.058   100650172.328  
 21  8 31  6 19 16.0000000  0 17G 4G 7G 8G 9G16G27G30R 1R 2R12R20R21
                                E 1E 4E19E21E31
  22510867.656   118295407.310    22510867.227    92178236.165    22510866.995  
  22510870.658    88337491.013  
  21104148.175   110903047.357    21104145.638    86417946.860    21104145.298  
                                
  20507081.666   107765441.499    20507082.291    83973071.161    20507081.523  
  20507080.683    80474189.074  
  21014775.346   110433389.870    21014775.149    86051989.927    21014774.863  
  21014775.310    82466491.241  
  23991060.664   126073874.307                    98239369.710    23991057.805  
                                
  21612959.866   113576870.558    21612959.848    88501455.595    21612959.330  
  21612959.062    84813893.521  
  23411552.381   123028538.793    23411552.828    95866392.781    23411552.203  
  23411552.149    91871959.085  
  21368498.552   114226870.427    21368500.410    88843129.149    21368501.125  
                                
  21455005.119   114488017.841    21455006.423    89046242.131    21455006.388  
                                
  21708712.670   115964046.796    21708713.778    90194262.751    21708713.688  
                                
  22143346.848   118410426.450    22143349.564    92097009.354    22143348.492  
                                
  21164725.539   113256721.889    21164725.075    88088559.803    21164724.985  
                                
  23956567.446   125892611.638                                                  
  23956568.714    94010721.352  
  24470019.793   128590822.691                                                  
  24470020.615    96025616.451  
  26456199.275   139028265.630                                                  
  26456201.115   103819814.347  
  26122919.428   137276868.320                                                  
  26122921.375   102511953.711  
  25648197.830   134782189.397                                                  
  25648200.474   100649047.718  
 21  8 31  6 19 17.0000000  0 17G 4G 7G 8G 9G16G27G30R 1R 2R12R20R21
                                E 1E 4E19E21E31
  22511503.490   118298748.637    22511503.061    92180839.797    22511502.828  
  22511506.492    88339986.158  
  21103812.524   110901283.463    21103809.968    86416572.398    21103809.629  
                                
  20507064.976   107765353.874    20507065.619    83973002.879    20507064.869  
  20507063.993    80474123.641  
  21015090.448   110435045.750    21015090.234    86053280.224    21015089.966  
  21015090.394    82467727.779  
  23991678.021   126077118.548                    98241897.693    23991675.144  
                                
  21613337.135   113578853.118    21613337.117    88503000.447    21613336.599  
  21613336.331    84815374.007  
  23411012.344   123025700.797    23411012.791    95864181.353    23411012.147  
  23411012.112    91869839.802  
  21369092.322   114230044.541    21369094.180    88845597.902    21369094.913  
                                
  21454790.315   114486871.537    21454791.602    89045350.559    21454791.566  
                                
  21708327.735   115961990.640    21708328.861    90192663.516    21708328.772  
                                
  22143636.326   118411974.474    22143639.042    92098213.373    22143637.988  
                                
  21164245.792   113254154.556    21164245.327    88086562.986    21164245.202  
                                
  23956642.746   125893007.248                                                  
  23956643.997    94011016.775  
  24470224.018   128591895.863                                                  
  24470224.840    96026417.845  
  26456780.822   139031321.674                                                  
  26456782.662   103822096.455  
  26123276.469   137278744.606                                                  
  26123278.416   102513354.836  
  25647911.336   134780683.767                                                  
  25647913.963   100647923.375  
 21  8 31  6 19 18.0000000  0 17G 4G 7G 8G 9G16G27G30R 1R 2R12R20R21
                                E 1E 4E19E21E31
  22512139.377   118302090.299    22512138.966    92183443.689    22512138.733  
  22512142.361    88342481.555  
  21103476.908   110899519.836    21103474.388    86415198.143    21103474.031  
                                
  20507048.447   107765267.002    20507049.091    83972935.187    20507048.340  
  20507047.500    80474058.768  
  21015405.675   110436702.290    21015405.479    86054571.034    21015405.193  
  21015405.640    82468964.802  
  23992295.396   126080362.874                    98244425.739    23992292.537  
                                
  21613714.529   113580836.360    21613714.529    88504545.828    21613714.011  
  21613713.725    84816854.990  
  23410472.306   123022862.881    23410472.735    95861969.987    23410472.092  
  23410472.056    91867720.589  
  21369686.217   114233219.229    21369688.093    88848067.099    21369688.808  
                                
  21454575.673   114485726.132    21454576.959    89044459.684    21454576.924  
                                
  21707942.872   115959934.673    21707943.998    90191064.431    21707943.909  
                                
  22143925.983   118413523.387    22143928.699    92099418.083    22143927.645  
                                
  21163766.151   113251587.951    21163765.687    88084566.740    21163765.597  
                                
  23956718.046   125893403.032                                                  
  23956719.314    94011312.330  
  24470428.333   128592969.536                                                  
  24470429.155    96027219.614  
  26457362.387   139034377.852                                                  
  26457364.245   103824378.666  
  26123633.510   137280620.954                                                  
  26123635.475   102514756.007  
  25647624.842   134779178.316                                                  
  25647627.468   100646799.179  
 21  8 31  6 19 19.0000000  0 17G 4G 7G 8G 9G16G27G30R 1R 2R12R20R21
                                E 1E 4E19E21E31
  22512775.299   118305432.046    22512774.888    92186047.645    22512774.638  
  22512778.284    88344977.013  
  21103141.310   110897756.197    21103138.772    86413823.886    21103138.415  
                                
  20507032.026   107765180.603    20507032.633    83972867.865    20507031.901  
  20507031.043    80473994.249  
  21015720.957   110438359.194    21015720.760    86055862.128    21015720.492  
  21015720.921    82470202.102  
  23992912.717   126083606.977                    98246953.605    23992909.858  
                                
  21614091.994   113582819.944    21614091.976    88506091.487    21614091.476  
  21614091.190    84818336.247  
  23409932.215   123020024.805    23409932.662    95859758.507    23409932.036  
  23409932.001    91865601.254  
  21370280.183   114236394.212    21370282.041    88850536.525    21370282.756  
                                
  21454361.137   114484581.336    21454362.424    89043569.291    21454362.388  
                                
  21707557.956   115957878.592    21707559.081    90189465.254    21707559.010  
                                
  22144215.747   118415072.892    22144218.463    92100623.253    22144217.409  
                                
  21163286.600   113249021.777    21163286.136    88082570.827    21163286.029  
                                
  23956793.346   125893798.734                                                  
  23956794.615    94011607.820  
  24470632.701   128594043.430                                                  
  24470633.487    96028021.548  
  26457943.952   139037433.895                                                  
  26457945.793   103826660.765  
  26123990.550   137282497.097                                                  
  26123992.498   102516157.016  
  25647338.348   134777672.765                                                  
  25647340.992   100645674.903  
 21  8 31  6 19 20.0000000  0 17G 4G 7G 8G 9G16G27G30R 1R 2R12R20R21
                                E 1E 4E19E21E31
  22513411.276   118308774.154    22513410.883    92188651.883    22513410.615  
  22513414.278    88347472.739  
  21102805.747   110895992.852    21102803.210    86412449.848    21102802.870  
                                
  20507015.729   107765094.958    20507016.355    83972801.129    20507015.586  
  20507014.746    80473930.289  
  21016036.398   110440016.767    21016036.202    86057153.746    21016035.916  
  21016036.363    82471439.900  
  23993530.074   126086851.142                    98249481.521    23993527.215  
                                
  21614469.584   113584804.197    21614469.566    88507637.661    21614469.048  
  21614468.780    84819817.999  
  23409392.177   123017186.850    23409392.624    95857547.118    23409391.999  
  23409391.945    91863481.995  
  21370874.239   114239569.783    21370876.097    88853006.414    21370876.812  
                                
  21454146.780   114483437.457    21454148.085    89042679.606    21454148.013  
                                
  21707173.093   115955822.690    21707174.218    90187866.222    21707174.129  
                                
  22144505.672   118416623.317    22144508.388    92101829.134    22144507.352  
                                
  21162807.174   113246456.347    21162806.728    88080575.493    21162806.620  
                                
  23956868.699   125894194.641                                                  
  23956869.950    94011903.462  
  24470837.140   128595117.837                                                  
  24470837.962    96028823.861  
  26458525.500   139040490.073                                                  
  26458527.340   103828942.982  
  26124347.574   137284373.315                                                  
  26124349.539   102517558.082  
  25647051.889   134776167.410                                                  
  25647054.534   100644550.780  
 21  8 31  6 19 21.0000000  0 17G 4G 7G 8G 9G16G27G30R 1R 2R12R20R21
                                E 1E 4E19E21E31
  22514047.342   118312116.676    22514046.931    92191256.448    22514046.680  
  22514050.344    88349968.782  
  21102470.256   110894229.838    21102467.719    86411076.076    21102467.379  
                                
  20506999.576   107765010.121    20507000.201    83972735.022    20506999.433  
  20506998.593    80473866.941  
  21016351.965   110441675.056    21016351.769    86058445.919    21016351.483  
  21016351.930    82472678.233  
  23994147.430   126090095.412                    98252009.524    23994144.571  
                                
  21614847.300   113586789.190    21614847.300    88509184.407    21614846.782  
  21614846.496    84821300.307  
  23408852.176   123014349.054    23408852.604    95855335.850    23408851.961  
  23408851.925    91861362.868  
  21371468.402   114242745.993    21371470.260    88855476.797    21371470.993  
                                
  21453932.620   114482294.582    21453933.889    89041790.699    21453933.853  
                                
  21706788.265   115953767.005    21706789.391    90186267.356    21706789.302  
                                
  22144795.793   118418174.685    22144798.527    92103035.754    22144797.455  
                                
  21162327.909   113243891.703    21162327.463    88078580.776    21162327.355  
                                
  23956944.089   125894590.809                                                  
  23956945.340    94012199.300  
  24471041.687   128596192.808                                                  
  24471042.509    96029626.599  
  26459107.119   139043546.457                                                  
  26459108.959   103831225.360  
  26124704.632   137286249.672                                                  
  26124706.580   102518959.262  
  25646765.467   134774662.305                                                  
  25646768.111   100643426.840  
 21  8 31  6 19 22.0000000  0 17G 4G 7G 8G 9G16G27G30R 1R 2R12R20R21
                                E 1E 4E19E21E31
  22514683.425   118315459.359    22514683.014    92193861.133    22514682.764  
  22514686.409    88352464.946  
  21102134.783   110892466.907    21102132.246    86409702.363    21102131.906  
                                
  20506983.529   107764925.849    20506984.172    83972669.356    20506983.404  
  20506982.564    80473804.008  
  21016667.604   110443333.791    21016667.389    86059738.440    21016667.121  
  21016667.550    82473916.901  
  23994764.769   126093339.542                    98254537.419    23994761.910  
                                
  21615225.122   113588774.626    21615225.105    88510731.502    21615224.586  
  21615224.336    84822782.936  
  23408312.138   123011511.178    23408312.585    95853124.521    23408311.941  
  23408311.906    91859243.671  
  21372062.654   114245922.593    21372064.512    88857947.484    21372065.227  
                                
  21453718.567   114481152.420    21453719.854    89040902.350    21453719.818  
                                
  21706403.438   115951711.312    21706404.564    90184668.486    21706404.475  
                                
  22145086.040   118419726.778    22145088.774    92104242.938    22145087.720  
                                
  21161848.752   113241327.651    21161848.287    88076586.513    21161848.198  
                                
  23957019.478   125894986.959                                                  
  23957020.711    94012495.127  
  24471246.323   128597268.072                                                  
  24471247.127    96030429.558  
  26459688.719   139046602.805                                                  
  26459690.578   103833507.693  
  26125061.673   137288125.903                                                  
  26125063.639   102520360.335  
  25646479.062   134773157.200                                                  
  25646481.707   100642302.893  
 21  8 31  6 19 23.0000000  0 17G 4G 7G 8G 9G16G27G30R 1R 2R12R20R21
                                E 1E 4E19E21E31
  22515319.580   118318802.397    22515319.169    92196466.091    22515318.919  
  22515322.582    88354961.368  
  21101799.364   110890704.242    21101796.826    86408328.856    21101796.487  
                                
  20506967.644   107764842.329    20506968.287    83972604.275    20506967.519  
  20506966.661    80473741.642  
  21016983.367   110444993.193    21016983.171    86061031.480    21016982.885  
  21016983.349    82475156.064  
  23995382.108   126096583.724                    98257065.358    23995379.249  
                                
  21615603.070   113590760.740    21615603.070    88512279.123    21615602.534  
  21615602.266    84824266.073  
  23407772.118   123008673.382    23407772.565    95850913.249    23407771.922  
  23407771.886    91857124.546  
  21372657.013   114249099.758    21372658.872    88860418.617    21372659.568  
                                
  21453504.693   114480011.175    21453505.997    89040014.718    21453505.962  
                                
  21706018.629   115949655.801    21706019.754    90183069.755    21706019.683  
                                
  22145376.465   118421279.777    22145379.181    92105450.821    22145378.145  
                                
  21161369.737   113238764.384    21161369.308    88074592.864    21161369.183  
                                
  23957094.903   125895383.310                                                  
  23957096.136    94012791.100  
  24471451.031   128598343.846                                                  
  24471451.853    96031232.889  
  26460270.356   139049659.291                                                  
  26460272.197   103835790.128  
  26125418.714   137290002.183                                                  
  26125420.680   102521761.460  
  25646192.675   134771652.269                                                  
  25646195.338   100641179.087  
 21  8 31  6 19 24.0000000  0 17G 4G 7G 8G 9G16G27G30R 1R 2R12R20R21
                                E 1E 4E19E21E31
  22515955.771   118322145.534    22515955.342    92199071.131    22515955.110  
  22515958.755    88357457.865  
  21101463.926   110888941.601    21101461.407    86406955.365    21101461.067  
                                
  20506951.847   107764759.328    20506952.473    83972539.601    20506951.722  
  20506950.865    80473679.665  
  21017299.220   110446652.990    21017299.024    86062324.826    21017298.738  
  21017299.184    82476395.521  
  23995999.430   126099827.725                    98259593.146    23995996.571  
                                
  21615981.089   113592747.265    21615981.089    88513827.060    21615980.571  
  21615980.285    84825749.504  
  23407232.081   123005835.459    23407232.545    95848701.878    23407231.902  
  23407231.848    91855005.305  
  21373251.426   114252277.255    21373253.285    88862889.989    21373253.999  
                                
  21453290.961   114478870.607    21453292.230    89039127.604    21453292.194  
                                
  21705633.819   115947600.224    21705634.945    90181470.973    21705634.874  
                                
  22145667.016   118422833.396    22145669.732    92106659.189    22145668.677  
                                
  21160890.829   113236201.580    21160890.364    88072599.570    21160890.275  
                                
  23957170.293   125895779.595                                                  
  23957171.562    94013087.034  
  24471655.792   128599419.859                                                  
  24471656.614    96032036.405  
  26460851.939   139052715.654                                                  
  26460853.780   103838072.497  
  26125775.719   137291878.293                                                  
  26125777.685   102523162.451  
  25645906.271   134770147.272                                                  
  25645908.933   100640055.226  
 21  8 31  6 19 25.0000000  0 17G 4G 7G 8G 9G16G27G30R 1R 2R12R20R21
                                E 1E 4E19E21E31
  22516591.998   118325489.024    22516591.605    92201676.448    22516591.337  
  22516595.000    88359954.631  
  21101128.579   110887179.242    21101126.041    86405582.098    21101125.702  
                                
  20506936.194   107764677.111    20506936.837    83972475.536    20506936.087  
  20506935.211    80473618.264  
  21017615.198   110448313.439    21017614.984    86063618.678    21017614.716  
  21017615.144    82477635.465  
  23996616.733   126103071.758                    98262120.968    23996613.892  
                                
  21616359.251   113594734.435    21616359.251    88515375.507    21616358.715  
  21616358.447    84827233.430  
  23406692.061   123002997.618    23406692.508    95846490.576    23406691.864  
  23406691.829    91852886.145  
  21373845.929   114255455.327    21373847.787    88865361.826    21373848.520  
                                
  21453077.391   114477730.951    21453078.677    89038241.203    21453078.642  
                                
  21705249.046   115945544.817    21705250.154    90179872.328    21705250.082  
                                
  22145957.727   118424387.899    22145960.443    92107868.245    22145959.388  
                                
  21160412.028   113233639.485    21160411.600    88070606.827    21160411.475  
                                
  23957245.736   125896176.080                                                  
  23957247.005    94013383.111  
  24471860.660   128600496.385                                                  
  24471861.482    96032840.302  
  26461433.612   139055772.187                                                  
  26461435.452   103840354.944  
  26126132.760   137293754.480                                                  
  26126134.726   102524563.497  
  25645619.919   134768642.469                                                  
  25645622.582   100638931.501  
 21  8 31  6 19 26.0000000  0 17G 4G 7G 8G 9G16G27G30R 1R 2R12R20R21
                                E 1E 4E19E21E31
  22517228.314   118328832.793    22517227.885    92204281.978    22517227.652  
  22517231.298    88362451.590  
  21100793.248   110885417.059    21100790.711    86404208.968    21100790.372  
                                
  20506920.684   107764595.551    20506921.309    83972411.985    20506920.541  
  20506919.701    80473557.363  
  21017931.283   110449974.457    21017931.087    86064912.982    21017930.801  
  21017931.247    82478875.833  
  23997234.054   126106315.755                    98264648.763    23997231.195  
                                
  21616737.503   113596722.166    21616737.467    88516924.385    21616736.949  
  21616736.681    84828717.781  
  23406152.023   123000159.819    23406152.488    95844279.299    23406151.845  
  23406151.809    91850767.007  
  21374440.574   114258633.895    21374442.432    88867834.043    21374443.147  
                                
  21452863.981   114476592.087    21452865.250    89037355.422    21452865.214  
                                
  21704864.290   115943489.497    21704865.398    90178273.748    21704865.308  
                                
  22146248.563   118425943.269    22146251.279    92109077.977    22146250.243  
                                
  21159933.353   113231078.044    21159932.924    88068614.593    21159932.817  
                                
  23957321.232   125896572.668                                                  
  23957322.465    94013679.266  
  24472065.582   128601573.304                                                  
  24472066.386    96033644.499  
  26462015.248   139058828.747                                                  
  26462017.089   103842637.451  
  26126489.766   137295630.649                                                  
  26126491.731   102525964.528  
  25645333.586   134767137.760                                                  
  25645336.249   100637807.861  
 21  8 31  6 19 27.0000000  0 17G 4G 7G 8G 9G16G27G30R 1R 2R12R20R21
                                E 1E 4E19E21E31
  22517864.683   118332177.005    22517864.290    92206887.857    22517864.022  
  22517867.685    88364948.889  
  21100457.972   110883655.242    21100455.452    86402836.120    21100455.095  
                                
  20506905.316   107764514.833    20506905.942    83972349.085    20506905.191  
  20506904.334    80473497.087  
  21018247.511   110451636.218    21018247.315    86066207.858    21018247.029  
  21018247.476    82480116.752  
  23997851.375   126109559.902                    98267176.677    23997848.534  
                                
  21617115.879   113598710.660    21617115.862    88518473.857    21617115.343  
  21617115.093    84830202.695  
  23405612.075   122997322.207    23405612.504    95842068.173    23405611.878  
  23405611.843    91848648.009  
  21375035.309   114261813.138    21375037.167    88870306.785    21375037.882  
                                
  21452650.732   114475454.227    21452652.019    89036470.422    21452651.965  
                                
  21704479.588   115941434.481    21704480.678    90176675.402    21704480.606  
                                
  22146539.614   118427499.644    22146542.330    92110288.496    22146541.293  
                                
  21159454.856   113228517.446    21159454.410    88066623.016    21159454.302  
                                
  23957396.747   125896969.549                                                  
  23957397.998    94013975.634  
  24472270.629   128602650.827                                                  
  24472271.451    96034449.143  
  26462596.921   139061885.559                                                  
  26462598.797   103844920.129  
  26126846.824   137297506.965                                                  
  26126848.790   102527365.673  
  25645047.325   134765633.333                                                  
  25645049.951   100636684.414  
 21  8 31  6 19 28.0000000  0 17G 4G 7G 8G 9G16G27G30R 1R 2R12R20R21
                                E 1E 4E19E21E31
  22518501.088   118335521.343    22518500.677    92209493.833    22518500.427  
  22518504.090    88367446.293  
  21100122.713   110881893.485    21100120.194    86401463.324    21100119.854  
                                
  20506890.074   107764434.655    20506890.682    83972286.614    20506889.949  
  20506889.091    80473437.214  
  21018563.829   110453298.427    21018563.614    86067503.082    21018563.346  
  21018563.775    82481358.010  
  23998468.696   126112803.888                    98269704.465    23998465.837  
                                
  21617494.381   113600699.600    21617494.363    88520023.682    21617493.845  
  21617493.577    84831687.935  
  23405072.055   122994484.496    23405072.520    95839856.972    23405071.877  
  23405071.841    91846528.934  
  21375630.133   114264992.753    21375631.991    88872779.819    21375632.706  
                                
  21452437.626   114474317.071    21452438.913    89035585.967    21452438.877  
                                
  21704094.868   115939379.435    21704095.975    90175077.035    21704095.904  
                                
  22146830.771   118429056.656    22146833.505    92111499.505    22146832.433  
                                
  21158976.449   113225957.404    21158976.020    88064631.870    21158975.913  
                                
  23957472.261   125897366.404                                                  
  23957473.512    94014271.987  
  24472475.712   128603728.633                                                  
  24472476.534    96035253.996  
  26463178.611   139064942.289                                                  
  26463180.452   103847202.763  
  26127203.865   137299383.154                                                  
  26127205.813   102528766.726  
  25644761.027   134764128.880                                                  
  25644763.690   100635560.970  
 21  8 31  6 19 29.0000000  0 17G 4G 7G 8G 9G16G27G30R 1R 2R12R20R21
                                E 1E 4E19E21E31
  22519137.583   118338866.039    22519137.154    92212100.087    22519136.922  
  22519140.585    88369943.945  
  21099787.526   110880131.976    21099784.989    86400090.722    21099784.649  
                                
  20506874.957   107764355.210    20506875.582    83972224.707    20506874.832  
  20506873.974    80473377.884  
  21018880.236   110454961.262    21018880.057    86068798.799    21018879.771  
  21018880.218    82482599.739  
  23999086.000   126116047.927                    98272232.294    23999083.141  
                                
  21617872.972   113602689.156    21617872.972    88521573.985    21617872.454  
  21617872.168    84833173.645  
  23404532.089   122991646.861    23404532.536    95837645.828    23404531.893  
  23404531.857    91844409.925  
  21376225.028   114268172.918    21376226.887    88875253.274    21376227.619  
                                
  21452224.699   114473180.823    21452225.968    89034702.210    21452225.932  
                                
  21703710.183   115937324.553    21703711.309    90173478.778    21703711.220  
                                
  22147122.126   118430614.593    22147124.842    92112711.227    22147123.788  
                                
  21158498.185   113223398.069    21158497.738    88062641.281    21158497.631  
                                
  23957547.812   125897763.438                                                  
  23957549.063    94014568.473  
  24472680.920   128604806.928                                                  
  24472681.760    96036059.214  
  26463760.319   139067999.145                                                  
  26463762.160   103849485.473  
  26127560.888   137301259.385                                                  
  26127562.854   102530167.803  
  25644474.765   134762624.596                                                  
  25644477.428   100634437.635  
 21  8 31  6 19 30.0000000  0 17G 4G 7G 8G 9G16G27G30R 1R 2R12R20R21
                                E 1E 4E19E21E31
  22519774.095   118342211.037    22519773.684    92214706.584    22519773.434  
  22519777.097    88372441.838  
  21099452.357   110878370.712    21099449.837    86398718.310    21099449.498  
                                
  20506859.965   107764276.479    20506860.590    83972163.358    20506859.840  
  20506858.982    80473319.091  
  21019196.785   110456624.712    21019196.589    86070094.993    21019196.303  
  21019196.767    82483841.926  
  23999703.321   126119291.977                    98274760.132    23999700.462  
                                
  21618251.688   113604679.349    21618251.688    88523124.785    21618251.170  
  21618250.884    84834659.832  
  23403992.105   122988809.293    23403992.552    95835434.741    23403991.909  
  23403991.873    91842290.971  
  21376820.067   114271353.629    21376821.925    88877727.163    21376822.640  
                                
  21452011.915   114472045.455    21452013.201    89033819.143    21452013.148  
                                
  21703325.517   115935269.767    21703326.643    90171880.613    21703326.553  
                                
  22147413.623   118432173.388    22147416.357    92113923.622    22147415.285  
                                
  21158020.027   113220839.413    21158019.581    88060651.222    21158019.491  
                                
  23957623.416   125898160.636                                                  
  23957624.649    94014865.075  
  24472886.181   128605885.684                                                  
  24472887.003    96036864.781  
  26464342.045   139071056.118                                                  
  26464343.886   103851768.274  
  26127917.929   137303135.656                                                  
  26127919.913   102531568.915  
  25644188.539   134761120.460                                                  
  25644191.184   100633314.422  
 21  8 31  6 19 31.0000000  0 17G 4G 7G 8G 9G16G27G30R 1R 2R12R20R21
                                E 1E 4E19E21E31
  22520410.751   118345556.684    22520410.340    92217313.579    22520410.108  
  22520413.753    88374940.210  
  21099117.295   110876610.007    21099114.775    86397346.331    21099114.436  
                                
  20506845.169   107764198.793    20506845.813    83972102.825    20506845.062  
  20506844.204    80473261.083  
  21019513.514   110458289.108    21019513.317    86071391.920    21019513.031  
  21019513.478    82485084.815  
  24000320.713   126122536.365                    98277288.236    24000317.836  
                                
  21618630.601   113606670.483    21618630.601    88524676.321    21618630.083  
  21618629.797    84836146.710  
  23403452.210   122985972.145    23403452.675    95833223.976    23403452.032  
  23403451.996    91840172.311  
  21377415.230   114274535.197    21377417.089    88880201.715    21377417.803  
                                
  21451799.381   114470911.305    21451800.649    89032937.027    21451800.613  
                                
  21702940.958   115933215.437    21702942.065    90170282.798    21702941.994  
                                
  22147705.353   118433733.406    22147708.069    92115136.968    22147707.015  
                                
  21157542.067   113218281.776    21157541.638    88058661.949    21157541.531  
                                
  23957699.073   125898558.298                                                  
  23957700.306    94015162.037  
  24473091.621   128606965.229                                                  
  24473092.443    96037670.935  
  26464923.825   139074113.514                                                  
  26464925.701   103854051.396  
  26128275.042   137305012.274                                                  
  26128277.007   102532970.290  
  25643902.403   134759616.801                                                  
  25643905.065   100632191.559  
 21  8 31  6 19 32.0000000  0 17G 4G 7G 8G 9G16G27G30R 1R 2R12R20R21
                                E 1E 4E19E21E31
  22521047.424   118348902.440    22521047.013    92219920.661    22521046.781  
  22521050.426    88377438.664  
  21098782.269   110874849.324    21098779.731    86395974.374    21098779.392  
                                
  20506830.499   107764121.646    20506831.124    83972042.706    20506830.392  
  20506829.534    80473203.469  
  21019830.296   110459953.903    21019830.117    86072689.165    21019829.849  
  21019830.278    82486328.008  
  24000938.052   126125780.547                    98279816.168    24000935.193  
                                
  21619009.567   113608662.023    21619009.567    88526228.170    21619009.049  
  21619008.763    84837633.907  
  23402912.298   122983134.836    23402912.745    95831013.088    23402912.119  
  23402912.066    91838053.545  
  21378010.465   114277717.087    21378012.306    88882676.521    21378013.038  
                                
  21451586.971   114469777.852    21451588.258    89032055.453    21451588.222  
                                
  21702556.380   115931161.071    21702557.470    90168684.956    21702557.399  
                                
  22147997.208   118435294.055    22147999.924    92116350.804    22147998.869  
                                
  21157064.213   113215724.656    21157063.785    88056673.078    21157063.659  
                                
  23957774.730   125898955.918                                                  
  23957775.999    94015458.960  
  24473297.115   128608045.039                                                  
  24473297.919    96038477.280  
  26465505.640   139077170.816                                                  
  26465507.481   103856334.440  
  26128632.119   137306888.739                                                  
  26128634.084   102534371.544  
  25643616.248   134758113.079                                                  
  25643618.893   100631068.655  
 21  8 31  6 19 33.0000000  0 17G 4G 7G 8G 9G16G27G30R 1R 2R12R20R21
                                E 1E 4E19E21E31
  22521684.133   118352248.377    22521683.722    92222527.885    22521683.490  
  22521687.135    88379937.251  
  21098447.242   110873088.745    21098444.705    86394602.497    21098444.365  
                                
  20506815.936   107764045.074    20506816.561    83971983.042    20506815.811  
  20506814.953    80473146.289  
  21020147.203   110461619.188    21020147.006    86073986.787    21020146.738  
  21020147.167    82487571.565  
  24001555.373   126129024.633                    98282344.031    24001552.514  
                                
  21619388.640   113610654.068    21619388.640    88527780.415    21619388.122  
  21619387.836    84839121.471  
  23402372.350   122980297.444    23402372.796    95828802.136    23402372.171  
  23402372.135    91835934.727  
  21378605.772   114280899.375    21378607.648    88885151.631    21378608.363  
                                
  21451374.723   114468645.169    21451375.992    89031174.476    21451375.956  
                                
  21702171.785   115929106.726    21702172.911    90167087.128    21702172.822  
                                
  22148289.187   118436855.426    22148291.904    92117565.203    22148290.849  
                                
  21156586.467   113213168.128    21156586.020    88054684.669    21156585.931  
                                
  23957850.406   125899353.554                                                  
  23957851.657    94015755.895  
  24473502.645   128609125.162                                                  
  24473503.484    96039283.863  
  26466087.420   139080228.077                                                  
  26466089.261   103858617.459  
  26128989.177   137308765.085                                                  
  26128991.143   102535772.708  
  25643330.111   134756609.376                                                  
  25643332.774   100629945.752  
 21  8 31  6 19 34.0000000  0 17G 4G 7G 8G 9G16G27G30R 1R 2R12R20R21
                                E 1E 4E19E21E31
  22522320.896   118355594.640    22522320.503    92225135.360    22522320.270  
  22522323.898    88382436.080  
  21098112.270   110871328.429    21098109.732    86393230.817    21098109.393  
                                
  20506801.497   107763969.231    20506802.123    83971923.941    20506801.390  
  20506800.533    80473089.650  
  21020464.217   110463285.089    21020464.021    86075284.894    21020463.735  
  21020464.181    82488815.584  
  24002172.695   126132268.742                    98284871.902    24002169.836  
                                
  21619767.839   113612646.728    21619767.839    88529333.137    21619767.321  
  21619767.035    84840609.490  
  23401832.419   122977460.170    23401832.902    95826591.268    23401832.258  
  23401832.223    91833815.968  
  21379201.203   114284082.220    21379203.044    88887627.180    21379203.759  
                                
  21451162.618   114467513.379    21451163.904    89030294.193    21451163.851  
                                
  21701787.244   115927052.522    21701788.352    90165489.410    21701788.281  
                                
  22148581.310   118438417.643    22148584.062    92118780.251    22148582.990  
                                
  21156108.846   113210612.335    21156108.417    88052696.828    21156108.310  
                                
  23957926.099   125899751.356                                                  
  23957927.368    94016052.958  
  24473708.281   128610205.764                                                  
  24473709.103    96040090.815  
  26466669.200   139083285.447                                                  
  26466671.040   103860900.577  
  26129346.254   137310641.474                                                  
  26129348.220   102537173.910  
  25643043.993   134755105.832                                                  
  25643046.655   100628822.982  
 21  8 31  6 19 35.0000000  0 17G 4G 7G 8G 9G16G27G30R 1R 2R12R20R21
                                E 1E 4E19E21E31
  22522957.730   118358941.197    22522957.337    92227743.071    22522957.069  
  22522960.732    88384935.138  
  21097777.315   110869568.308    21097774.795    86391859.292    21097774.438  
                                
  20506787.202   107763894.044    20506787.810    83971865.354    20506787.059  
  20506786.219    80473033.514  
  21020781.357   110464951.600    21020781.142    86076583.472    21020780.874  
  21020781.303    82490060.055  
  24002790.034   126135512.842                    98287399.772    24002787.175  
                                
  21620147.127   113614639.979    21620147.127    88530886.320    21620146.609  
  21620146.323    84842097.963  
  23401292.525   122974622.914    23401292.989    95824380.423    23401292.346  
  23401292.310    91831697.246  
  21379796.706   114287265.582    21379798.565    88890103.128    21379799.297  
                                
  21450950.673   114466382.468    21450951.960    89029414.598    21450951.924  
                                
  21701402.703   115924998.430    21701403.828    90163891.784    21701403.757  
                                
  22148873.630   118439980.692    22148876.346    92119995.956    22148875.291  
                                
  21155631.368   113208057.199    21155630.921    88050709.502    21155630.814  
                                
  23958001.846   125900149.297                                                  
  23958003.079    94016350.121  
  24473914.007   128611286.800                                                  
  24473914.829    96040898.078  
  26467251.015   139086342.913                                                  
  26467252.856   103863183.746  
  26129703.313   137312517.883                                                  
  26129705.296   102538575.123  
  25642757.892   134753602.415                                                  
  25642760.554   100627700.298  
 21  8 31  6 19 36.0000000  0 17G 4G 7G 8G 9G16G27G30R 1R 2R12R20R21
                                E 1E 4E19E21E31
  22523594.600   118362287.929    22523594.189    92230350.913    22523593.939  
  22523597.602    88387434.322  
  21097442.414   110867808.299    21097439.876    86390487.855    21097439.537  
                                
  20506772.996   107763819.448    20506773.622    83971807.227    20506772.889  
  20506772.031    80472977.802  
  21021098.550   110466618.560    21021098.353    86077882.402    21021098.085  
  21021098.514    82491304.865  
  24003407.337   126138756.816                    98289927.548    24003404.478  
                                
  21620526.540   113616633.722    21620526.540    88532439.881    21620526.022  
  21620525.736    84843586.789  
  23400752.594   122971785.596    23400753.059    95822169.531    23400752.415  
  23400752.380    91829578.470  
  21380392.317   114290449.341    21380394.157    88892579.383    21380394.872  
                                
  21450738.872   114465252.278    21450740.158    89028535.557    21450740.123  
                                
  21701018.179   115922944.336    21701019.305    90162294.157    21701019.216  
                                
  22149166.056   118441544.473    22149168.772    92121212.235    22149167.718  
                                
  21155153.961   113205502.601    21155153.532    88048722.593    21155153.425  
                                
  23958077.575   125900547.249                                                  
  23958078.808    94016647.291  
  24474119.787   128612368.171                                                  
  24474120.609    96041705.593  
  26467832.830   139089400.338                                                  
  26467834.671   103865466.895  
  26130060.372   137314394.178                                                  
  26130062.319   102539976.250  
  25642471.809   134752099.009                                                  
  25642474.471   100626577.622  
 21  8 31  6 19 37.0000000  0 17G 4G 7G 8G 9G16G27G30R 1R 2R12R20R21
                                E 1E 4E19E21E31
  22524231.541   118365635.005    22524231.130    92232959.021    22524230.880  
  22524234.543    88389933.746  
  21097107.512   110866048.522    21097104.993    86389116.600    21097104.653  
                                
  20506758.933   107763745.590    20506759.577    83971749.676    20506758.808  
  20506757.968    80472922.649  
  21021415.886   110468286.161    21021415.689    86079181.831    21021415.403  
  21021415.868    82492550.148  
  24004024.658   126142000.825                    98292455.355    24004021.799  
                                
  21620906.060   113618628.082    21620906.042    88533993.928    21620905.506  
  21620905.238    84845076.092  
  23400212.682   122968948.362    23400213.146    95819958.704    23400212.521  
  23400212.485    91827459.757  
  21380987.998   114293633.661    21380989.857    88895056.076    21380990.572  
                                
  21450527.267   114464122.982    21450528.536    89027657.211    21450528.500  
                                
  21700633.691   115920890.403    21700634.781    90160696.654    21700634.710  
                                
  22149458.643   118443109.102    22149461.377    92122429.171    22149460.323  
                                
  21154676.715   113202948.714    21154676.269    88046736.234    21154676.179  
                                
  23958153.339   125900945.372                                                  
  23958154.572    94016944.588  
  24474325.638   128613450.000                                                  
  24474326.460    96042513.456  
  26468414.664   139092457.902                                                  
  26468416.504   103867750.123  
  26130417.431   137316270.514                                                  
  26130419.378   102541377.410  
  25642185.761   134750595.758                                                  
  25642188.424   100625455.067  
 21  8 31  6 19 38.0000000  0 17G 4G 7G 8G 9G16G27G30R 1R 2R12R20R21
                                E 1E 4E19E21E31
  22524868.518   118368982.383    22524868.107    92235567.366    22524867.875  
  22524871.502    88392433.420  
  21096772.718   110864289.001    21096770.163    86387745.546    21096769.823  
                                
  20506745.013   107763672.479    20506745.657    83971692.710    20506744.906  
  20506744.066    80472868.052  
  21021733.329   110469954.386    21021733.132    86080481.744    21021732.864  
  21021733.311    82493795.903  
  24004641.979   126145244.858                    98294983.168    24004639.120  
                                
  21621285.687   113620623.076    21621285.670    88535548.471    21621285.151  
  21621284.883    84846565.858  
  23399672.805   122966111.200    23399673.252    95817747.928    23399672.626  
  23399672.573    91825341.096  
  21381583.805   114296818.518    21381585.664    88897533.187    21381586.378  
                                
  21450315.805   114462994.548    21450317.056    89026779.540    21450317.020  
                                
  21700249.204   115918836.607    21700250.312    90159099.257    21700250.240  
                                
  22149751.410   118444674.606    22149754.126    92123646.778    22149753.089  
                                
  21154199.595   113200395.583    21154199.166    88044750.468    21154199.059  
                                
  23958229.122   125901343.658                                                  
  23958230.373    94017242.012  
  24474531.597   128614532.309                                                  
  24474532.419    96043321.676  
  26468996.515   139095515.547                                                  
  26468998.355   103870033.440  
  26130774.489   137318146.895                                                  
  26130776.437   102542778.603  
  25641899.714   134749092.663                                                  
  25641902.376   100624332.629  
 21  8 31  6 19 39.0000000  0 17G 4G 7G 8G 9G16G27G30R 1R 2R12R20R21
                                E 1E 4E19E21E31
  22525505.567   118372330.090    22525505.156    92238175.964    22525504.906  
  22525508.569    88394933.331  
  21096437.924   110862529.723    21096435.387    86386374.680    21096435.047  
                                
  20506731.254   107763600.095    20506731.862    83971636.305    20506731.129  
  20506730.272    80472814.001  
  21022050.897   110471623.233    21022050.718    86081782.145    21022050.432  
  21022050.879    82495042.116  
  24005259.282   126148488.917                    98297511.008    24005256.423  
                                
  21621665.440   113622618.697    21621665.422    88537103.500    21621664.904  
  21621664.636    84848056.095  
  23399132.910   122963274.122    23399133.375    95815537.218    23399132.749  
  23399132.714    91823222.497  
  21382179.701   114300003.934    21382181.542    88900010.730    21382182.257  
                                
  21450104.486   114461866.977    21450105.772    89025902.541    21450105.719  
                                
  21699864.770   115916782.960    21699865.895    90157501.978    21699865.806  
                                
  22150044.336   118446240.967    22150047.053    92124865.050    22150045.998  
                                
  21153722.635   113197843.193    21153722.188    88042765.273    21153722.099  
                                
  23958304.940   125901742.101                                                  
  23958306.173    94017539.553  
  24474737.644   128615615.085                                                  
  24474738.484    96044130.241  
  26469578.384   139098573.313                                                  
  26469580.224   103872316.830  
  26131131.566   137320023.304                                                  
  26131133.514   102544179.827  
  25641613.720   134747589.727                                                  
  25641616.383   100623210.306  
 21  8 31  6 19 40.0000000  0 17G 4G 7G 8G 9G16G27G30R 1R 2R12R20R21
                                E 1E 4E19E21E31
  22526142.669   118375678.099    22526142.276    92240784.800    22526142.008  
  22526145.671    88397433.466  
  21096103.166   110860770.653    21096100.646    86385003.977    21096100.307  
                                
  20506717.620   107763528.409    20506718.246    83971580.446    20506717.495  
  20506716.637    80472760.468  
  21022368.590   110473292.670    21022368.394    86083083.005    21022368.108  
  21022368.573    82496288.773  
  24005876.604   126151732.991                    98300038.863    24005873.744  
                                
  21622045.300   113624614.923    21622045.300    88538658.999    21622044.781  
  21622044.513    84849546.778  
  23398593.051   122960437.095    23398593.516    95813326.547    23398592.890  
  23398592.837    91821103.933  
  21382775.705   114303189.878    21382777.545    88902488.687    21382778.260  
                                
  21449893.345   114460740.244    21449894.614    89025026.192    21449894.561  
                                
  21699480.335   115914729.432    21699481.461    90155904.788    21699481.372  
                                
  22150337.406   118447808.164    22150340.140    92126083.986    22150339.086  
                                
  21153245.782   113195291.482    21153245.335    88040780.609    21153245.246  
                                
  23958380.776   125902140.690                                                  
  23958382.045    94017837.200  
  24474943.781   128616698.314                                                  
  24474944.603    96044939.139  
  26470160.289   139101631.181                                                  
  26470162.129   103874600.294  
  26131488.625   137321899.737                                                  
  26131490.573   102545581.062  
  25641327.744   134746086.928                                                  
  25641330.407   100622088.082  
 21  8 31  6 19 41.0000000  0 17G 4G 7G 8G 9G16G27G30R 1R 2R12R20R21
                                E 1E 4E19E21E31
  22526779.825   118379026.401    22526779.414    92243393.867    22526779.181  
  22526782.827    88399933.813  
  21095768.479   110859011.791    21095765.942    86383633.437    21095765.602  
                                
  20506704.111   107763457.404    20506704.719    83971525.115    20506703.968  
  20506703.128    80472707.449  
  21022686.409   110474962.703    21022686.194    86084384.324    21022685.926  
  21022686.355    82497535.869  
  24006493.943   126154977.041                    98302566.694    24006491.083  
                                
  21622425.284   113626611.730    21622425.267    88540214.952    21622424.748  
  21622424.480    84851037.907  
  23398053.174   122957600.096    23398053.657    95811115.902    23398053.014  
  23398052.978    91818985.406  
  21383371.780   114306376.338    21383373.638    88904967.042    21383374.371  
                                
  21449682.348   114459614.360    21449683.617    89024150.505    21449683.581  
                                
  21699095.937   115912676.021    21699097.063    90154307.690    21699096.991  
                                
  22150630.637   118449376.218    22150633.371    92127303.588    22150632.317  
                                
  21152769.054   113192740.422    21152768.625    88038796.454    21152768.500  
                                
  23958456.666   125902539.408                                                  
  23958457.899    94018134.944  
  24475149.990   128617781.973                                                  
  24475150.812    96045748.367  
  26470742.211   139104689.108                                                  
  26470744.052   103876883.811  
  26131845.702   137323776.185                                                  
  26131847.685   102546982.301  
  25641041.804   134744584.247                                                  
  25641044.449   100620965.950  
 21  8 31  6 19 42.0000000  0 17G 4G 7G 8G 9G16G27G30R 1R 2R12R20R21
                                E 1E 4E19E21E31
  22527417.016   118382374.865    22527416.641    92246003.059    22527416.373  
  22527420.036    88402434.291  
  21095433.792   110857253.024    21095431.255    86382262.974    21095430.915  
                                
  20506690.692   107763386.974    20506691.317    83971470.235    20506690.584  
  20506689.709    80472654.851  
  21023004.263   110476633.193    21023004.084    86085686.007    21023003.781  
  21023004.245    82498783.318  
  24007111.228   126158220.963                    98305094.425    24007108.369  
                                
  21622805.358   113628609.018    21622805.358    88541771.281    21622804.840  
  21622804.554    84852529.384  
  23397513.316   122954763.033    23397513.762    95808905.201    23397513.155  
  23397513.083    91816866.816  
  21383967.962   114309563.189    21383969.802    88907445.700    21383970.517  
                                
  21449471.494   114458489.191    21449472.744    89023275.376    21449472.727  
                                
  21698711.539   115910622.616    21698712.646    90152710.592    21698712.575  
                                
  22150923.993   118450944.941    22150926.745    92128523.708    22150925.672  
                                
  21152292.416   113190189.912    21152291.987    88036812.723    21152291.898  
                                
  23958532.538   125902938.129                                                  
  23958533.789    94018432.691  
  24475356.270   128618865.944                                                  
  24475357.092    96046557.821  
  26471324.080   139107746.997                                                  
  26471325.921   103879167.306  
  26132202.760   137325652.509                                                  
  26132204.708   102548383.452  
  25640755.846   134743081.572                                                  
  25640758.509   100619843.822  
 21  8 31  6 19 43.0000000  0 17G 4G 7G 8G 9G16G27G30R 1R 2R12R20R21
                                E 1E 4E19E21E31
  22528054.261   118385723.567    22528053.868    92248612.437    22528053.600  
  22528057.263    88404934.945  
  21095099.159   110855494.412    21095096.604    86380892.624    21095096.264  
                                
  20506677.433   107763317.196    20506678.040    83971415.862    20506677.308  
  20506676.450    80472602.742  
  21023322.260   110478304.215    21023322.064    86086988.104    21023321.778  
  21023322.242    82500031.163  
  24007728.513   126161464.816                    98307622.115    24007725.636  
                                
  21623185.540   113630606.855    21623185.540    88543328.035    21623185.022  
  21623184.736    84854021.276  
  23396973.421   122951925.944    23396973.885    95806694.484    23396973.278  
  23396973.206    91814748.213  
  21384564.197   114312750.479    21384566.056    88909924.701    21384566.788  
                                
  21449260.782   114457364.824    21449262.051    89022400.873    21449262.015  
                                
  21698327.140   115908569.255    21698328.266    90151113.539    21698328.177  
                                
  22151217.509   118452514.497    22151220.243    92129744.469    22151219.189  
                                
  21151815.903   113187640.038    21151815.492    88034829.488    21151815.384  
                                
  23958608.410   125903336.932                                                  
  23958609.678    94018730.494  
  24475562.603   128619950.310                                                  
  24475563.443    96047367.573  
  26471906.003   139110804.918                                                  
  26471907.843   103881450.817  
  26132559.801   137327528.781                                                  
  26132561.749   102549784.569  
  25640469.906   134741578.961                                                  
  25640472.569   100618721.743  
 21  8 31  6 19 44.0000000  0 17G 4G 7G 8G 9G16G27G30R 1R 2R12R20R21
                                E 1E 4E19E21E31
  22528691.524   118389072.445    22528691.131    92251221.950    22528690.881  
  22528694.526    88407435.726  
  21094764.508   110853735.900    21094761.989    86379522.358    21094761.649  
                                
  20506664.245   107763248.011    20506664.871    83971361.951    20506664.138  
  20506663.281    80472551.077  
  21023640.347   110479975.727    21023640.150    86088290.577    21023639.864  
  21023640.329    82501279.363  
  24008345.763   126164708.550                    98310149.697    24008342.904  
                                
  21623565.793   113632605.150    21623565.793    88544885.148    21623565.274  
  21623564.989    84855513.509  
  23396433.526   122949088.796    23396434.009    95804483.717    23396433.365  
  23396433.330    91812629.565  
  21385160.523   114315938.149    21385162.381    88912403.999    21385163.078  
                                
  21449050.213   114456241.199    21449051.482    89021526.937    21449051.464  
                                
  21697942.742   115906515.868    21697943.867    90149516.467    21697943.796  
                                
  22151511.151   118454084.740    22151513.903    92130965.769    22151512.831  
                                
  21151339.515   113185090.735    21151339.086    88032846.702    21151338.996  
                                
  23958684.317   125903735.747                                                  
  23958685.568    94019028.312  
  24475769.009   128621034.979                                                  
  24475769.848    96048177.556  
  26472487.890   139113862.795                                                  
  26472489.730   103883734.294  
  26132916.824   137329404.959                                                  
  26132918.790   102551185.610  
  25640183.966   134740076.365                                                  
  25640186.629   100617599.676  
 21  8 31  6 19 45.0000000  0 17G 4G 7G 8G 9G16G27G30R 1R 2R12R20R21
                                E 1E 4E19E21E31
  22529328.876   118392421.754    22529328.483    92253831.803    22529328.215  
  22529331.878    88409936.844  
  21094429.946   110851977.754    21094427.409    86378152.376    21094427.069  
                                
  20506651.237   107763179.659    20506651.862    83971308.692    20506651.130  
  20506650.254    80472500.048  
  21023958.558   110481647.987    21023958.344    86089593.636    21023958.076  
  21023958.540    82502528.135  
  24008963.048   126167952.418                    98312677.391    24008960.189  
                                
  21623946.188   113634604.205    21623946.188    88546442.850    21623945.670  
  21623945.384    84857006.316  
  23395893.685   122946251.845    23395894.150    95802273.106    23395893.506  
  23395893.471    91810511.063  
  21385756.955   114319126.492    21385758.813    88914883.820    21385759.546  
                                
  21448839.841   114455118.590    21448841.092    89020653.799    21448841.074  
                                
  21697558.397   115904462.743    21697559.523    90147919.590    21697559.433  
                                
  22151804.989   118455656.025    22151807.741    92132187.882    22151806.687  
                                
  21150863.251   113182542.266    21150862.840    88030864.556    21150862.733  
                                
  23958760.261   125904134.847                                                  
  23958761.511    94019326.344  
  24475975.539   128622120.253                                                  
  24475976.361    96048987.994  
  26473069.830   139116920.907                                                  
  26473071.671   103886017.952  
  26133273.883   137331281.295                                                  
  26133275.831   102552586.773  
  25639898.098   134738574.042                                                  
  25639900.760   100616477.816  
 21  8 31  6 19 46.0000000  0 17G 4G 7G 8G 9G16G27G30R 1R 2R12R20R21
                                E 1E 4E19E21E31
  22529966.282   118395771.338    22529965.889    92256441.865    22529965.639  
  22529969.284    88412438.147  
  21094095.403   110850219.788    21094092.883    86376782.532    21094092.544  
                                
  20506638.371   107763111.976    20506638.997    83971255.952    20506638.246  
  20506637.388    80472449.497  
  21024276.877   110483320.795    21024276.698    86090897.121    21024276.412  
  21024276.859    82503777.300  
  24009580.334   126171196.266                    98315205.065    24009577.457  
                                
  21624326.727   113636603.815    21624326.727    88548000.985    21624326.209  
  21624325.923    84858499.518  
  23395353.826   122943414.899    23395354.309    95800062.495    23395353.665  
  23395353.630    91808392.564  
  21386353.494   114322315.305    21386355.335    88917364.007    21386356.067  
                                
  21448629.630   114453996.815    21448630.881    89019781.310    21448630.863  
                                
  21697174.070   115902409.720    21697175.178    90146322.796    21697175.106  
                                
  22152098.970   118457228.077    22152101.722    92133410.587    22152100.650  
                                
  21150387.149   113179994.460    21150386.720    88028882.932    21150386.631  
                                
  23958836.222   125904534.044                                                  
  23958837.473    94019624.443  
  24476182.140   128623205.925                                                  
  24476182.962    96049798.717  
  26473651.788   139119979.078                                                  
  26473653.629   103888301.646  
  26133630.942   137333157.611                                                  
  26133632.890   102553987.907  
  25639612.229   134737071.807                                                  
  25639614.891   100615356.013  
 21  8 31  6 19 47.0000000  0 17G 4G 7G 8G 9G16G27G30R 1R 2R12R20R21
                                E 1E 4E19E21E31
  22530603.760   118399121.352    22530603.384    92259052.267    22530603.116  
  22530606.762    88414939.784  
  21093760.966   110848462.197    21093758.429    86375412.979    21093758.089  
                                
  20506625.631   107763045.135    20506626.274    83971203.868    20506625.523  
  20506624.683    80472399.585  
  21024595.339   110484994.341    21024595.160    86092201.183    21024594.874  
  21024595.321    82505027.030  
  24010197.637   126174440.240                    98317732.839    24010194.778  
                                
  21624707.373   113638604.164    21624707.355    88549559.703    21624706.855  
  21624706.569    84859993.289  
  23394814.021   122940578.165    23394814.503    95797852.057    23394813.860  
  23394813.824    91806274.211  
  21386950.159   114325504.780    21386951.999    88919844.708    21386952.714  
                                
  21448419.580   114452876.056    21448420.849    89018909.611    21448420.831  
                                
  21696789.797   115900356.983    21696790.887    90144726.220    21696790.815  
                                
  22152393.148   118458801.145    22152395.882    92134634.082    22152394.828  
                                
  21149911.172   113177447.487    21149910.779    88026901.951    21149910.672  
                                
  23958912.255   125904933.525                                                  
  23958913.488    94019922.754  
  24476388.831   128624292.197                                                  
  24476389.671    96050609.893  
  26474233.765   139123037.460                                                  
  26474235.605   103890585.498  
  26133988.019   137335034.076                                                  
  26133989.984   102555389.165  
  25639326.414   134735569.848                                                  
  25639329.076   100614234.418  
 21  8 31  6 19 48.0000000  0 17G 4G 7G 8G 9G16G27G30R 1R 2R12R20R21
                                E 1E 4E19E21E31
  22531241.309   118402471.623    22531240.915    92261662.866    22531240.647  
  22531244.311    88417441.613  
  21093426.511   110846704.762    21093423.992    86374043.551    21093423.635  
                                
  20506613.051   107762978.936    20506613.658    83971152.283    20506612.926  
  20506612.068    80472350.149  
  21024913.908   110486668.432    21024913.711    86093505.667    21024913.425  
  21024913.890    82506277.165  
  24010814.940   126177684.176                    98320260.581    24010812.063  
                                
  21625088.126   113640605.067    21625088.126    88551118.847    21625087.608  
  21625087.322    84861487.466  
  23394274.198   122937741.407    23394274.662    95795641.592    23394274.037  
  23394274.001    91804155.864  
  21387546.895   114328694.730    21387548.753    88922325.785    21387549.450  
                                
  21448209.708   114451756.126    21448210.977    89018038.554    21448210.959  
                                
  21696405.523   115898304.335    21696406.631    90143129.719    21696406.560  
                                
  22152687.451   118460374.959    22152690.203    92135858.162    22152689.131  
                                
  21149435.338   113174901.143    21149434.927    88024921.461    21149434.820  
                                
  23958988.287   125905333.094                                                  
  23958989.538    94020221.132  
  24476595.612   128625378.849                                                  
  24476596.452    96051421.359  
  26474815.777   139126095.889                                                  
  26474817.617   103892869.388  
  26134345.077   137336910.509                                                  
  26134347.061   102556790.398  
  25639040.617   134734067.976                                                  
  25639043.279   100613112.888  
 21  8 31  6 19 49.0000000  0 17G 4G 7G 8G 9G16G27G30R 1R 2R12R20R21
                                E 1E 4E19E21E31
  22531878.911   118405822.291    22531878.518    92264273.771    22531878.250  
  22531881.913    88419943.721  
  21093092.146   110844947.637    21093089.609    86372674.368    21093089.269  
                                
  20506600.596   107762913.504    20506601.221    83971101.301    20506600.471  
  20506599.613    80472301.294  
  21025232.620   110488343.204    21025232.423    86094810.688    21025232.137  
  21025232.584    82507527.813  
  24011432.244   126180928.188                    98322788.385    24011429.385  
                                
  21625469.022   113642606.663    21625469.022    88552678.530    21625468.504  
  21625468.218    84862982.162  
  23393734.428   122934904.805    23393734.875    95793431.259    23393734.267  
  23393734.214    91802037.622  
  21388143.774   114331885.297    21388145.614    88924807.330    21388146.329  
                                
  21448000.033   114450637.164    21448001.302    89017168.253    21448001.248  
                                
  21696021.304   115896251.899    21696022.429    90141533.380    21696022.322  
                                
  22152981.932   118461949.720    22152984.684    92137082.976    22152983.630  
                                
  21148959.629   113172355.581    21148959.236    88022941.582    21148959.110  
                                
  23959064.374   125905732.883                                                  
  23959065.607    94020519.680  
  24476802.517   128626466.039                                                  
  24476803.339    96052233.219  
  26475397.789   139129154.485                                                  
  26475399.629   103895153.417  
  26134702.172   137338787.036                                                  
  26134704.138   102558191.700  
  25638754.855   134732566.316                                                  
  25638757.518   100611991.528  
 21  8 31  6 19 50.0000000  0 17G 4G 7G 8G 9G16G27G30R 1R 2R12R20R21
                                E 1E 4E19E21E31
  22532516.549   118409173.108    22532516.156    92266884.800    22532515.906  
  22532519.551    88422445.962  
  21092757.817   110843190.616    21092755.262    86371305.265    21092754.922  
                                
  20506588.266   107762848.676    20506588.892    83971050.789    20506588.141  
  20506587.284    80472252.882  
  21025551.403   110490018.451    21025551.206    86096116.074    21025550.920  
  21025551.367    82508778.807  
  24012049.547   126184172.100                    98325316.114    24012046.688  
                                
  21625850.008   113644608.726    21625849.990    88554238.581    21625849.490  
  21625849.204    84864477.218  
  23393194.605   122932068.121    23393195.087    95791220.851    23393194.444  
  23393194.408    91799919.323  
  21388740.706   114335076.268    21388742.547    88927289.194    21388743.262  
                                
  21447790.483   114449518.971    21447791.734    89016298.545    21447791.716  
                                
  21695637.066   115894199.433    21695638.192    90139937.018    21695638.120  
                                
  22153276.557   118463525.203    22153279.291    92138308.356    22153278.254  
                                
  21148484.045   113169810.572    21148483.616    88020962.133    21148483.526  
                                
  23959140.442   125906132.690                                                  
  23959141.693    94020818.237  
  24477009.458   128627553.554                                                  
  24477010.298    96053045.323  
  26475979.836   139132213.055                                                  
  26475981.677   103897437.406  
  26135059.249   137340663.466                                                  
  26135061.214   102559592.933  
  25638469.094   134731064.668                                                  
  25638471.756   100610870.171  
 21  8 31  6 19 51.0000000  0 17G 4G 7G 8G 9G16G27G30R 1R 2R12R20R21
                                E 1E 4E19E21E31
  22533154.259   118412524.289    22533153.848    92269496.108    22533153.616  
  22533157.243    88424948.471  
  21092423.505   110841433.876    21092420.968    86369936.374    21092420.628  
                                
  20506576.080   107762784.608    20506576.687    83971000.863    20506575.937  
  20506575.097    80472205.041  
  21025870.311   110491694.367    21025870.133    86097421.987    21025869.829  
  21025870.294    82510030.301  
  24012666.832   126187416.042                    98327843.867    24012663.973  
                                
  21626231.100   113646611.455    21626231.100    88555799.149    21626230.582  
  21626230.296    84865972.762  
  23392654.818   122929231.554    23392655.300    95789010.537    23392654.657  
  23392654.621    91797801.110  
  21389337.764   114338267.818    21389339.605    88929771.513    21389340.319  
                                
  21447581.112   114448401.716    21447582.363    89015429.569    21447582.345  
                                
  21695252.900   115892147.168    21695253.990    90138340.811    21695253.918  
                                
  22153571.342   118465101.603    22153574.112    92139534.445    22153573.040  
                                
  21148008.568   113167266.322    21148008.175    88018983.274    21148008.050  
                                
  23959216.564   125906532.699                                                  
  23959217.815    94021116.945  
  24477216.507   128628641.574                                                  
  24477217.329    96053857.801  
  26476561.884   139135271.762                                                  
  26476563.724   103899721.510  
  26135416.343   137342539.975                                                  
  26135418.309   102560994.222  
  25638183.404   134729563.214                                                  
  25638186.049   100609748.957  
 21  8 31  6 19 52.0000000  0 17G 4G 7G 8G 9G16G27G30R 1R 2R12R20R21
                                E 1E 4E19E21E31
  22533792.040   118415875.784    22533791.647    92272107.660    22533791.379  
  22533795.042    88427451.203  
  21092089.265   110839677.362    21092086.728    86368567.662    21092086.388  
                                
  20506564.000   107762721.239    20506564.644    83970951.482    20506563.875  
  20506563.035    80472157.715  
  21026189.363   110493370.879    21026189.166    86098728.358    21026188.880  
  21026189.327    82511282.239  
  24013284.153   126190660.010                    98330371.637    24013281.259  
                                
  21626612.318   113648614.785    21626612.318    88557360.185    21626611.800  
  21626611.514    84867468.760  
  23392115.066   122926395.054    23392115.548    95786800.278    23392114.905  
  23392114.851    91795682.931  
  21389934.893   114341459.911    21389936.752    88932254.252    21389937.448  
                                
  21447371.883   114447285.350    21447373.152    89014561.281    21447373.134  
                                
  21694868.716   115890095.072    21694869.842    90136744.732    21694869.770  
                                
  22153866.324   118466678.875    22153869.058    92140761.208    22153868.004  
                                
  21147533.234   113164722.753    21147532.841    88017004.947    21147532.716  
                                
  23959292.704   125906932.850                                                  
  23959293.955    94021415.761  
  24477423.626   128629730.046                                                  
  24477424.466    96054670.621  
  26477143.967   139138330.573                                                  
  26477145.790   103902005.682  
  26135773.420   137344416.494                                                  
  26135775.386   102562395.521  
  25637897.696   134728061.903                                                  
  25637900.359   100608627.842  
 21  8 31  6 19 53.0000000  0 17G 4G 7G 8G 9G16G27G30R 1R 2R12R20R21
                                E 1E 4E19E21E31
  22534429.857   118419227.693    22534429.482    92274719.540    22534429.232  
  22534432.859    88429954.254  
  21091755.061   110837921.192    21091752.523    86367199.218    21091752.184  
                                
  20506552.099   107762658.700    20506552.725    83970902.748    20506551.992  
  20506551.135    80472111.014  
  21026508.521   110495048.110    21026508.325    86100035.289    21026508.039  
  21026508.486    82512534.715  
  24013901.475   126193904.090                    98332899.491    24013898.598  
                                
  21626993.697   113650618.861    21626993.697    88558921.800    21626993.161  
  21626992.893    84868965.301  
  23391575.314   122923558.713    23391575.797    95784590.147    23391575.153  
  23391575.118    91793564.891  
  21390532.165   114344652.658    21390534.006    88934737.499    21390534.721  
                                
  21447162.869   114446169.951    21447164.138    89013693.752    21447164.084  
                                
  21694484.621   115888043.206    21694485.729    90135148.836    21694485.658  
                                
  22154161.449   118468257.109    22154164.183    92141988.720    22154163.146  
                                
  21147058.079   113162180.024    21147057.668    88015027.269    21147057.578  
                                
  23959368.915   125907333.264                                                  
  23959370.148    94021714.770  
  24477630.854   128630819.082                                                  
  24477631.693    96055483.859  
  26477726.069   139141389.580                                                  
  26477727.909   103904290.008  
  26136130.550   137346293.150                                                  
  26136132.516   102563796.917  
  25637612.060   134726560.833                                                  
  25637614.722   100607506.915  
 21  8 31  6 19 54.0000000  0 17G 4G 7G 8G 9G16G27G30R 1R 2R12R20R21
                                E 1E 4E19E21E31
  22535067.763   118422579.866    22535067.370    92277331.625    22535067.120  
  22535070.765    88432457.504  
  21091420.910   110836165.212    21091418.373    86365830.919    21091418.033  
                                
  20506540.342   107762596.833    20506540.949    83970854.543    20506540.217  
  20506539.359    80472064.815  
  21026827.787   110496725.907    21026827.591    86101342.663    21026827.305  
  21026827.769    82513787.617  
  24014518.796   126197148.149                    98335427.330    24014515.937  
                                
  21627375.147   113652623.500    21627375.147    88560483.855    21627374.628  
  21627374.360    84870462.276  
  23391035.580   122920722.393    23391036.063    95782380.027    23391035.419  
  23391035.384    91791446.868  
  21391129.545   114347845.885    21391131.385    88937221.123    21391132.100  
                                
  21446953.998   114445055.370    21446955.249    89012826.860    21446955.231  
                                
  21694100.544   115885991.411    21694101.634    90133552.993    21694101.563  
                                
  22154456.734   118469836.140    22154459.486    92143216.856    22154458.432  
                                
  21146583.049   113159637.967    21146582.620    88013050.116    21146582.513  
                                
  23959445.109   125907733.790                                                  
  23959446.378    94022013.863  
  24477838.170   128631908.543                                                  
  24477839.010    96056297.422  
  26478308.206   139144448.666                                                  
  26478310.046   103906574.381  
  26136487.663   137348169.815                                                  
  26136489.628   102565198.314  
  25637326.441   134725059.883                                                  
  25637329.086   100606386.074  
 21  8 31  6 19 55.0000000  0 17G 4G 7G 8G 9G16G27G30R 1R 2R12R20R21
                                E 1E 4E19E21E31
  22535705.741   118425932.459    22535705.366    92279944.030    22535705.098  
  22535708.743    88434961.061  
  21091086.831   110834409.570    21091084.293    86364462.886    21091083.954  
                                
  20506528.727   107762535.788    20506529.352    83970806.972    20506528.584  
  20506527.744    80472019.229  
  21027147.196   110498404.421    21027147.017    86102650.596    21027146.714  
  21027147.178    82515041.053  
  24015136.153   126200392.302                    98337955.241    24015133.258  
                                
  21627756.758   113654628.837    21627756.758    88562046.455    21627756.239  
  21627755.953    84871959.768  
  23390495.882   122917886.248    23390496.365    95780170.042    23390495.721  
  23390495.686    91789328.966  
  21391727.013   114351039.751    21391728.854    88939705.239    21391729.568  
                                
  21446745.306   114443941.756    21446746.557    89011960.714    21446746.539  
                                
  21693716.468   115883939.840    21693717.575    90131957.327    21693717.504  
                                
  22154752.216   118471416.153    22154754.950    92144445.755    22154753.914  
                                
  21146108.126   113157096.708    21146107.733    88011073.579    21146107.625  
                                
  23959521.374   125908134.562                                                  
  23959522.643    94022313.141  
  24478045.611   128632998.552                                                  
  24478046.433    96057111.386  
  26478890.361   139147507.934                                                  
  26478892.201   103908858.893  
  26136844.793   137350046.594                                                  
  26136846.776   102566599.805  
  25637040.859   134723559.171                                                  
  25637043.521   100605265.415  
 21  8 31  6 19 56.0000000  0 17G 4G 7G 8G 9G16G27G30R 1R 2R12R20R21
                                E 1E 4E19E21E31
  22536343.737   118429285.201    22536343.361    92282556.559    22536343.111  
  22536346.756    88437464.728  
  21090752.752   110832653.998    21090750.214    86363094.906    21090749.875  
                                
  20506517.219   107762475.297    20506517.827    83970759.841    20506517.094  
  20506516.236    80471974.057  
  21027466.712   110500083.371    21027466.498    86103958.866    21027466.230  
  21027466.658    82516294.814  
  24015753.456   126203636.323                    98340483.054    24015750.579  
                                
  21628138.458   113656634.641    21628138.458    88563609.422    21628137.940  
  21628137.654    84873457.607  
  23389956.166   122915050.001    23389956.631    95777959.981    23389956.005  
  23389955.952    91787210.991  
  21392324.553   114354233.960    21392326.394    88942189.624    21392327.126  
                                
  21446536.739   114442828.840    21446538.008    89011095.110    21446537.972  
                                
  21693332.409   115881888.243    21693333.534    90130361.643    21693333.445  
                                
  22155047.806   118472996.829    22155050.558    92145675.172    22155049.503  
                                
  21145633.346   113154555.972    21145632.935    88009097.456    21145632.828  
                                
  23959597.639   125908535.331                                                  
  23959598.908    94022612.413  
  24478253.089   128634088.867                                                  
  24478253.928    96057925.584  
  26479472.498   139150567.129                                                  
  26479474.338   103911143.377  
  26137201.923   137351923.235                                                  
  26137203.889   102568001.198  
  25636755.294   134722058.444                                                  
  25636757.956   100604144.735  
 21  8 31  6 19 57.0000000  0 17G 4G 7G 8G 9G16G27G30R 1R 2R12R20R21
                                E 1E 4E19E21E31
  22536981.786   118432638.126    22536981.411    92285169.227    22536981.143  
  22536984.788    88439968.537  
  21090418.708   110830898.534    21090416.171    86361727.012    21090415.831  
                                
  20506505.801   107762415.408    20506506.444    83970713.172    20506505.676  
  20506504.836    80471929.333  
  21027786.282   110501762.821    21027786.085    86105267.526    21027785.817  
  21027786.264    82517548.946  
  24016370.723   126206880.212                    98343010.767    24016367.846  
                                
  21628520.229   113658640.938    21628520.229    88565172.768    21628519.711  
  21628519.461    84874955.811  
  23389416.432   122912213.713    23389416.915    95775749.889    23389416.272  
  23389416.236    91785092.984  
  21392922.165   114357428.582    21392924.005    88944674.327    21392924.738  
                                
  21446328.332   114441716.696    21446329.601    89010230.107    21446329.548  
                                
  21692948.350   115879836.666    21692949.476    90128765.972    21692949.386  
                                
  22155343.538   118474578.240    22155346.290    92146905.160    22155345.236  
                                
  21145158.655   113152015.846    21145158.244    88007121.804    21145158.155  
                                
  23959673.904   125908936.121                                                  
  23959675.173    94022911.704  
  24478460.619   128635179.505                                                  
  24478461.459    96058740.024  
  26480054.652   139153626.318                                                  
  26480056.493   103913427.836  
  26137559.000   137353799.789                                                  
  26137560.983   102569402.516  
  25636469.711   134720557.732                                                  
  25636472.374   100603024.080  
 21  8 31  6 19 58.0000000  0 17G 4G 7G 8G 9G16G27G30R 1R 2R12R20R21
                                E 1E 4E19E21E31
  22537619.871   118435991.258    22537619.478    92287782.058    22537619.210  
  22537622.873    88442472.502  
  21090084.665   110829143.200    21090082.145    86360359.220    21090081.788  
                                
  20506494.525   107762356.129    20506495.151    83970666.979    20506494.400  
  20506493.543    80471885.070  
  21028105.976   110503442.769    21028105.780    86106576.577    21028105.494  
  21028105.958    82518803.451  
  24016988.009   126210124.031                    98345538.420    24016985.132  
                                
  21628902.108   113660647.740    21628902.126    88566736.505    21628901.608  
  21628901.322    84876454.395  
  23388876.699   122909377.363    23388877.163    95773539.751    23388876.538  
  23388876.502    91782974.939  
  21393519.884   114360623.636    21393521.724    88947159.367    21393522.439  
                                
  21446120.051   114440605.327    21446121.320    89009365.708    21446121.302  
                                
  21692564.291   115877785.131    21692565.417    90127170.336    21692565.327  
                                
  22155639.396   118476160.409    22155642.165    92148135.736    22155641.111  
                                
  21144684.072   113149476.329    21144683.679    88005146.624    21144683.571  
                                
  23959750.205   125909336.967                                                  
  23959751.455    94023211.039  
  24478668.240   128636270.512                                                  
  24478669.080    96059554.733  
  26480636.807   139156685.509                                                  
  26480638.612   103915712.295  
  26137916.095   137355676.263                                                  
  26137918.078   102570803.781  
  25636184.128   134719057.070                                                  
  25636186.791   100601903.454  
 21  8 31  6 19 59.0000000  0 17G 4G 7G 8G 9G16G27G30R 1R 2R12R20R21
                                E 1E 4E19E21E31
  22538257.974   118439344.499    22538257.580    92290394.966    22538257.312  
  22538260.976    88444976.546  
  21089750.639   110827387.907    21089748.102    86358991.463    21089747.762  
                                
  20506483.339   107762297.358    20506483.947    83970621.188    20506483.214  
  20506482.357    80471841.187  
  21028425.742   110505123.122    21028425.546    86107885.940    21028425.260  
  21028425.707    82520058.258  
  24017605.241   126213367.647                    98348065.920    24017602.364  
                                
  21629284.059   113662654.947    21629284.059    88568300.567    21629283.558  
  21629283.290    84877953.292  
  23388336.947   122906540.905    23388337.411    95771329.521    23388336.786  
  23388336.732    91780856.794  
  21394117.638   114363819.006    21394119.497    88949644.662    21394120.194  
                                
  21445911.931   114439494.637    21445913.181    89008501.838    21445913.146  
                                
  21692180.214   115875733.522    21692181.340    90125574.642    21692181.268  
                                
  22155935.396   118477743.202    22155938.148    92149366.807    22155937.094  
                                
  21144209.614   113146937.293    21144209.203    88003171.816    21144209.095  
                                
  23959826.470   125909737.757                                                  
  23959827.702    94023510.330  
  24478875.896   128637361.760                                                  
  24478876.735    96060369.628  
  26481218.909   139159744.578                                                  
  26481220.749   103917996.656  
  26138273.153   137357552.567                                                  
  26138275.119   102572204.910  
  25635898.563   134717556.337                                                  
  25635901.226   100600782.781  
 21  8 31  6 20  0.0000000  0 17G 4G 7G 8G 9G16G27G30R 1R 2R12R20R21
                                E 1E 4E19E21E31
  22538896.130   118442697.984    22538895.719    92293008.069    22538895.469  
  22538899.132    88447480.767  
  21089416.667   110825632.763    21089414.130    86357623.819    21089413.790  
                                
  20506472.279   107762239.232    20506472.904    83970575.895    20506472.136  
  20506471.296    80471797.784  
  21028745.580   110506804.012    21028745.401    86109195.727    21028745.098  
  21028745.562    82521313.475  
  24018222.472   126216611.204                    98350593.374    24018219.578  
                                
  21629666.134   113664662.699    21629666.134    88569865.051    21629665.616  
  21629665.348    84879452.585  
  23387797.177   122903704.444    23387797.660    95769119.294    23387797.016  
  23387796.981    91778738.655  
  21394715.482   114367014.833    21394717.341    88952130.307    21394718.037  
                                
  21445703.935   114438384.724    21445705.186    89007638.570    21445705.150  
                                
  21691796.173   115873681.945    21691797.281    90123978.973    21691797.209  
                                
  22156231.521   118479326.802    22156234.291    92150598.493    22156233.219  
                                
  21143735.245   113144398.861    21143734.834    88001197.480    21143734.726  
                                
  23959902.752   125910138.623                                                  
  23959903.985    94023809.685  
  24479083.641   128638453.402                                                  
  24479084.481    96061184.812  
  26481801.046   139162803.691                                                  
  26481802.886   103920281.051  
  26138630.176   137359428.827                                                  
  26138632.160   102573606.018  
  25635612.981   134716055.689                                                  
  25635615.643   100599662.168  
 21  8 31  6 20  1.0000000  0 17G 4G 7G 8G 9G16G27G30R 1R 2R12R20R21
                                E 1E 4E19E21E31
  22539534.322   118446051.774    22539533.929    92295621.414    22539533.679  
  22539537.324    88449985.219  
  21089082.695   110823877.863    21089080.157    86356256.364    21089079.818  
                                
  20506461.343   107762181.826    20506461.986    83970531.167    20506461.236  
  20506460.396    80471754.907  
  21029065.579   110508485.530    21029065.400    86110506.004    21029065.096  
  21029065.543    82522569.152  
  24018839.686   126219854.779                    98353120.842    24018836.809  
                                
  21630048.317   113666671.056    21630048.317    88571430.005    21630047.799  
  21630047.513    84880952.335  
  23387257.426   122900868.018    23387257.908    95766909.085    23387257.265  
  23387257.211    91776620.551  
  21395313.433   114370211.204    21395315.292    88954616.373    21395315.989  
                                
  21445496.101   114437275.670    21445497.351    89006775.973    21445497.334  
                                
  21691412.150   115871630.538    21691413.276    90122383.430    21691413.168  
                                
  22156527.826   118480911.234    22156530.577    92151830.829    22156529.541  
                                
  21143261.019   113141861.167    21143260.608    87999223.718    21143260.518  
                                
  23959979.053   125910539.639                                                  
  23959980.304    94024109.145  
  24479291.458   128639545.498                                                  
  24479292.297    96062000.341  
  26482383.218   139165862.900                                                  
  26482385.041   103922565.526  
  26138987.235   137361305.107                                                  
  26138989.201   102575007.141  
  25635327.452   134714555.177                                                  
  25635330.114   100598541.664  
 21  8 31  6 20  2.0000000  0 17G 4G 7G 8G 9G16G27G30R 1R 2R12R20R21
                                E 1E 4E19E21E31
  22540172.639   118449406.145    22540172.246    92298235.205    22540171.996  
  22540175.659    88452490.104  
  21088748.866   110822123.457    21088746.328    86354889.296    21088745.953  
                                
  20506450.621   107762125.408    20506451.247    83970487.203    20506450.496  
  20506449.639    80471712.779  
  21029385.720   110510167.926    21029385.541    86111816.963    21029385.255  
  21029385.702    82523825.482  
  24019456.989   126223098.630                    98355648.525    24019454.095  
                                
  21630430.660   113668680.300    21630430.660    88572995.651    21630430.142  
  21630429.856    84882452.746  
  23386717.727   122898031.947    23386718.192    95764699.157    23386717.585  
  23386717.549    91774502.708  
  21395911.527   114373408.389    21395913.368    88957103.071    21395914.101  
                                
  21445288.480   114436167.754    21445289.713    89005914.263    21445289.695  
                                
  21691028.198   115869579.549    21691029.306    90120788.216    21691029.235  
                                
  22156824.326   118482496.784    22156827.096    92153064.032    22156826.024  
                                
  21142786.953   113139324.441    21142786.560    87997250.709    21142786.453  
                                
  23960055.443   125910941.080                                                  
  23960056.712    94024408.920  
  24479499.399   128640638.321                                                  
  24479500.239    96062816.408  
  26482965.409   139168922.467                                                  
  26482967.250   103924850.270  
  26139344.330   137363181.693                                                  
  26139346.313   102576408.481  
  25635041.994   134713055.093                                                  
  25635044.656   100597421.464  
 21  8 31  6 20  3.0000000  0 17G 4G 7G 8G 9G16G27G30R 1R 2R12R20R21
                                E 1E 4E19E21E31
  22540811.046   118452760.985    22540810.635    92300849.366    22540810.403  
  22540814.030    88454995.350  
  21088415.072   110820369.472    21088412.535    86353522.555    21088412.196  
                                
  20506440.043   107762069.880    20506440.686    83970443.934    20506439.918  
  20506439.078    80471671.317  
  21029706.022   110511851.085    21029705.844    86113128.516    21029705.540  
  21029706.004    82525082.390  
  24020074.311   126226342.671                    98358176.349    24020071.398  
                                
  21630813.147   113670690.329    21630813.147    88574561.908    21630812.629  
  21630812.360    84883953.744  
  23386178.083   122895196.110    23386178.565    95762489.415    23386177.922  
  23386177.904    91772385.038  
  21396509.764   114376606.264    21396511.623    88959590.309    21396512.320  
                                
  21445081.057   114435060.872    21445082.308    89005053.352    21445082.290  
                                
  21690644.300   115867528.891    21690645.408    90119193.262    21690645.336  
                                
  22157121.023   118484083.399    22157123.811    92154298.071    22157122.739  
                                
  21142313.067   113136788.606    21142312.674    87995278.393    21142312.567  
                                
  23960131.887   125911342.847                                                  
  23960133.156    94024708.941  
  24479707.484   128641731.788                                                  
  24479708.324    96063632.956  
  26483547.689   139171982.322                                                  
  26483549.512   103927135.224  
  26139701.478   137365058.487                                                  
  26139703.444   102577809.983  
  25634756.590   134711555.325                                                  
  25634759.270   100596301.508  
 21  8 31  6 20  4.0000000  0 17G 4G 7G 8G 9G16G27G30R 1R 2R12R20R21
                                E 1E 4E19E21E31
  22541449.488   118456115.996    22541449.095    92303463.660    22541448.845  
  22541452.508    88457500.696  
  21088081.315   110818615.552    21088078.777    86352155.862    21088078.438  
                                
  20506429.589   107762014.879    20506430.215    83970401.077    20506429.447  
  20506428.607    80471630.243  
  21030026.414   110513534.701    21030026.217    86114440.424    21030025.931  
  21030026.378    82526339.630  
  24020691.596   126229586.569                    98360704.055    24020688.701  
                                
  21631195.722   113672700.817    21631195.758    88576128.520    21631195.240  
  21631194.954    84885455.069  
  23385638.438   122892360.183    23385638.921    95760279.601    23385638.278  
  23385638.260    91770267.285  
  21397108.073   114379804.512    21397109.913    88962077.826    21397110.628  
                                
  21444873.758   114433954.717    21444875.009    89004193.019    21444874.991  
                                
  21690260.402   115865478.188    21690261.528    90117598.276    21690261.438  
                                
  22157417.864   118485670.704    22157420.616    92155532.644    22157419.579  
                                
  21141839.306   113134253.314    21141838.895    87993306.499    21141838.805  
                                
  23960208.366   125911744.591                                                  
  23960209.599    94025008.944  
  24479915.623   128642825.533                                                  
  24479916.462    96064449.714  
  26484129.951   139175042.095                                                  
  26484131.792   103929420.124  
  26140058.590   137366935.143                                                  
  26140060.574   102579211.382  
  25634471.204   134710055.526                                                  
  25634473.866   100595181.533  
 21  8 31  6 20  5.0000000  0 17G 4G 7G 8G 9G16G27G30R 1R 2R12R20R21
                                E 1E 4E19E21E31
  22542088.002   118459471.391    22542087.609    92306078.251    22542087.341  
  22542091.004    88460006.352  
  21087747.629   110816861.964    21087745.073    86350789.430    21087744.734  
                                
  20506419.279   107761960.686    20506419.904    83970358.850    20506419.136  
  20506418.296    80471589.772  
  21030346.913   110515219.007    21030346.734    86115752.866    21030346.448  
  21030346.895    82527597.388  
  24021308.899   126232830.552                    98363231.831    24021306.005  
                                
  21631578.441   113674711.985    21631578.441    88577695.668    21631577.923  
  21631577.655    84886956.927  
  23385098.794   122889524.394    23385099.276    95758069.897    23385098.651  
  23385098.615    91768149.659  
  21397706.471   114383003.378    21397708.329    88964565.828    21397709.026  
                                
  21444666.638   114432849.555    21444667.907    89003333.450    21444667.889  
                                
  21689876.540   115863427.679    21689877.665    90116003.436    21689877.576  
                                
  22157714.865   118487258.980    22157717.634    92156767.970    22157716.598  
                                
  21141365.651   113131718.805    21141365.276    87991335.217    21141365.151  
                                
  23960284.846   125912146.590                                                  
  23960286.114    94025309.141  
  24480123.850   128643919.836                                                  
  24480124.690    96065266.894  
  26484712.213   139178102.050                                                  
  26484714.054   103931705.173  
  26140415.739   137368811.913                                                  
  26140417.704   102580612.868  
  25634185.853   134708555.973                                                  
  25634188.498   100594061.736  
 21  8 31  6 20  6.0000000  0 17G 4G 7G 8G 9G16G27G30R 1R 2R12R20R21
                                E 1E 4E19E21E31
  22542726.552   118462827.035    22542726.176    92308693.037    22542725.908  
  22542729.571    88462512.189  
  21087413.960   110815108.540    21087411.423    86349423.126    21087411.084  
                                
  20506409.094   107761907.153    20506409.701    83970317.134    20506408.969  
  20506408.111    80471549.794  
  21030667.537   110516903.853    21030667.340    86117065.731    21030667.054  
  21030667.519    82528855.557  
  24021926.220   126236074.500                    98365759.580    24021923.326  
                                
  21631961.267   113676723.717    21631961.267    88579263.254    21631960.749  
  21631960.463    84888459.194  
  23384559.167   122886688.604    23384559.650    95755860.191    23384559.007  
  23384558.989    91766032.026  
  21398304.976   114386202.707    21398306.834    88967054.195    21398307.531  
                                
  21444459.697   114431745.217    21444460.948    89002474.526    21444460.930  
                                
  21689492.713   115861377.251    21689493.803    90114408.665    21689493.732  
                                
  22158012.027   118488848.032    22158014.796    92158003.899    22158013.742  
                                
  21140892.140   113129184.936    21140891.747    87989364.425    21140891.640  
                                
  23960361.361   125912548.671                                                  
  23960362.612    94025609.392  
  24480332.167   128645014.529                                                  
  24480333.007    96066084.355  
  26485294.547   139181162.081                                                  
  26485296.370   103933990.243  
  26140772.869   137370688.648                                                  
  26140774.817   102582014.329  
  25633900.503   134707056.502                                                  
  25633903.165   100592942.004  
 21  8 31  6 20  7.0000000  0 17G 4G 7G 8G 9G16G27G30R 1R 2R12R20R21
                                E 1E 4E19E21E31
  22543365.191   118466183.056    22543364.797    92311308.115    22543364.529  
  22543368.193    88465018.307  
  21087080.346   110813355.424    21087077.826    86348057.057    21087077.469  
                                
  20506399.033   107761854.385    20506399.677    83970276.014    20506398.908  
  20506398.069    80471510.396  
  21030988.285   110518589.394    21030988.107    86118379.142    21030987.803  
  21030988.250    82530114.238  
  24022543.542   126239318.518                    98368287.382    24022540.647  
                                
  21632344.218   113678736.141    21632344.218    88580831.376    21632343.700  
  21632343.432    84889961.978  
  23384019.559   122883852.968    23384020.041    95753650.604    23384019.398  
  23384019.380    91763914.499  
  21398903.606   114389402.645    21398905.446    88969543.029    21398906.161  
                                
  21444252.917   114430641.851    21444254.168    89001616.357    21444254.150  
                                
  21689108.886   115859327.049    21689110.012    90112814.064    21689109.923  
                                
  22158309.385   118490438.024    22158312.137    92159240.555    22158311.100  
                                
  21140418.772   113126651.850    21140418.379    87987394.252    21140418.271  
                                
  23960437.930   125912950.975                                                  
  23960439.163    94025909.818  
  24480540.592   128646109.750                                                  
  24480541.431    96066902.218  
  26485876.863   139184222.238                                                  
  26485878.703   103936275.437  
  26141130.017   137372565.486                                                  
  26141131.983   102583415.864  
  25633615.206   134705557.239                                                  
  25633617.851   100591822.427  
