     2.11           OBSERVATION DATA    M (MIXED)           RINEX VERSION / TYPE
CONVBIN 2.4.3                           20210901 191257 UTC PGM / RUN BY / DATE 
log: logs/21_09_01_10_42_43_msme_SW.rtcm                    COMMENT             
format: RTCM 3, station ID: 4076                            COMMENT             
4076                                                        MARKER NAME         
                                                            MARKER NUMBER       
                                                            OBSERVER / AGENCY   
                    SWFT                                    REC # / TYPE / VERS 
                    NULL                                    ANT # / TYPE        
   120451.4560 -5443708.0665  3310388.7644                  APPROX POSITION XYZ 
        0.0000        0.0000        0.0000                  ANTENNA: DELTA H/E/N
     1     1                                                WAVELENGTH FACT L1/2
     5    C1    L1    P2    L2    C2                        # / TYPES OF OBSERV 
  2021     9     1    10    42   48.0000000     GPS         TIME OF FIRST OBS   
  2021     9     1    11    12   46.0000000     GPS         TIME OF LAST OBS    
                                                            END OF HEADER       
 21  9  1 10 42 48.0000000  0 10G 1G 6G14G17G19G22G24G30E21E27
  23172548.446   121772524.856    23172551.215    94887670.918                  
  21708984.994   114081445.989    21708987.996    88894622.573                  
  20504197.802   107750298.718    20504197.963    83961276.844                  
  21051577.742   110626802.426    21051577.063    86202706.313                  
  20904762.687   109855291.591    20904760.364    85601531.970                  
  24406807.767   128258664.979    24406805.248    99941823.750                  
  24270965.132   127544750.207    24270967.562    99385511.536                  
  22591566.880   118719441.589    22591569.239    92508644.858                  
  23547189.220   123741292.173                                                  
  25141494.541   132119428.738                                                  
 21  9  1 10 42 49.0000000  0 10G 1G 6G14G17G19G22G24G30E21E27
  23173206.901   121775985.102    23173209.689    94890367.216                  
  21708454.927   114078660.425    21708457.947    88892452.004                  
  20504260.576   107750628.577    20504260.719    83961533.876                  
  21051716.048   110627529.257    21051715.351    86203272.672                  
  20904619.556   109854539.550    20904617.268    85600945.964                  
  24406960.494   128259467.660    24406957.974    99942449.215                  
  24270513.081   127542374.586    24270515.493    99383660.402                  
  22592189.794   118722715.066    22592192.153    92511195.617                  
  23547085.258   123740745.867                                                  
  25141830.031   132121191.746                                                  
 21  9  1 10 42 50.0000000  0 10G 1G 6G14G17G19G22G24G30E21E27
  23173865.428   121779445.612    23173868.198    94893063.715                  
  21707924.914   114075875.282    21707927.934    88890281.763                  
  20504323.421   107750958.840    20504323.582    83961791.222                  
  21051854.372   110628256.214    21051853.693    86203839.132                  
  20904476.514   109853787.798    20904474.191    85600360.181                  
  24407113.363   128260270.868    24407110.826    99943075.089                  
  24270061.102   127539999.414    24270063.514    99381809.617                  
  22592812.762   118725988.775    22592815.138    92513746.559                  
  23546981.367   123740199.854                                                  
  25142165.576   132122955.012                                                  
 21  9  1 10 42 51.0000000  0 13G 1G 6G14G17G19G22G24G30C23C27C28E21
                                E27
  23174523.973   121782906.363    23174526.761    94895760.406                  
  21707395.008   114073090.569    21707398.028    88888111.859                  
  20504386.338   107751289.511    20504386.499    83962048.890                  
  21051992.732   110628983.308    21051992.053    86204405.699                  
  20904333.526   109853036.318    20904331.203    85599774.614                  
  24407266.304   128261074.605    24407263.785    99943701.380                  
  24269609.194   127537624.673    24269611.625    99379959.172                  
  22593435.783   118729262.733    22593438.160    92516297.700                  
                 119351609.788                   119351609.788    22920213.468  
                 123882419.651                   123882419.651    23790316.093  
                 113508882.204                   113508882.204    21798185.691  
  23546877.494   123739654.138                                                  
  25142501.156   132124718.548                                                  
 21  9  1 10 42 52.0000000  0 13G 1G 6G14G17G19G22G24G30C23C27C28E21
                                E27
  23175182.572   121786367.371    23175185.377    94898457.293                  
  21706865.174   114070306.288    21706868.194    88885942.290                  
  20504449.344   107751620.593    20504449.505    83962306.874                  
  21052131.128   110629710.535    21052130.449    86204972.372                  
  20904190.556   109852285.116    20904188.233    85599189.263                  
  24407419.335   128261878.887    24407416.815    99944328.093                  
  24269157.376   127535250.367    24269159.806    99378109.063                  
  22594058.840   118732536.952    22594061.217    92518849.035                  
                 119353838.327                   119353838.327    22920641.449  
                 123880483.508                   123880483.508    23789944.292  
                 113509253.727                   113509253.727    21798257.042  
  23546773.711   123739108.718                                                  
  25142836.826   132126482.369                                                  
 21  9  1 10 42 53.0000000  0 13G 1G 6G14G17G19G22G24G30C23C27C28E21
                                E27
  23175841.242   121789828.629    23175844.012    94901154.380                  
  21706335.429   114067522.418    21706338.449    88883773.040                  
  20504512.422   107751952.086    20504512.583    83962565.180                  
  21052269.541   110630437.906    21052268.862    86205539.151                  
  20904047.658   109851534.194    20904045.353    85598604.128                  
  24407572.508   128262683.701    24407569.988    99944955.219                  
  24268705.665   127532876.516    24268708.078    99376259.309                  
  22594681.969   118735811.421    22594684.328    92521400.570                  
                 119356067.253                   119356067.253    22921069.483  
                 123878547.622                   123878547.622    23789572.527  
                 113509625.543                   113509625.543    21798328.447  
  23546669.981   123738563.591                                                  
  25143172.495   132128246.456                                                  
 21  9  1 10 42 54.0000000  0 13G 1G 6G14G17G19G22G24G30C23C27C28E21
                                E27
  23176499.948   121793290.149    23176502.735    94903851.668                  
  21705805.755   114064738.988    21705808.757    88881604.134                  
  20504575.571   107752283.987    20504575.732    83962823.804                  
  21052407.973   110631165.411    21052407.294    86206106.039                  
  20903904.813   109850783.550    20903902.525    85598019.211                  
  24407725.753   128263489.054    24407723.233    99945582.769                  
  24268254.008   127530503.099    24268256.420    99374409.891                  
  22595305.097   118739086.125    22595307.474    92523952.284                  
                 119358296.569                   119358296.569    22921497.607  
                 123876611.988                   123876611.988    23789200.798  
                 113509997.645                   113509997.645    21798399.905  
  23546566.305   123738018.755                                                  
  25143508.254   132130010.817                                                  
 21  9  1 10 42 55.0000000  0 13G 1G 6G14G17G19G22G24G30C23C27C28E21
                                E27
  23177158.707   121796751.918    23177161.477    94906549.148                  
  21705276.153   114061955.990    21705279.173    88879435.563                  
  20504638.827   107752616.293    20504638.988    83963082.741                  
  21052546.440   110631893.057    21052545.761    86206673.036                  
  20903762.039   109850033.191    20903759.716    85597434.516                  
  24407879.105   128264294.942    24407876.585    99946210.731                  
  24267802.440   127528130.116    24267804.852    99372560.815                  
  22595928.315   118742361.078    22595930.674    92526504.196                  
                 119360526.275                   119360526.275    22921925.785  
                 123874676.613                   123874676.613    23788829.140  
                 113510370.038                   113510370.038    21798471.417  
  23546462.683   123737474.224                                                  
  25143844.067   132131775.456                                                  
 21  9  1 10 42 56.0000000  0 13G 1G 6G14G17G19G22G24G30C23C27C28E21
                                E27
  23177817.502   121800213.939    23177820.272    94909246.824                  
  21704746.658   114059173.408    21704749.678    88877267.315                  
  20504702.137   107752949.001    20504702.298    83963341.996                  
  21052684.942   110632620.836    21052684.263    86207240.136                  
  20903619.301   109849283.108    20903616.978    85596850.040                  
  24408032.564   128265101.366    24408030.044    99946839.116                  
  24267350.961   127525757.573    24267353.373    99370712.081                  
  22596551.551   118745636.280    22596553.946    92529056.302                  
                 119362756.364                   119362756.364    22922354.052  
                 123872741.491                   123872741.491    23788457.518  
                 113510742.724                   113510742.724    21798543.000  
  23546359.114   123736929.989                                                  
  25144179.897   132133540.363                                                  
 21  9  1 10 42 57.0000000  0 13G 1G 6G14G17G19G22G24G30C23C27C28E21
                                E27
  23178476.369   121803676.224    23178479.138    94911944.707                  
  21704217.235   114056391.254    21704220.237    88875099.406                  
  20504765.519   107753282.134    20504765.680    83963601.578                  
  21052823.463   110633348.746    21052822.784    86207807.339                  
  20903476.617   109848533.301    20903474.294    85596265.774                  
  24408186.112   128265908.331    24408183.593    99947467.917                  
  24266899.554   127523385.479    24266901.984    99368863.696                  
  22597174.858   118748911.729    22597177.235    92531608.602                  
                 119364986.843                   119364986.843    22922782.408  
                 123870806.628                   123870806.628    23788085.932  
                 113511115.695                   113511115.695    21798614.619  
  23546255.599   123736386.040                                                  
  25144515.799   132135305.548                                                  
 21  9  1 10 42 58.0000000  0 13G 1G 6G14G17G19G22G24G30C23C27C28E21
                                E27
  23179135.253   121807138.753    23179138.041    94914642.786                  
  21703687.883   114053609.532    21703690.903    88872931.833                  
  20504829.007   107753615.660    20504829.168    83963861.469                  
  21052962.002   110634076.792    21052961.323    86208374.650                  
  20903333.987   109847783.778    20903331.682    85595681.726                  
  24408339.786   128266715.829    24408337.266    99948097.137                  
  24266448.254   127521013.811    24266450.684    99367015.645                  
  22597798.201   118752187.445    22597800.578    92534161.105                  
                 119367217.711                   119367217.711    22923210.800  
                 123868872.020                   123868872.020    23787714.417  
                 113511488.957                   113511488.957    21798686.292  
  23546152.155   123735842.392                                                  
  25144851.755   132137071.003                                                  
 21  9  1 10 42 59.0000000  0 13G 1G 6G14G17G19G22G24G30C23C27C28E21
                                E27
  23179794.191   121810601.543    23179796.979    94917341.064                  
  21703158.620   114050828.224    21703161.640    88870764.579                  
  20504892.532   107753949.598    20504892.693    83964121.685                  
  21053100.558   110634804.987    21053099.897    86208942.074                  
  20903191.392   109847034.528    20903189.105    85595097.898                  
  24408493.567   128267523.862    24408491.011    99948726.777                  
  24265997.025   127518642.598    24265999.437    99365167.944                  
  22598421.598   118755463.387    22598423.975    92536713.790                  
                 119369448.969                   119369448.969    22923639.299  
                 123866937.669                   123866937.669    23787342.956  
                 113511862.512                   113511862.512    21798758.036  
  23546048.765   123735299.044                                                  
  25145187.782   132138836.731                                                  
 21  9  1 10 43  0.0000000  0 13G 1G 6G14G17G19G22G24G30C23C27C28E21
                                E27
  23180453.201   121814064.579    23180455.988    94920039.531                  
  21702629.447   114048047.364    21702632.467    88868597.671                  
  20504956.163   107754283.955    20504956.324    83964382.218                  
  21053239.168   110635533.311    21053238.471    86209509.597                  
  20903048.886   109846285.557    20903046.581    85594514.286                  
  24408647.419   128268332.435    24408644.899    99949356.832                  
  24265545.886   127516271.825    24265548.298    99363320.589                  
  22599045.048   118758739.593    22599047.425    92539266.675                  
                 119371680.614                   119371680.614    22924067.852  
                 123865003.570                   123865003.570    23786971.548  
                 113512236.350                   113512236.350    21798829.816  
  23545945.428   123734755.992                                                  
  25145523.827   132140602.723                                                  
 21  9  1 10 43  1.0000000  0 14G 1G 3G 6G14G17G19G22G24G30C23C27C28
                                E21E27
  23181112.246   121817527.874    23181115.016    94922738.202                  
  23652037.606   124292268.505    23652040.072    96851110.626                  
  21702100.345   114045266.913    21702103.365    88866431.090                  
  20505019.884   107754618.711    20505020.027    83964643.067                  
  21053377.778   110636261.773    21053377.099    86210077.230                  
  20902906.417   109845536.868    20902904.094    85593930.892                  
  24408801.378   128269141.538    24408798.859    99949987.300                  
  24265094.818   127513901.495    24265097.248    99361473.578                  
  22599668.516   118762016.031    22599670.893    92541819.741                  
                 119373912.643                   119373912.643    22924496.494  
                 123863069.731                   123863069.731    23786600.158  
                 113512610.484                   113512610.484    21798901.685  
  23545842.145   123734213.230                                                  
  25145859.943   132142369.009                                                  
 21  9  1 10 43  2.0000000  0 14G 1G 3G 6G14G17G19G22G24G30C23C27C28
                                E21E27
  23181771.327   121820991.415    23181774.115    94925437.066                  
  23651892.867   124291507.943    23651895.333    96850517.978                  
  21701571.315   114042486.902    21701574.335    88864264.848                  
  20505083.659   107754953.880    20505083.802    83964904.238                  
  21053516.442   110636990.367    21053515.763    86210644.966                  
  20902764.001   109844788.461    20902761.678    85593347.715                  
  24408955.463   128269951.176    24408952.943    99950618.186                  
  24264643.840   127511531.605    24264646.252    99359626.913                  
  22600292.056   118765292.727    22600294.432    92544373.011                  
                 119376145.062                   119376145.062    22924925.225  
                 123861136.144                   123861136.144    23786228.840  
                 113512984.907                   113512984.907    21798973.572  
  23545738.898   123733670.765                                                  
  25146196.095   132144135.567                                                  
 21  9  1 10 43  3.0000000  0 14G 1G 3G 6G14G17G19G22G24G30C23C27C28
                                E21E27
  23182430.462   121824455.215    23182433.267    94928136.128                  
  23651748.235   124290747.906    23651750.719    96849925.741                  
  21701042.374   114039707.316    21701045.394    88862098.937                  
  20505147.505   107755289.452    20505147.666    83965165.723                  
  21053655.105   110637719.103    21053654.426    86211212.811                  
  20902621.638   109844040.329    20902619.315    85592764.755                  
  24409109.619   128270761.369    24409107.100    99951249.503                  
  24264192.969   127509162.155    24264195.381    99357780.591                  
  22600915.631   118768569.655    22600918.026    92546926.466                  
                 119378377.873                   119378377.873    22925353.993  
                 123859202.813                   123859202.813    23785857.557  
                 113513359.616                   113513359.616    21799045.549  
  23545635.740   123733128.596                                                  
  25146532.318   132145902.384                                                  
 21  9  1 10 43  4.0000000  0 14G 1G 3G 6G14G17G19G22G24G30C23C27C28
                                E21E27
  23183089.668   121827919.258    23183092.438    94930835.387                  
  23651603.692   124289988.397    23651606.176    96849333.923                  
  21700513.522   114036928.152    21700516.542    88859933.355                  
  20505211.440   107755625.438    20505211.601    83965427.532                  
  21053793.805   110638447.973    21053793.126    86211780.762                  
  20902479.311   109843292.473    20902477.006    85592182.008                  
  24409263.900   128271572.083    24409261.381    99951881.231                  
  24263742.169   127506793.140    24263744.563    99355934.605                  
  22601539.260   118771846.841    22601541.637    92549480.113                  
                 119380611.067                   119380611.067    22925782.867  
                 123857269.738                   123857269.738    23785486.346  
                 113513734.614                   113513734.614    21799117.561  
  23545532.618   123732586.727                                                  
  25146868.578   132147669.474                                                  
 21  9  1 10 43  5.0000000  0 14G 1G 3G 6G14G17G19G22G24G30C23C27C28
                                E21E27
  23183748.874   121831383.550    23183751.662    94933534.833                  
  23651459.275   124289229.440    23651461.759    96848742.528                  
  21699984.760   114034149.426    21699987.762    88857768.114                  
  20505275.465   107755961.828    20505275.626    83965689.656                  
  21053932.522   110639176.978    21053931.861    86212348.820                  
  20902337.056   109842544.896    20902334.733    85591599.480                  
  24409418.289   128272383.347    24409415.751    99952513.387                  
  24263291.423   127504424.567    24263293.835    99354088.962                  
  22602162.943   118775124.285    22602165.319    92552033.966                  
                 119382844.652                   119382844.652    22926211.795  
                 123855336.922                   123855336.922    23785115.153  
                 113514109.903                   113514109.903    21799189.626  
  23545429.567   123732045.157                                                  
  25147204.909   132149436.860                                                  
 21  9  1 10 43  6.0000000  0 14G 1G 3G 6G14G17G19G22G24G30C23C27C28
                                E21E27
  23184408.152   121834848.101    23184410.957    94936234.485                  
  23651314.965   124288471.012    23651317.449    96848151.542                  
  21699456.051   114031371.126    21699459.071    88855603.206                  
  20505339.543   107756298.632    20505339.704    83965952.097                  
  21054071.275   110639906.109    21054070.596    86212916.977                  
  20902194.837   109841797.583    20902192.531    85591017.161                  
  24409572.766   128273195.136    24409570.247    99953145.949                  
  24262840.784   127502056.441    24262843.196    99352243.669                  
  22602786.661   118778401.962    22602789.037    92554587.999                  
                 119385078.620                   119385078.620    22926640.795  
                 123853404.359                   123853404.359    23784744.013  
                 113514485.479                   113514485.479    21799261.746  
  23545326.553   123731503.880                                                  
  25147541.275   132151204.504                                                  
 21  9  1 10 43  7.0000000  0 14G 1G 3G 6G14G17G19G22G24G30C23C27C28
                                E21E27
  23185067.501   121838312.910    23185070.288    94938934.332                  
  23651170.744   124287713.108    23651173.228    96847560.968                  
  21698927.432   114028593.245    21698930.452    88853438.624                  
  20505403.729   107756635.839    20505403.872    83966214.859                  
  21054210.064   110640635.396    21054209.385    86213485.250                  
  20902052.706   109841050.554    20902050.383    85590435.063                  
  24409727.333   128274007.470    24409724.814    99953778.933                  
  24262390.216   127499688.749    24262392.647    99350398.714                  
  22603410.433   118781679.870    22603412.791    92557142.215                  
                 119387312.981                   119387312.981    22927069.901  
                 123851472.051                   123851472.051    23784372.945  
                 113514861.353                   113514861.353    21799333.937  
  23545223.627   123730962.897                                                  
  25147877.695   132152972.415                                                  
 21  9  1 10 43  8.0000000  0 14G 1G 3G 6G14G17G19G22G24G30C23C27C28
                                E21E27
  23185726.886   121841777.968    23185729.655    94941634.380                  
  23651026.612   124286955.739    23651029.096    96846970.808                  
  21698398.920   114025815.787    21698401.922    88851274.371                  
  20505467.968   107756973.453    20505468.129    83966477.933                  
  21054348.852   110641364.805    21054348.173    86214053.617                  
  20901910.594   109840303.802    20901908.289    85589853.175                  
  24409882.025   128274820.336    24409879.506    99954412.337                  
  24261939.756   127497321.512    24261942.186    99348554.114                  
  22604034.258   118784958.059    22604036.617    92559696.644                  
                 119389547.731                   119389547.731    22927499.062  
                 123849540.000                   123849540.000    23784001.913  
                 113515237.508                   113515237.508    21799406.163  
  23545120.719   123730422.204                                                  
  25148214.187   132154740.614                                                  
 21  9  1 10 43  9.0000000  0 14G 1G 3G 6G14G17G19G22G24G30C23C27C28
                                E21E27
  23186386.306   121845243.282    23186389.094    94944334.622                  
  23650882.588   124286198.897    23650885.072    96846381.066                  
  21697870.461   114023038.768    21697873.481    88849110.460                  
  20505532.279   107757311.478    20505532.439    83966741.329                  
  21054487.677   110642094.356    21054487.016    86214622.102                  
  20901768.535   109839557.337    20901766.248    85589271.517                  
  24410036.825   128275633.736    24410034.287    99955046.157                  
  24261489.385   127494954.712    24261491.780    99346709.856                  
  22604658.119   118788236.469    22604660.478    92562251.249                  
                 119391782.862                   119391782.862    22927928.276  
                 123847608.205                   123847608.205    23783630.934  
                 113515613.954                   113515613.954    21799478.461  
  23545017.901   123729881.808                                                  
  25148550.696   132156509.065                                                  
 21  9  1 10 43 10.0000000  0 14G 1G 3G 6G14G17G19G22G24G30C23C27C28
                                E21E27
  23187045.780   121848708.845    23187048.568    94947035.058                  
  23650738.653   124285442.582    23650741.137    96845791.727                  
  21697342.092   114020262.176    21697345.094    88846946.882                  
  20505596.696   107757649.917    20505596.839    83967005.048                  
  21054626.537   110642824.042    21054625.858    86215190.691                  
  20901626.548   109838811.148    20901624.243    85588690.066                  
  24410191.696   128276447.669    24410189.176    99955680.391                  
  24261039.068   127492588.346    24261041.480    99344865.933                  
  22605282.016   118791515.137    22605284.393    92564806.056                  
                 119394018.386                   119394018.386    22928357.597  
                 123845676.665                   123845676.665    23783259.991  
                 113515990.687                   113515990.687    21799550.795  
  23544915.118   123729341.723                                                  
  25148887.277   132158277.804                                                  
 21  9  1 10 43 11.0000000  0 14G 1G 3G 6G14G17G19G22G24G30C23C27C28
                                E21E27
  23187705.308   121852174.669    23187708.078    94949735.700                  
  23650594.843   124284686.811    23650597.327    96845202.817                  
  21696813.795   114017486.011    21696816.815    88844783.637                  
  20505661.186   107757988.763    20505661.329    83967269.082                  
  21054765.415   110643553.872    21054764.736    86215759.387                  
  20901484.596   109838065.234    20901482.291    85588108.835                  
  24410346.674   128277262.149    24410344.154    99956315.051                  
  24260588.840   127490222.427    24260591.253    99343022.359                  
  22605905.985   118794794.055    22605908.361    92567361.054                  
                 119396254.294                   119396254.294    22928786.971  
                 123843745.378                   123843745.378    23782889.120  
                 113516367.712                   113516367.712    21799623.218  
  23544812.407   123728801.919                                                  
  25149223.912   132160046.810                                                  
 21  9  1 10 43 12.0000000  0 14G 1G 3G 6G14G17G19G22G24G30C23C27C28
                                E21E27
  23188364.872   121855640.728    23188367.659    94952436.523                  
  23650451.123   124283931.564    23650453.606    96844614.308                  
  21696285.604   114014710.273    21696288.624    88842620.726                  
  20505725.729   107758328.015    20505725.872    83967533.438                  
  21054904.347   110644283.833    21054903.668    86216328.188                  
  20901342.716   109837319.591    20901340.393    85587527.816                  
  24410501.777   128278077.151    24410499.257    99956950.117                  
  24260138.720   127487856.950    24260141.114    99341179.133                  
  22606529.989   118798073.219    22606532.365    92569916.251                  
                 119398490.589                   119398490.589    22929216.436  
                 123841814.347                   123841814.347    23782518.284  
                 113516745.024                   113516745.024    21799695.677  
  23544709.732   123728262.427                                                  
  25149560.600   132161816.097                                                  
 21  9  1 10 43 13.0000000  0 14G 1G 3G 6G14G17G19G22G24G30C23C27C28
                                E21E27
  23189024.507   121859107.048    23189027.276    94955137.554                  
  23650307.527   124283176.847    23650309.993    96844026.219                  
  21695757.485   114011934.968    21695760.505    88840458.149                  
  20505790.361   107758667.671    20505790.522    83967798.101                  
  21055043.260   110645013.933    21055042.581    86216897.097                  
  20901200.872   109836574.226    20901198.567    85586947.015                  
  24410656.951   128278892.696    24410654.432    99957585.604                  
  24259688.652   127485491.911    24259691.083    99339336.243                  
  22607154.047   118801352.617    22607156.405    92572471.624                  
                 119400727.273                   119400727.273    22929645.971  
                 123839883.578                   123839883.578    23782147.501  
                 113517122.625                   113517122.625    21799768.172  
  23544607.128   123727723.216                                                  
  25149897.341   132163585.658                                                  
 21  9  1 10 43 14.0000000  0 14G 1G 3G 6G14G17G19G22G24G30C23C27C28
                                E21E27
  23189684.160   121862573.609    23189686.947    94957838.773                  
  23650164.003   124282422.667    23650166.487    96843438.547                  
  21695229.438   114009160.086    21695232.440    88838295.903                  
  20505855.083   107759007.750    20505855.243    83968063.098                  
  21055182.228   110645744.170    21055181.549    86217466.113                  
  20901059.099   109835829.143    20901056.776    85586366.433                  
  24410812.269   128279708.769    24410809.731    99958221.508                  
  24259238.693   127483127.315    24259241.123    99337493.703                  
  22607778.122   118804632.265    22607780.499    92575027.194                  
                 119402964.346                   119402964.346    22930075.578  
                 123837953.059                   123837953.059    23781776.755  
                 113517500.516                   113517500.516    21799840.756  
  23544504.577   123727184.319                                                  
  25150234.119   132165355.479                                                  
 21  9  1 10 43 15.0000000  0 14G 1G 3G 6G14G17G19G22G24G30C23C27C28
                                E21E27
  23190343.884   121866040.434    23190346.654    94960540.192                  
  23650020.586   124281669.028    23650023.052    96842851.293                  
  21694701.480   114006385.630    21694704.482    88836133.991                  
  20505919.858   107759348.223    20505920.019    83968328.403                  
  21055321.195   110646474.543    21055320.534    86218035.235                  
  20900917.362   109835084.339    20900915.039    85585786.062                  
  24410967.658   128280525.379    24410965.138    99958857.827                  
  24258788.822   127480763.171    24258791.217    99335651.515                  
  22608402.287   118807912.172    22608404.646    92577582.966                  
                 119405201.804                   119405201.804    22930505.257  
                 123836022.796                   123836022.796    23781406.080  
                 113517878.695                   113517878.695    21799913.376  
  23544402.081   123726645.704                                                  
  25150570.968   132167125.583                                                  
 21  9  1 10 43 16.0000000  0 14G 1G 3G 6G14G17G19G22G24G30C23C27C28
                                E21E27
  23191003.644   121869507.505    23191006.414    94963241.804                  
  23649877.259   124280915.901    23649879.743    96842264.446                  
  21694173.593   114003611.605    21694176.595    88833972.413                  
  20505984.740   107759689.118    20505984.901    83968594.036                  
  21055460.216   110647205.053    21055459.537    86218604.464                  
  20900775.679   109834339.820    20900773.356    85585205.917                  
  24411123.154   128281342.523    24411120.635    99959494.563                  
  24258339.023   127478399.464    24258341.417    99333809.665                  
  22609026.452   118811192.316    22609028.847    92580138.922                  
                 119407439.651                   119407439.651    22930935.025  
                 123834092.792                   123834092.792    23781035.441  
                 113518257.165                   113518257.165    21799986.067  
  23544299.638   123726107.391                                                  
  25150907.853   132168895.953                                                  
 21  9  1 10 43 17.0000000  0 14G 1G 3G 6G14G17G19G22G24G30C23C27C28
                                E21E27
  23191663.440   121872974.823    23191666.245    94965943.612                  
  23649734.057   124280163.327    23649736.540    96841678.024                  
  21693645.796   114000838.005    21693648.798    88831811.169                  
  20506049.676   107760030.412    20506049.837    83968859.977                  
  21055599.255   110647935.699    21055598.576    86219173.798                  
  20900634.067   109833595.570    20900631.744    85584625.984                  
  24411278.758   128282160.198    24411276.238    99960131.710                  
  24257889.295   127476036.191    24257891.726    99331968.151                  
  22609650.706   118814472.695    22609653.083    92582695.059                  
                 119409677.882                   119409677.882    22931364.846  
                 123832163.043                   123832163.043    23780664.855  
                 113518635.922                   113518635.922    21800058.794  
  23544197.266   123725569.363                                                  
  25151244.809   132170666.605                                                  
 21  9  1 10 43 18.0000000  0 14G 1G 3G 6G14G17G19G22G24G30C23C27C28
                                E21E27
  23192323.307   121876442.352    23192326.077    94968645.558                  
  23649590.944   124279411.372    23649593.427    96841092.133                  
  21693118.088   113998064.852    21693121.107    88829650.277                  
  20506114.702   107760372.116    20506114.862    83969126.242                  
  21055738.312   110648666.450    21055737.633    86219743.203                  
  20900492.473   109832851.688    20900490.185    85584046.375                  
  24411434.468   128282978.384    24411431.949    99960769.242                  
  24257439.657   127473673.394    24257442.087    99330127.024                  
  22610274.979   118817753.308    22610277.355    92585251.372                  
                 119411916.503                   119411916.503    22931794.739  
                 123830233.548                   123830233.548    23780294.323  
                 113519014.968                   113519014.968    21800131.574  
  23544094.948   123725031.637                                                  
  25151581.801   132172437.503                                                  
 21  9  1 10 43 19.0000000  0 14G 1G 3G 6G14G17G19G22G24G30C23C27C28
                                E21E27
  23192983.192   121879910.160    23192985.998    94971347.746                  
  23649447.938   124278659.845    23649450.422    96840506.527                  
  21692590.433   113995292.115    21692593.453    88827489.698                  
  20506179.816   107760714.235    20506179.959    83969392.828                  
  21055877.404   110649397.359    21055876.743    86220312.743                  
  20900350.968   109832107.996    20900348.663    85583466.879                  
  24411590.268   128283797.125    24411587.749    99961407.223                  
  24256990.126   127471311.007    24256992.539    99328286.206                  
  22610899.322   118821034.180    22610901.681    92587807.896                  
                 119414155.510                   119414155.510    22932224.721  
                 123828304.308                   123828304.308    23779923.827  
                 113519394.304                   113519394.304    21800204.444  
  23543992.684   123724494.211                                                  
  25151918.846   132174208.684                                                  
 21  9  1 10 43 20.0000000  0 14G 1G 3G 6G14G17G19G22G24G30C23C27C28
                                E21E27
  23193643.167   121883378.238    23193645.936    94974050.140                  
  23649305.039   124277908.866    23649307.523    96839921.343                  
  21692062.904   113992519.803    21692065.906    88825329.453                  
  20506245.002   107761056.761    20506245.145    83969659.727                  
  21056016.515   110650128.427    21056015.853    86220882.401                  
  20900209.499   109831364.586    20900207.176    85582887.594                  
  24411746.158   128284616.417    24411743.638    99962045.628                  
  24256540.667   127468949.079    24256543.079    99326445.735                  
  22611523.702   118824315.301    22611526.060    92590364.609                  
                 119416394.907                   119416394.907    22932654.775  
                 123826375.325                   123826375.325    23779553.384  
                 113519773.925                   113519773.925    21800277.332  
  23543890.455   123723957.075                                                  
  25152255.945   132175980.160                                                  
 21  9  1 10 43 21.0000000  0 14G 1G 3G 6G14G17G19G22G24G30C23C27C28
                                E21E27
  23194303.159   121886846.574    23194305.947    94976752.735                  
  23649162.212   124277158.419    23649164.696    96839336.579                  
  21691535.428   113989747.920    21691538.448    88823169.542                  
  20506310.260   107761399.687    20506310.403    83969926.942                  
  21056155.679   110650859.633    21056155.000    86221452.168                  
  20900068.083   109830621.445    20900065.778    85582308.519                  
  24411902.172   128285436.237    24411899.635    99962684.449                  
  24256091.279   127466587.569    24256093.709    99324605.598                  
  22612148.117   118827596.672    22612150.493    92592921.519                  
                 119418634.688                   119418634.688    22933084.900  
                 123824446.597                   123824446.597    23779182.977  
                 113520153.840                   113520153.840    21800350.309  
  23543788.298   123723420.241                                                  
  25152593.098   132177751.889                                                  
 21  9  1 10 43 22.0000000  0 14G 1G 3G 6G14G17G19G22G24G30C23C27C28
                                E21E27
  23194963.205   121890315.142    23194965.993    94979455.515                  
  23649019.528   124276408.504    23649021.994    96838752.227                  
  21691008.042   113986976.469    21691011.044    88821009.972                  
  20506375.571   107761743.038    20506375.732    83970194.484                  
  21056294.843   110651590.953    21056294.163    86222022.032                  
  20899926.721   109829878.590    20899924.416    85581729.672                  
  24412058.276   128286256.597    24412055.756    99963323.691                  
  24255641.980   127464226.518    24255644.392    99322765.816                  
  22612772.586   118830878.280    22612774.962    92595478.616                  
                 119420874.856                   119420874.856    22933515.097  
                 123822518.125                   123822518.125    23778812.641  
                 113520534.040                   113520534.040    21800423.322  
  23543686.194   123722883.700                                                  
  25152930.304   132179523.906                                                  
 21  9  1 10 43 23.0000000  0 14G 1G 3G 6G14G17G19G22G24G30C23C27C28
                                E21E27
  23195623.305   121893783.986    23195626.092    94982158.512                  
  23648876.915   124275659.116    23648879.399    96838168.293                  
  21690480.727   113984205.440    21690483.747    88818850.731                  
  20506441.008   107762086.782    20506441.169    83970462.341                  
  21056434.042   110652322.426    21056433.363    86222592.009                  
  20899785.413   109829136.001    20899783.108    85581151.032                  
  24412214.505   128287077.500    24412211.985    99963963.356                  
  24255192.788   127461865.907    24255195.201    99320926.378                  
  22613397.108   118834160.144    22613399.485    92598035.910                  
                 119423115.410                   119423115.410    22933945.383  
                 123820589.909                   123820589.909    23778442.360  
                 113520914.528                   113520914.528    21800496.388  
  23543584.162   123722347.456                                                  
  25153267.564   132181296.192                                                  
 21  9  1 10 43 24.0000000  0 14G 1G 3G 6G14G17G19G22G24G30C23C27C28
                                E21E27
  23196283.458   121897253.067    23196286.245    94984861.690                  
  23648734.428   124274910.277    23648736.894    96837584.782                  
  21689953.502   113981434.851    21689956.504    88816691.828                  
  20506506.498   107762430.952    20506506.641    83970730.523                  
  21056573.260   110653054.034    21056572.581    86223162.093                  
  20899644.159   109828393.691    20899641.836    85580572.609                  
  24412370.805   128287898.935    24412368.286    99964603.430                  
  24254743.668   127459505.745    24254746.063    99319087.293                  
  22614021.666   118837442.254    22614024.043    92600593.399                  
                 119425356.351                   119425356.351    22934375.723  
                 123818661.949                   123818661.949    23778072.096  
                 113521295.303                   113521295.303    21800569.508  
  23543482.183   123721811.523                                                  
  25153604.860   132183068.737                                                  
 21  9  1 10 43 25.0000000  0 14G 1G 3G 6G14G17G19G22G24G30C23C27C28
                                E21E27
  23196943.647   121900722.404    23196946.434    94987565.067                  
  23648592.012   124274161.960    23648594.495    96837001.676                  
  21689426.365   113978664.691    21689429.367    88814533.262                  
  20506572.059   107762775.532    20506572.220    83970999.027                  
  21056712.495   110653785.765    21056711.816    86223732.273                  
  20899502.958   109827651.672    20899500.635    85579994.410                  
  24412527.213   128288720.903    24412524.693    99965243.925                  
  24254294.620   127457146.017    24254297.014    99317248.542                  
  22614646.278   118840724.611    22614648.654    92603151.079                  
                 119427597.679                   119427597.679    22934806.152  
                 123816734.247                   123816734.247    23777701.921  
                 113521676.373                   113521676.373    21800642.682  
  23543380.241   123721275.875                                                  
  25153942.227   132184841.575                                                  
 21  9  1 10 43 26.0000000  0 14G 1G 3G 6G14G17G19G22G24G30C23C27C28
                                E21E27
  23197603.871   121904191.963    23197606.659    94990268.620                  
  23648449.720   124273414.175    23648452.204    96836418.988                  
  21688899.283   113975894.956    21688902.303    88812375.027                  
  20506637.728   107763120.512    20506637.853    83971267.840                  
  21056851.766   110654517.640    21056851.087    86224302.567                  
  20899361.792   109826909.923    20899359.505    85579416.425                  
  24412683.745   128289543.403    24412681.226    99965884.836                  
  24253845.661   127454786.738    24253848.073    99315410.145                  
  22615270.943   118844007.208    22615273.320    92605708.945                  
                 119429839.399                   119429839.399    22935236.635  
                 123814806.796                   123814806.796    23777331.764  
                 113522057.727                   113522057.727    21800715.927  
  23543278.387   123720740.523                                                  
  25154279.612   132186614.675                                                  
 21  9  1 10 43 27.0000000  0 14G 1G 3G 6G14G17G19G22G24G30C23C27C28
                                E21E27
  23198264.185   121907661.808    23198266.955    94992972.398                  
  23648307.519   124272666.926    23648310.003    96835836.714                  
  21688372.307   113973125.655    21688375.327    88810217.128                  
  20506703.432   107763465.902    20506703.593    83971536.976                  
  21056991.055   110655249.656    21056990.376    86224872.969                  
  20899220.698   109826168.452    20899218.393    85578838.656                  
  24412840.367   128290366.433    24412837.848    99966526.161                  
  24253396.773   127452427.923    24253399.203    99313572.105                  
  22615895.644   118847290.043    22615898.021    92608267.000                  
                 119432081.501                   119432081.501    22935667.224  
                 123812879.601                   123812879.601    23776961.661  
                 113522439.366                   113522439.366    21800789.208  
  23543176.552   123720205.473                                                  
  25154617.104   132188388.047                                                  
 21  9  1 10 43 28.0000000  0 14G 1G 3G 6G14G17G19G22G24G30C23C27C28
                                E21E27
  23198924.499   121911131.890    23198927.305    94995676.360                  
  23648165.424   124271920.206    23648167.908    96835254.859                  
  21687845.404   113970356.777    21687848.423    88808059.567                  
  20506769.244   107763811.704    20506769.405    83971806.433                  
  21057130.380   110655981.798    21057129.701    86225443.469                  
  20899079.658   109825427.260    20899077.335    85578261.106                  
  24412997.079   128291190.001    24412994.559    99967167.899                  
  24252947.992   127450069.527    24252950.423    99311734.399                  
  22616520.399   118850573.130    22616522.757    92610825.246                  
                 119434323.989                   119434323.989    22936097.868  
                 123810952.664                   123810952.664    23776591.611  
                 113522821.296                   113522821.296    21800862.560  
  23543074.805   123719670.720                                                  
  25154954.597   132190161.698                                                  
 21  9  1 10 43 29.0000000  0 14G 1G 3G 6G14G17G19G22G24G30C23C27C28
                                E21E27
  23199584.885   121914602.221    23199587.672    94998380.512                  
  23648023.437   124271174.023    23648025.921    96834673.417                  
  21687318.607   113967588.333    21687321.609    88805902.336                  
  20506835.127   107764157.913    20506835.288    83972076.207                  
  21057269.741   110656714.092    21057269.062    86226014.091                  
  20898938.672   109824686.344    20898936.367    85577683.769                  
  24413153.897   128292014.102    24413151.378    99967810.054                  
  24252499.301   127447711.571    24252501.714    99309897.028                  
  22617145.171   118853856.449    22617147.566    92613383.681                  
                 119436566.863                   119436566.863    22936528.583  
                 123809025.983                   123809025.983    23776221.615  
                 113523203.520                   113523203.520    21800935.966  
  23542973.095   123719136.254                                                  
  25155292.178   132191935.625                                                  
 21  9  1 10 43 30.0000000  0 14G 1G 3G 6G14G17G19G22G24G30C23C27C28
                                E21E27
  23200245.324   121918072.820    23200248.111    95001084.875                  
  23647881.539   124270428.379    23647884.023    96834092.394                  
  21686791.864   113964820.315    21686794.866    88803745.437                  
  20506901.082   107764504.536    20506901.242    83972346.300                  
  21057409.119   110657446.531    21057408.440    86226584.817                  
  20898797.739   109823945.707    20898795.416    85577106.649                  
  24413310.823   128292838.738    24413308.303    99968452.630                  
  24252050.682   127445354.059    24252053.094    99308060.003                  
  22617770.033   118857140.021    22617772.392    92615942.306                  
                 119438810.125                   119438810.125    22936959.387  
                 123807099.558                   123807099.558    23775851.655  
                 113523586.022                   113523586.022    21801009.426  
  23542871.456   123718602.105                                                  
  25155629.795   132193709.828                                                  
 21  9  1 10 43 31.0000000  0 14G 1G 3G 6G14G17G19G22G24G30C23C27C28
                                E21E27
  23200905.799   121921543.647    23200908.586    95003789.413                  
  23647739.748   124269683.261    23647742.214    96833511.780                  
  21686265.192   113962052.725    21686268.212    88801588.875                  
  20506967.125   107764851.566    20506967.286    83972616.714                  
  21057548.515   110658179.083    21057547.836    86227155.638                  
  20898656.841   109823205.361    20898654.536    85576529.754                  
  24413467.838   128293663.914    24413465.318    99969095.622                  
  24251602.133   127442996.993    24251604.564    99306223.333                  
  22618394.913   118860423.836    22618397.307    92618501.125                  
                 119441053.773                   119441053.773    22937390.263  
                 123805173.386                   123805173.386    23775481.766  
                 113523968.819                   113523968.819    21801082.921  
  23542769.853   123718068.235                                                  
  25155967.466   132195484.286                                                  
 21  9  1 10 43 32.0000000  0 14G 1G 3G 6G14G17G19G22G24G30C23C27C28
                                E21E27
  23201566.327   121925014.733    23201569.115    95006494.155                  
  23647598.065   124268938.680    23647600.549    96832931.590                  
  21685738.628   113959285.570    21685741.648    88799432.648                  
  20507033.241   107765199.011    20507033.402    83972887.452                  
  21057687.947   110658911.774    21057687.268    86227726.566                  
  20898516.016   109822465.290    20898513.693    85575953.075                  
  24413624.978   128294489.630    24413622.459    99969739.039                  
  24251153.674   127440640.367    24251156.105    99304387.001                  
  22619019.864   118863707.903    22619022.241    92621060.134                  
                 119443297.805                   119443297.805    22937821.192  
                 123803247.473                   123803247.473    23775111.913  
                 113524351.903                   113524351.903    21801156.506  
  23542668.321   123717534.673                                                  
  25156305.173   132197259.028                                                  
 21  9  1 10 43 33.0000000  0 14G 1G 3G 6G14G17G19G22G24G30C23C27C28
                                E21E27
  23202226.891   121928486.071    23202229.679    95009199.094                  
  23647456.489   124268194.642    23647458.955    96832351.817                  
  21685212.135   113956518.843    21685215.137    88797276.761                  
  20507099.446   107765546.855    20507099.588    83973158.499                  
  21057827.397   110659644.594    21057826.718    86228297.594                  
  20898375.244   109821725.483    20898372.921    85575376.605                  
  24413782.208   128295315.876    24413779.688    99970382.863                  
  24250705.323   127438284.183    24250707.735    99302551.012                  
  22619644.833   118866992.197    22619647.228    92623619.323                  
                 119445542.227                   119445542.227    22938252.229  
                 123801321.813                   123801321.813    23774742.114  
                 113524735.273                   113524735.273    21801230.126  
  23542566.861   123717001.405                                                  
  25156642.951   132199034.050                                                  
 21  9  1 10 43 34.0000000  0 14G 1G 3G 6G14G17G19G22G24G30C23C27C28
                                E21E27
  23202887.527   121931957.662    23202890.297    95011904.227                  
  23647314.984   124267451.129    23647317.468    96831772.457                  
  21684685.714   113953752.556    21684688.733    88795121.206                  
  20507165.704   107765895.118    20507165.865    83973429.871                  
  21057966.883   110660377.566    21057966.204    86228868.741                  
  20898234.525   109820985.964    20898232.202    85574800.356                  
  24413939.544   128296142.660    24413937.025    99971027.114                  
  24250257.043   127435928.458    24250259.455    99300715.382                  
  22620269.856   118870276.742    22620272.232    92626178.712                  
                 119447787.035                   119447787.035    22938683.301  
                 123799396.409                   123799396.409    23774372.368  
                 113525118.933                   113525118.933    21801303.800  
  23542465.436   123716468.441                                                  
  25156980.801   132200809.344                                                  
 21  9  1 10 43 35.0000000  0 14G 1G 3G 6G14G17G19G22G24G30C23C27C28
                                E21E27
  23203548.180   121935429.484    23203550.986    95014609.543                  
  23647173.604   124266708.153    23647176.088    96831193.517                  
  21684159.399   113950986.677    21684162.419    88792965.980                  
  20507232.052   107766243.786    20507232.194    83973701.563                  
  21058106.386   110661110.656    21058105.707    86229439.980                  
  20898093.842   109820246.718    20898091.519    85574224.320                  
  24414096.953   128296969.972    24414094.433    99971671.773                  
  24249808.834   127433573.155    24249811.264    99298880.083                  
  22620894.932   118873561.540    22620897.327    92628738.293                  
                 119450032.227                   119450032.227    22939114.481  
                 123797471.261                   123797471.261    23774002.658  
                 113525502.878                   113525502.878    21801377.528  
  23542364.065   123715935.769                                                  
  25157318.686   132202584.914                                                  
 21  9  1 10 43 36.0000000  0 14G 1G 3G 6G14G17G19G22G24G30C23C27C28
                                E21E27
  23204208.905   121938901.567    23204211.693    95017315.063                  
  23647032.314   124265965.702    23647034.798    96830614.984                  
  21683633.157   113948221.235    21683636.159    88790811.091                  
  20507298.489   107766592.868    20507298.632    83973973.570                  
  21058245.908   110661843.878    21058245.229    86230011.324                  
  20897953.213   109819507.759    20897950.908    85573648.503                  
  24414254.504   128297797.824    24414251.984    99972316.855                  
  24249360.732   127431218.319    24249363.145    99297045.148                  
  22621520.062   118876846.573    22621522.439    92631298.063                  
                 119452277.809                   119452277.809    22939545.714  
                 123795546.371                   123795546.371    23773633.001  
                 113525887.117                   113525887.117    21801451.327  
  23542262.766   123715403.407                                                  
  25157656.607   132204360.746                                                  
 21  9  1 10 43 37.0000000  0 14G 1G 3G 6G14G17G19G22G24G30C23C27C28
                                E21E27
  23204869.666   121942373.891    23204872.454    95020020.770                  
  23646891.149   124265223.789    23646893.614    96830036.871                  
  21683106.985   113945456.222    21683110.005    88788656.535                  
  20507364.979   107766942.352    20507365.140    83974245.898                  
  21058385.465   110662577.232    21058384.786    86230582.769                  
  20897812.655   109818769.067    20897810.332    85573072.902                  
  24414412.144   128298626.207    24414409.625    99972962.348                  
  24248912.702   127428863.917    24248915.115    99295210.547                  
  22622145.246   118880131.858    22622147.622    92633858.023                  
                 119454523.772                   119454523.772    22939977.018  
                 123793621.735                   123793621.735    23773263.399  
                 113526271.640                   113526271.640    21801525.161  
  23542161.502   123714871.324                                                  
  25157994.582   132206136.868                                                  
 21  9  1 10 43 38.0000000  0 14G 1G 3G 6G14G17G19G22G24G30C23C27C28
                                E21E27
  23205530.481   121945846.468    23205533.268    95022726.671                  
  23646750.055   124264482.427    23646752.539    96829459.184                  
  21682580.903   113942691.646    21682583.923    88786502.320                  
  20507431.559   107767292.247    20507431.720    83974518.543                  
  21058525.040   110663310.724    21058524.361    86231154.321                  
  20897672.133   109818030.652    20897669.828    85572497.515                  
  24414569.874   128299455.133    24414567.355    99973608.262                  
  24248464.762   127426509.962    24248467.174    99293376.298                  
  22622770.447   118883417.384    22622772.823    92636418.169                  
                 119456770.125                   119456770.125    22940408.412  
                 123791697.357                   123791697.357    23772893.831  
                 113526656.449                   113526656.449    21801599.068  
  23542060.327   123714339.546                                                  
  25158332.628   132207913.251                                                  
 21  9  1 10 43 39.0000000  0 14G 1G 3G 6G14G17G19G22G24G30C23C27C28
                                E21E27
  23206191.348   121949319.290    23206194.118    95025432.769                  
  23646609.086   124263741.570    23646611.552    96828881.895                  
  21682054.893   113939927.504    21682057.913    88784348.445                  
  20507498.246   107767642.561    20507498.371    83974791.515                  
  21058664.632   110664044.359    21058663.953    86231725.985                  
  20897531.683   109817292.520    20897529.360    85571922.348                  
  24414727.711   128300284.587    24414725.192    99974254.590                  
  24248016.893   127424156.446    24248019.323    99291542.387                  
  22623395.720   118886703.154    22623398.078    92638978.511                  
                 119459016.864                   119459016.864    22940839.878  
                 123789773.232                   123789773.232    23772524.318  
                 113527041.546                   113527041.546    21801672.992  
  23541959.189   123713808.071                                                  
  25158670.692   132209689.909                                                  
 21  9  1 10 43 40.0000000  0 18G 1G 3G 6G14G17G19G22G24G30C23C27C28
                                E 1E13E15E21E26E27
  23206852.234   121952792.363    23206855.022    95028139.059                  
  23646468.207   124263001.258    23646470.673    96828305.031                  
  21681528.972   113937163.790    21681531.992    88782194.902                  
  20507564.987   107767993.281    20507565.112    83975064.805                  
  21058804.279   110664778.124    21058803.600    86232297.749                  
  20897391.268   109816554.665    20897388.945    85571347.393                  
  24414885.656   128301114.578    24414883.136    99974901.336                  
  24247569.113   127421803.376    24247571.543    99289708.829                  
  22624021.028   118889989.164    22624023.405    92641539.036                  
                 119461263.984                   119461263.984    22941271.415  
                 123787849.360                   123787849.360    23772154.858  
                 113527426.933                   113527426.933    21801747.023  
  26184350.055   137599656.598                                                  
  23463210.297   123299964.656                                                  
  27007548.675   141925595.456                                                  
  23541858.104   123713276.880                                                  
  23871132.127   125443613.443                                                  
  25159008.846   132211466.844                                                  
 21  9  1 10 43 41.0000000  0 18G 1G 3G 6G14G17G19G22G24G30C23C27C28
                                E 1E13E15E21E26E27
  23207513.174   121956265.684    23207515.979    95030845.544                  
  23646327.435   124262261.484    23646329.900    96827728.582                  
  21681003.158   113934400.505    21681006.160    88780041.691                  
  20507631.782   107768344.402    20507631.942    83975338.406                  
  21058943.925   110665512.024    21058943.264    86232869.617                  
  20897250.907   109815817.089    20897248.602    85570772.663                  
  24415043.707   128301945.100    24415041.188    99975548.496                  
  24247121.440   127419450.738    24247123.852    99287875.602                  
  22624646.373   118893275.411    22624648.731    92644099.751                  
                 119463511.497                   119463511.497    22941703.023  
                 123785925.747                   123785925.747    23771785.452  
                 113527812.608                   113527812.608    21801821.072  
  26183907.707   137597332.046                                                  
  23463411.806   123301023.551                                                  
  27008065.197   141928309.809                                                  
  23541757.072   123712745.991                                                  
  23870807.947   125441909.860                                                  
  25159347.035   132213244.055                                                  
 21  9  1 10 43 42.0000000  0 18G 1G 3G 6G14G17G19G22G24G30C23C27C28
                                E 1E13E15E21E26E27
  23208174.185   121959739.253    23208176.972    95033552.218                  
  23646186.752   124261522.243    23646189.235    96827152.550                  
  21680477.398   113931637.640    21680480.400    88777888.813                  
  20507698.683   107768695.940    20507698.844    83975612.332                  
  21059083.625   110666246.067    21059082.946    86233441.601                  
  20897110.599   109815079.785    20897108.276    85570198.141                  
  24415201.866   128302776.163    24415199.328    99976196.077                  
  24246673.821   127417098.557    24246676.233    99286042.734                  
  22625271.753   118896561.903    22625274.147    92646660.653                  
                 119465759.390                   119465759.390    22942134.721  
                 123784002.387                   123784002.387    23771416.099  
                 113528198.571                   113528198.571    21801895.193  
  26183465.360   137595007.552                                                  
  23463613.387   123302082.784                                                  
  27008581.737   141931024.224                                                  
  23541656.094   123712215.413                                                  
  23870483.821   125440206.621                                                  
  25159685.277   132215021.521                                                  
 21  9  1 10 43 43.0000000  0 18G 1G 3G 6G14G17G19G22G24G30C23C27C28
                                E 1E13E15E21E26E27
  23208835.231   121963213.070    23208838.019    95036259.089                  
  23646046.176   124260783.543    23646048.660    96826576.937                  
  21679951.727   113928875.218    21679954.747    88775736.277                  
  20507765.656   107769047.886    20507765.817    83975886.574                  
  21059223.325   110666980.240    21059222.646    86234013.679                  
  20896970.363   109814342.766    20896968.040    85569623.840                  
  24415360.096   128303607.759    24415357.577    99976844.075                  
  24246226.291   127414746.820    24246228.722    99284210.214                  
  22625897.222   118899848.643    22625899.599    92649221.749                  
                 119468007.673                   119468007.673    22942566.454  
                 123782079.286                   123782079.286    23771046.782  
                 113528584.819                   113528584.819    21801969.385  
  26183023.048   137592683.125                                                  
  23463815.003   123303142.364                                                  
  27009098.277   141933738.668                                                  
  23541555.206   123711685.129                                                  
  23870159.784   125438503.726                                                  
  25160023.574   132216799.286                                                  
 21  9  1 10 43 44.0000000  0 18G 1G 3G 6G14G17G19G22G24G30C23C27C28
                                E 1E13E15E21E26E27
  23209496.314   121966687.137    23209499.119    95038966.152                  
  23645905.726   124260045.371    23645908.191    96826001.743                  
  21679426.145   113926113.224    21679429.147    88773584.071                  
  20507832.701   107769400.243    20507832.862    83976161.137                  
  21059363.061   110667714.547    21059362.382    86234585.871                  
  20896830.163   109813606.017    20896827.840    85569049.746                  
  24415518.433   128304439.889    24415515.914    99977492.488                  
  24245778.887   127412395.529    24245781.281    99282378.034                  
  22626522.692   118903135.628    22626525.086    92651783.036                  
                 119470256.340                   119470256.340    22942998.295  
                 123780156.440                   123780156.440    23770677.519  
                 113528971.355                   113528971.355    21802043.595  
  26182580.736   137590358.758                                                  
  23464016.708   123304202.281                                                  
  27009614.817   141936453.156                                                  
  23541454.335   123711155.141                                                  
  23869835.783   125436801.176                                                  
  25160361.924   132218577.312                                                  
 21  9  1 10 43 45.0000000  0 18G 1G 3G 6G14G17G19G22G24G30C23C27C28
                                E 1E13E15E21E26E27
  23210157.485   121970161.384    23210160.255    95041673.329                  
  23645765.364   124259307.683    23645767.848    96825426.896                  
  21678900.617   113923351.700    21678903.619    88771432.257                  
  20507899.835   107769753.005    20507899.996    83976436.017                  
  21059502.815   110668448.949    21059502.136    86235158.114                  
  20896689.998   109812869.602    20896687.675    85568475.950                  
  24415676.932   128305272.354    24415674.448    99978141.059                  
  24245331.518   127410044.672    24245333.948    99280546.202                  
  22627148.232   118906422.891    22627150.627    92654344.558                  
                 119472505.385                   119472505.385    22943430.225  
                 123778233.918                   123778233.918    23770308.309  
                 113529358.211                   113529358.211    21802117.877  
  26182138.424   137588034.472                                                  
  23464218.468   123305262.532                                                  
  27010131.428   141939167.512                                                  
  23541353.518   123710625.550                                                  
  23869511.853   125435099.032                                                  
  25160700.345   132220355.555                                                  
 21  9  1 10 43 46.0000000  0 18G 1G 3G 6G14G17G19G22G24G30C23C27C28
                                E 1E13E15E21E26E27
  23210818.657   121973635.947    23210821.463    95044380.781                  
  23645625.093   124258570.581    23645627.576    96824852.531                  
  21678375.197   113920590.548    21678378.199    88769280.715                  
  20507967.040   107770106.175    20507967.201    83976711.214                  
  21059642.604   110669183.526    21059641.943    86235730.512                  
  20896549.905   109812133.411    20896547.582    85567902.292                  
  24415835.501   128306105.556    24415833.000    99978790.304                  
  24244884.256   127407694.269    24244886.686    99278714.720                  
  22627773.827   118909710.344    22627776.204    92656906.210                  
                 119474754.820                   119474754.820    22943862.208  
                 123776311.578                   123776311.578    23769939.135  
                 113529745.317                   113529745.317    21802192.212  
  26181696.148   137585710.233                                                  
  23464420.298   123306323.133                                                  
  27010648.003   141941882.082                                                  
  23541252.773   123710096.158                                                  
  23869187.995   125433397.158                                                  
  25161038.784   132222134.128                                                  
 21  9  1 10 43 47.0000000  0 18G 1G 3G 6G14G17G19G22G24G30C23C27C28
                                E 1E13E15E21E26E27
  23211479.900   121977110.750    23211482.706    95047088.418                  
  23645484.946   124257834.000    23645487.412    96824278.571                  
  21677849.847   113917829.848    21677852.867    88767129.520                  
  20508034.335   107770459.758    20508034.478    83976986.733                  
  21059782.411   110669918.248    21059781.768    86236303.020                  
  20896409.865   109811397.492    20896407.542    85567328.852                  
  24415994.160   128306939.288    24415991.659    99979439.968                  
  24244437.084   127405344.307    24244439.496    99276883.583                  
  22628399.457   118912998.042    22628401.816    92659468.054                  
                 119477004.641                   119477004.641    22944294.246  
                 123774389.492                   123774389.492    23769570.014  
                 113530132.710                   113530132.710    21802266.619  
  26181253.854   137583386.047                                                  
  23464622.182   123307384.059                                                  
  27011164.561   141944596.696                                                  
  23541152.099   123709567.050                                                  
  23868864.226   125431695.629                                                  
  25161377.277   132223912.949                                                  
 21  9  1 10 43 48.0000000  0 18G 1G 3G 6G14G17G19G22G24G30C23C27C28
                                E 1E13E15E21E26E27
  23212141.179   121980585.806    23212143.985    95049796.254                  
  23645344.853   124257097.961    23645347.354    96823705.034                  
  21677324.587   113915069.565    21677327.607    88764978.653                  
  20508101.701   107770813.755    20508101.862    83977262.575                  
  21059922.254   110670653.095    21059921.593    86236875.628                  
  20896269.879   109810661.847    20896267.557    85566755.621                  
  24416152.909   128307773.552    24416150.407    99980090.044                  
  24243989.983   127402994.788    24243992.395    99275052.784                  
  22629025.141   118916285.997    22629027.500    92662030.093                  
                 119479254.844                   119479254.844    22944726.372  
                 123772467.664                   123772467.664    23769200.965  
                 113530520.392                   113530520.392    21802341.079  
  26180811.595   137581061.935                                                  
  23464824.138   123308445.344                                                  
  27011681.155   141947311.355                                                  
  23541051.478   123709038.251                                                  
  23868540.493   125429994.442                                                  
  25161715.842   132225692.058                                                  
 21  9  1 10 43 49.0000000  0 18G 1G 3G 6G14G17G19G22G24G30C23C27C28
                                E 1E13E15E21E26E27
  23212802.512   121984061.106    23212805.299    95052504.281                  
  23645204.902   124256362.456    23645207.404    96823131.914                  
  21676799.399   113912309.722    21676802.419    88762828.121                  
  20508169.139   107771168.157    20508169.300    83977538.735                  
  21060062.115   110671388.075    21060061.454    86237448.340                  
  20896129.965   109809926.486    20896127.624    85566182.610                  
  24416311.764   128308608.347    24416309.263    99980740.536                  
  24243542.954   127400645.707    24243545.384    99273222.331                  
  22629650.861   118919574.179    22629653.219    92664592.313                  
                 119481505.433                   119481505.433    22945158.588  
                 123770546.089                   123770546.089    23768831.934  
                 113530908.358                   113530908.358    21802415.575  
  26180369.355   137578737.884                                                  
  23465026.165   123309506.962                                                  
  27012197.748   141950026.060                                                  
  23540950.911   123708509.745                                                  
  23868216.831   125428293.597                                                  
  25162054.460   132227471.446                                                  
 21  9  1 10 43 50.0000000  0 18G 1G 3G 6G14G17G19G22G24G30C23C27C28
                                E 1E13E15E21E26E27
  23213463.880   121987536.652    23213466.685    95055212.497                  
  23645065.060   124255627.491    23645067.543    96822559.218                  
  21676274.300   113909550.296    21676277.320    88760677.921                  
  20508236.666   107771522.967    20508236.827    83977815.208                  
  21060202.012   110672123.186    21060201.333    86238021.156                  
  20895990.068   109809191.397    20895987.745    85565609.817                  
  24416470.727   128309443.696    24416468.244    99981391.457                  
  24243096.032   127398297.074    24243098.462    99271392.230                  
  22630276.616   118922862.610    22630278.992    92667154.726                  
                 119483756.412                   119483756.412    22945590.858  
                 123768624.773                   123768624.773    23768462.975  
                 113531296.619                   113531296.619    21802490.142  
  26179927.115   137576413.895                                                  
  23465228.246   123310568.922                                                  
  27012714.342   141952740.806                                                  
  23540850.398   123707981.527                                                  
  23867893.241   125426593.090                                                  
  25162393.113   132229251.116                                                  
 21  9  1 10 43 51.0000000  0 18G 1G 3G 6G14G17G19G22G24G30C23C27C28
                                E 1E13E15E21E26E27
  23214125.320   121991012.456    23214128.125    95057920.913                  
  23644925.306   124254893.054    23644927.772    96821986.930                  
  21675749.308   113906791.316    21675752.292    88758528.067                  
  20508304.264   107771878.191    20508304.425    83978092.004                  
  21060341.944   110672858.450    21060341.265    86238594.085                  
  20895850.243   109808456.591    20895847.920    85565037.238                  
  24416629.797   128310279.574    24416627.296    99982042.788                  
  24242649.199   127395948.881    24242651.593    99269562.469                  
  22630902.443   118926151.284    22630904.819    92669717.327                  
                 119486007.789                   119486007.789    22946023.217  
                 123766703.731                   123766703.731    23768094.069  
                 113531685.152                   113531685.152    21802564.763  
  26179484.874   137574089.973                                                  
  23465430.398   123311631.221                                                  
  27013230.953   141955455.596                                                  
  23540749.938   123707453.628                                                  
  23867569.722   125424892.932                                                  
  25162731.821   132231031.035                                                  
 21  9  1 10 43 52.0000000  0 18G 1G 3G 6G14G17G19G22G24G30C23C27C28
                                E 1E13E15E21E26E27
  23214786.777   121994488.501    23214789.583    95060629.520                  
  23644785.642   124254159.161    23644788.125    96821415.062                  
  21675224.352   113904032.747    21675227.354    88756378.532                  
  20508371.934   107772233.823    20508372.095    83978369.122                  
  21060481.876   110673593.835    21060481.197    86239167.116                  
  20895710.454   109807722.055    20895708.149    85564464.874                  
  24416788.957   128311115.985    24416786.455    99982694.540                  
  24242202.438   127393601.144    24242204.868    99267733.066                  
  22631528.305   118929440.196    22631530.682    92672280.116                  
                 119488259.544                   119488259.544    22946455.647  
                 123764782.930                   123764782.930    23767725.181  
                 113532073.985                   113532073.985    21802639.438  
  26179042.687   137571766.116                                                  
  23465632.622   123312693.870                                                  
  27013747.582   141958170.431                                                  
  23540649.532   123706926.011                                                  
  23867246.257   125423193.124                                                  
  25163070.582   132232811.247                                                  
 21  9  1 10 43 53.0000000  0 18G 1G 3G 6G14G17G19G22G24G30C23C27C28
                                E 1E13E15E21E26E27
  23215448.306   121997964.781    23215451.094    95063338.311                  
  23644646.085   124253425.798    23644648.586    96820843.609                  
  21674699.503   113901274.629    21674702.523    88754229.352                  
  20508439.694   107772589.868    20508439.837    83978646.560                  
  21060621.844   110674329.360    21060621.183    86239740.253                  
  20895570.736   109806987.800    20895568.413    85563892.730                  
  24416948.223   128311952.934    24416945.722    99983346.708                  
  24241755.766   127391253.852    24241758.178    99265904.007                  
  22632154.221   118932729.343    22632156.580    92674843.090                  
                 119490511.680                   119490511.680    22946888.149  
                 123762862.384                   123762862.384    23767356.364  
                 113532463.109                   113532463.109    21802714.166  
  26178600.483   137569442.320                                                  
  23465834.899   123313756.857                                                  
  27014264.193   141960885.309                                                  
  23540549.198   123706398.700                                                  
  23866922.864   125421493.653                                                  
  25163409.396   132234591.715                                                  
 21  9  1 10 43 54.0000000  0 18G 1G 3G 6G14G17G19G22G24G30C23C27C28
                                E 1E13E15E21E26E27
  23216109.853   122001441.321    23216112.659    95066047.300                  
  23644506.635   124252692.963    23644509.118    96820272.571                  
  21674174.743   113898516.934    21674177.745    88752080.497                  
  20508507.525   107772946.322    20508507.685    83978924.313                  
  21060761.848   110675065.015    21060761.151    86240313.488                  
  20895431.072   109806253.824    20895428.767    85563320.796                  
  24417107.597   128312790.402    24417105.096    99983999.278                  
  24241309.183   127388907.000    24241311.577    99264075.289                  
  22632780.155   118936018.745    22632782.532    92677406.258                  
                 119492764.199                   119492764.199    22947320.722  
                 123760942.095                   123760942.095    23766987.601  
                 113532852.515                   113532852.515    21802788.948  
  26178158.278   137567118.583                                                  
  23466037.248   123314820.174                                                  
  27014780.840   141963600.234                                                  
  23540448.917   123705871.679                                                  
  23866599.524   125419794.516                                                  
  25163748.282   132236372.473                                                  
 21  9  1 10 43 55.0000000  0 18G 1G 3G 6G14G17G19G22G24G30C23C27C28
                                E 1E13E15E21E26E27
  23216771.472   122004918.106    23216774.277    95068756.476                  
  23644367.274   124251960.686    23644369.776    96819701.961                  
  21673650.037   113895759.677    21673653.057    88749931.980                  
  20508575.445   107773303.200    20508575.606    83979202.394                  
  21060901.852   110675800.816    21060901.173    86240886.835                  
  20895291.461   109805520.135    20895289.138    85562749.086                  
  24417267.060   128313628.434    24417264.559    99984652.285                  
  24240862.654   127386560.598    24240865.084    99262246.917                  
  22633406.161   118939308.394    22633408.537    92679969.616                  
                 119495017.106                   119495017.106    22947753.367  
                 123759022.061                   123759022.061    23766618.874  
                 113533242.214                   113533242.214    21802863.783  
  26177716.109   137564794.923                                                  
  23466239.669   123315883.847                                                  
  27015297.487   141966315.189                                                  
  23540348.672   123705344.969                                                  
  23866276.255   125418095.735                                                  
  25164087.204   132238153.487                                                  
 21  9  1 10 43 56.0000000  0 18G 1G 3G 6G14G17G19G22G24G30C23C27C28
                                E 1E13E15E21E26E27
  23217433.144   122008395.148    23217435.932    95071465.859                  
  23644228.039   124251228.929    23644230.523    96819131.754                  
  21673125.438   113893002.856    21673128.440    88747783.801                  
  20508643.418   107773660.473    20508643.579    83979480.785                  
  21061041.891   110676536.743    21061041.212    86241460.280                  
  20895151.904   109804786.714    20895149.581    85562177.587                  
  24417426.649   128314466.985    24417424.147    99985305.695                  
  24240416.232   127384214.644    24240418.662    99260418.899                  
  22634032.202   118942598.275    22634034.579    92682533.155                  
                 119497270.399                   119497270.399    22948186.083  
                 123757102.281                   123757102.281    23766250.200  
                 113533632.196                   113533632.196    21802938.673  
  26177273.940   137562471.312                                                  
  23466442.125   123316947.849                                                  
  27015814.135   141969030.202                                                  
  23540248.516   123704818.546                                                  
  23865953.058   125416397.290                                                  
  25164426.162   132239934.788                                                  
 21  9  1 10 43 57.0000000  0 18G 1G 3G 6G14G17G19G22G24G30C23C27C28
                                E 1E13E15E21E26E27
  23218094.834   122011872.426    23218097.639    95074175.422                  
  23644088.893   124250497.714    23644091.376    96818561.974                  
  21672600.911   113890246.453    21672603.913    88745635.954                  
  20508711.482   107774018.161    20508711.642    83979759.499                  
  21061181.967   110677272.809    21061181.306    86242033.835                  
  20895012.383   109804053.574    20895010.060    85561606.304                  
  24417586.326   128315306.081    24417583.824    99985959.536                  
  24239969.900   127381869.128    24239972.312    99258591.219                  
  22634658.297   118945888.402    22634660.673    92685096.886                  
                 119499524.074                   119499524.074    22948618.889  
                 123755182.762                   123755182.762    23765881.580  
                 113534022.466                   113534022.466    21803013.615  
  26176831.789   137560147.766                                                  
  23466644.652   123318012.194                                                  
  27016330.782   141971745.239                                                  
  23540148.396   123704292.426                                                  
  23865629.915   125414699.193                                                  
  25164765.173   132241716.339                                                  
 21  9  1 10 43 58.0000000  0 18G 1G 3G 6G14G17G19G22G24G30C23C27C28
                                E 1E13E15E21E26E27
  23218756.595   122015349.961    23218759.401    95076885.183                  
  23643949.836   124249767.037    23643952.338    96817992.610                  
  21672076.473   113887490.489    21672079.475    88743488.445                  
  20508779.634   107774376.261    20508779.795    83980038.540                  
  21061322.060   110678009.012    21061321.399    86242607.496                  
  20894872.915   109803320.714    20894870.592    85561035.242                  
  24417746.075   128316145.724    24417743.591    99986613.794                  
  24239523.657   127379524.055    24239526.087    99256763.887                  
  22635284.445   118949178.767    22635286.822    92687660.800                  
                 119501778.137                   119501778.137    22949051.748  
                 123753263.496                   123753263.496    23765512.996  
                 113534413.023                   113534413.023    21803088.612  
  26176389.638   137557824.302                                                  
  23466847.287   123319076.882                                                  
  27016847.464   141974460.334                                                  
  23540048.347   123703766.608                                                  
  23865306.843   125413001.432                                                  
  25165104.255   132243498.192                                                  
 21  9  1 10 43 59.0000000  0 18G 1G 3G 6G14G17G19G22G24G30C23C27C28
                                E 1E13E15E21E26E27
  23219418.392   122018827.743    23219421.198    95079595.136                  
  23643810.904   124249036.887    23643813.406    96817423.655                  
  21671552.125   113884734.960    21671555.127    88741341.277                  
  20508847.858   107774734.774    20508848.019    83980317.894                  
  21061462.189   110678745.347    21061461.528    86243181.259                  
  20894733.519   109802588.126    20894731.196    85560464.387                  
  24417905.967   128316985.880    24417903.483    99987268.461                  
  24239077.485   127377179.436    24239079.915    99254936.909                  
  22635910.612   118952469.375    22635913.006    92690224.910                  
                 119504032.582                   119504032.582    22949484.679  
                 123751344.486                   123751344.486    23765144.483  
                 113534803.868                   113534803.868    21803163.679  
  26175947.522   137555500.888                                                  
  23467049.939   123320141.899                                                  
  27017364.147   141977175.468                                                  
  23539948.334   123703241.078                                                  
  23864983.843   125411304.012                                                  
  25165443.374   132245280.317                                                  
 21  9  1 10 44  0.0000000  0 18G 1G 3G 6G14G17G19G22G24G30C23C27C28
                                E 1E13E15E21E26E27
  23220080.243   122022305.757    23220083.049    95082305.277                  
  23643672.062   124248307.278    23643674.564    96816855.129                  
  21671027.847   113881979.862    21671030.832    88739194.446                  
  20508916.153   107775093.695    20508916.314    83980597.566                  
  21061602.318   110679481.812    21061601.656    86243755.125                  
  20894594.158   109801855.808    20894591.835    85559893.750                  
  24418065.949   128317826.579    24418063.465    99987923.542                  
  24238631.403   127374835.267    24238633.833    99253110.277                  
  22636536.832   118955760.224    22636539.226    92692789.203                  
                 119506287.414                   119506287.414    22949917.699  
                 123749425.726                   123749425.726    23764776.006  
                 113535194.995                   113535194.995    21803238.783  
  26175505.407   137553177.532                                                  
  23467252.681   123321207.268                                                  
  27017880.812   141979890.657                                                  
  23539848.393   123702715.856                                                  
  23864660.896   125409606.942                                                  
  25165782.581   132247062.707                                                  
 21  9  1 10 44  1.0000000  0 18G 1G 3G 6G14G17G19G22G24G30C23C27C28
                                E 1E13E15E21E26E27
  23220742.147   122025784.026    23220744.935    95085015.616                  
  23643533.327   124247578.199    23643535.829    96816287.016                  
  21670503.642   113879225.198    21670506.644    88737047.952                  
  20508984.538   107775453.027    20508984.699    83980877.567                  
  21061742.500   110680218.426    21061741.821    86244329.110                  
  20894454.851   109801123.777    20894452.546    85559323.336                  
  24418226.019   128318667.809    24418223.536    99988579.050                  
  24238185.428   127372491.540    24238187.840    99251283.999                  
  22637163.123   118959051.325    22637165.499    92695353.696                  
                 119508542.632                   119508542.632    22950350.808  
                 123747507.230                   123747507.230    23764407.564  
                 113535586.413                   113535586.413    21803313.958  
  26175063.292   137550854.259                                                  
  23467455.477   123322272.984                                                  
  27018397.495   141982605.876                                                  
  23539748.505   123702190.938                                                  
  23864338.020   125407910.214                                                  
  25166121.807   132248845.367                                                  
 21  9  1 10 44  2.0000000  0 18G 1G 3G 6G14G17G19G22G24G30C23C27C28
                                E 1E13E15E21E26E27
  23221404.088   122029262.548    23221406.875    95087726.153                  
  23643394.699   124246849.664    23643397.183    96815719.328                  
  21669979.526   113876470.969    21669982.545    88734901.797                  
  20509052.994   107775812.773    20509053.155    83981157.891                  
  21061882.700   110680955.160    21061882.021    86244903.189                  
  20894315.598   109800392.017    20894313.293    85558753.133                  
  24418386.197   128319509.573    24418383.713    99989234.973                  
  24237739.506   127370148.257    24237741.918    99249458.062                  
  22637789.432   118962342.643    22637791.827    92697918.359                  
                 119510798.234                   119510798.234    22950783.953  
                 123745588.985                   123745588.985    23764039.177  
                 113535978.122                   113535978.122    21803389.186  
  26174621.194   137548531.027                                                  
  23467658.344   123323339.022                                                  
  27018914.196   141985321.136                                                  
  23539648.688   123701666.306                                                  
  23864015.216   125406213.827                                                  
  25166461.086   132250628.297                                                  
 21  9  1 10 44  3.0000000  0 18G 1G 3G 6G14G17G19G22G24G30C23C27C28
                                E 1E13E15E21E26E27
  23222066.063   122032741.301    23222068.869    95090436.872                  
  23643256.160   124246121.659    23643258.644    96815152.052                  
  21669455.499   113873717.165    21669458.501    88732755.976                  
  20509121.522   107776172.930    20509121.683    83981438.530                  
  21062022.919   110681692.035    21062022.240    86245477.375                  
  20894176.416   109799660.535    20894174.093    85558183.148                  
  24418546.500   128320351.868    24418543.999    99989891.304                  
  24237293.674   127367805.417    24237296.104    99247632.472                  
  22638415.795   118965634.220    22638418.172    92700483.222                  
                 119513054.220                   119513054.220    22951217.206  
                 123743670.996                   123743670.996    23763670.860  
                 113536370.110                   113536370.110    21803464.469  
  26174179.114   137546207.880                                                  
  23467861.265   123324405.418                                                  
  27019430.914   141988036.446                                                  
  23539548.908   123701141.973                                                  
  23863692.484   125404517.781                                                  
  25166800.419   132252411.508                                                  
 21  9  1 10 44  4.0000000  0 18G 1G 3G 6G14G17G19G22G24G30C23C27C28
                                E 1E13E15E21E26E27
  23222728.093   122036220.316    23222730.898    95093147.790                  
  23643117.711   124245394.183    23643120.213    96814585.187                  
  21668931.543   113870963.793    21668934.563    88730610.491                  
  20509190.139   107776533.500    20509190.300    83981719.492                  
  21062163.155   110682429.042    21062162.494    86246051.668                  
  20894037.252   109798929.329    20894034.965    85557613.375                  
  24418706.875   128321194.704    24418704.373    99990548.059                  
  24236847.931   127365463.026    24236850.361    99245807.234                  
  22639042.211   118968926.032    22639044.606    92703048.274                  
                 119515310.590                   119515310.590    22951650.511  
                 123741753.265                   123741753.265    23763302.580  
                 113536762.386                   113536762.386    21803539.804  
  26173737.053   137543884.792                                                  
  23468064.257   123325472.149                                                  
  27019947.633   141990751.793                                                  
  23539449.181   123700617.945                                                  
  23863369.805   125402822.074                                                  
  25167139.805   132254194.981                                                  
 21  9  1 10 44  5.0000000  0 18G 1G 3G 6G14G17G19G22G24G30C23C27C28
                                E 1E13E15E21E26E27
  23223390.176   122039699.574    23223392.981    95095858.898                  
  23642979.405   124244667.262    23642981.889    96814018.755                  
  21668407.677   113868210.849    21668410.679    88728465.345                  
  20509258.845   107776894.469    20509259.006    83982000.769                  
  21062303.444   110683166.188    21062302.765    86246626.067                  
  20893898.178   109798198.405    20893895.855    85557043.828                  
  24418867.356   128322038.082    24418864.873    99991205.239                  
  24236402.278   127363121.087    24236404.708    99243982.347                  
  22639668.682   118972218.078    22639671.040    92705613.503                  
                 119517567.343                   119517567.343    22952083.907  
                 123739835.790                   123739835.790    23762934.335  
                 113537154.950                   113537154.950    21803615.176  
  26173295.009   137541561.765                                                  
  23468267.320   123326539.232                                                  
  27020464.351   141993467.188                                                  
  23539349.525   123700094.219                                                  
  23863047.180   125401126.720                                                  
  25167479.245   132255978.741                                                  
 21  9  1 10 44  6.0000000  0 18G 1G 3G 6G14G17G19G22G24G30C23C27C28
                                E 1E13E15E21E26E27
  23224052.295   122043179.073    23224055.100    95098570.196                  
  23642841.152   124243940.857    23642843.654    96813452.722                  
  21667883.900   113865458.336    21667886.902    88726320.527                  
  20509327.605   107777255.856    20509327.766    83982282.366                  
  21062443.734   110683903.462    21062443.055    86247200.567                  
  20893759.139   109797467.757    20893756.816    85556474.489                  
  24419027.963   128322881.979    24419025.462    99991862.819                  
  24235956.696   127360779.590    24235959.126    99242157.804                  
  22640295.187   118975510.367    22640297.564    92708178.921                  
                 119519824.483                   119519824.483    22952517.356  
                 123737918.566                   123737918.566    23762566.162  
                 113537547.801                   113537547.801    21803690.619  
  26172852.965   137539238.812                                                  
  23468470.437   123327606.652                                                  
  27020981.105   141996182.642                                                  
  23539249.923   123699570.781                                                  
  23862724.644   125399431.733                                                  
  25167818.738   132257762.754                                                  
 21  9  1 10 44  7.0000000  0 18G 1G 3G 6G14G17G19G22G24G30C23C27C28
                                E 1E13E15E21E26E27
  23224714.485   122046658.824    23224717.272    95101281.688                  
  23642703.043   124243215.009    23642705.526    96812887.125                  
  21667360.177   113862706.258    21667363.197    88724176.051                  
  20509396.437   107777617.650    20509396.598    83982564.286                  
  21062584.060   110684640.880    21062583.398    86247775.181                  
  20893620.154   109796737.396    20893617.848    85555905.375                  
  24419188.659   128323726.434    24419186.158    99992520.836                  
  24235511.221   127358438.543    24235513.633    99240333.614                  
  22640921.711   118978802.898    22640924.106    92710744.531                  
                 119522082.007                   119522082.007    22952950.894  
                 123736001.603                   123736001.603    23762198.042  
                 113537940.938                   113537940.938    21803766.116  
  26172410.939   137536915.937                                                  
  23468673.644   123328674.424                                                  
  27021497.842   141998898.148                                                  
  23539150.357   123699047.645                                                  
  23862402.162   125397737.124                                                  
  25168158.286   132259547.048                                                  
 21  9  1 10 44  8.0000000  0 18G 1G 3G 6G14G17G19G22G24G30C23C27C28
                                E 1E13E15E21E26E27
  23225376.693   122050138.810    23225379.498    95103993.367                  
  23642565.022   124242489.672    23642567.506    96812321.929                  
  21666836.561   113859954.617    21666839.581    88722031.917                  
  20509465.376   107777979.863    20509465.536    83982846.530                  
  21062724.403   110685378.421    21062723.742    86248349.886                  
  20893481.222   109796007.273    20893478.899    85555336.450                  
  24419349.445   128324571.412    24419346.961    99993179.258                  
  24235065.818   127356097.925    24235068.248    99238509.755                  
  22641548.324   118982095.692    22641550.701    92713310.343                  
                 119524339.918                   119524339.918    22953384.504  
                 123734084.890                   123734084.890    23761829.940  
                 113538334.359                   113538334.359    21803841.684  
  26171968.913   137534593.075                                                  
  23468876.886   123329742.481                                                  
  27022014.578   142001613.613                                                  
  23539050.880   123698524.812                                                  
  23862079.715   125396042.680                                                  
  25168497.886   132261331.630                                                  
 21  9  1 10 44  9.0000000  0 18G 1G 3G 6G14G17G19G22G24G30C23C27C28
                                E 1E13E15E21E26E27
  23226038.955   122053619.039    23226041.760    95106705.234                  
  23642427.074   124241764.884    23642429.575    96811757.159                  
  21666313.034   113857203.413    21666316.036    88719888.122                  
  20509534.386   107778342.485    20509534.547    83983129.095                  
  21062864.782   110686116.098    21062864.121    86248924.699                  
  20893342.344   109795277.464    20893340.021    85554767.765                  
  24419510.337   128325416.935    24419507.854    99993838.109                  
  24234620.504   127353757.766    24234622.916    99236686.253                  
  22642174.955   118985388.704    22642177.332    92715876.328                  
                 119526598.210                   119526598.210    22953818.185  
                 123732168.438                   123732168.438    23761461.927  
                 113538728.072                   113538728.072    21803917.287  
  26171526.905   137532270.315                                                  
  23469080.200   123330810.923                                                  
  27022531.333   142004329.187                                                  
  23538951.439   123698002.286                                                  
  23861757.376   125394348.711                                                  
  25168837.523   132263116.473                                                  
 21  9  1 10 44 10.0000000  0 18G 1G 3G 6G14G17G19G22G24G30C23C27C28
                                E 1E13E15E21E26E27
  23226701.288   122057099.527    23226704.076    95109417.300                  
  23642289.285   124241040.641    23642291.751    96811192.817                  
  21665789.579   113854452.632    21665792.581    88717744.656                  
  20509603.467   107778705.517    20509603.628    83983411.973                  
  21063005.179   110686853.906    21063004.518    86249499.616                  
  20893203.519   109794547.922    20893201.196    85554199.293                  
  24419671.337   128326262.983    24419668.836    99994497.368                  
  24234175.261   127351418.051    24234177.674    99234863.098                  
  22642801.640   118988681.956    22642804.016    92718442.497                  
                 119528856.891                   119528856.891    22954251.937  
                 123730252.237                   123730252.237    23761093.915  
                 113539122.066                   113539122.066    21803992.945  
  26171084.914   137529947.620                                                  
  23469283.603   123331879.690                                                  
  27023048.105   142007044.790                                                  
  23538852.087   123697480.051                                                  
  23861435.072   125392655.067                                                  
  25169177.213   132264901.586                                                  
 21  9  1 10 44 11.0000000  0 18G 1G 3G 6G14G17G19G22G24G30C23C27C28
                                E 1E13E15E21E26E27
  23227363.639   122060580.255    23227366.444    95112129.554                  
  23642151.533   124240316.915    23642154.035    96810628.875                  
  21665266.195   113851702.288    21665269.215    88715601.531                  
  20509672.621   107779068.957    20509672.781    83983695.175                  
  21063145.611   110687591.858    21063144.932    86250074.639                  
  20893064.749   109793818.664    20893062.426    85553631.038                  
  24419832.444   128327109.566    24419829.943    99995157.043                  
  24233730.108   127349078.774    24233732.539    99233040.289                  
  22643428.378   118991975.452    22643430.754    92721008.859                  
                 119531115.954                   119531115.954    22954685.762  
                 123728336.298                   123728336.298    23760725.992  
                 113539516.348                   113539516.348    21804068.656  
  26170642.942   137527624.981                                                  
  23469487.042   123332948.804                                                  
  27023564.877   142009760.434                                                  
  23538752.753   123696958.119                                                  
  23861112.858   125390961.782                                                  
  25169516.957   132266686.972                                                  
 21  9  1 10 44 12.0000000  0 18G 1G 3G 6G14G17G19G22G24G30C23C27C28
                                E 1E13E15E21E26E27
  23228026.044   122064061.227    23228028.867    95114841.999                  
  23642013.942   124239593.738    23642016.425    96810065.362                  
  21664742.901   113848952.375    21664745.921    88713458.741                  
  20509741.863   107779432.808    20509742.024    83983978.695                  
  21063286.062   110688329.942    21063285.401    86250649.772                  
  20892926.013   109793089.668    20892923.708    85553062.987                  
  24419993.641   128327956.682    24419991.139    99995817.136                  
  24233285.045   127346739.954    24233287.457    99231217.828                  
  22644055.151   118995269.182    22644057.546    92723575.403                  
                 119533375.400                   119533375.400    22955119.675  
                 123726420.609                   123726420.609    23760358.104  
                 113539910.915                   113539910.915    21804144.439  
  26170200.952   137525302.418                                                  
  23469690.534   123334018.257                                                  
  27024081.667   142012476.128                                                  
  23538653.509   123696436.473                                                  
  23860790.698   125389268.814                                                  
  25169856.772   132268472.645                                                  
 21  9  1 10 44 13.0000000  0 18G 1G 3G 6G14G17G19G22G24G30C23C27C28
                                E 1E13E15E21E26E27
  23228688.502   122067542.448    23228691.307    95117554.642                  
  23641876.422   124238871.107    23641878.905    96809502.270                  
  21664219.696   113846202.894    21664222.698    88711316.288                  
  20509811.177   107779797.079    20509811.338    83984262.538                  
  21063426.548   110689068.156    21063425.887    86251225.003                  
  20892787.332   109792360.954    20892785.027    85552495.160                  
  24420154.945   128328804.350    24420152.461    99996477.656                  
  24232840.088   127344401.586    24232842.500    99229395.727                  
  22644681.979   118998563.157    22644684.356    92726142.133                  
                 119535635.230                   119535635.230    22955553.642  
                 123724505.181                   123724505.181    23759990.253  
                 113540305.770                   113540305.770    21804220.257  
  26169758.997   137522979.907                                                  
  23469894.116   123335088.052                                                  
  27024598.439   142015191.867                                                  
  23538554.282   123695915.139                                                  
  23860468.626   125387576.200                                                  
  25170196.623   132270258.574                                                  
 21  9  1 10 44 14.0000000  0 18G 1G 3G 6G14G17G19G22G24G30C23C27C28
                                E 1E13E15E21E26E27
  23229350.996   122071023.913    23229353.801    95120267.474                  
  23641739.009   124238149.001    23641741.493    96808939.590                  
  21663696.580   113843453.847    21663699.582    88709174.176                  
  20509880.580   107780161.755    20509880.741    83984546.703                  
  21063567.035   110689806.507    21063566.373    86251800.344                  
  20892648.722   109791632.512    20892646.417    85551927.548                  
  24420316.355   128329652.559    24420313.854    99997138.598                  
  24232395.185   127342063.643    24232397.597    99227573.954                  
  22645308.842   119001857.362    22645311.219    92728709.047                  
                 119537895.447                   119537895.447    22955987.699  
                 123722590.003                   123722590.003    23759622.472  
                 113540700.910                   113540700.910    21804296.147  
  26169317.061   137520657.462                                                  
  23470097.751   123336158.175                                                  
  27025115.247   142017907.628                                                  
  23538455.145   123695394.093                                                  
  23860146.573   125385883.933                                                  
  25170536.545   132272044.785                                                  
 21  9  1 10 44 15.0000000  0 18G 1G 3G 6G14G17G19G22G24G30C23C27C28
                                E 1E13E15E21E26E27
  23230013.544   122074505.624    23230016.367    95122980.493                  
  23641601.703   124237427.434    23641604.187    96808377.331                  
  21663173.518   113840705.231    21663176.538    88707032.398                  
  20509950.037   107780526.841    20509950.216    83984831.189                  
  21063707.574   110690544.993    21063706.895    86252375.786                  
  20892510.166   109790904.329    20892507.843    85551360.132                  
  24420477.856   128330501.289    24420475.372    99997799.946                  
  24231950.354   127339726.173    24231952.784    99225752.546                  
  22645935.759   119005151.821    22645938.135    92731276.155                  
                 119540156.044                   119540156.044    22956421.826  
                 123720675.082                   123720675.082    23759254.746  
                 113541096.335                   113541096.335    21804372.072  
  26168875.142   137518335.095                                                  
  23470301.476   123337228.650                                                  
  27025632.037   142020623.460                                                  
  23538356.043   123694873.354                                                  
  23859824.627   125384192.007                                                  
  25170876.504   132273831.286                                                  
 21  9  1 10 44 16.0000000  0 18G 1G 3G 6G14G17G19G22G24G30C23C27C28
                                E 1E13E15E21E26E27
  23230676.145   122077987.573    23230678.932    95125693.700                  
  23641464.487   124236706.394    23641466.989    96807815.485                  
  21662650.564   113837957.056    21662653.583    88704890.960                  
  20510019.601   107780892.344    20510019.762    83985115.996                  
  21063848.114   110691283.614    21063847.453    86252951.335                  
  20892371.645   109790176.421    20892369.322    85550792.929                  
  24420639.481   128331350.560    24420636.979    99998461.711                  
  24231505.647   127337389.149    24231508.060    99223931.488                  
  22646562.711   119008446.511    22646565.106    92733843.448                  
                 119542417.023                   119542417.023    22956856.026  
                 123718760.419                   123718760.419    23758887.037  
                 113541492.051                   113541492.051    21804448.087  
  26168433.223   137516012.784                                                  
  23470505.237   123338299.465                                                  
  27026148.863   142023339.313                                                  
  23538257.013   123694352.927                                                  
  23859502.734   125382500.426                                                  
  25171216.497   132275618.036                                                  
 21  9  1 10 44 17.0000000  0 18G 1G 3G 6G14G17G19G22G24G30C23C27C28
                                E 1E13E15E21E26E27
  23231338.782   122081469.801    23231341.605    95128407.129                  
  23641327.378   124235985.954    23641329.880    96807254.125                  
  21662127.680   113835209.300    21662130.700    88702749.856                  
  20510089.237   107781258.188    20510089.398    83985401.030                  
  21063988.708   110692022.312    21063988.047    86253526.914                  
  20892233.178   109789448.813    20892230.855    85550225.978                  
  24420801.178   128332200.352    24420798.694    99999123.887                  
  24231060.995   127335052.524    24231063.443    99222110.723                  
  22647189.718   119011741.433    22647192.094    92736410.922                  
                 119544678.391                   119544678.391    22957290.297  
                 123716846.009                   123716846.009    23758519.400  
                 113541888.046                   113541888.046    21804524.120  
  26167991.304   137513690.488                                                  
  23470709.086   123339370.559                                                  
  27026665.688   142026055.200                                                  
  23538158.037   123693832.784                                                  
  23859180.895   125380809.210                                                  
  25171556.563   132277405.215                                                  
 21  9  1 10 44 18.0000000  0 18G 1G 3G 6G14G17G19G22G24G30C23C27C28
                                E 1E13E15E21E26E27
  23232001.472   122084952.234    23232004.278    95131120.716                  
  23641190.376   124235265.993    23641192.860    96806693.116                  
  21661604.904   113832461.984    21661607.906    88700609.091                  
  20510158.944   107781624.504    20510159.105    83985686.476                  
  21064129.319   110692761.200    21064128.640    86254102.675                  
  20892094.764   109788721.457    20892092.459    85549659.202                  
  24420963.000   128333050.682    24420960.498    99999786.484                  
  24230616.467   127332716.383    24230618.879    99220290.356                  
  22647816.759   119015036.613    22647819.136    92738978.593                  
                 119546940.146                   119546940.146    22957724.639  
                 123714931.855                   123714931.855    23758151.798  
                 113542284.332                   113542284.332    21804600.224  
  26167549.421   137511368.315                                                  
  23470912.972   123340442.061                                                  
  27027182.496   142028771.118                                                  
  23538059.114   123693312.953                                                  
  23858859.146   125379118.316                                                  
  25171896.682   132279192.532                                                  
 21  9  1 10 44 19.0000000  0 18G 1G 3G 6G14G17G19G22G24G30C23C27C28
                                E 1E13E15E21E26E27
  23232664.199   122088434.929    23232667.022    95133834.501                  
  23641053.482   124234546.569    23641055.966    96806132.531                  
  21661082.182   113829715.106    21661085.184    88698468.664                  
  20510228.722   107781991.234    20510228.883    83985972.239                  
  21064269.948   110693500.217    21064269.287    86254678.531                  
  20891956.422   109787994.380    20891954.099    85549092.649                  
  24421124.929   128333901.552    24421122.427   100000449.497                  
  24230171.975   127330380.683    24230174.405    99218470.332                  
  22648443.855   119018332.022    22648446.232    92741546.446                  
                 119549202.279                   119549202.279    22958159.053  
                 123713017.962                   123713017.962    23757784.268  
                 113542680.902                   113542680.902    21804676.381  
  26167107.520   137509046.198                                                  
  23471116.947   123341513.898                                                  
  27027699.340   142031487.108                                                  
  23537960.262   123692793.414                                                  
  23858537.432   125377427.766                                                  
  25172236.837   132280980.112                                                  
 21  9  1 10 44 20.0000000  0 18G 1G 3G 6G14G17G19G22G24G30C23C27C28
                                E 1E13E15E21E26E27
  23233326.979   122091917.861    23233329.802    95136548.472                  
  23640916.676   124233827.679    23640919.160    96805572.357                  
  21660559.548   113826968.644    21660562.568    88696328.566                  
  20510298.608   107782358.380    20510298.751    83986258.325                  
  21064410.595   110694239.370    21064409.934    86255254.496                  
  20891818.098   109787267.579    20891815.775    85548526.312                  
  24421286.911   128334752.953    24421284.446   100001112.926                  
  24229727.608   127328045.437    24229730.020    99216650.660                  
  22649071.004   119021627.669    22649073.381    92744114.481                  
                 119551464.798                   119551464.798    22958593.556  
                 123711104.317                   123711104.317    23757416.756  
                 113543077.758                   113543077.758    21804752.593  
  26166665.655   137506724.158                                                  
  23471320.975   123342586.075                                                  
  27028216.201   142034203.140                                                  
  23537861.447   123692274.178                                                  
  23858215.807   125375737.558                                                  
  25172577.063   132282767.972                                                  
 21  9  1 10 44 21.0000000  0 18G 1G 3G 6G14G17G19G22G24G30C23C27C28
                                E 1E13E15E21E26E27
  23233989.812   122095401.025    23233992.618    95139262.626                  
  23640779.978   124233109.341    23640782.480    96805012.610                  
  21660037.005   113824222.637    21660040.007    88694188.820                  
  20510368.548   107782725.934    20510368.708    83986544.733                  
  21064551.278   110694978.660    21064550.617    86255830.566                  
  20891679.864   109786541.065    20891677.541    85547960.196                  
  24421449.037   128335604.888    24421446.553   100001776.774                  
  24229283.295   127325710.652    24229285.743    99214831.345                  
  22649698.207   119024923.556    22649700.583    92746682.702                  
                 119553727.699                   119553727.699    22959028.113  
                 123709190.931                   123709190.931    23757049.315  
                 113543474.901                   113543474.901    21804828.858  
  26166223.808   137504402.178                                                  
  23471525.058   123343658.587                                                  
  27028733.045   142036919.218                                                  
  23537762.702   123691755.242                                                  
  23857894.236   125374047.704                                                  
  25172917.343   132284556.093                                                  
 21  9  1 10 44 22.0000000  0 18G 1G 3G 6G14G17G19G22G24G30C23C27C28
                                E 1E13E15E21E26E27
  23234652.682   122098884.450    23234655.505    95141976.985                  
  23640643.388   124232391.525    23640645.871    96804453.273                  
  21659514.514   113821477.049    21659517.534    88692049.401                  
  20510438.558   107783093.905    20510438.719    83986831.462                  
  21064691.997   110695718.094    21064691.318    86256406.746                  
  20891541.665   109785814.827    20891539.342    85547394.296                  
  24421611.252   128336457.368    24421608.786   100002441.042                  
  24228839.107   127323376.292    24228841.519    99213012.363                  
  22650325.427   119028219.684    22650327.804    92749251.114                  
                 119555990.983                   119555990.983    22959462.759  
                 123707277.800                   123707277.800    23756681.928  
                 113543872.327                   113543872.327    21804905.176  
  26165781.960   137502080.270                                                  
  23471729.211   123344731.450                                                  
  27029249.907   142039635.332                                                  
  23537663.994   123691236.598                                                  
  23857572.719   125372358.186                                                  
  25173257.658   132286344.495                                                  
 21  9  1 10 44 23.0000000  0 18G 1G 3G 6G14G17G19G22G24G30C23C27C28
                                E 1E13E15E21E26E27
  23235315.604   122102368.118    23235318.428    95144691.527                  
  23640506.904   124231674.249    23640509.388    96803894.359                  
  21658992.131   113818731.905    21658995.151    88689910.328                  
  20510508.659   107783462.281    20510508.819    83987118.508                  
  21064832.715   110696457.651    21064832.054    86256983.027                  
  20891403.501   109785088.862    20891401.196    85546828.614                  
  24421773.574   128337310.369    24421771.108   100003105.716                  
  24228394.972   127321042.399    24228397.402    99211193.745                  
  22650952.702   119031516.044    22650955.078    92751819.708                  
                 119558254.651                   119558254.651    22959897.477  
                 123705364.925                   123705364.925    23756314.577  
                 113544270.043                   113544270.043    21804981.566  
  26165340.113   137499758.417                                                  
  23471933.436   123345804.640                                                  
  27029766.786   142042351.495                                                  
  23537565.357   123690718.260                                                  
  23857251.273   125370669.009                                                  
  25173598.027   132288133.171                                                  
 21  9  1 10 44 24.0000000  0 18G 1G 3G 6G14G17G19G22G24G30C23C27C28
                                E 1E13E15E21E26E27
  23235978.563   122105852.019    23235981.386    95147406.257                  
  23640370.492   124230957.495    23640372.976    96803335.852                  
  21658469.838   113815987.195    21658472.840    88687771.593                  
  20510578.848   107783831.071    20510579.009    83987405.879                  
  21064973.487   110697197.335    21064972.826    86257559.401                  
  20891265.427   109784363.156    20891263.104    85546263.128                  
  24421936.022   128338163.912    24421933.520   100003770.812                  
  24227950.927   127318708.946    24227953.339    99209375.468                  
  22651580.011   119034812.644    22651582.406    92754388.485                  
                 119560518.706                   119560518.706    22960332.266  
                 123703452.310                   123703452.310    23755947.279  
                 113544668.044                   113544668.044    21805057.974  
  26164898.301   137497436.646                                                  
  23472137.733   123346878.175                                                  
  27030283.665   142045067.694                                                  
  23537466.773   123690200.222                                                  
  23856929.917   125368980.184                                                  
  25173938.468   132289922.110                                                  
 21  9  1 10 44 25.0000000  0 18G 1G 3G 6G14G17G19G22G24G30C23C27C28
                                E 1E13E15E21E26E27
  23236641.575   122109336.180    23236644.399    95150121.188                  
  23640234.223   124230241.302    23640236.707    96802777.775                  
  21657947.615   113813242.902    21657950.617    88685633.183                  
  20510649.091   107784200.275    20510649.252    83987693.565                  
  21065114.260   110697937.156    21065113.598    86258135.886                  
  20891127.353   109783637.722    20891125.048    85545697.852                  
  24422098.540   128339017.980    24422096.039   100004436.324                  
  24227506.989   127316375.937    24227509.401    99207557.543                  
  22652207.393   119038109.491    22652209.787    92756957.457                  
                 119562783.145                   119562783.145    22960767.126  
                 123701539.947                   123701539.947    23755580.035  
                 113545066.327                   113545066.327    21805134.472  
  26164456.508   137495114.922                                                  
  23472342.083   123347952.051                                                  
  27030800.545   142047783.937                                                  
  23537368.262   123689682.485                                                  
  23856608.596   125367291.688                                                  
  25174278.926   132291711.320                                                  
 21  9  1 10 44 26.0000000  0 18G 1G 3G 6G14G17G19G22G24G30C23C27C28
                                E 1E13E15E21E26E27
  23237304.641   122112820.562    23237307.447    95152836.293                  
  23640098.025   124229525.640    23640100.527    96802220.118                  
  21657425.483   113810499.055    21657428.502    88683495.122                  
  20510719.424   107784569.880    20510719.584    83987981.570                  
  21065255.085   110698677.119    21065254.424    86258712.480                  
  20890989.369   109782912.552    20890987.064    85545132.785                  
  24422261.166   128339872.609    24422258.683   100005102.269                  
  24227063.104   127314043.370    24227065.517    99205739.961                  
  22652834.792   119041406.558    22652837.187    92759526.602                  
                 119565047.965                   119565047.965    22961202.058  
                 123699627.837                   123699627.837    23755212.844  
                 113545464.899                   113545464.899    21805211.023  
  26164014.696   137492793.266                                                  
  23472546.504   123349026.262                                                  
  27031317.424   142050500.218                                                  
  23537269.803   123689165.042                                                  
  23856287.364   125365603.538                                                  
  25174619.456   132293500.820                                                  
 21  9  1 10 44 27.0000000  0 18G 1G 3G 6G14G17G19G22G24G30C23C27C28
                                E 1E13E15E21E26E27
  23237967.743   122116305.211    23237970.566    95155551.602                  
  23639961.935   124228810.509    23639964.418    96801662.871                  
  21656903.421   113807755.633    21656906.441    88681357.391                  
  20510789.845   107784939.902    20510790.006    83988269.903                  
  21065395.911   110699417.207    21065395.232    86259289.172                  
  20890851.420   109782187.661    20890849.097    85544567.933                  
  24422423.900   128340727.754    24422421.398   100005768.618                  
  24226619.327   127311711.255    24226621.740    99203922.726                  
  22653462.263   119044703.875    22653464.639    92762095.938                  
                 119567313.168                   119567313.168    22961637.062  
                 123697715.986                   123697715.986    23754845.671  
                 113545863.755                   113545863.755    21805287.627  
  26163572.920   137490471.680                                                  
  23472750.980   123350100.807                                                  
  27031834.321   142053216.543                                                  
  23537171.381   123688647.899                                                  
  23855966.187   125363915.734                                                  
  25174960.040   132295290.581                                                  
 21  9  1 10 44 28.0000000  0 18G 1G 3G 6G14G17G19G22G24G30C23C27C28
                                E 1E13E15E21E26E27
  23238630.898   122119790.094    23238633.703    95158267.093                  
  23639825.951   124228095.909    23639828.435    96801106.042                  
  21656381.467   113805012.652    21656384.451    88679220.000                  
  20510860.339   107785310.335    20510860.500    83988558.550                  
  21065536.773   110700157.430    21065536.094    86259865.972                  
  20890713.543   109781463.046    20890711.220    85544003.300                  
  24422586.722   128341583.445    24422584.238   100006435.390                  
  24226175.622   127309379.589    24226178.034    99202105.844                  
  22654089.751   119048001.429    22654092.146    92764665.460                  
                 119569578.753                   119569578.753    22962072.137  
                 123695804.390                   123695804.390    23754478.588  
                 113546262.896                   113546262.896    21805364.267  
  26163131.144   137488150.161                                                  
  23472955.526   123351175.704                                                  
  27032351.236   142055932.903                                                  
  23537073.047   123688131.051                                                  
  23855645.062   125362228.274                                                  
  25175300.677   132297080.618                                                  
 21  9  1 10 44 29.0000000  0 18G 1G 3G 6G14G17G19G22G24G30C23C27C28
                                E 1E13E15E21E26E27
  23239294.107   122123275.215    23239296.894    95160982.774                  
  23639690.075   124227381.858    23639692.559    96800549.636                  
  21655859.567   113802270.099    21655862.586    88677082.948                  
  20510930.904   107785681.179    20510931.064    83988847.519                  
  21065677.652   110700897.798    21065677.009    86260442.879                  
  20890575.701   109780738.719    20890573.378    85543438.887                  
  24422749.652   128342439.676    24422747.186   100007102.578                  
  24225732.005   127307048.370    24225734.417    99200289.309                  
  22654717.312   119051299.227    22654719.706    92767235.173                  
                 119571844.727                   119571844.727    22962507.301  
                 123693893.048                   123693893.048    23754111.523  
                 113546662.319                   113546662.319    21805440.961  
  26162689.386   137485828.710                                                  
  23473160.145   123352250.933                                                  
  27032868.134   142058649.313                                                  
  23536974.732   123687614.515                                                  
  23855324.027   125360541.165                                                  
  25175641.368   132298870.919                                                  
 21  9  1 10 44 30.0000000  0 18G 1G 3G 6G14G17G19G22G24G30C23C27C28
                                E 1E13E15E21E26E27
  23239957.333   122126760.586    23239960.139    95163698.645                  
  23639554.306   124226668.344    23639556.772    96799993.651                  
  21655337.755   113799527.989    21655340.757    88674946.239                  
  20511001.540   107786052.443    20511001.719    83989136.816                  
  21065818.567   110701638.294    21065817.906    86261019.891                  
  20890437.913   109780014.664    20890435.608    85542874.690                  
  24422912.707   128343296.429    24422910.205   100007770.181                  
  24225288.460   127304717.602    24225290.873    99198473.124                  
  22655344.925   119054597.253    22655347.302    92769805.064                  
                 119574111.082                   119574111.082    22962942.537  
                 123691981.965                   123691981.965    23753744.529  
                 113547062.030                   113547062.030    21805517.727  
  26162247.646   137483507.333                                                  
  23473364.816   123353326.508                                                  
  27033385.084   142061365.765                                                  
  23536876.506   123687098.281                                                  
  23855003.046   125358854.386                                                  
  25175982.094   132300661.505                                                  
 21  9  1 10 44 31.0000000  0 18G 1G 3G 6G14G17G19G22G24G30C23C27C28
                                E 1E13E15E21E26E27
  23240620.614   122130246.191    23240623.437    95166414.703                  
  23639418.627   124225955.370    23639421.129    96799438.089                  
  21654816.033   113796786.304    21654819.035    88672809.864                  
  20511072.283   107786424.114    20511072.444    83989426.430                  
  21065959.500   110702378.919    21065958.839    86261597.000                  
  20890300.178   109779290.882    20890297.873    85542310.707                  
  24423075.833   128344153.725    24423073.331   100008438.204                  
  24224845.023   127302387.274    24224847.435    99196657.284                  
  22655972.539   119057895.515    22655974.933    92772375.137                  
                 119576377.818                   119576377.818    22963377.844  
                 123690071.134                   123690071.134    23753377.553  
                 113547462.032                   113547462.032    21805594.545  
  26161805.906   137481185.996                                                  
  23473569.542   123354402.409                                                  
  27033901.999   142064082.251                                                  
  23536778.316   123686582.337                                                  
  23854682.119   125357167.958                                                  
  25176322.875   132302452.349                                                  
 21  9  1 10 44 32.0000000  0 18G 1G 3G 6G14G17G19G22G24G30C23C27C28
                                E 1E13E15E21E26E27
  23241283.965   122133732.034    23241286.789    95169130.942                  
  23639283.055   124225242.933    23639285.538    96798882.946                  
  21654294.401   113794045.063    21654297.403    88670673.827                  
  20511143.080   107786796.190    20511143.241    83989716.359                  
  21066100.469   110703119.671    21066099.808    86262174.211                  
  20890162.515   109778567.388    20890160.193    85541746.945                  
  24423239.084   128345011.547    24423236.583   100009106.636                  
  24224401.656   127300057.398    24224404.087    99194841.797                  
  22656600.242   119061194.019    22656602.619    92774945.399                  
                 119578644.938                   119578644.938    22963813.223  
                 123688160.562                   123688160.562    23753010.666  
                 113547862.313                   113547862.313    21805671.418  
  26161364.184   137478864.742                                                  
  23473774.357   123355478.653                                                  
  27034418.932   142066798.773                                                  
  23536680.197   123686066.687                                                  
  23854361.280   125355481.871                                                  
  25176663.726   132304243.469                                                  
 21  9  1 10 44 33.0000000  0 18G 1G 3G 6G14G17G19G22G24G30C23C27C28
                                E 1E13E15E21E26E27
  23241947.335   122137218.129    23241950.158    95171847.378                  
  23639147.572   124224531.033    23639150.073    96798328.214                  
  21653772.840   113791304.250    21653775.842    88668538.129                  
  20511213.967   107787168.683    20511214.128    83990006.613                  
  21066241.455   110703860.569    21066240.776    86262751.534                  
  20890024.888   109777844.173    20890022.583    85541183.403                  
  24423402.425   128345869.905    24423399.923   100009775.489                  
  24223958.380   127297727.978    24223960.792    99193026.664                  
  22657227.963   119064492.759    22657230.339    92777515.843                  
                 119580912.441                   119580912.441    22964248.655  
                 123686250.241                   123686250.241    23752643.797  
                 113548262.879                   113548262.879    21805748.344  
  26160922.479   137476543.546                                                  
  23473979.225   123356555.238                                                  
  27034935.883   142069515.353                                                  
  23536582.132   123685551.348                                                  
  23854040.478   125353796.133                                                  
  25177004.614   132306034.870                                                  
 21  9  1 10 44 34.0000000  0 18G 1G 3G 6G14G17G19G22G24G30C23C27C28
                                E 1E13E15E21E26E27
  23242610.776   122140704.468    23242613.581    95174564.008                  
  23639012.214   124223819.675    23639014.698    96797773.910                  
  21653251.368   113788563.859    21653254.352    88666402.762                  
  20511284.925   107787541.590    20511285.085    83990297.188                  
  21066382.460   110704601.603    21066381.799    86263328.961                  
  20889887.315   109777121.242    20889884.992    85540620.078                  
  24423565.855   128346728.801    24423563.354   100010444.754                  
  24223515.192   127295399.000    24223517.622    99191211.878                  
  22657855.737   119067791.733    22657858.114    92780086.477                  
                 119583180.329                   119583180.329    22964684.177  
                 123684340.181                   123684340.181    23752276.999  
                 113548663.735                   113548663.735    21805825.324  
  26160480.775   137474222.427                                                  
  23474184.165   123357632.169                                                  
  27035452.834   142072231.960                                                  
  23536484.120   123685036.309                                                  
  23853719.764   125352110.730                                                  
  25177345.554   132307826.542                                                  
 21  9  1 10 44 35.0000000  0 18G 1G 3G 6G14G17G19G22G24G30C23C27C28
                                E 1E13E15E21E26E27
  23243274.235   122144191.054    23243277.058    95177280.823                  
  23638876.963   124223108.852    23638879.447    96797220.024                  
  21652729.968   113785823.918    21652732.952    88664267.747                  
  20511355.954   107787914.911    20511356.115    83990588.089                  
  21066523.500   110705342.759    21066522.839    86263906.488                  
  20889749.795   109776398.581    20889747.472    85540056.964                  
  24423729.392   128347588.227    24423726.909   100011114.437                  
  24223072.076   127293070.456    24223074.506    99189397.431                  
  22658483.566   119071090.954    22658485.942    92782657.296                  
                 119585448.597                   119585448.597    22965119.788  
                 123682430.374                   123682430.374    23751910.238  
                 113549064.871                   113549064.871    21805902.357  
  26160039.106   137471901.363                                                  
  23474389.140   123358709.425                                                  
  27035969.803   142074948.610                                                  
  23536386.180   123684521.565                                                  
  23853399.105   125350425.673                                                  
  25177686.531   132309618.469                                                  
 21  9  1 10 44 36.0000000  0 18G 1G 3G 6G14G17G19G22G24G30C23C27C28
                                E 1E13E15E21E26E27
  23243937.783   122147677.880    23243940.589    95179997.833                  
  23638741.784   124222398.566    23638744.286    96796666.554                  
  21652208.639   113783084.405    21652211.659    88662133.059                  
  20511427.073   107788288.636    20511427.234    83990879.304                  
  21066664.558   110706084.054    21066663.897    86264484.122                  
  20889612.346   109775676.208    20889610.023    85539494.078                  
  24423893.037   128348448.188    24423890.553   100011784.538                  
  24222629.067   127290742.376    24222631.480    99187583.340                  
  22659111.412   119074390.401    22659113.806    92785228.294                  
                 119587717.249                   119587717.249    22965555.453  
                 123680520.823                   123680520.823    23751543.512  
                 113549466.298                   113549466.298    21805979.444  
  26159597.438   137469580.367                                                  
  23474594.205   123359787.028                                                  
  27036486.771   142077665.305                                                  
  23536288.276   123684007.124                                                  
  23853078.517   125348740.956                                                  
  25178027.597   132311410.701                                                  
 21  9  1 10 44 37.0000000  0 18G 1G 3G 6G14G17G19G22G24G30C23C27C28
                                E 1E13E15E21E26E27
  23244601.332   122151164.947    23244604.137    95182715.023                  
  23638606.712   124221688.817    23638609.214    96796113.505                  
  21651687.418   113780345.320    21651690.420    88659998.708                  
  20511498.281   107788662.778    20511498.442    83991170.843                  
  21066805.652   110706825.480    21066805.009    86265061.855                  
  20889474.915   109774954.114    20889472.628    85538931.407                  
  24424056.807   128349308.688    24424054.305   100012455.058                  
  24222186.148   127288414.746    24222188.560    99185769.602                  
  22659739.347   119077690.095    22659741.723    92787799.481                  
                 119589986.285                   119589986.285    22965991.206  
                 123678611.528                   123678611.528    23751176.857  
                 113549868.003                   113549868.003    21806056.585  
  26159155.787   137467259.450                                                  
  23474799.342   123360864.969                                                  
  27037003.758   142080382.050                                                  
  23536190.443   123683492.979                                                  
  23852758.000   125347056.594                                                  
  25178368.699   132313203.179                                                  
 21  9  1 10 44 38.0000000  0 18G 1G 3G 6G14G17G19G22G24G30C23C27C28
                                E 1E13E15E21E26E27
  23245264.933   122154652.245    23245267.757    95185432.403                  
  23638471.765   124220979.605    23638474.267    96795560.872                  
  21651166.286   113777606.690    21651169.288    88657864.711                  
  20511569.560   107789037.337    20511569.721    83991462.707                  
  21066946.782   110707567.042    21066946.103    86265639.695                  
  20889337.574   109774232.301    20889335.251    85538368.953                  
  24424220.648   128350169.723    24424218.146   100013125.992                  
  24221743.282   127286087.555    24221745.694    99183956.206                  
  22660367.300   119080990.029    22660369.677    92790370.856                  
                 119592255.702                   119592255.702    22966427.014  
                 123676702.488                   123676702.488    23750810.256  
                 113550269.997                   113550269.997    21806133.779  
  26158714.118   137464938.589                                                  
  23475004.514   123361943.255                                                  
  27037520.745   142083098.824                                                  
  23536092.663   123682979.146                                                  
  23852437.537   125345372.570                                                  
  25178709.837   132314995.933                                                  
 21  9  1 10 44 39.0000000  0 18G 1G 3G 6G14G17G19G22G24G30C23C27C28
                                E 1E13E15E21E26E27
  23245928.607   122158139.802    23245931.412    95188149.978                  
  23638336.926   124220270.938    23638339.392    96795008.665                  
  21650645.207   113774868.480    21650648.227    88655731.043                  
  20511640.893   107789412.301    20511641.072    83991754.887                  
  21067087.911   110708308.729    21067087.232    86266217.633                  
  20889200.269   109773510.755    20889197.946    85537806.712                  
  24424384.596   128351031.298    24424382.094   100013797.349                  
  24221300.523   127283760.813    24221302.936    99182143.163                  
  22660995.271   119084290.183    22660997.683    92792942.407                  
                 119594525.503                   119594525.503    22966862.929  
                 123674793.702                   123674793.702    23750443.691  
                 113550672.279                   113550672.279    21806211.045  
  26158272.503   137462617.796                                                  
  23475209.775   123363021.867                                                  
  27038037.731   142085815.642                                                  
  23535994.938   123682465.608                                                  
  23852117.145   125343688.892                                                  
  25179051.063   132316788.984                                                  
 21  9  1 10 44 40.0000000  0 18G 1G 3G 6G14G17G19G22G24G30C23C27C28
                                E 1E13E15E21E26E27
  23246592.316   122161627.593    23246595.121    95190867.739                  
  23638202.157   124219562.806    23638204.641    96794456.871                  
  21650124.218   113772130.699    21650127.238    88653597.706                  
  20511712.334   107789787.676    20511712.495    83992047.387                  
  21067229.076   110709050.555    21067228.397    86266795.679                  
  20889063.017   109772789.488    20889060.694    85537244.688                  
  24424548.634   128351893.398    24424546.168   100014469.117                  
  24220857.836   127281434.523    24220860.266    99180330.470                  
  22661623.332   119087590.583    22661625.726    92795514.150                  
                 119596795.690                   119596795.690    22967298.879  
                 123672885.175                   123672885.175    23750077.180  
                 113551074.839                   113551074.839    21806288.346  
  26157830.888   137460297.075                                                  
  23475415.108   123364100.823                                                  
  27038554.736   142088532.495                                                  
  23535897.266   123681952.365                                                  
  23851796.825   125342005.552                                                  
  25179392.308   132318582.284                                                  
 21  9  1 10 44 41.0000000  0 18G 1G 3G 6G14G17G19G22G24G30C23C27C28
                                E 1E13E15E21E26E27
  23247256.061   122165115.637    23247258.866    95193585.700                  
  23638067.497   124218855.202    23638069.998    96793905.496                  
  21649603.318   113769393.342    21649606.338    88651464.695                  
  20511783.846   107790163.461    20511784.024    83992340.207                  
  21067370.260   110709792.513    21067369.598    86267373.823                  
  20888925.818   109772068.497    20888923.495    85536682.870                  
  24424712.796   128352756.032    24424710.295   100015141.302                  
  24220415.256   127279108.659    24220417.686    99178518.094                  
  22662251.428   119090891.227    22662253.804    92798086.082                  
                 119599066.270                   119599066.270    22967734.919  
                 123670976.903                   123670976.903    23749710.722  
                 113551477.685                   113551477.685    21806365.701  
  26157389.273   137457976.399                                                  
  23475620.477   123365180.110                                                  
  27039071.740   142091249.418                                                  
  23535799.665   123681439.417                                                  
  23851476.541   125340322.540                                                  
  25179733.624   132320375.878                                                  
 21  9  1 10 44 42.0000000  0 18G 1G 3G 6G14G17G19G22G24G30C23C27C28
                                E 1E13E15E21E26E27
  23247919.859   122168603.910    23247922.665    95196303.835                  
  23637932.961   124218148.149    23637935.444    96793354.543                  
  21649082.525   113766656.453    21649085.527    88649332.056                  
  20511855.447   107790539.663    20511855.608    83992633.351                  
  21067511.478   110710534.594    21067510.817    86267952.071                  
  20888788.656   109771347.776    20888786.333    85536121.274                  
  24424877.066   128353619.202    24424874.565   100015813.902                  
  24219972.748   127276783.279    24219975.178    99176706.105                  
  22662879.560   119094192.106    22662881.936    92800658.191                  
                 119601337.219                   119601337.219    22968171.013  
                 123669068.887                   123669068.887    23749344.300  
                 113551880.815                   113551880.815    21806443.127  
  26156947.676   137455655.805                                                  
  23475825.917   123366259.747                                                  
  27039588.762   142093966.357                                                  
  23535702.100   123680926.778                                                  
  23851156.364   125338639.895                                                  
  25180074.958   132322169.724                                                  
 21  9  1 10 44 43.0000000  0 18G 1G 3G 6G14G17G19G22G24G30C23C27C28
                                E 1E13E15E21E26E27
  23248583.693   122172092.426    23248586.499    95199022.159                  
  23637798.514   124217441.622    23637800.998    96792804.003                  
  21648561.786   113763919.977    21648564.788    88647199.735                  
  20511927.102   107790916.276    20511927.262    83992926.816                  
  21067652.715   110711276.821    21067652.054    86268530.430                  
  20888651.582   109770627.340    20888649.259    85535559.895                  
  24425041.425   128354482.931    24425038.924   100016486.933                  
  24219530.328   127274458.344    24219532.759    99174894.473                  
  22663507.745   119097493.214    22663510.122    92803230.485                  
                 119603608.549                   119603608.549    22968607.214  
                 123667161.124                   123667161.124    23748977.949  
                 113552284.234                   113552284.234    21806520.608  
  26156506.097   137453335.278                                                  
  23476031.446   123367339.717                                                  
  27040105.785   142096683.339                                                  
  23535604.625   123680414.447                                                  
  23850836.222   125336957.587                                                  
  25180416.382   132323963.848                                                  
 21  9  1 10 44 44.0000000  0 18G 1G 3G 6G14G17G19G22G24G30C23C27C28
                                E 1E13E15E21E26E27
  23249247.599   122175581.186    23249250.405    95201740.671                  
  23637664.157   124216735.641    23637666.659    96792253.888                  
  21648041.118   113761183.941    21648044.138    88645067.759                  
  20511998.864   107791293.306    20511999.024    83993220.605                  
  21067793.988   110712019.175    21067793.326    86269108.887                  
  20888514.527   109769907.179    20888512.222    85534998.726                  
  24425205.874   128355347.173    24425203.372   100017160.371                  
  24219087.999   127272133.851    24219090.429    99173083.179                  
  22664135.966   119100794.559    22664138.343    92805802.960                  
                 119605880.266                   119605880.266    22969043.486  
                 123665253.617                   123665253.617    23748611.616  
                 113552687.934                   113552687.934    21806598.123  
  26156064.518   137451014.816                                                  
  23476237.012   123368420.029                                                  
  27040622.825   142099400.360                                                  
  23535507.185   123679902.409                                                  
  23850516.152   125335275.620                                                  
  25180757.841   132325758.246                                                  
 21  9  1 10 44 45.0000000  0 18G 1G 3G 6G14G17G19G22G24G30C23C27C28
                                E 1E13E15E21E26E27
  23249911.523   122179070.169    23249914.328    95204459.359                  
  23637529.925   124216030.191    23637532.426    96791704.188                  
  21647520.558   113758448.343    21647523.578    88642936.121                  
  20512070.679   107791670.738    20512070.840    83993514.708                  
  21067935.278   110712761.652    21067934.617    86269687.441                  
  20888377.543   109769187.298    20888375.220    85534437.782                  
  24425370.448   128356211.949    24425367.946   100017834.227                  
  24218645.740   127269809.800    24218648.153    99171272.230                  
  22664764.241   119104096.145    22664766.618    92808375.629                  
                 119608152.358                   119608152.358    22969479.794  
                 123663346.366                   123663346.366    23748245.355  
                 113553091.923                   113553091.923    21806675.693  
  26155622.956   137448694.419                                                  
  23476442.666   123369500.672                                                  
  27041139.865   142102117.409                                                  
  23535409.799   123679390.665                                                  
  23850196.136   125333593.993                                                  
  25181099.354   132327552.914                                                  
 21  9  1 10 44 46.0000000  0 18G 1G 3G 6G14G17G19G22G24G30C23C27C28
                                E 1E13E15E21E26E27
  23250575.500   122182559.407    23250578.305    95207178.246                  
  23637395.782   124215325.280    23637398.284    96791154.905                  
  21647000.087   113755713.176    21647003.071    88640804.824                  
  20512142.584   107792048.589    20512142.745    83993809.137                  
  21068076.604   110713504.273    21068075.925    86270266.107                  
  20888240.595   109768467.689    20888238.272    85533877.047                  
  24425535.093   128357077.265    24425532.591   100018508.497                  
  24218203.571   127267486.207    24218206.002    99169461.636                  
  22665392.552   119107397.966    22665394.946    92810948.472                  
                 119610424.840                   119610424.840    22969916.209  
                 123661439.374                   123661439.374    23747879.147  
                 113553496.196                   113553496.196    21806753.334  
  26155181.413   137446374.086                                                  
  23476648.357   123370581.652                                                  
  27041656.905   142104834.509                                                  
  23535312.466   123678879.214                                                  
  23849876.227   125331912.719                                                  
  25181440.920   132329347.854                                                  
 21  9  1 10 44 47.0000000  0 18G 1G 3G 6G14G17G19G22G24G30C23C27C28
                                E 1E13E15E21E26E27
  23251239.513   122186048.892    23251242.336    95209897.325                  
  23637261.747   124214620.913    23637264.248    96790606.050                  
  21646479.688   113752978.449    21646482.672    88638673.871                  
  20512214.561   107792426.851    20512214.721    83994103.887                  
  21068217.948   110714247.026    21068217.251    86270844.875                  
  20888103.718   109767748.356    20888101.395    85533316.530                  
  24425699.863   128357943.112    24425697.379   100019183.183                  
  24217761.492   127265163.054    24217763.922    99167651.387                  
  22666020.916   119110700.016    22666023.293    92813521.500                  
                 119612697.703                   119612697.703    22970352.678  
                 123659532.638                   123659532.638    23747512.957  
                 113553900.751                   113553900.751    21806831.046  
  26154739.905   137444053.820                                                  
  23476854.118   123371662.970                                                  
  27042173.963   142107551.644                                                  
  23535215.205   123678368.077                                                  
  23849556.336   125330231.784                                                  
  25181782.540   132331143.067                                                  
 21  9  1 10 44 48.0000000  0 18G 1G 3G 6G14G17G19G22G24G30C23C27C28
                                E 1E13E15E21E26E27
  23251903.597   122189538.614    23251906.403    95212616.587                  
  23637127.818   124213917.083    23637130.302    96790057.608                  
  21645959.359   113750244.156    21645962.361    88636543.253                  
  20512286.626   107792805.524    20512286.787    83994398.957                  
  21068359.292   110714989.917    21068358.649    86271423.751                  
  20887966.877   109767029.301    20887964.554    85532756.226                  
  24425864.741   128358809.499    24425862.239   100019858.290                  
  24217319.501   127262840.364    24217321.914    99165841.497                  
  22666649.316   119114002.303    22666651.692    92816094.711                  
                 119614970.946                   119614970.946    22970789.236  
                 123657626.152                   123657626.152    23747146.839  
                 113554305.589                   113554305.589    21806908.776  
  26154298.379   137441733.628                                                  
  23477059.952   123372744.640                                                  
  27042691.021   142110268.835                                                  
  23535117.998   123677857.242                                                  
  23849236.534   125328551.199                                                  
  25182124.214   132332938.560                                                  
 21  9  1 10 44 49.0000000  0 18G 1G 3G 6G14G17G19G22G24G30C23C27C28
                                E 1E13E15E21E26E27
  23252567.717   122193028.589    23252570.523    95215336.050                  
  23636993.979   124213213.792    23636996.463    96789509.594                  
  21645439.121   113747510.292    21645442.123    88634412.969                  
  20512358.764   107793184.614    20512358.924    83994694.347                  
  21068500.708   110715732.943    21068500.028    86272002.730                  
  20887830.108   109766310.523    20887827.803    85532196.141                  
  24426029.708   128359676.418    24426027.224   100020533.813                  
  24216877.583   127260518.106    24216880.013    99164031.950                  
  22667277.752   119117304.831    22667280.146    92818668.109                  
                 119617244.574                   119617244.574    22971225.865  
                 123655719.927                   123655719.927    23746780.774  
                 113554710.720                   113554710.720    21806986.578  
  26153856.853   137439413.501                                                  
  23477265.856   123373826.644                                                  
  27043208.079   142112986.052                                                  
  23535020.844   123677346.710                                                  
  23848916.803   125326870.952                                                  
  25182465.941   132334734.310                                                  
 21  9  1 10 44 50.0000000  0 18G 1G 3G 6G14G17G19G22G24G30C23C27C28
                                E 1E13E15E21E26E27
  23253231.873   122196518.790    23253234.696    95218055.687                  
  23636860.265   124212511.039    23636862.731    96788961.992                  
  21644918.953   113744776.868    21644921.973    88632283.028                  
  20512430.972   107793564.114    20512431.133    83994990.061                  
  21068642.123   110716476.095    21068641.444    86272581.812                  
  20887693.374   109765592.020    20887691.069    85531636.269                  
  24426194.782   128360543.879    24426192.280   100021209.754                  
  24216435.753   127258196.303    24216438.183    99162222.755                  
  22667906.259   119120607.594    22667908.635    92821241.688                  
                 119619518.582                   119619518.582    22971662.566  
                 123653813.953                   123653813.953    23746414.763  
                 113555116.130                   113555116.130    21807064.433  
  26153415.381   137437093.441                                                  
  23477471.815   123374908.989                                                  
  27043725.155   142115703.310                                                  
  23534923.743   123676836.474                                                  
  23848597.127   125325191.051                                                  
  25182807.704   132336530.348                                                  
 21  9  1 10 44 51.0000000  0 18G 1G 3G 6G14G17G19G22G24G30C23C27C28
                                E 1E13E15E21E26E27
  23253896.100   122200009.243    23253898.906    95220775.520                  
  23636726.623   124211808.837    23636729.125    96788414.820                  
  21644398.893   113742043.884    21644401.895    88630153.431                  
  20512503.253   107793944.020    20512503.413    83995286.099                  
  21068783.556   110717219.382    21068782.877    86273160.996                  
  20887556.694   109764873.793    20887554.389    85531076.609                  
  24426359.945   128361411.862    24426357.461   100021886.105                  
  24215994.013   127255874.952    24215996.443    99160413.910                  
  22668534.802   119123910.586    22668537.178    92823815.450                  
                 119621792.965                   119621792.965    22972099.339  
                 123651908.251                   123651908.251    23746048.787  
                 113555521.805                   113555521.805    21807142.342  
  26152973.891   137434773.442                                                  
  23477677.845   123375991.651                                                  
  27044242.231   142118420.609                                                  
  23534826.697   123676326.531                                                  
  23848277.503   125323511.481                                                  
  25183149.538   132338326.656                                                  
 21  9  1 10 44 52.0000000  0 18G 1G 3G 6G14G17G19G22G24G30C23C27C28
                                E 1E13E15E21E26E27
  23254560.363   122203499.936    23254563.169    95223495.539                  
  23636593.106   124211107.161    23636595.571    96787868.063                  
  21643878.905   113739311.320    21643881.925    88628024.160                  
  20512575.640   107794324.348    20512575.801    83995582.458                  
  21068925.025   110717962.798    21068924.364    86273740.282                  
  20887420.085   109764155.839    20887417.762    85530517.165                  
  24426525.216   128362280.394    24426522.732   100022562.883                  
  24215552.380   127253554.056    24215554.792    99158605.419                  
  22669163.380   119127213.815    22669165.757    92826389.395                  
                 119624067.738                   119624067.738    22972536.183  
                 123650002.789                   123650002.789    23745682.865  
                 113555927.782                   113555927.782    21807220.305  
  26152532.419   137432453.512                                                  
  23477883.946   123377074.659                                                  
  27044759.343   142121137.949                                                  
  23534729.739   123675816.905                                                  
  23847957.952   125321832.269                                                  
  25183491.408   132340123.234                                                  
 21  9  1 10 44 53.0000000  0 18G 1G 3G 6G14G17G19G22G24G30C23C27C28
                                E 1E13E15E21E26E27
  23255224.662   122206990.859    23255227.468    95226215.738                  
  23636459.678   124210406.030    23636462.161    96787321.728                  
  21643359.006   113736579.202    21643362.008    88625895.239                  
  20512648.099   107794705.087    20512648.260    83995879.133                  
  21069066.512   110718706.349    21069065.833    86274319.672                  
  20887283.512   109763438.167    20887281.207    85529957.942                  
  24426690.593   128363149.452    24426688.092   100023240.071                  
  24215110.801   127251233.603    24215113.213    99156797.269                  
  22669792.012   119130517.285    22669794.407    92828963.523                  
                 119626342.892                   119626342.892    22972973.098  
                 123648097.582                   123648097.582    23745316.979  
                 113556334.047                   113556334.047    21807298.321  
  26152090.983   137430133.657                                                  
  23478090.083   123378158.011                                                  
  27045276.437   142123855.319                                                  
  23534632.800   123675307.579                                                  
  23847638.471   125320153.398                                                  
  25183833.332   132341920.082                                                  
 21  9  1 10 44 54.0000000  0 18G 1G 3G 6G14G17G19G22G24G30C23C27C28
                                E 1E13E15E21E26E27
  23255888.997   122210482.031    23255891.820    95228936.132                  
  23636326.357   124209705.445    23636328.858    96786775.817                  
  21642839.178   113733847.524    21642842.180    88623766.656                  
  20512720.611   107795086.239    20512720.772    83996176.137                  
  21069208.035   110719450.035    21069207.356    86274899.168                  
  20887146.993   109762720.759    20887144.688    85529398.923                  
  24426856.078   128364019.043    24426853.577   100023917.672                  
  24214669.329   127248913.604    24214671.741    99154989.480                  
  22670420.680   119133820.981    22670423.057    92831537.832                  
                 119628618.430                   119628618.430    22973410.103  
                 123646192.637                   123646192.637    23744951.165  
                 113556740.594                   113556740.594    21807376.409  
  26151649.529   137427813.855                                                  
  23478296.327   123379241.708                                                  
  27045793.566   142126572.750                                                  
  23534535.932   123674798.552                                                  
  23847319.080   125318474.870                                                  
  25184175.327   132343717.214                                                  
 21  9  1 10 44 55.0000000  0 18G 1G 3G 6G14G17G19G22G24G30C23C27C28
                                E 1E13E15E21E26E27
  23256553.403   122213973.440    23256556.208    95231656.711                  
  23636193.143   124209005.385    23636195.645    96786230.312                  
  21642319.439   113731116.274    21642322.441    88621638.410                  
  20512793.249   107795467.800    20512793.392    83996473.457                  
  21069349.575   110720193.853    21069348.914    86275478.766                  
  20887010.545   109762003.630    20887008.222    85528840.116                  
  24427021.653   128364889.169    24427019.151   100024595.692                  
  24214227.928   127246594.064    24214230.358    99153182.044                  
  22671049.402   119137124.921    22671051.779    92834112.332                  
                 119630894.348                   119630894.348    22973847.162  
                 123644287.941                   123644287.941    23744585.386  
                 113557147.427                   113557147.427    21807454.514  
  26151208.092   137425494.133                                                  
  23478502.607   123380325.735                                                  
  27046310.660   142129290.211                                                  
  23534439.136   123674289.813                                                  
  23846999.725   125316796.688                                                  
  25184517.358   132345514.605                                                  
 21  9  1 10 44 56.0000000  0 18G 1G 3G 6G14G17G19G22G24G30C23C27C28
                                E 1E13E15E21E26E27
  23257217.845   122217465.082    23257220.632    95234377.468                  
  23636060.037   124208305.872    23636062.521    96785685.238                  
  21641799.773   113728385.468    21641802.792    88619510.511                  
  20512865.922   107795849.777    20512866.083    83996771.102                  
  21069491.134   110720937.809    21069490.473    86276058.472                  
  20886874.115   109761286.773    20886871.792    85528281.531                  
  24427187.334   128365759.825    24427184.833   100025274.128                  
  24213786.617   127244274.960    24213789.047    99151374.952                  
  22671678.159   119140429.095    22671680.554    92836687.011                  
                 119633170.648                   119633170.648    22974284.292  
                 123642383.505                   123642383.505    23744219.660  
                 113557554.538                   113557554.538    21807532.691  
  26150766.674   137423174.469                                                  
  23478708.941   123381410.098                                                  
  27046827.772   142132007.704                                                  
  23534342.375   123673781.378                                                  
  23846680.442   125315118.853                                                  
  25184859.443   132347312.277                                                  
 21  9  1 10 44 57.0000000  0 18G 1G 3G 6G14G17G19G22G24G30C23C27C28
                                E 1E13E15E21E26E27
  23257882.322   122220956.973    23257885.127    95237098.422                  
  23635927.020   124207606.898    23635929.522    96785140.586                  
  21641280.213   113725655.087    21641283.215    88617382.937                  
  20512938.685   107796232.168    20512938.846    83997069.066                  
  21069632.746   110721681.894    21069632.085    86276638.277                  
  20886737.756   109760570.187    20886735.433    85527723.152                  
  24427353.123   128366631.028    24427350.621   100025952.985                  
  24213345.395   127241956.312    24213347.825    99149568.216                  
  22672306.988   119143733.513    22672309.365    92839261.882                  
                 119635447.331                   119635447.331    22974721.529  
                 123640479.319                   123640479.319    23743853.989  
                 113557961.943                   113557961.943    21807610.940  
  26150325.273   137420854.878                                                  
  23478915.364   123382494.811                                                  
  27047344.919   142134725.258                                                  
  23534245.686   123673273.255                                                  
  23846361.211   125313441.361                                                  
  25185201.581   132349110.223                                                  
 21  9  1 10 44 58.0000000  0 18G 1G 3G 6G14G17G19G22G24G30C23C27C28
                                E 1E13E15E21E26E27
  23258546.853   122224449.104    23258549.659    95239819.566                  
  23635794.128   124206908.464    23635796.594    96784596.351                  
  21640760.725   113722925.152    21640763.727    88615255.719                  
  20513011.537   107796614.961    20513011.698    83997367.351                  
  21069774.358   110722426.108    21069773.697    86277218.188                  
  20886601.434   109759853.879    20886599.146    85527164.993                  
  24427519.001   128367502.750    24427516.517   100026632.251                  
  24212904.262   127239638.121    24212906.675    99147761.831                  
  22672935.835   119147038.145    22672938.211    92841836.922                  
                 119637724.399                   119637724.399    22975158.802  
                 123638575.394                   123638575.394    23743488.335  
                 113558369.624                   113558369.624    21807689.242  
  26149883.873   137418535.355                                                  
  23479121.840   123383579.853                                                  
  27047862.066   142137442.831                                                  
  23534149.068   123672765.425                                                  
  23846042.089   125311764.212                                                  
  25185543.755   132350908.438                                                  
 21  9  1 10 44 59.0000000  0 18G 1G 3G 6G14G17G19G22G24G30C23C27C28
                                E 1E13E15E21E26E27
  23259211.420   122227941.474    23259214.243    95242540.891                  
  23635661.307   124206210.558    23635663.791    96784052.531                  
  21640241.326   113720195.636    21640244.328    88613128.824                  
  20513084.460   107796998.179    20513084.621    83997665.956                  
  21069916.006   110723170.472    21069915.344    86277798.210                  
  20886465.200   109759137.850    20886462.877    85526607.046                  
  24427685.004   128368375.021    24427682.503   100027311.940                  
  24212463.201   127237320.367    24212465.614    99145955.789                  
  22673564.717   119150343.020    22673567.094    92844412.148                  
                 119640001.844                   119640001.844    22975596.164  
                 123636671.723                   123636671.723    23743122.753  
                 113558777.590                   113558777.590    21807767.579  
  26149442.526   137416215.900                                                  
  23479328.388   123384665.223                                                  
  27048379.196   142140160.450                                                  
  23534052.486   123672257.904                                                  
  23845722.984   125310087.392                                                  
  25185886.000   132352706.917                                                  
 21  9  1 10 45  0.0000000  0 18G 1G 3G 6G14G17G19G22G24G30C23C27C28
                                E 1E13E15E21E26E27
  23259876.040   122231434.089    23259878.864    95245262.409                  
  23635528.594   124205513.204    23635531.096    96783509.134                  
  21639721.980   113717466.573    21639725.000    88611002.281                  
  20513157.455   107797381.817    20513157.616    83997964.899                  
  21070057.671   110723914.945    21070057.028    86278378.321                  
  20886328.985   109758422.097    20886326.680    85526049.316                  
  24427851.079   128369247.817    24427848.578   100027992.043                  
  24212022.247   127235003.063    24212024.660    99144150.097                  
  22674193.653   119153648.133    22674196.065    92846987.559                  
                 119642279.673                   119642279.673    22976033.597  
                 123634768.307                   123634768.307    23742757.242  
                 113559185.844                   113559185.844    21807845.989  
  26149001.143   137413896.515                                                  
  23479534.972   123385750.946                                                  
  27048896.361   142142878.116                                                  
  23533955.957   123671750.678                                                  
  23845403.968   125308410.938                                                  
  25186228.299   132354505.684                                                  
 21  9  1 10 45  1.0000000  0 18G 1G 3G 6G14G17G19G22G24G30C23C27C28
                                E 1E13E15E21E26E27
  23260540.714   122234926.943    23260543.520    95247984.113                  
  23635396.006   124204816.384    23635398.508    96782966.159                  
  21639202.742   113714737.941    21639205.762    88608876.074                  
  20513230.540   107797765.854    20513230.700    83998264.149                  
  21070199.373   110724659.558    21070198.694    86278958.539                  
  20886192.841   109757706.620    20886190.518    85525491.804                  
  24428017.279   128370121.149    24428014.777   100028672.562                  
  24211581.365   127232686.210    24211583.777    99142344.758                  
  22674822.661   119156953.476    22674825.037    92849563.152                  
                 119644557.880                   119644557.880    22976471.103  
                 123632865.147                   123632865.147    23742391.767  
                 113559594.380                   113559594.380    21807924.434  
  26148559.796   137411577.182                                                  
  23479741.645   123386837.000                                                  
  27049413.526   142145595.817                                                  
  23533859.500   123671243.758                                                  
  23845085.024   125306734.814                                                  
  25186570.634   132356304.716                                                  
 21  9  1 10 45  2.0000000  0 18G 1G 3G 6G14G17G19G22G24G30C23C27C28
                                E 1E13E15E21E26E27
  23261205.442   122238420.031    23261208.248    95250706.000                  
  23635263.507   124204120.110    23635265.991    96782423.610                  
  21638683.576   113712009.743    21638686.596    88606750.206                  
  20513303.695   107798150.308    20513303.856    83998563.723                  
  21070341.092   110725404.304    21070340.413    86279538.860                  
  20886056.732   109756991.419    20886054.427    85524934.504                  
  24428183.568   128370995.019    24428181.066   100029353.500                  
  24211140.554   127230369.809    24211142.984    99140539.770                  
  22675451.686   119160259.050    22675454.063    92852138.926                  
                 119646836.474                   119646836.474    22976908.679  
                 123630962.246                   123630962.246    23742026.327  
                 113560003.198                   113560003.198    21808002.932  
  26148118.467   137409257.929                                                  
  23479948.372   123387923.385                                                  
  27049930.692   142148313.562                                                  
  23533763.079   123670737.126                                                  
  23844766.115   125305059.035                                                  
  25186913.040   132358104.017                                                  
 21  9  1 10 45  3.0000000  0 18G 1G 3G 6G14G17G19G22G24G30C23C27C28
                                E 1E13E15E21E26E27
  23261870.188   122241913.363    23261872.993    95253428.075                  
  23635131.116   124203424.367    23635133.599    96781881.468                  
  21638164.516   113709281.979    21638167.518    88604624.676                  
  20513376.941   107798535.167    20513377.101    83998863.613                  
  21070482.847   110726149.172    21070482.168    86280119.277                  
  20885920.695   109756276.496    20885918.372    85524377.417                  
  24428349.964   128371869.420    24428347.463   100030034.852                  
  24210699.833   127228053.872    24210702.281    99138735.144                  
  22676080.765   119163564.870    22676083.142    92854714.886                  
                 119649115.446                   119649115.446    22977346.345  
                 123629059.598                   123629059.598    23741660.941  
                 113560412.302                   113560412.302    21808081.502  
  26147677.120   137406938.741                                                  
  23480155.188   123389010.106                                                  
  27050447.857   142151031.331                                                  
  23533666.747   123670230.813                                                  
  23844447.296   125303383.606                                                  
  25187255.482   132359903.593                                                  
 21  9  1 10 45  4.0000000  0 18G 1G 3G 6G14G17G19G22G24G30C23C27C28
                                E 1E13E15E21E26E27
  23262535.005   122245406.938    23262537.792    95256150.339                  
  23634998.813   124202729.161    23635001.297    96781339.754                  
  21637645.528   113706554.656    21637648.513    88602499.491                  
  20513450.239   107798920.445    20513450.418    83999163.828                  
  21070624.602   110726894.179    21070623.941    86280699.802                  
  20885784.694   109755561.852    20885782.371    85523820.554                  
  24428516.468   128372744.359    24428513.966   100030716.621                  
  24210259.218   127225738.372    24210261.648    99136930.860                  
  22676709.880   119166870.917    22676712.256    92857291.028                  
                 119651394.801                   119651394.801    22977784.065  
                 123627157.203                   123627157.203    23741295.591  
                 113560821.687                   113560821.687    21808160.126  
  26147235.826   137404619.620                                                  
  23480362.040   123390097.175                                                  
  27050965.058   142153749.156                                                  
  23533570.433   123669724.797                                                  
  23844128.548   125301708.509                                                  
  25187597.978   132361703.440                                                  
 21  9  1 10 45  5.0000000  0 18G 1G 3G 6G14G17G19G22G24G30C23C27C28
                                E 1E13E15E21E26E27
  23263199.840   122248900.751    23263202.663    95258872.793                  
  23634866.636   124202034.503    23634869.120    96780798.460                  
  21637126.594   113703827.770    21637129.614    88600374.645                  
  20513523.645   107799306.137    20513523.806    83999464.367                  
  21070766.392   110727639.312    21070765.731    86281280.422                  
  20885648.765   109754847.476    20885646.442    85523263.899                  
  24428683.043   128373619.828    24428680.559   100031398.805                  
  24209818.675   127223423.324    24209821.105    99135126.927                  
  22677339.048   119170177.195    22677341.424    92859867.347                  
                 119653674.535                   119653674.535    22978221.856  
                 123625255.067                   123625255.067    23740930.313  
                 113561231.360                   113561231.360    21808238.803  
  26146794.515   137402300.566                                                  
  23480568.963   123391184.573                                                  
  27051482.241   142156467.006                                                  
  23533474.208   123669219.074                                                  
  23843809.837   125300033.769                                                  
  25187940.545   132363503.563                                                  
 21  9  1 10 45  6.0000000  0 18G 1G 3G 6G14G17G19G22G24G30C23C27C28
                                E 1E13E15E21E26E27
  23263864.746   122252394.793    23263867.533    95261595.423                  
  23634734.548   124201340.380    23634737.014    96780257.585                  
  21636607.785   113701101.324    21636610.787    88598250.144                  
  20513597.123   107799692.243    20513597.283    83999765.231                  
  21070908.219   110728384.585    21070907.558    86281861.157                  
  20885512.888   109754133.395    20885510.566    85522707.473                  
  24428849.743   128374495.840    24428847.259   100032081.410                  
  24209378.222   127221108.722    24209380.652    99133323.341                  
  22677968.252   119173483.720    22677970.646    92862443.859                  
                 119655954.652                   119655954.652    22978659.736  
                 123623353.187                   123623353.187    23740565.088  
                 113561641.318                   113561641.318    21808317.517  
  26146353.222   137399981.586                                                  
  23480775.958   123392272.311                                                  
  27051999.442   142159184.937                                                  
  23533378.019   123668713.656                                                  
  23843491.214   125298359.379                                                  
  25188283.148   132365303.956                                                  
 21  9  1 10 45  7.0000000  0 18G 1G 3G 6G14G17G19G22G24G30C23C27C28
                                E 1E13E15E21E26E27
  23264529.688   122255889.078    23264532.493    95264318.243                  
  23634602.568   124200646.794    23634605.034    96779717.128                  
  21636089.047   113698375.313    21636092.031    88596125.977                  
  20513670.654   107800078.763    20513670.832    84000066.411                  
  21071050.063   110729129.988    21071049.402    86282441.988                  
  20885377.048   109753419.585    20885374.725    85522151.257                  
  24429016.533   128375372.380    24429014.067   100032764.430                  
  24208937.858   127218794.566    24208940.288    99131520.105                  
  22678597.527   119176790.461    22678599.904    92865020.544                  
                 119658235.148                   119658235.148    22979097.688  
                 123621451.562                   123621451.562    23740199.899  
                 113562051.555                   113562051.555    21808396.301  
  26145911.946   137397662.665                                                  
  23480983.006   123393360.408                                                  
  27052516.661   142161902.905                                                  
  23533281.902   123668208.532                                                  
  23843172.663   125296685.337                                                  
  25188625.804   132367104.618                                                  
 21  9  1 10 45  8.0000000  0 18G 1G 3G 6G14G17G19G22G24G30C23C27C28
                                E 1E13E15E21E26E27
  23265194.666   122259383.590    23265197.471    95267041.238                  
  23634470.677   124199953.751    23634473.160    96779177.097                  
  21635570.381   113695649.726    21635573.383    88594002.143                  
  20513744.292   107800465.685    20513744.453    84000367.911                  
  21071191.943   110729875.496    21071191.264    86283022.902                  
  20885241.261   109752706.000    20885238.938    85521595.215                  
  24429183.447   128376249.446    24429180.963   100033447.860                  
  24208497.583   127216480.898    24208499.995    99129717.246                  
  22679226.803   119180097.432    22679229.180    92867597.402                  
                 119660516.030                   119660516.030    22979535.694  
                 123619550.191                   123619550.191    23739834.763  
                 113562462.074                   113562462.074    21808475.139  
  26145470.689   137395343.814                                                  
  23481190.126   123394448.786                                                  
  27053033.862   142164620.806                                                  
  23533185.838   123667703.731                                                  
  23842854.165   125295011.598                                                  
  25188968.496   132368905.563                                                  
 21  9  1 10 45  9.0000000  0 18G 1G 3G 6G14G17G19G22G24G30C23C27C28
                                E 1E13E15E21E26E27
  23265859.697   122262878.362    23265862.503    95269764.438                  
  23634338.893   124199261.262    23634341.376    96778637.493                  
  21635051.804   113692924.586    21635054.806    88591878.660                  
  20513818.002   107800853.026    20513818.180    84000669.737                  
  21071333.823   110730621.160    21071333.162    86283603.941                  
  20885105.528   109751992.739    20885103.205    85521039.426                  
  24429350.469   128377127.063    24429347.967   100034131.716                  
  24208057.379   127214167.646    24208059.792    99127914.707                  
  22679856.132   119183404.649    22679858.544    92870174.454                  
                 119662797.290                   119662797.290    22979973.806  
                 123617649.078                   123617649.078    23739469.663  
                 113562872.878                   113562872.878    21808554.049  
  26145029.449   137393025.030                                                  
  23481397.300   123395537.540                                                  
  27053551.081   142167338.836                                                  
  23533089.846   123667199.223                                                  
  23842535.722   125293338.229                                                  
  25189311.260   132370706.774                                                  
 21  9  1 10 45 10.0000000  0 18G 1G 3G 6G14G17G19G22G24G30C23C27C28
                                E 1E13E15E21E26E27
  23266524.782   122266373.366    23266527.588    95272487.816                  
  23634207.216   124198569.301    23634209.717    96778098.305                  
  21634533.299   113690199.875    21634536.318    88589755.508                  
  20513891.801   107801240.784    20513891.961    84000971.887                  
  21071475.739   110731366.956    21071475.078    86284185.083                  
  20884969.849   109751279.738    20884967.526    85520483.844                  
  24429517.562   128378005.214    24429515.060   100034815.987                  
  24207617.283   127211854.848    24207619.695    99126112.532                  
  22680485.533   119186712.099    22680487.927    92872751.687                  
                 119665078.935                   119665078.935    22980411.955  
                 123615748.218                   123615748.218    23739104.617  
                 113563283.967                   113563283.967    21808632.976  
  26144588.191   137390706.317                                                  
  23481604.562   123396626.628                                                  
  27054068.318   142170056.886                                                  
  23532993.907   123666695.005                                                  
  23842217.367   125291665.203                                                  
  25189654.077   132372508.253                                                  
 21  9  1 10 45 11.0000000  0 18G 1G 3G 6G14G17G19G22G24G30C23C27C28
                                E 1E13E15E21E26E27
  23267189.903   122269868.603    23267192.708    95275211.374                  
  23634075.664   124197877.887    23634078.148    96777559.538                  
  21634014.900   113687475.618    21634017.902    88587632.706                  
  20513965.653   107801628.953    20513965.814    84001274.356                  
  21071617.708   110732112.887    21071617.012    86284766.325                  
  20884834.223   109750567.019    20884831.900    85519928.481                  
  24429684.763   128378883.905    24429682.279   100035500.684                  
  24207177.241   127209542.500    24207179.689    99124310.700                  
  22681114.951   119190019.782    22681117.346    92875329.101                  
                 119667360.957                   119667360.957    22980850.193  
                 123613847.614                   123613847.614    23738739.642  
                 113563695.344                   113563695.344    21808711.975  
  26144146.987   137388387.671                                                  
  23481811.861   123397716.048                                                  
  27054585.554   142172774.983                                                  
  23532898.004   123666191.102                                                  
  23841899.066   125289992.524                                                  
  25189996.948   132374310.016                                                  
 21  9  1 10 45 12.0000000  0 18G 1G 3G 6G14G17G19G22G24G30C23C27C28
                                E 1E13E15E21E26E27
  23267855.060   122273364.094    23267857.883    95277935.136                  
  23633944.184   124197187.012    23633946.668    96777021.196                  
  21633496.556   113684751.787    21633499.576    88585510.242                  
  20514039.595   107802017.538    20514039.756    84001577.147                  
  21071759.660   110732858.953    21071758.999    86285347.675                  
  20884698.633   109749854.570    20884696.328    85519373.323                  
  24429852.088   128379763.134    24429849.586   100036185.797                  
  24206737.323   127207230.609    24206739.735    99122509.227                  
  22681744.441   119193327.695    22681746.818    92877906.700                  
                 119669643.360                   119669643.360    22981288.502  
                 123611947.266                   123611947.266    23738374.703  
                 113564106.995                   113564106.995    21808791.046  
  26143705.765   137386069.102                                                  
  23482019.249   123398805.814                                                  
  27055102.791   142175493.113                                                  
  23532802.154   123665687.492                                                  
  23841580.819   125288320.187                                                  
  25190339.854   132376112.046                                                  
 21  9  1 10 45 13.0000000  0 18G 1G 3G 6G14G17G19G22G24G30C23C27C28
                                E 1E13E15E21E26E27
  23268520.287   122276859.809    23268523.075    95280659.067                  
  23633812.829   124196496.671    23633815.294    96776483.268                  
  21632978.318   113682028.384    21632981.320    88583388.112                  
  20514113.627   107802406.532    20514113.805    84001880.257                  
  21071901.665   110733605.142    21071901.004    86285929.121                  
  20884563.114   109749142.406    20884560.791    85518818.390                  
  24430019.503   128380642.890    24430017.001   100036871.321                  
  24206297.459   127204919.171    24206299.872    99120708.111                  
  22682373.967   119196635.837    22682376.343    92880484.468                  
                 119671926.143                   119671926.143    22981726.900  
                 123610047.174                   123610047.174    23738009.800  
                 113564518.939                   113564518.939    21808870.134  
  26143264.561   137383750.583                                                  
  23482226.672   123399895.903                                                  
  27055620.046   142178211.281                                                  
  23532706.394   123665184.184                                                  
  23841262.661   125286648.192                                                  
  25190682.815   132377914.343                                                  
 21  9  1 10 45 14.0000000  0 18G 1G 3G 6G14G17G19G22G24G30C23C27C28
                                E 1E13E15E21E26E27
  23269185.533   122280355.770    23269188.339    95283383.192                  
  23633681.563   124195806.876    23633684.046    96775945.766                  
  21632460.152   113679305.430    21632463.154    88581266.328                  
  20514187.747   107802795.945    20514187.908    84002183.700                  
  21072043.688   110734351.460    21072043.027    86286510.668                  
  20884427.667   109748430.509    20884425.344    85518263.665                  
  24430187.007   128381523.181    24430184.523   100037557.262                  
  24205857.703   127202608.184    24205860.115    99118907.335                  
  22683003.528   119199944.219    22683005.905    92883062.430                  
                 119674209.311                   119674209.311    22982165.353  
                 123608147.341                   123608147.341    23737644.968  
                 113564931.159                   113564931.159    21808949.294  
  26142823.375   137381432.140                                                  
  23482434.185   123400986.332                                                  
  27056137.300   142180929.493                                                  
  23532610.688   123664681.187                                                  
  23840944.557   125284976.542                                                  
  25191025.846   132379716.922                                                  
 21  9  1 10 45 15.0000000  0 18G 1G 3G 6G14G17G19G22G24G30C23C27C28
                                E 1E13E15E21E26E27
  23269850.833   122283851.954    23269853.656    95286107.492                  
  23633550.386   124195117.618    23633552.888    96775408.679                  
  21631942.076   113676582.907    21631945.078    88579144.882                  
  20514261.922   107803185.766    20514262.083    84002487.457                  
  21072185.729   110735097.917    21072185.068    86287092.324                  
  20884292.238   109747718.890    20884289.915    85517709.157                  
  24430354.619   128382404.017    24430352.117   100038243.626                  
  24205418.017   127200297.643    24205420.448    99117106.918                  
  22683633.143   119203252.836    22683635.520    92885640.571                  
                 119676492.860                   119676492.860    22982603.876  
                 123606247.758                   123606247.758    23737280.154  
                 113565343.664                   113565343.664    21809028.525  
  26142382.207   137379113.770                                                  
  23482641.734   123402077.113                                                  
  27056654.573   142183647.743                                                  
  23532515.017   123664178.484                                                  
  23840626.524   125283305.241                                                  
  25191368.914   132381519.773                                                  
 21  9  1 10 45 16.0000000  0 18G 1G 3G 6G14G17G19G22G24G30C23C27C28
                                E 1E13E15E21E26E27
  23270516.204   122287348.411    23270518.991    95288831.999                  
  23633419.335   124194428.897    23633421.819    96774872.016                  
  21631424.089   113673860.819    21631427.108    88577023.776                  
  20514336.185   107803576.003    20514336.346    84002791.536                  
  21072327.805   110735844.508    21072327.144    86287674.082                  
  20884156.880   109747007.548    20884154.557    85517154.864                  
  24430522.337   128383285.379    24430519.836   100038930.403                  
  24204978.422   127197987.564    24204980.834    99115306.856                  
  22684262.776   119206561.685    22684265.188    92888218.895                  
                 119678776.787                   119678776.787    22983042.471  
                 123604348.433                   123604348.433    23736915.411  
                 113565756.454                   113565756.454    21809107.792  
  26141941.038   137376795.462                                                  
  23482849.372   123403168.223                                                  
  27057171.845   142186366.028                                                  
  23532419.400   123663676.086                                                  
  23840308.544   125281634.281                                                  
  25191712.035   132383322.886                                                  
 21  9  1 10 45 17.0000000  0 18G 1G 3G 6G14G17G19G22G24G30C23C27C28
                                E 1E13E15E21E26E27
  23271181.575   122290845.061    23271184.398    95291556.669                  
  23633288.373   124193740.722    23633290.856    96774335.778                  
  21630906.173   113671139.177    21630909.175    88574903.016                  
  20514410.521   107803966.652    20514410.681    84003095.937                  
  21072469.900   110736591.228    21072469.221    86288255.941                  
  20884021.558   109746296.481    20884019.235    85516600.784                  
  24430690.163   128384167.265    24430687.661   100039617.590                  
  24204538.897   127195677.933    24204541.345    99113507.146                  
  22684892.480   119209870.763    22684894.857    92890797.399                  
                 119681061.094                   119681061.094    22983481.156  
                 123602449.362                   123602449.362    23736550.722  
                 113566169.527                   113566169.527    21809187.113  
  26141499.906   137374477.227                                                  
  23483057.064   123404259.668                                                  
  27057689.118   142189084.360                                                  
  23532323.854   123663173.987                                                  
  23839990.637   125279963.671                                                  
  25192055.191   132385126.281                                                  
 21  9  1 10 45 18.0000000  0 18G 1G 3G 6G14G17G19G22G24G30C23C27C28
                                E 1E13E15E21E26E27
  23271847.017   122294342.011    23271849.840    95294281.583                  
  23633157.518   124193052.996    23633160.002    96773799.844                  
  21630388.346   113668417.980    21630391.348    88572782.613                  
  20514484.927   107804357.711    20514485.106    84003400.661                  
  21072612.012   110737338.072    21072611.333    86288837.895                  
  20883886.307   109745585.617    20883883.984    85516046.832                  
  24430858.078   128385049.680    24430855.577   100040305.175                  
  24204099.480   127193368.789    24204101.892    99111707.836                  
  22685522.221   119213180.081    22685524.615    92893376.089                  
                 119683345.783                   119683345.783    22983919.912  
                 123600550.552                   123600550.552    23736186.087  
                 113566582.884                   113566582.884    21809266.505  
  26141058.773   137372159.259                                                  
  23483264.827   123405351.409                                                  
  27058206.426   142191802.695                                                  
  23532228.380   123662672.196                                                  
  23839672.783   125278293.383                                                  
  25192398.437   132386930.019                                                  
 21  9  1 10 45 19.0000000  0 18G 1G 3G 6G14G17G19G22G24G30C23C27C28
                                E 1E13E15E21E26E27
  23272512.513   122297839.158    23272515.319    95297006.630                  
  23633026.788   124192365.895    23633029.254    96773264.441                  
  21629870.591   113665697.198    21629873.593    88570662.522                  
  20514559.423   107804749.181    20514559.584    84003705.700                  
  21072754.160   110738085.047    21072753.499    86289419.954                  
  20883751.092   109744875.093    20883748.787    85515493.179                  
  24431026.101   128385932.641    24431023.599   100040993.196                  
  24203660.134   127191060.047    24203662.565    99109908.821                  
  22686152.014   119216489.613    22686154.409    92895954.946                  
                 119685630.852                   119685630.852    22984358.739  
                 123598651.993                   123598651.993    23735821.488  
                 113566996.520                   113566996.520    21809345.932  
  26140617.641   137369841.145                                                  
  23483472.644   123406443.508                                                  
  27058723.698   142194521.095                                                  
  23532132.942   123662170.690                                                  
  23839355.018   125276623.453                                                  
  25192741.719   132388733.954                                                  
 21  9  1 10 45 20.0000000  0 18G 1G 3G 6G14G17G19G22G24G30C23C27C28
                                E 1E13E15E21E26E27
  23273178.045   122301336.527    23273180.868    95299731.855                  
  23632896.112   124191679.331    23632898.596    96772729.458                  
  21629352.944   113662976.868    21629355.946    88568542.784                  
  20514634.008   107805141.065    20514634.151    84004011.067                  
  21072896.344   110738832.158    21072895.665    86290002.118                  
  20883615.949   109744164.845    20883613.626    85514939.739                  
  24431194.213   128386816.130    24431191.747   100041681.629                  
  24203220.896   127188751.766    24203223.326    99108110.155                  
  22686781.844   119219799.398    22686784.220    92898533.996                  
                 119687916.305                   119687916.305    22984797.638  
                 123596753.689                   123596753.689    23735456.924  
                 113567410.441                   113567410.441    21809425.414  
  26140176.544   137367523.106                                                  
  23483680.532   123407535.953                                                  
  27059241.024   142197239.530                                                  
  23532037.575   123661669.492                                                  
  23839037.306   125274953.866                                                  
  25193085.037   132390538.152                                                  
 21  9  1 10 45 21.0000000  0 18G 1G 3G 6G14G17G19G22G24G30C23C27C28
                                E 1E13E15E21E26E27
  23273843.612   122304834.140    23273846.418    95302457.266                  
  23632765.579   124190993.313    23632768.062    96772194.894                  
  21628835.368   113660256.960    21628838.352    88566423.376                  
  20514708.647   107805533.360    20514708.826    84004316.746                  
  21073038.528   110739579.391    21073037.867    86290584.376                  
  20883480.841   109743454.867    20883478.518    85514386.507                  
  24431362.467   128387700.156    24431359.966   100042370.481                  
  24202781.711   127186443.925    24202784.159    99106311.835                  
  22687411.727   119223109.398    22687414.103    92901113.219                  
                 119690202.134                   119690202.134    22985236.609  
                 123594855.641                   123594855.641    23735092.414  
                 113567824.648                   113567824.648    21809504.967  
  26139735.447   137365205.136                                                  
  23483888.474   123408628.727                                                  
  27059758.315   142199958.000                                                  
  23531942.261   123661168.594                                                  
  23838719.667   125273284.617                                                  
  25193428.426   132392342.618                                                  
 21  9  1 10 45 22.0000000  0 18G 1G 3G 6G14G17G19G22G24G30C23C27C28
                                E 1E13E15E21E26E27
  23274509.233   122308332.000    23274512.039    95305182.868                  
  23632635.135   124190307.843    23632637.619    96771660.757                  
  21628317.863   113657537.504    21628320.865    88564304.312                  
  20514783.376   107805926.077    20514783.536    84004622.757                  
  21073180.748   110740326.766    21073180.086    86291166.741                  
  20883345.787   109742745.171    20883343.464    85513833.497                  
  24431530.776   128388584.722    24431528.274   100043059.746                  
  24202342.651   127184136.550    24202345.082    99104513.879                  
  22688041.646   119226419.649    22688044.022    92903692.629                  
                 119692488.349                   119692488.349    22985675.633  
                 123592957.849                   123592957.849    23734727.975  
                 113568239.136                   113568239.136    21809584.555  
  26139294.368   137362887.227                                                  
  23484096.505   123409721.856                                                  
  27060275.641   142202676.517                                                  
  23531847.001   123660668.000                                                  
  23838402.081   125271615.714                                                  
  25193771.868   132394147.368                                                  
 21  9  1 10 45 23.0000000  0 18G 1G 3G 6G14G17G19G22G24G30C23C27C28
                                E 1E13E15E21E26E27
  23275174.908   122311830.097    23275177.714    95307908.651                  
  23632504.798   124189622.907    23632507.282    96771127.039                  
  21627800.447   113654818.485    21627803.467    88562185.598                  
  20514858.193   107806319.202    20514858.354    84004929.086                  
  21073322.985   110741074.267    21073322.324    86291749.207                  
  20883210.787   109742035.750    20883208.464    85513280.695                  
  24431699.191   128389469.825    24431696.725   100043749.435                  
  24201903.663   127181829.625    24201906.075    99102716.272                  
  22688671.600   119229730.135    22688673.977    92906272.226                  
                 119694774.939                   119694774.939    22986114.764  
                 123591060.313                   123591060.313    23734363.554  
                 113568653.906                   113568653.906    21809664.215  
  26138853.307   137360569.400                                                  
  23484304.572   123410815.314                                                  
  27060792.967   142205395.066                                                  
  23531751.795   123660167.706                                                  
  23838084.566   125269947.160                                                  
  25194115.347   132395952.391                                                  
 21  9  1 10 45 24.0000000  0 18G 1G 3G 6G14G17G19G22G24G30C23C27C28
                                E 1E13E15E21E26E27
  23275840.619   122315328.426    23275843.424    95310634.622                  
  23632374.569   124188938.512    23632377.035    96770593.746                  
  21627283.121   113652099.897    21627286.123    88560067.214                  
  20514933.082   107806712.753    20514933.243    84005235.749                  
  21073465.258   110741821.903    21073464.597    86292331.781                  
  20883075.840   109741326.602    20883073.517    85512728.113                  
  24431867.732   128390355.454    24431865.248   100044439.534                  
  24201464.764   127179523.163    24201467.176    99100919.032                  
  22689301.608   119233040.839    22689304.003    92908851.995                  
                 119697061.910                   119697061.910    22986553.967  
                 123589163.035                   123589163.035    23733999.223  
                 113569068.956                   113569068.956    21809743.911  
  26138412.246   137358251.637                                                  
  23484512.728   123411909.100                                                  
  27061310.293   142208113.657                                                  
  23531656.661   123659667.726                                                  
  23837767.123   125268278.949                                                  
  25194458.879   132397757.688                                                  
 21  9  1 10 45 25.0000000  0 18G 1G 3G 6G14G17G19G22G24G30C23C27C28
                                E 1E13E15E21E26E27
  23276506.365   122318826.996    23276509.188    95313360.780                  
  23632244.447   124188254.665    23632246.912    96770060.876                  
  21626765.884   113649381.750    21626768.886    88557949.179                  
  20515008.043   107807106.711    20515008.221    84005542.727                  
  21073607.567   110742569.671    21073606.888    86292914.457                  
  20882940.946   109740617.728    20882938.623    85512175.743                  
  24432036.362   128391241.622    24432033.878   100045130.055                  
  24201025.919   127177217.136    24201028.367    99099122.125                  
  22689931.652   119236351.771    22689934.047    92911431.942                  
                 119699349.262                   119699349.262    22986993.223  
                 123587266.008                   123587266.008    23733634.927  
                 113569484.293                   113569484.293    21809823.679  
  26137971.203   137355933.942                                                  
  23484720.920   123413003.227                                                  
  27061827.637   142210832.297                                                  
  23531561.562   123659168.042                                                  
  23837449.715   125266611.082                                                  
  25194802.482   132399563.254                                                  
 21  9  1 10 45 26.0000000  0 18G 1G 3G 6G14G17G19G22G24G30C23C27C28
                                E 1E13E15E21E26E27
  23277172.165   122322325.797    23277174.988    95316087.117                  
  23632114.396   124187571.347    23632116.880    96769528.427                  
  21626248.701   113646664.046    21626251.721    88555831.488                  
  20515083.093   107807501.083    20515083.254    84005850.028                  
  21073749.876   110743317.574    21073749.215    86293497.238                  
  20882806.107   109739909.120    20882803.784    85511623.585                  
  24432205.099   128392128.324    24432202.615   100045820.992                  
  24200587.199   127174911.566    24200589.629    99097325.577                  
  22690561.732   119239662.929    22690564.144    92914012.066                  
                 119701636.995                   119701636.995    22987432.569  
                 123585369.239                   123585369.239    23733270.667  
                 113569899.915                   113569899.915    21809903.500  
  26137530.177   137353616.312                                                  
  23484929.201   123414097.679                                                  
  27062344.981   142213550.952                                                  
  23531466.534   123658668.649                                                  
  23837132.397   125264943.550                                                  
  25195146.121   132401369.087                                                  
 21  9  1 10 45 27.0000000  0 18G 1G 3G 6G14G17G19G22G24G30C23C27C28
                                E 1E13E15E21E26E27
  23277838.018   122325824.848    23277840.823    95318813.648                  
  23631984.488   124186888.586    23631986.954    96768996.403                  
  21625731.625   113643946.773    21625734.645    88553714.132                  
  20515158.214   107807895.872    20515158.375    84006157.656                  
  21073892.221   110744065.608    21073891.559    86294080.125                  
  20882671.321   109739200.809    20882668.998    85511071.652                  
  24432373.943   128393015.563    24432371.442   100046512.347                  
  24200148.532   127172606.460    24200150.962    99095529.395                  
  22691191.901   119242974.340    22691194.277    92916592.383                  
                 119703925.109                   119703925.109    22987871.968  
                 123583472.727                   123583472.727    23732906.460  
                 113570315.817                   113570315.817    21809983.374  
  26137089.152   137351298.758                                                  
  23485137.536   123415192.484                                                  
  27062862.343   142216269.663                                                  
  23531371.560   123658169.573                                                  
  23836815.168   125263276.375                                                  
  25195489.796   132403175.196                                                  
 21  9  1 10 45 28.0000000  0 18G 1G 3G 6G14G17G19G22G24G30C23C27C28
                                E 1E13E15E21E26E27
  23278503.907   122329324.125    23278506.713    95321540.359                  
  23631854.634   124186206.356    23631857.135    96768464.793                  
  21625214.639   113641229.940    21625217.641    88551597.122                  
  20515233.425   107808291.066    20515233.586    84006465.602                  
  21074034.601   110744813.770    21074033.922    86294663.105                  
  20882536.588   109738492.753    20882534.265    85510519.923                  
  24432542.877   128393903.331    24432540.375   100047204.116                  
  24199709.972   127170301.788    24199712.403    99093733.542                  
  22691822.088   119246285.973    22691824.464    92919172.875                  
                 119706213.601                   119706213.601    22988311.439  
                 123581576.470                   123581576.470    23732542.307  
                 113570732.000                   113570732.000    21810063.302  
  26136648.162   137348981.263                                                  
  23485345.943   123416287.626                                                  
  27063379.705   142218988.411                                                  
  23531276.658   123657670.784                                                  
  23836497.957   125261609.538                                                  
  25195833.543   132404981.578                                                  
 21  9  1 10 45 29.0000000  0 18G 1G 3G 6G14G17G19G22G24G30C23C27C28
                                E 1E13E15E21E26E27
  23279169.832   122332823.640    23279172.655    95324267.254                  
  23631724.923   124185524.660    23631727.424    96767933.601                  
  21624697.724   113638513.551    21624700.726    88549480.457                  
  20515308.707   107808686.680    20515308.886    84006773.872                  
  21074176.981   110745562.066    21074176.320    86295246.196                  
  20882401.874   109737784.984    20882399.569    85509968.415                  
  24432711.918   128394791.635    24432709.416   100047896.302                  
  24199271.502   127167997.574    24199273.915    99091938.051                  
  22692452.292   119249597.836    22692454.687    92921753.551                  
                 119708502.476                   119708502.476    22988750.999  
                 123579680.469                   123579680.469    23732178.173  
                 113571148.466                   113571148.466    21810143.284  
  26136207.155   137346663.841                                                  
  23485554.403   123417383.094                                                  
  27063897.066   142221707.181                                                  
  23531181.791   123657172.309                                                  
  23836180.836   125259943.050                                                  
  25196177.343   132406788.235                                                  
 21  9  1 10 45 30.0000000  0 18G 1G 3G 6G14G17G19G22G24G30C23C27C28
                                E 1E13E15E21E26E27
  23279835.828   122336323.389    23279838.634    95326994.331                  
  23631595.319   124184843.519    23631597.802    96767402.844                  
  21624180.880   113635797.590    21624183.900    88547364.122                  
  20515384.061   107809082.707    20515384.239    84007082.465                  
  21074319.397   110746310.488    21074318.736    86295829.379                  
  20882267.266   109737077.477    20882264.943    85509417.106                  
  24432881.066   128395680.477    24432878.565   100048588.903                  
  24198833.122   127165693.812    24198835.534    99090142.914                  
  22693082.568   119252909.921    22693084.963    92924334.395                  
                 119710791.730                   119710791.730    22989190.613  
                 123577784.718                   123577784.718    23731814.145  
                 113571565.214                   113571565.214    21810223.301  
  26135766.183   137344346.484                                                  
  23485762.916   123418478.896                                                  
  27064414.446   142224426.009                                                  
  23531086.996   123656674.137                                                  
  23835863.786   125258276.900                                                  
  25196521.196   132408595.160                                                  
 21  9  1 10 45 31.0000000  0 18G 1G 3G 6G14G17G19G22G24G30C23C27C28
                                E 1E13E15E21E26E27
  23280501.861   122339823.382    23280504.666    95329721.599                  
  23631465.804   124184162.923    23631468.288    96766872.508                  
  21623664.144   113633082.072    21623667.146    88545248.134                  
  20515459.504   107809479.151    20515459.682    84007391.382                  
  21074461.867   110747059.051    21074461.188    86296412.675                  
  20882132.677   109736370.249    20882130.354    85508866.023                  
  24433050.304   128396569.855    24433047.802   100049281.925                  
  24198394.794   127163390.508    24198397.243    99088348.129                  
  22693712.880   119256222.250    22693715.257    92926915.430                  
                 119713081.365                   119713081.365    22989630.316  
                 123575889.229                   123575889.229    23731450.117  
                 113571982.246                   113571982.246    21810303.408  
  26135325.211   137342029.208                                                  
  23485971.501   123419575.039                                                  
  27064931.826   142227144.855                                                  
  23530992.255   123656176.267                                                  
  23835546.807   125256611.098                                                  
  25196865.103   132410402.367                                                  
 21  9  1 10 45 32.0000000  0 18G 1G 3G 6G14G17G19G22G24G30C23C27C28
                                E 1E13E15E21E26E27
  23281167.928   122343323.613    23281170.734    95332449.046                  
  23631336.379   124183482.865    23631338.880    96766342.594                  
  21623147.479   113630366.997    21623150.481    88543132.488                  
  20515535.018   107809876.009    20515535.197    84007700.622                  
  21074604.319   110747807.737    21074603.658    86296996.070                  
  20881998.141   109735663.308    20881995.818    85508315.160                  
  24433219.648   128397459.753    24433217.147   100049975.355                  
  24197956.575   127161087.643    24197959.005    99086553.692                  
  22694343.246   119259534.797    22694345.622    92929496.638                  
                 119715371.380                   119715371.380    22990070.108  
                 123573993.996                   123573993.996    23731086.161  
                 113572399.564                   113572399.564    21810383.533  
  26134884.275   137339711.992                                                  
  23486180.158   123420671.516                                                  
  27065449.206   142229863.750                                                  
  23530897.585   123655678.699                                                  
  23835229.882   125254945.640                                                  
  25197209.046   132412209.837                                                  
 21  9  1 10 45 33.0000000  0 18G 1G 3G 6G14G17G19G22G24G30C23C27C28
                                E 1E13E15E21E26E27
  23281834.032   122346824.075    23281836.855    95335176.680                  
  23631207.078   124182803.337    23631209.562    96765813.095                  
  21622630.903   113627652.347    21622633.905    88541017.180                  
  20515610.622   107810273.280    20515610.783    84008010.184                  
  21074746.824   110748556.562    21074746.163    86297579.571                  
  20881863.677   109734956.634    20881861.354    85507764.503                  
  24433389.083   128398350.194    24433386.599   100050669.207                  
  24197518.462   127158785.246    24197520.874    99084759.618                  
  22694973.647   119262847.587    22694976.024    92932078.028                  
                 119717661.771                   119717661.771    22990509.936  
                 123572099.016                   123572099.016    23730722.240  
                 113572817.161                   113572817.161    21810463.711  
  26134443.339   137337394.852                                                  
  23486388.886   123421768.339                                                  
  27065966.603   142232582.687                                                  
  23530802.932   123655181.433                                                  
  23834913.029   125253280.532                                                  
  25197553.043   132414017.581                                                  
 21  9  1 10 45 34.0000000  0 18G 1G 3G 6G14G17G19G22G24G30C23C27C28
                                E 1E13E15E21E26E27
  23282500.207   122350324.770    23282503.012    95337904.496                  
  23631077.885   124182124.359    23631080.351    96765284.018                  
  21622114.399   113624938.144    21622117.419    88538902.216                  
  20515686.297   107810670.960    20515686.458    84008320.062                  
  21074889.348   110749305.515    21074888.687    86298163.169                  
  20881729.248   109734250.230    20881726.925    85507214.058                  
  24433558.642   128399241.172    24433556.140   100051363.473                  
  24197080.403   127156483.294    24197082.833    99082965.887                  
  22695604.102   119266160.605    22695606.479    92934659.601                  
                 119719952.542                   119719952.542    22990949.854  
                 123570204.289                   123570204.289    23730358.373  
                 113573235.039                   113573235.039    21810543.979  
  26134002.421   137335077.785                                                  
  23486597.668   123422865.497                                                  
  27066484.019   142235301.665                                                  
  23530708.387   123654684.481                                                  
  23834596.229   125251615.769                                                  
  25197897.093   132415825.606                                                  
 21  9  1 10 45 35.0000000  0 18G 1G 3G 6G14G17G19G22G24G30C23C27C28
                                E 1E13E15E21E26E27
  23283166.400   122353825.707    23283169.223    95340632.497                  
  23630948.764   124181445.923    23630951.265    96764755.367                  
  21621598.002   113622224.378    21621601.004    88536787.593                  
  20515762.062   107811069.050    20515762.223    84008630.262                  
  21075031.907   110750054.601    21075031.228    86298746.872                  
  20881594.873   109733544.102    20881592.568    85506663.829                  
  24433728.272   128400132.675    24433725.789   100052058.148                  
  24196642.433   127154181.798    24196644.881    99081172.516                  
  22696234.575   119269473.856    22696236.951    92937241.354                  
                 119722243.695                   119722243.695    22991389.860  
                 123568309.820                   123568309.820    23729994.578  
                 113573653.200                   113573653.200    21810624.282  
  26133561.503   137332760.774                                                  
  23486806.503   123423962.984                                                  
  27067001.416   142238020.686                                                  
  23530613.860   123654187.826                                                  
  23834279.483   125249951.335                                                  
  25198241.197   132417633.898                                                  
 21  9  1 10 45 36.0000000  0 18G 1G 3G 6G14G17G19G22G24G30C23C27C28
                                E 1E13E15E21E26E27
  23283832.664   122357326.880    23283835.452    95343360.683                  
  23630819.767   124180768.025    23630822.269    96764227.137                  
  21621081.659   113619511.055    21621084.661    88534673.317                  
  20515837.898   107811467.571    20515838.059    84008940.796                  
  21075174.466   110750803.815    21075173.805    86299330.676                  
  20881460.551   109732838.253    20881458.246    85506113.816                  
  24433898.046   128401024.718    24433895.544   100052753.249                  
  24196204.588   127151880.765    24196207.001    99079379.501                  
  22696865.119   119272787.335    22696867.496    92939823.284                  
                 119724535.231                   119724535.231    22991829.921  
                 123566415.611                   123566415.611    23729630.818  
                 113574071.646                   113574071.646    21810704.639  
  26133120.603   137330443.847                                                  
  23487015.428   123425060.817                                                  
  27067518.832   142240739.732                                                  
  23530519.422   123653691.472                                                  
  23833962.826   125248287.277                                                  
  25198585.354   132419442.466                                                  
 21  9  1 10 45 37.0000000  0 18G 1G 3G 6G14G17G19G22G24G30C23C27C28
                                E 1E13E15E21E26E27
  23284498.964   122360828.305    23284501.752    95346089.073                  
  23630690.878   124180090.680    23630693.362    96763699.336                  
  21620565.423   113616798.157    21620568.425    88532559.364                  
  20515913.806   107811866.492    20515913.967    84009251.648                  
  21075317.061   110751553.159    21075316.400    86299914.577                  
  20881326.301   109732132.676    20881323.979    85505564.016                  
  24434067.873   128401917.298    24434065.371   100053448.766                  
  24195766.797   127149580.145    24195769.227    99077586.796                  
  22697495.699   119276101.058    22697498.076    92942405.415                  
                 119726827.157                   119726827.157    22992270.053  
                 123564521.648                   123564521.648    23729267.094  
                 113574490.362                   113574490.362    21810785.032  
  26132679.720   137328126.977                                                  
  23487224.406   123426158.984                                                  
  27068036.265   142243458.847                                                  
  23530425.020   123653195.422                                                  
  23833646.240   125246623.539                                                  
  25198929.583   132421251.319                                                  
 21  9  1 10 45 38.0000000  0 18G 1G 3G 6G14G17G19G22G24G30C23C27C28
                                E 1E13E15E21E26E27
  23285165.300   122364329.953    23285168.106    95348817.630                  
  23630562.078   124179413.870    23630564.562    96763171.950                  
  21620049.258   113614085.708    21620052.260    88530445.766                  
  20515989.803   107812265.847    20515989.963    84009562.831                  
  21075459.673   110752302.637    21075459.012    86300498.587                  
  20881192.087   109731427.376    20881189.764    85505014.429                  
  24434237.843   128402810.406    24434235.342   100054144.694                  
  24195329.096   127147280.016    24195331.526    99075794.488                  
  22698126.315   119279414.995    22698128.691    92944987.699                  
                 119729119.447                   119729119.447    22992710.256  
                 123562627.950                   123562627.950    23728903.442  
                 113574909.375                   113574909.375    21810865.514  
  26132238.856   137325810.192                                                  
  23487433.438   123427257.480                                                  
  27068553.698   142246177.978                                                  
  23530330.672   123652699.679                                                  
  23833329.708   125244960.153                                                  
  25199273.848   132423060.427                                                  
 21  9  1 10 45 39.0000000  0 18G 1G 3G 6G14G17G19G22G24G30C23C27C28
                                E 1E13E15E21E26E27
  23285831.672   122367831.833    23285834.477    95351546.367                  
  23630433.385   124178737.595    23630435.887    96762644.984                  
  21619533.183   113611373.694    21619536.185    88528332.513                  
  20516065.853   107812665.592    20516066.032    84009874.323                  
  21075602.322   110753052.251    21075601.661    86301082.699                  
  20881057.927   109730722.348    20881055.604    85504465.059                  
  24434407.903   128403704.063    24434405.401   100054841.050                  
  24194891.483   127144980.333    24194893.895    99074002.522                  
  22698756.984   119282729.164    22698759.361    92947570.168                  
                 119731412.117                   119731412.117    22993150.549  
                 123560734.505                   123560734.505    23728539.825  
                 113575328.664                   113575328.664    21810946.032  
  26131797.991   137323493.460                                                  
  23487642.541   123428356.320                                                  
  27069071.131   142248897.128                                                  
  23530236.395   123652204.229                                                  
  23833013.248   125243297.107                                                  
  25199618.166   132424869.820                                                  
 21  9  1 10 45 40.0000000  0 18G 1G 3G 6G14G17G19G22G24G30C23C27C28
                                E 1E13E15E21E26E27
  23286498.097   122371333.941    23286500.920    95354275.286                  
  23630304.800   124178061.876    23630307.284    96762118.450                  
  21619017.179   113608662.126    21619020.199    88526219.598                  
  20516142.029   107813065.766    20516142.172    84010186.145                  
  21075745.006   110753801.991    21075744.345    86301666.914                  
  20880923.802   109730017.593    20880921.479    85503915.902                  
  24434578.034   128404598.239    24434575.568   100055537.814                  
  24194453.942   127142681.099    24194456.372    99072210.914                  
  22699387.707   119286043.562    22699390.083    92950152.816                  
                 119733705.168                   119733705.168    22993590.895  
                 123558841.313                   123558841.313    23728176.244  
                 113575748.238                   113575748.238    21811026.621  
  26131357.145   137321176.804                                                  
  23487851.698   123429455.485                                                  
  27069588.583   142251616.341                                                  
  23530142.172   123651709.097                                                  
  23832696.841   125241634.413                                                  
  25199962.520   132426679.467                                                  
 21  9  1 10 45 41.0000000  0 18G 1G 3G 6G14G17G19G22G24G30C23C27C28
                                E 1E13E15E21E26E27
  23287164.576   122374836.299    23287167.399    95357004.393                  
  23630176.322   124177386.689    23630178.805    96761592.328                  
  21618501.283   113605950.992    21618504.285    88524107.030                  
  20516218.240   107813466.339    20516218.401    84010498.281                  
  21075887.708   110754551.866    21075887.011    86302251.230                  
  20880789.748   109729313.117    20880787.425    85503366.958                  
  24434748.308   128405492.961    24434745.824   100056234.995                  
  24194016.509   127140382.328    24194018.939    99070419.668                  
  22700018.448   119289358.195    22700020.824    92952735.649                  
                 119735998.600                   119735998.600    22994031.349  
                 123556948.374                   123556948.374    23727812.717  
                 113576168.094                   113576168.094    21811107.246  
  26130916.316   137318860.215                                                  
  23488060.926   123430554.985                                                  
  27070106.034   142254335.574                                                  
  23530048.020   123651214.249                                                  
  23832380.506   125239972.063                                                  
  25200306.945   132428489.403                                                  
 21  9  1 10 45 42.0000000  0 18G 1G 3G 6G14G17G19G22G24G30C23C27C28
                                E 1E13E15E21E26E27
  23287831.108   122378338.883    23287833.914    95359733.680                  
  23630047.933   124176712.048    23630050.416    96761066.638                  
  21617985.440   113603240.304    21617988.460    88521994.808                  
  20516294.559   107813867.343    20516294.720    84010810.750                  
  21076030.428   110755301.876    21076029.749    86302835.655                  
  20880655.749   109728608.917    20880653.426    85502818.230                  
  24434918.653   128406388.206    24434916.187   100056932.593                  
  24193579.164   127138084.006    24193581.577    99068628.766                  
  22700649.242   119292673.053    22700651.619    92955318.656                  
                 119738292.410                   119738292.410    22994471.838  
                 123555055.694                   123555055.694    23727449.261  
                 113576588.229                   113576588.229    21811187.925  
  26130475.505   137316543.703                                                  
  23488270.226   123431654.825                                                  
  27070623.503   142257054.863                                                  
  23529953.921   123650719.721                                                  
  23832064.224   125238310.056                                                  
  25200651.406   132430299.597                                                  
 21  9  1 10 45 43.0000000  0 18G 1G 3G 6G14G17G19G22G24G30C23C27C28
                                E 1E13E15E21E26E27
  23288497.676   122381841.708    23288500.482    95362463.151                  
  23629919.669   124176037.958    23629922.135    96760541.368                  
  21617469.704   113600530.047    21617472.706    88519882.913                  
  20516370.949   107814268.755    20516371.092    84011123.538                  
  21076173.166   110756052.015    21076172.504    86303420.179                  
  20880521.784   109727904.984    20880519.461    85502269.711                  
  24435089.141   128407283.996    24435086.640   100057630.609                  
  24193141.874   127135786.134    24193144.304    99066838.214                  
  22701280.072   119295988.152    22701282.467    92957901.848                  
                 119740586.599                   119740586.599    22994912.417  
                 123553163.273                   123553163.273    23727085.841  
                 113577008.649                   113577008.649    21811268.657  
  26130034.694   137314227.258                                                  
  23488479.580   123432755.005                                                  
  27071140.972   142259774.169                                                  
  23529859.859   123650225.493                                                  
  23831748.014   125236648.386                                                  
  25200995.939   132432110.078                                                  
 21  9  1 10 45 44.0000000  0 18G 1G 3G 6G14G17G19G22G24G30C23C27C28
                                E 1E13E15E21E26E27
  23289164.280   122385344.762    23289167.104    95365192.806                  
  23629791.494   124175364.399    23629793.978    96760016.520                  
  21616954.040   113597820.231    21616957.042    88517771.370                  
  20516447.393   107814670.581    20516447.553    84011436.652                  
  21076315.939   110756802.285    21076315.260    86304004.804                  
  20880387.874   109727201.324    20880385.569    85501721.402                  
  24435259.701   128408180.318    24435257.200   100058329.043                  
  24192704.708   127133488.716    24192707.120    99065048.020                  
  22701910.956   119299303.472    22701913.368    92960485.211                  
                 119742881.168                   119742881.168    22995353.067  
                 123551271.104                   123551271.104    23726722.456  
                 113577429.349                   113577429.349    21811349.461  
  26129593.901   137311910.878                                                  
  23488689.005   123433855.511                                                  
  27071658.441   142262493.520                                                  
  23529765.886   123649731.563                                                  
  23831431.875   125234987.072                                                  
  25201340.507   132433920.823                                                  
 21  9  1 10 45 45.0000000  0 18G 1G 3G 6G14G17G19G22G24G30C23C27C28
                                E 1E13E15E21E26E27
  23289830.938   122388848.050    23289833.743    95367922.641                  
  23629663.427   124174691.378    23629665.893    96759492.089                  
  21616438.465   113595110.855    21616441.467    88515660.168                  
  20516523.943   107815072.820    20516524.122    84011750.085                  
  21076458.748   110757552.689    21076458.051    86304589.536                  
  20880254.035   109726497.954    20880251.712    85501173.324                  
  24435430.368   128409077.185    24435427.867   100059027.899                  
  24192267.596   127131191.741    24192270.026    99063258.172                  
  22702541.893   119302619.023    22702544.288    92963068.762                  
                 119745176.118                   119745176.118    22995793.788  
                 123549379.192                   123549379.192    23726359.143  
                 113577850.333                   113577850.333    21811430.300  
  26129153.126   137309594.574                                                  
  23488898.483   123434956.343                                                  
  27072175.928   142265212.902                                                  
  23529671.948   123649237.936                                                  
  23831115.826   125233326.089                                                  
  25201685.111   132435731.833                                                  
 21  9  1 10 45 46.0000000  0 18G 1G 3G 6G14G17G19G22G24G30C23C27C28
                                E 1E13E15E21E26E27
  23290497.631   122392351.579    23290500.437    95370652.661                  
  23629535.467   124174018.902    23629537.933    96758968.082                  
  21615922.961   113592401.919    21615925.981    88513549.309                  
  20516600.584   107815475.476    20516600.745    84012063.843                  
  21076601.558   110758303.224    21076600.879    86305174.368                  
  20880120.232   109725794.852    20880117.927    85500625.454                  
  24435601.125   128409974.571    24435598.641   100059727.161                  
  24191830.573   127128895.242    24191833.021    99061468.692                  
  22703172.866   119305934.806    22703175.261    92965652.484                  
                 119747471.446                   119747471.446    22996234.581  
                 123547487.535                   123547487.535    23725995.884  
                 113578271.593                   113578271.593    21811511.193  
  26128712.368   137307278.329                                                  
  23489108.015   123436057.530                                                  
  27072693.415   142267932.323                                                  
  23529578.064   123648744.617                                                  
  23830799.794   125231665.458                                                  
  25202029.805   132437543.121                                                  
 21  9  1 10 45 47.0000000  0 18G 1G 3G 6G14G17G19G22G24G30C23C27C28
                                E 1E13E15E21E26E27
  23291164.378   122395855.340    23291167.183    95373382.864                  
  23629407.578   124173346.972    23629410.080    96758444.501                  
  21615407.565   113589693.414    21615410.567    88511438.790                  
  20516677.278   107815878.543    20516677.438    84012377.921                  
  21076744.403   110759053.882    21076743.741    86305759.297                  
  20879986.500   109725092.016    20879984.177    85500077.790                  
  24435772.006   128410872.495    24435769.504   100060426.844                  
  24191393.658   127126599.180    24191396.088    99059679.551                  
  22703803.875   119309250.812    22703806.252    92968236.387                  
                 119749767.149                   119749767.149    22996675.446  
                 123545596.132                   123545596.132    23725632.642  
                 113578693.142                   113578693.142    21811592.140  
  26128271.593   137304962.166                                                  
  23489317.637   123437159.052                                                  
  27073210.919   142270651.785                                                  
  23529484.234   123648251.595                                                  
  23830483.852   125230005.176                                                  
  25202374.534   132439354.688                                                  
 21  9  1 10 45 48.0000000  0 18G 1G 3G 6G14G17G19G22G24G30C23C27C28
                                E 1E13E15E21E26E27
  23291831.161   122399359.341    23291833.984    95376113.255                  
  23629279.815   124172675.590    23629282.316    96757921.344                  
  21614892.240   113586985.352    21614895.242    88509328.610                  
  20516754.061   107816282.024    20516754.222    84012692.320                  
  21076887.265   110759804.661    21076886.604    86306344.317                  
  20879852.804   109724389.445    20879850.481    85499530.332                  
  24435942.959   128411770.953    24435940.475   100061126.939                  
  24190956.814   127124303.570    24190959.244    99057890.766                  
  22704434.937   119312567.055    22704437.314    92970820.469                  
                 119752063.233                   119752063.233    22997116.382  
                 123543704.990                   123543704.990    23725269.472  
                 113579114.969                   113579114.969    21811673.158  
  26127830.854   137302646.067                                                  
  23489527.312   123438260.896                                                  
  27073728.424   142273371.288                                                  
  23529390.475   123647758.875                                                  
  23830167.981   125228345.235                                                  
  25202719.317   132441166.528                                                  
 21  9  1 10 45 49.0000000  0 18G 1G 3G 6G14G17G19G22G24G30C23C27C28
                                E 1E13E15E21E26E27
  23292497.997   122402863.571    23292500.820    95378843.819                  
  23629152.158   124172004.737    23629154.660    96757398.606                  
  21614376.987   113584277.737    21614380.007    88507218.782                  
  20516830.915   107816685.925    20516831.076    84013007.047                  
  21077030.164   110760555.571    21077029.503    86306929.442                  
  20879719.162   109723687.172    20879716.839    85498983.107                  
  24436114.037   128412669.950    24436111.535   100061827.454                  
  24190520.059   127122008.426    24190522.507    99056102.344                  
  22705066.036   119315883.531    22705068.448    92973404.738                  
                 119754359.698                   119754359.698    22997557.407  
                 123541814.098                   123541814.098    23724906.338  
                 113579537.079                   113579537.079    21811754.212  
  26127390.132   137300330.039                                                  
  23489737.059   123439363.087                                                  
  27074245.911   142276090.823                                                  
  23529296.788   123647266.477                                                  
  23829852.182   125226685.640                                                  
  25203064.135   132442978.629                                                  
 21  9  1 10 45 50.0000000  0 18G 1G 3G 6G14G17G19G22G24G30C23C27C28
                                E 1E13E15E21E26E27
  23293164.887   122406368.027    23293167.674    95381574.567                  
  23629024.627   124171334.442    23629027.093    96756876.298                  
  21613861.823   113581570.561    21613864.843    88505109.292                  
  20516907.859   107817090.239    20516908.020    84013322.097                  
  21077173.080   110761306.605    21077172.419    86307514.668                  
  20879585.573   109722985.161    20879583.268    85498436.083                  
  24436285.222   128413569.473    24436282.721   100062528.383                  
  24190083.394   127119713.734    24190085.824    99054314.271                  
  22705697.205   119319200.218    22705699.582    92975989.171                  
                 119756656.544                   119756656.544    22997998.486  
                 123539923.462                   123539923.462    23724543.275  
                 113579959.468                   113579959.468    21811835.337  
  26126949.428   137298014.078                                                  
  23489946.859   123440465.603                                                  
  27074763.434   142278810.400                                                  
  23529203.137   123646774.358                                                  
  23829536.418   125225026.392                                                  
  25203409.043   132444791.012                                                  
 21  9  1 10 45 51.0000000  0 18G 1G 3G 6G14G17G19G22G24G30C23C27C28
                                E 1E13E15E21E26E27
  23293831.794   122409872.718    23293834.600    95384305.497                  
  23628897.168   124170664.672    23628899.633    96756354.399                  
  21613346.766   113578863.817    21613349.768    88503000.141                  
  20516984.857   107817494.964    20516985.036    84013637.470                  
  21077316.015   110762057.774    21077315.354    86308099.992                  
  20879452.038   109722283.423    20879449.715    85497889.274                  
  24436456.497   128414469.536    24436453.995   100063229.731                  
  24189646.818   127117419.497    24189649.248    99052526.551                  
  22706328.375   119322517.148    22706330.787    92978573.790                  
                 119758953.774                   119758953.774    22998439.637  
                 123538033.099                   123538033.099    23724180.248  
                 113580382.136                   113580382.136    21811916.499  
  26126508.725   137295698.191                                                  
  23490156.713   123441568.454                                                  
  27075280.974   142281530.008                                                  
  23529109.539   123646282.551                                                  
  23829220.762   125223367.492                                                  
  25203753.951   132446603.656                                                  
 21  9  1 10 45 52.0000000  0 18G 1G 3G 6G14G17G19G22G24G30C23C27C28
                                E 1E13E15E21E26E27
  23294498.756   122413377.653    23294501.579    95387036.613                  
  23628769.815   124169995.456    23628772.299    96755832.930                  
  21612831.763   113576157.511    21612834.765    88500891.333                  
  20517061.962   107817900.108    20517062.123    84013953.167                  
  21077458.985   110762809.069    21077458.324    86308685.419                  
  20879318.556   109721581.958    20879316.233    85497342.680                  
  24436627.879   128415370.133    24436625.377   100063931.497                  
  24189210.331   127115125.706    24189212.761    99050739.184                  
  22706959.616   119325834.292    22706961.993    92981158.578                  
                 119761251.376                   119761251.376    22998880.859  
                 123536142.972                   123536142.972    23723817.257  
                 113580805.091                   113580805.091    21811997.713  
  26126068.039   137293382.371                                                  
  23490366.638   123442671.642                                                  
  27075798.497   142284249.655                                                  
  23529016.012   123645791.048                                                  
  23828905.142   125221708.915                                                  
  25204098.966   132448416.570                                                  
 21  9  1 10 45 53.0000000  0 18G 1G 3G 6G14G17G19G22G24G30C23C27C28
                                E 1E13E15E21E26E27
  23295165.788   122416882.819    23295168.576    95389767.911                  
  23628642.588   124169326.786    23628645.053    96755311.886                  
  21612316.867   113573451.650    21612319.852    88498782.868                  
  20517139.138   107818305.664    20517139.299    84014269.184                  
  21077601.973   110763560.505    21077601.312    86309270.949                  
  20879185.128   109720880.777    20879182.805    85496796.305                  
  24436799.368   128416271.267    24436796.866   100064633.677                  
  24188773.916   127112832.368    24188776.346    99048952.169                  
  22707590.893   119329151.675    22707593.287    92983743.551                  
                 119763549.355                   119763549.355    22999322.188  
                 123534253.106                   123534253.106    23723454.337  
                 113581228.323                   113581228.323    21812078.999  
  26125627.353   137291066.622                                                  
  23490576.635   123443775.165                                                  
  27076316.037   142286969.340                                                  
  23528922.539   123645299.857                                                  
  23828589.575   125220050.703                                                  
  25204443.999   132450229.775                                                  
 21  9  1 10 45 54.0000000  0 18G 1G 3G 6G14G17G19G22G24G30C23C27C28
                                E 1E13E15E21E26E27
  23295832.839   122420388.218    23295835.644    95392499.388                  
  23628515.414   124168658.653    23628517.915    96754791.261                  
  21611802.025   113570746.235    21611805.045    88496674.755                  
  20517216.404   107818711.642    20517216.565    84014585.531                  
  21077744.996   110764312.073    21077744.335    86309856.591                  
  20879051.736   109720179.867    20879049.413    85496250.141                  
  24436970.946   128417172.923    24436968.444   100065336.266                  
  24188337.608   127110539.483    24188340.020    99047165.504                  
  22708222.223   119332469.297    22708224.600    92986328.711                  
                 119765847.716                   119765847.716    22999763.535  
                 123532363.491                   123532363.491    23723091.453  
                 113581651.843                   113581651.843    21812160.339  
  26125186.703   137288750.940                                                  
  23490786.703   123444879.028                                                  
  27076833.578   142289689.066                                                  
  23528829.138   123644808.965                                                  
  23828274.097   125218392.833                                                  
  25204789.086   132452043.243                                                  
 21  9  1 10 45 55.0000000  0 18G 1G 3G 6G14G17G19G22G24G30C23C27C28
                                E 1E13E15E21E26E27
  23296499.943   122423893.850    23296502.749    95395231.050                  
  23628388.401   124167991.063    23628390.884    96754271.066                  
  21611287.272   113568041.258    21611290.292    88494566.980                  
  20517293.723   107819118.028    20517293.902    84014902.190                  
  21077888.038   110765063.776    21077887.377    86310442.331                  
  20878918.415   109719479.226    20878916.092    85495704.187                  
  24437142.614   128418075.116    24437140.112   100066039.278                  
  24187901.354   127108247.066    24187903.802    99045379.202                  
  22708853.572   119335787.131    22708855.966    92988914.039                  
                 119768146.449                   119768146.449    23000205.007  
                 123530474.137                   123530474.137    23722728.622  
                 113582075.639                   113582075.639    21812241.715  
  26124746.053   137286435.341                                                  
  23490996.825   123445983.223                                                  
  27077351.136   142292408.824                                                  
  23528735.772   123644318.372                                                  
  23827958.673   125216735.301                                                  
  25205134.244   132453856.982                                                  
 21  9  1 10 45 56.0000000  0 18G 1G 3G 6G14G17G19G22G24G30C23C27C28
                                E 1E13E15E21E26E27
  23297167.083   122427399.724    23297169.889    95397962.899                  
  23628261.459   124167324.022    23628263.943    96753751.293                  
  21610772.626   113565336.706    21610775.646    88492459.539                  
  20517371.132   107819524.827    20517371.293    84015219.179                  
  21078031.115   110765815.608    21078030.436    86311028.177                  
  20878785.148   109718778.870    20878782.825    85495158.453                  
  24437314.407   128418977.846    24437311.905   100066742.702                  
  24187465.224   127105955.097    24187467.637    99043593.257                  
  22709484.974   119339105.203    22709487.386    92991499.543                  
                 119770445.566                   119770445.566    23000646.515  
                 123528585.037                   123528585.037    23722365.845  
                 113582499.723                   113582499.723    21812323.162  
  26124305.438   137284119.800                                                  
  23491207.000   123447087.746                                                  
  27077868.695   142295128.618                                                  
  23528642.478   123643828.081                                                  
  23827643.338   125215078.124                                                  
  25205479.420   132455670.996                                                  
 21  9  1 10 45 57.0000000  0 18G 1G 3G 6G14G17G19G22G24G30C23C27C28
                                E 1E13E15E21E26E27
  23297834.259   122430905.821    23297837.082    95400694.923                  
  23628134.625   124166657.515    23628137.109    96753231.937                  
  21610258.052   113562632.609    21610261.054    88490352.448                  
  20517448.612   107819932.044    20517448.808    84015536.493                  
  21078174.192   110766567.569    21078173.531    86311614.118                  
  20878651.916   109718078.778    20878649.593    85494612.929                  
  24437486.289   128419881.117    24437483.787   100067446.547                  
  24187029.167   127103663.578    24187031.579    99041807.655                  
  22710116.447   119342423.495    22710118.823    92994085.227                  
                 119772745.061                   119772745.061    23001088.112  
                 123526696.189                   123526696.189    23722003.122  
                 113582924.083                   113582924.083    21812404.662  
  26123864.824   137281804.332                                                  
  23491417.265   123448192.598                                                  
  27078386.253   142297848.441                                                  
  23528549.238   123643338.093                                                  
  23827328.039   125213421.282                                                  
  25205824.685   132457485.278                                                  
 21  9  1 10 45 58.0000000  0 18G 1G 3G 6G14G17G19G22G24G30C23C27C28
                                E 1E13E15E21E26E27
  23298501.506   122434412.149    23298504.311    95403427.124                  
  23628007.898   124165991.554    23628010.382    96752713.004                  
  21609743.567   113559928.949    21609746.587    88488245.702                  
  20517526.199   107820339.671    20517526.360    84015854.125                  
  21078317.323   110767319.663    21078316.662    86312200.167                  
  20878518.756   109717378.956    20878516.433    85494067.614                  
  24437658.278   128420784.918    24437655.776   100068150.808                  
  24186593.180   127101372.525    24186595.628    99040022.417                  
  22710747.938   119345742.019    22710750.315    92996671.090                  
                 119775044.934                   119775044.934    23001529.781  
                 123524807.597                   123524807.597    23721640.417  
                 113583348.726                   113583348.726    21812486.199  
  26123424.192   137279488.938                                                  
  23491627.565   123449297.797                                                  
  27078903.847   142300568.314                                                  
  23528456.068   123642848.418                                                  
  23827012.848   125211764.798                                                  
  25206169.986   132459299.841                                                  
 21  9  1 10 45 59.0000000  0 18G 1G 3G 6G14G17G19G22G24G30C23C27C28
                                E 1E13E15E21E26E27
  23299168.771   122437918.718    23299171.577    95406159.516                  
  23627881.278   124165326.135    23627883.762    96752194.500                  
  21609229.154   113557225.732    21609232.156    88486139.297                  
  20517603.840   107820747.718    20517604.019    84016172.081                  
  21078460.454   110768071.894    21078459.793    86312786.321                  
  20878385.632   109716679.422    20878383.327    85493522.520                  
  24437830.357   128421689.262    24437827.855   100068855.491                  
  24186157.301   127099081.909    24186159.714    99038237.528                  
  22711379.483   119349060.766    22711381.860    92999257.128                  
                 119777345.188                   119777345.188    23001971.521  
                 123522919.267                   123522919.267    23721277.800  
                 113583773.653                   113583773.653    21812567.807  
  26122983.613   137277173.620                                                  
  23491837.937   123450403.324                                                  
  27079421.423   142303288.216                                                  
  23528362.917   123642359.046                                                  
  23826697.674   125210108.645                                                  
  25206515.323   132461114.659                                                  
 21  9  1 10 46  0.0000000  0 18G 1G 3G 6G14G17G19G22G24G30C23C27C28
                                E 1E13E15E21E26E27
  23299836.108   122441425.519    23299838.913    95408892.090                  
  23627754.747   124164661.257    23627757.231    96751676.413                  
  21608714.848   113554522.946    21608717.832    88484033.235                  
  20517681.588   107821156.175    20517681.731    84016490.360                  
  21078603.639   110768824.245    21078602.978    86313372.567                  
  20878252.562   109715980.140    20878250.239    85492977.629                  
  24438002.560   128422594.126    24438000.059   100069560.578                  
  24185721.494   127096791.757    24185723.924    99036452.992                  
  22712011.064   119352379.753    22712013.440    93001843.348                  
                 119779645.817                   119779645.817    23002413.314  
                 123521031.184                   123521031.184    23720915.202  
                 113584198.856                   113584198.856    21812649.468  
  26122543.035   137274858.355                                                  
  23492048.381   123451509.194                                                  
  27079939.018   142306008.147                                                  
  23528269.855   123641869.977                                                  
  23826382.572   125208452.841                                                  
  25206860.713   132462929.774                                                  
 21  9  1 10 46  1.0000000  0 18G 1G 3G 6G14G17G19G22G24G30C23C27C28
                                E 1E13E15E21E26E27
  23300503.462   122444932.552    23300506.285    95411624.841                  
  23627628.342   124163996.933    23627630.826    96751158.758                  
  21608200.595   113551820.598    21608203.597    88481927.507                  
  20517759.372   107821565.050    20517759.533    84016808.965                  
  21078746.823   110769576.735    21078746.162    86313958.922                  
  20878119.544   109715281.140    20878117.222    85492432.954                  
  24438174.836   128423499.523    24438172.334   100070266.087                  
  24185285.775   127094502.063    24185288.206    99034668.812                  
  22712642.680   119355698.966    22712645.057    93004429.745                  
                 119781946.824                   119781946.824    23002855.215  
                 123519143.363                   123519143.363    23720552.658  
                 113584624.339                   113584624.339    21812731.183  
  26122102.474   137272543.169                                                  
  23492258.878   123452615.387                                                  
  27080456.594   142308728.128                                                  
  23528176.865   123641381.200                                                  
  23826067.559   125206797.375                                                  
  25207206.175   132464745.141                                                  
 21  9  1 10 46  2.0000000  0 18G 1G 3G 6G14G17G19G22G24G30C23C27C28
                                E 1E13E15E21E26E27
  23301170.888   122448439.816    23301173.675    95414357.774                  
  23627502.026   124163333.146    23627504.492    96750641.519                  
  21607686.432   113549118.699    21607689.434    88479822.133                  
  20517837.263   107821974.343    20517837.424    84017127.896                  
  21078890.043   110770329.356    21078889.382    86314545.378                  
  20877986.581   109714582.421    20877984.258    85491888.495                  
  24438347.236   128424405.458    24438344.734   100070972.008                  
  24184850.164   127092212.832    24184852.577    99032885.001                  
  22713274.332   119359018.394    22713276.727    93007016.317                  
                 119784248.211                   119784248.211    23003297.188  
                 123517255.794                   123517255.794    23720190.185  
                 113585050.109                   113585050.109    21812812.934  
  26121661.913   137270228.059                                                  
  23492469.447   123453721.918                                                  
  27080974.206   142311448.142                                                  
  23528083.892   123640892.735                                                  
  23825752.599   125205142.258                                                  
  25207551.673   132466560.781                                                  
 21  9  1 10 46  3.0000000  0 18G 1G 3G 6G14G17G19G22G24G30C23C27C28
                                E 1E13E15E21E26E27
  23301838.332   122451947.312    23301841.137    95417090.886                  
  23627375.799   124162669.893    23627378.283    96750124.704                  
  21607172.376   113546417.237    21607175.378    88477717.098                  
  20517915.243   107822384.048    20517915.404    84017447.144                  
  21079033.299   110771082.107    21079032.620    86315131.937                  
  20877853.671   109713883.970    20877851.366    85491344.247                  
  24438519.744   128425311.927    24438517.242   100071678.347                  
  24184414.625   127089924.047    24184417.037    99031101.528                  
  22713906.056   119362338.068    22713908.432    93009603.073                  
                 119786549.977                   119786549.977    23003739.196  
                 123515368.482                   123515368.482    23719827.747  
                 113585476.156                   113585476.156    21812894.756  
  26121221.388   137267913.008                                                  
  23492680.087   123454828.780                                                  
  27081491.818   142314168.188                                                  
  23527990.991   123640404.583                                                  
  23825437.711   125203487.487                                                  
  25207897.242   132468376.700                                                  
 21  9  1 10 46  4.0000000  0 18G 1G 3G 6G14G17G19G22G24G30C23C27C28
                                E 1E13E15E21E26E27
  23302505.847   122455455.055    23302508.634    95419824.192                  
  23627249.697   124162007.195    23627252.181    96749608.313                  
  21606658.373   113543716.224    21606661.375    88475612.410                  
  20517993.278   107822794.167    20517993.438    84017766.714                  
  21079176.555   110771834.984    21079175.894    86315718.597                  
  20877720.815   109713185.794    20877718.492    85490800.212                  
  24438692.323   128426218.929    24438689.839   100072385.105                  
  24183979.157   127087635.714    24183981.587    99029318.413                  
  22714537.815   119365657.962    22714540.192    93012190.004                  
                 119788852.121                   119788852.121    23004181.293  
                 123513481.425                   123513481.425    23719465.363  
                 113585902.488                   113585902.488    21812976.614  
  26120780.863   137265598.039                                                  
  23492890.762   123455935.980                                                  
  27082009.448   142316888.272                                                  
  23527898.162   123639916.723                                                  
  23825122.877   125201833.066                                                  
  25208242.864   132470192.883                                                  
 21  9  1 10 46  5.0000000  0 18G 1G 3G 6G14G17G19G22G24G30C23C27C28
                                E 1E13E15E21E26E27
  23303173.380   122458963.012    23303176.185    95422557.665                  
  23627123.703   124161345.031    23627126.187    96749092.339                  
  21606144.478   113541015.645    21606147.480    88473508.063                  
  20518071.401   107823204.702    20518071.562    84018086.614                  
  21079319.865   110772587.989    21079319.186    86316305.355                  
  20877587.995   109712487.888    20877585.672    85490256.392                  
  24438865.027   128427126.469    24438862.543   100073092.274                  
  24183543.778   127085347.837    24183546.226    99027535.651                  
  22715169.592   119368978.073    22715172.004    93014777.106                  
                 119791154.646                   119791154.646    23004623.480  
                 123511594.622                   123511594.622    23719103.015  
                 113586329.098                   113586329.098    21813058.561  
  26120340.338   137263283.129                                                  
  23493101.528   123457043.517                                                  
  27082527.060   142319608.385                                                  
  23527805.404   123639429.164                                                  
  23824808.114   125200178.982                                                  
  25208588.523   132472009.348                                                  
 21  9  1 10 46  6.0000000  0 18G 1G 3G 6G14G17G19G22G24G30C23C27C28
                                E 1E13E15E21E26E27
  23303840.967   122462471.216    23303843.772    95425291.328                  
  23626997.798   124160683.439    23627000.281    96748576.813                  
  21605630.654   113538315.501    21605633.656    88471404.055                  
  20518149.596   107823615.651    20518149.757    84018406.836                  
  21079463.174   110773341.136    21079462.495    86316892.222                  
  20877455.264   109711790.267    20877452.941    85489712.793                  
  24439037.820   128428034.543    24439035.336   100073799.864                  
  24183108.506   127083060.411    24183110.919    99025753.241                  
  22715801.441   119372298.419    22715803.835    93017364.384                  
                 119793457.543                   119793457.543    23005065.721  
                 123509708.077                   123509708.077    23718740.721  
                 113586755.988                   113586755.988    21813140.545  
  26119899.849   137260968.293                                                  
  23493312.346   123458151.391                                                  
  27083044.672   142322328.557                                                  
  23527712.663   123638941.919                                                  
  23824493.423   125198525.259                                                  
  25208934.217   132473826.082                                                  
 21  9  1 10 46  7.0000000  0 18G 1G 3G 6G14G17G19G22G24G30C23C27C28
                                E 1E13E15E21E26E27
  23304508.607   122465979.651    23304511.412    95428025.176                  
  23626872.000   124160022.375    23626874.483    96748061.700                  
  21605116.920   113535615.805    21605119.940    88469300.394                  
  20518227.880   107824027.011    20518228.041    84018727.374                  
  21079606.520   110774094.409    21079605.841    86317479.188                  
  20877322.568   109711092.933    20877320.245    85489169.419                  
  24439210.739   128428943.151    24439208.237   100074507.875                  
  24182673.306   127080773.433    24182675.737    99023971.179                  
  22716433.343   119375618.979    22716435.720    93019951.836                  
                 119795760.821                   119795760.821    23005508.033  
                 123507821.785                   123507821.785    23718378.480  
                 113587183.160                   113587183.160    21813222.563  
  26119459.359   137258653.521                                                  
  23493523.236   123459259.606                                                  
  27083562.319   142325048.776                                                  
  23527619.995   123638454.980                                                  
  23824178.803   125196871.870                                                  
  25209280.000   132475643.078                                                  
 21  9  1 10 46  8.0000000  0 18G 1G 3G 6G14G17G19G22G24G30C23C27C28
                                E 1E13E15E21E26E27
  23305176.283   122469488.309    23305179.088    95430759.191                  
  23626746.291   124159361.848    23626748.775    96747547.004                  
  21604603.275   113532916.556    21604606.277    88467197.087                  
  20518306.236   107824438.796    20518306.396    84019048.246                  
  21079749.883   110774847.793    21079749.222    86318066.243                  
  20877189.909   109710395.823    20877187.586    85488626.211                  
  24439383.747   128429852.284    24439381.245   100075216.290                  
  24182238.196   127078486.938    24182240.626    99022189.496                  
  22717065.263   119378939.798    22717067.640    93022539.489                  
                 119798064.477                   119798064.477    23005950.434  
                 123505935.755                   123505935.755    23718016.275  
                 113587610.614                   113587610.614    21813304.654  
  26119018.906   137256338.848                                                  
  23493734.180   123460368.121                                                  
  27084079.967   142327768.966                                                  
  23527527.397   123637968.331                                                  
  23823864.237   125195218.813                                                  
  25209625.802   132477460.359                                                  
