     2.11           OBSERVATION DATA    M (MIXED)           RINEX VERSION / TYPE
CONVBIN 2.4.3                           20210902 201812 UTC PGM / RUN BY / DATE 
log: logs/21_09_01_11_42_59_fmyr_SW.rtcm                    COMMENT             
format: RTCM 3, station ID: 3060                            COMMENT             
3060                                                        MARKER NAME         
                                                            MARKER NUMBER       
                                                            OBSERVER / AGENCY   
                    SWFT                                    REC # / TYPE / VERS 
                    NULL                                    ANT # / TYPE        
   813911.2619 -5693305.6189  2748430.1503                  APPROX POSITION XYZ 
        0.0000        0.0000        0.0000                  ANTENNA: DELTA H/E/N
     1     1                                                WAVELENGTH FACT L1/2
     5    C1    L1    P2    L2    C2                        # / TYPES OF OBSERV 
  2021     9     1    11    43    4.0000000     GPS         TIME OF FIRST OBS   
  2021     9     1    12    13    2.0000000     GPS         TIME OF LAST OBS    
                                                            END OF HEADER       
 21  9  1 11 43  4.0000000  0 12G 2G 6G14G17G19G24G30C23C27C28C33E13
  22805893.356   119845796.007    22805891.533    93386339.216                  
  20552441.412   108003771.317    20552444.253    84158772.884                  
  20764457.995   109117970.281    20764458.460    85026993.671                  
  21769051.840   114397149.887    21769051.446    89140638.297                  
  21123120.057   111002765.234    21123117.877    86495666.773                  
  24111481.332   126706649.468    24111484.245    98732444.059                  
  24330041.766   127855173.867    24330045.053    99627393.508                  
                 126145514.762                   126145514.762    24224912.907  
                 121638146.699                   121638146.699    23359326.606  
                 117766403.980                   117766403.980    22615798.687  
                 129253083.505                   129253083.505    24821730.001  
  24661083.446   129594826.561                                                  
 21  9  1 11 43  5.0000000  0 12G 2G 6G14G17G19G24G30C23C27C28C33E13
  22805529.239   119843882.594    22805527.416    93384848.247                  
  20552333.412   108003203.780    20552336.289    84158330.647                  
  20764727.085   109119384.289    20764727.532    85028095.493                  
  21769148.600   114397658.309    21769148.207    89141034.468                  
  21123061.929   111002459.770    21123059.766    86495428.749                  
  24111359.519   126706009.303    24111362.414    98731945.231                  
  24330659.319   127858419.176    24330662.625    99629922.315                  
                 126148491.489                   126148491.489    24225484.537  
                 121637201.517                   121637201.517    23359145.092  
                 117767239.595                   117767239.595    22615959.168  
                 129251773.952                   129251773.952    24821478.512  
  24661434.679   129596672.335                                                  
 21  9  1 11 43  6.0000000  0 12G 2G 6G14G17G19G24G30C23C27C28C33E13
  22805165.193   119841969.572    22805163.388    93383357.575                  
  20552225.519   108002636.756    20552228.360    84157888.809                  
  20764996.264   109120798.820    20764996.728    85029197.722                  
  21769245.343   114398166.755    21769244.968    89141430.657                  
  21123003.819   111002154.411    21123001.639    86495190.810                  
  24111237.813   126705369.685    24111240.708    98731446.825                  
  24331276.855   127861664.395    24331280.160    99632451.059                  
                 126151468.390                   126151468.390    24226056.221  
                 121636256.456                   121636256.456    23358963.597  
                 117768075.262                   117768075.262    22616119.632  
                 129250464.745                   129250464.745    24821227.095  
  24661785.949   129598518.165                                                  
 21  9  1 11 43  7.0000000  0 12G 2G 6G14G17G19G24G30C23C27C28C33E13
  22804801.237   119840056.919    22804799.414    93381867.199                  
  20552117.715   108002070.255    20552120.556    84157447.379                  
  20765265.514   109122213.866    20765265.979    85030300.358                  
  21769342.104   114398675.216    21769341.693    89141826.863                  
  21122945.744   111001849.164    21122943.564    86494952.952                  
  24111116.196   126704730.594    24111119.073    98730948.832                  
  24331894.408   127864909.531    24331897.696    99634979.734                  
                 126154445.465                   126154445.465    24226627.940  
                 121635311.532                   121635311.532    23358782.137  
                 117768910.982                   117768910.982    22616280.114  
                 129249155.879                   129249155.879    24820975.731  
  24662137.182   129600364.039                                                  
 21  9  1 11 43  8.0000000  0 12G 2G 6G14G17G19G24G30C23C27C28C33E13
  22804437.352   119838144.668    22804435.547    93380377.138                  
  20552010.000   108001504.188    20552012.842    84157006.288                  
  20765534.908   109123629.441    20765535.354    85031403.406                  
  21769438.865   114399183.688    21769438.454    89142223.077                  
  21122887.652   111001544.034    21122885.508    86494715.191                  
  24110994.687   126704092.017    24110997.564    98730451.237                  
  24332511.908   127868154.564    24332515.196    99637508.332                  
                 126157422.715                   126157422.715    24227199.695  
                 121634366.727                   121634366.727    23358600.695  
                 117769746.754                   117769746.754    22616440.614  
                 129247847.364                   129247847.364    24820724.457  
  24662488.487   129602210.042                                                  
 21  9  1 11 43  9.0000000  0 12G 2G 6G14G17G19G24G30C23C27C28C33E13
  22804073.539   119836232.781    22804071.716    93378887.355                  
  20551902.375   108000938.656    20551905.234    84156565.618                  
  20765804.372   109125045.530    20765804.837    85032506.852                  
  21769535.625   114399692.187    21769535.232    89142619.308                  
  21122829.613   111001239.016    21122827.451    86494477.512                  
  24110873.267   126703453.980    24110876.162    98729954.070                  
  24333129.408   127871399.500    24333132.696    99640036.856                  
                 126160400.139                   126160400.139    24227771.486  
                 121633422.050                   121633422.050    23358419.288  
                 117770582.578                   117770582.578    22616601.149  
                 129246539.187                   129246539.187    24820473.237  
  24662839.756   129604056.050                                                  
 21  9  1 11 43 10.0000000  0 12G 2G 6G14G17G19G24G30C23C27C28C33E13
  22803709.779   119834321.281    22803707.956    93377397.875                  
  20551794.857   108000373.636    20551797.716    84156125.341                  
  20766073.945   109126462.141    20766074.391    85033610.700                  
  21769632.404   114400200.707    21769631.993    89143015.559                  
  21122771.593   111000934.106    21122769.448    86494239.918                  
  24110751.954   126702816.474    24110754.831    98729457.308                  
  24333746.872   127874644.343    24333750.160    99642565.300                  
                 126163377.741                   126163377.741    24228343.295  
                 121632477.499                   121632477.499    23358237.900  
                 117771418.458                   117771418.458    22616761.666  
                 129245231.356                   129245231.356    24820222.087  
  24663191.061   129605902.138                                                  
 21  9  1 11 43 11.0000000  0 12G 2G 6G14G17G19G24G30C23C27C28C33E13
  22803346.127   119832410.160    22803344.286    93375908.688                  
  20551687.447   107999809.110    20551690.288    84155685.450                  
  20766343.624   109127879.253    20766344.088    85034714.946                  
  21769729.165   114400709.238    21769728.772    89143411.817                  
  21122713.608   111000629.296    21122711.428    86494002.411                  
  24110630.749   126702179.499    24110633.643    98728960.968                  
  24334364.318   127877889.095    24334367.624    99645093.676                  
                 126166355.514                   126166355.514    24228915.139  
                 121631533.075                   121631533.075    23358056.547  
                 117772254.387                   117772254.387    22616922.202  
                 129243923.867                   129243923.867    24819970.974  
  24663542.366   129607748.276                                                  
 21  9  1 11 43 12.0000000  0 12G 2G 6G14G17G19G24G30C23C27C28C33E13
  22802982.492   119830499.417    22802980.687    93374419.797                  
  20551580.125   107999245.089    20551582.967    84155245.953                  
  20766613.375   109129296.891    20766613.839    85035819.599                  
  21769825.943   114401217.792    21769825.533    89143808.093                  
  21122655.623   111000324.601    21122653.443    86493764.981                  
  24110509.615   126701543.047    24110512.527    98728465.031                  
  24334981.764   127881133.738    24334985.052    99647621.969                  
                 126169333.465                   126169333.465    24229487.037  
                 121630588.779                   121630588.779    23357875.177  
                 117773090.371                   117773090.371    22617082.737  
                 129242616.728                   129242616.728    24819719.968  
  24663893.671   129609594.487                                                  
 21  9  1 11 43 13.0000000  0 13G 2G 3G 6G14G17G19G24G30C23C27C28C33
                                E13
  22802618.982   119828589.059    22802617.160    93372931.206                  
  23724590.753   124673529.774    23724593.755    97148195.332                  
  20551472.875   107998681.569    20551475.717    84154806.847                  
  20766883.233   109130715.046    20766883.715    85036924.652                  
  21769922.722   114401726.367    21769922.311    89144204.383                  
  21122597.656   111000020.017    21122595.476    86493527.645                  
  24110388.623   126700907.140    24110391.500    98727969.519                  
  24335599.175   127884378.296    24335602.480    99650150.199                  
                 126172311.590                   126172311.590    24230058.953  
                 121629644.605                   121629644.605    23357693.878  
                 117773926.405                   117773926.405    22617243.272  
                 129241309.929                   129241309.929    24819468.997  
  24664245.012   129611440.754                                                  
 21  9  1 11 43 14.0000000  0 13G 2G 3G 6G14G17G19G24G30C23C27C28C33
                                E13
  22802255.526   119826679.079    22802253.704    93371442.911                  
  23724950.099   124675418.103    23724953.101    97149666.758                  
  20551365.733   107998118.554    20551368.574    84154368.134                  
  20767153.216   109132133.722    20767153.680    85038030.116                  
  21770019.501   114402234.960    21770019.108    89144600.687                  
  21122539.724   110999715.547    21122537.544    86493290.394                  
  24110267.704   126700271.758    24110270.599    98727474.415                  
  24336216.585   127887622.754    24336219.873    99652678.348                  
                 126175289.887                   126175289.887    24230630.905  
                 121628700.562                   121628700.562    23357512.578  
                 117774762.497                   117774762.497    22617403.861  
                 129240003.473                   129240003.473    24819218.116  
  24664596.353   129613287.088                                                  
 21  9  1 11 43 15.0000000  0 13G 2G 3G 6G14G17G19G24G30C23C27C28C33
                                E13
  22801892.142   119824769.472    22801890.319    93369954.907                  
  23725309.535   124677306.969    23725312.537    97151138.602                  
  20551258.697   107997556.046    20551261.539    84153929.816                  
  20767423.288   109133552.918    20767423.735    85039135.983                  
  21770116.279   114402743.570    21770115.904    89144997.011                  
  21122481.793   110999411.192    21122479.649    86493053.234                  
  24110146.891   126699636.905    24110149.786    98726979.726                  
  24336833.960   127890867.124    24336837.266    99655206.426                  
                 126178268.358                   126178268.358    24231202.875  
                 121627756.644                   121627756.644    23357331.297  
                 117775598.635                   117775598.635    22617564.414  
                 129238697.366                   129238697.366    24818967.289  
  24664947.711   129615133.476                                                  
 21  9  1 11 43 16.0000000  0 13G 2G 3G 6G14G17G19G24G30C23C27C28C33
                                E13
  22801528.811   119822860.215    22801527.006    93368467.153                  
  23725669.077   124679196.355    23725672.079    97152610.853                  
  20551151.733   107996994.035    20551154.592    84153491.890                  
  20767693.432   109134972.634    20767693.897    85040242.253                  
  21770213.076   114403252.198    21770212.683    89145393.340                  
  21122423.897   110999106.922    21122421.735    86492816.136                  
  24110026.204   126699002.565    24110029.081    98726485.433                  
  24337451.335   127894111.409    24337454.623    99657734.450                  
                 126181247.004                   126181247.004    24231774.898  
                 121626812.851                   121626812.851    23357150.052  
                 117776434.829                   117776434.829    22617725.003  
                 129237391.602                   129237391.602    24818716.533  
  24665299.088   129616979.913                                                  
 21  9  1 11 43 17.0000000  0 13G 2G 3G 6G14G17G19G24G30C23C27C28C33
                                E13
  22801165.587   119820951.368    22801163.765    93366979.743                  
  23726028.727   124681086.286    23726031.711    97154083.520                  
  20551044.895   107996432.517    20551047.736    84153054.343                  
  20767963.701   109136392.851    20767964.166    85041348.923                  
  21770309.872   114403760.844    21770309.479    89145789.692                  
  21122366.020   110998802.781    21122363.857    86492579.145                  
  24109905.588   126698368.786    24109908.483    98725991.579                  
  24338068.674   127897355.586    24338071.979    99660262.379                  
                 126184225.824                   126184225.824    24232346.957  
                 121625869.183                   121625869.183    23356968.842  
                 117777271.075                   117777271.075    22617885.592  
                 129236086.184                   129236086.184    24818465.848  
  24665650.464   129618826.423                                                  
 21  9  1 11 43 18.0000000  0 13G 2G 3G 6G14G17G19G24G30C23C27C28C33
                                E13
  22800802.417   119819042.917    22800800.595    93365492.633                  
  23726388.466   124682976.761    23726391.486    97155556.616                  
  20550938.145   107995871.509    20550940.986    84152617.192                  
  20768234.059   109137813.594    20768234.524    85042455.988                  
  21770406.669   114404269.513    21770406.276    89146186.051                  
  21122308.177   110998498.743    21122305.997    86492342.226                  
  24109785.079   126697735.526    24109787.974    98725498.125                  
  24338685.995   127900599.660    24338689.301    99662790.222                  
                 126187204.821                   126187204.821    24232919.033  
                 121624925.643                   121624925.643    23356787.632  
                 117778107.374                   117778107.374    22618046.199  
                 129234781.109                   129234781.109    24818215.217  
  24666001.859   129620672.984                                                  
 21  9  1 11 43 19.0000000  0 13G 2G 3G 6G14G17G19G24G30C23C27C28C33
                                E13
  22800439.319   119817134.836    22800437.496    93364005.817                  
  23726748.313   124684867.778    23726751.315    97157030.132                  
  20550831.485   107995311.000    20550834.326    84152180.429                  
  20768504.525   109139234.864    20768504.972    85043563.469                  
  21770503.465   114404778.197    21770503.072    89146582.425                  
  21122250.335   110998194.825    21122248.155    86492105.406                  
  24109664.678   126697102.809    24109667.555    98725005.095                  
  24339303.316   127903843.648    24339306.622    99665318.003                  
                 126190183.988                   126190183.988    24233491.164  
                 121623982.232                   121623982.232    23356606.476  
                 117778943.727                   117778943.727    22618206.824  
                 129233476.378                   129233476.378    24817964.658  
  24666353.253   129622519.614                                                  
 21  9  1 11 43 20.0000000  0 13G 2G 3G 6G14G17G19G24G30C23C27C28C33
                                E13
  22800076.292   119815227.136    22800074.487    93362519.298                  
  23727108.266   124686759.323    23727111.268    97158504.063                  
  20550724.914   107994750.996    20550727.755    84151744.062                  
  20768775.080   109140656.637    20768775.544    85044671.344                  
  21770600.262   114405286.901    21770599.887    89146978.820                  
  21122192.511   110997891.013    21122190.367    86491868.667                  
  24109544.384   126696470.603    24109547.260    98724512.469                  
  24339920.619   127907087.534    24339923.907    99667845.707                  
                 126193163.331                   126193163.331    24234063.312  
                 121623038.942                   121623038.942    23356425.320  
                 117779780.130                   117779780.130    22618367.448  
                 129232171.992                   129232171.992    24817714.152  
  24666704.683   129624366.298                                                  
 21  9  1 11 43 21.0000000  0 13G 2G 3G 6G14G17G19G24G30C23C27C28C33
                                E13
  22799713.336   119813319.824    22799711.514    93361033.083                  
  23727468.327   124688651.403    23727471.311    97159978.411                  
  20550618.432   107994191.487    20550621.274    84151308.082                  
  20769045.724   109142078.947    20769046.206    85045779.633                  
  21770697.076   114405795.632    21770696.683    89147375.232                  
  21122134.741   110997587.312    21122132.561    86491632.020                  
  24109424.179   126695838.937    24109427.056    98724020.261                  
  24340537.887   127910331.335    24340541.175    99670373.344                  
                 126196142.849                   126196142.849    24234635.496  
                 121622095.783                   121622095.783    23356244.199  
                 117780616.583                   117780616.583    22618528.055  
                 129230867.952                   129230867.952    24817463.736  
  24667056.095   129626213.052                                                  
 21  9  1 11 43 22.0000000  0 13G 2G 3G 6G14G17G19G24G30C23C27C28C33
                                E13
  22799350.488   119811412.899    22799348.647    93359547.165                  
  23727828.477   124690544.034    23727831.479    97161453.189                  
  20550512.058   107993632.489    20550514.917    84150872.497                  
  20769316.475   109143501.755    20769316.940    85046888.317                  
  21770793.873   114406304.374    21770793.497    89147771.657                  
  21122076.952   110997283.723    21122074.808    86491395.457                  
  24109304.081   126695207.801    24109306.958    98723528.469                  
  24341155.136   127913575.048    24341158.442    99672900.906                  
                 126199122.539                   126199122.539    24235207.716  
                 121621152.746                   121621152.746    23356063.097  
                 117781453.093                   117781453.093    22618688.697  
                 129229564.259                   129229564.259    24817213.373  
  24667407.543   129628059.853                                                  
 21  9  1 11 43 23.0000000  0 13G 2G 3G 6G14G17G19G24G30C23C27C28C33
                                E13
  22798987.657   119809506.347    22798985.835    93358061.540                  
  23728188.717   124692437.188    23728191.736    97162928.371                  
  20550405.773   107993073.982    20550408.632    84150437.296                  
  20769587.334   109144925.086    20769587.799    85047997.406                  
  21770890.705   114406813.137    21770890.294    89148168.093                  
  21122019.218   110996980.251    21122017.038    86491158.985                  
  24109184.073   126694577.194    24109186.967    98723037.085                  
  24341772.386   127916818.644    24341775.674    99675428.387                  
                 126202102.403                   126202102.403    24235779.953  
                 121620209.837                   121620209.837    23355882.012  
                 117782289.653                   117782289.653    22618849.358  
                 129228260.911                   129228260.911    24816963.081  
  24667758.973   129629906.721                                                  
 21  9  1 11 43 24.0000000  0 13G 2G 3G 6G14G17G19G24G30C23C27C28C33
                                E13
  22798624.934   119807600.176    22798623.094    93356576.214                  
  23728549.081   124694330.884    23728552.101    97164403.981                  
  20550299.595   107992515.988    20550302.437    84150002.500                  
  20769858.282   109146348.945    20769858.747    85049106.911                  
  21770987.519   114407321.923    21770987.126    89148564.548                  
  21121961.483   110996676.867    21121959.303    86490922.582                  
  24109064.171   126693947.124    24109067.066    98722546.121                  
  24342389.600   127920062.169    24342392.906    99677955.809                  
                 126205082.438                   126205082.438    24236352.262  
                 121619267.050                   121619267.050    23355700.963  
                 117783126.266                   117783126.266    22619010.018  
                 129226957.907                   129226957.907    24816712.844  
  24668110.439   129631753.657                                                  
 21  9  1 11 43 25.0000000  0 13G 2G 3G 6G14G17G19G24G30C23C27C28C33
                                E13
  22798262.282   119805694.390    22798260.442    93355091.184                  
  23728909.535   124696225.117    23728912.555    97165880.005                  
  20550193.525   107991958.489    20550196.366    84149568.086                  
  20770129.337   109147773.320    20770129.802    85050216.809                  
  21771084.334   114407830.718    21771083.941    89148961.011                  
  21121903.784   110996373.610    21121901.604    86490686.277                  
  24108944.377   126693317.585    24108947.254    98722055.574                  
  24343006.796   127923305.582    24343010.102    99680483.140                  
                 126208062.648                   126208062.648    24236924.571  
                 121618324.394                   121618324.394    23355519.932  
                 117783962.931                   117783962.931    22619170.696  
                 129225655.245                   129225655.245    24816462.677  
  24668461.923   129633600.643                                                  
 21  9  1 11 43 26.0000000  0 13G 2G 3G 6G14G17G19G24G30C23C27C28C33
                                E13
  22797899.684   119803788.973    22797897.861    93353606.446                  
  23729270.114   124698119.891    23729273.116    97167356.449                  
  20550087.526   107991401.484    20550090.367    84149134.055                  
  20770400.482   109149198.212    20770400.946    85051327.114                  
  21771181.166   114408339.540    21771180.773    89149357.496                  
  21121846.085   110996070.458    21121843.922    86490450.055                  
  24108824.673   126692688.563    24108827.568    98721565.426                  
  24343623.974   127926548.905    24343627.280    99683010.407                  
                 126211043.036                   126211043.036    24237496.916  
                 121617381.860                   121617381.860    23355338.937  
                 117784799.648                   117784799.648    22619331.375  
                 129224352.933                   129224352.933    24816212.582  
  24668813.406   129635447.700                                                  
 21  9  1 11 43 27.0000000  0 13G 2G 3G 6G14G17G19G24G30C23C27C28C33
                                E13
  22797537.157   119801883.938    22797535.335    93352122.001                  
  23729630.782   124700015.186    23729633.784    97168833.305                  
  20549981.616   107990844.995    20549984.457    84148700.426                  
  20770671.716   109150623.617    20770672.180    85052437.820                  
  21771277.998   114408848.376    21771277.605    89149753.992                  
  21121788.421   110995767.417    21121786.241    86490213.922                  
  24108705.076   126692060.098    24108707.988    98721075.711                  
  24344241.152   127929792.122    24344244.458    99685537.586                  
                 126214023.589                   126214023.589    24238069.297  
                 121616439.454                   121616439.454    23355157.959  
                 117785636.417                   117785636.417    22619492.089  
                 129223050.964                   129223050.964    24815962.559  
  24669164.908   129637294.812                                                  
 21  9  1 11 43 28.0000000  0 13G 2G 3G 6G14G17G19G24G30C23C27C28C33
                                E13
  22797174.720   119799979.290    22797172.897    93350637.859                  
  23729991.540   124701911.034    23729994.542    97170310.589                  
  20549875.814   107990288.999    20549878.655    84148267.184                  
  20770943.075   109152049.542    20770943.539    85053548.930                  
  21771374.813   114409357.230    21771374.437    89150150.503                  
  21121730.776   110995464.491    21121728.596    86489977.876                  
  24108585.585   126691432.132    24108588.480    98720586.391                  
  24344858.295   127933035.254    24344861.601    99688064.702                  
                 126217004.319                   126217004.319    24238641.713  
                 121615497.177                   121615497.177    23354977.000  
                 117786473.239                   117786473.239    22619652.785  
                 129221749.343                   129221749.343    24815712.607  
  24669516.392   129639141.988                                                  
 21  9  1 11 43 29.0000000  0 13G 2G 3G 6G14G17G19G24G30C23C27C28C33
                                E13
  22796812.354   119798075.021    22796810.531    93349154.016                  
  23730352.423   124703807.409    23730355.425    97171788.282                  
  20549770.118   107989733.508    20549772.960    84147834.336                  
  20771214.523   109153475.983    20771214.988    85054660.445                  
  21771471.663   114409866.111    21771471.287    89150547.031                  
  21121673.166   110995161.677    21121670.986    86489741.914                  
  24108466.202   126690804.714    24108469.079    98720097.493                  
  24345475.419   127936278.286    24345478.725    99690591.738                  
                 126219985.227                   126219985.227    24239214.183  
                 121614555.021                   121614555.021    23354796.076  
                 117787310.113                   117787310.113    22619813.481  
                 129220448.069                   129220448.069    24815462.709  
  24669867.911   129640989.223                                                  
 21  9  1 11 43 30.0000000  0 13G 2G 3G 6G14G17G19G24G30C23C27C28C33
                                E13
  22796450.060   119796171.136    22796448.237    93347670.469                  
  23730713.377   124705704.325    23730716.379    97173266.398                  
  20549664.495   107989178.516    20549667.336    84147401.870                  
  20771486.061   109154902.950    20771486.525    85055772.362                  
  21771568.495   114410375.011    21771568.120    89150943.577                  
  21121615.538   110994858.968    21121613.376    86489506.039                  
  24108346.909   126690177.831    24108349.786    98719609.012                  
  24346092.544   127939521.218    24346095.832    99693118.700                  
                 126222966.301                   126222966.301    24239786.653  
                 121613612.993                   121613612.993    23354615.152  
                 117788147.040                   117788147.040    22619974.213  
                 129219147.138                   129219147.138    24815212.864  
  24670219.466   129642836.526                                                  
 21  9  1 11 43 31.0000000  0 13G 2G 3G 6G14G17G19G24G30C23C27C28C33
                                E13
  22796087.837   119794267.633    22796085.996    93346187.222                  
  23731074.457   124707601.780    23731077.459    97174744.934                  
  20549558.978   107988624.029    20549561.837    84146969.804                  
  20771757.705   109156330.421    20771758.152    85056884.684                  
  21771665.345   114410883.921    21771664.952    89151340.133                  
  21121557.964   110994556.382    21121555.802    86489270.258                  
  24108227.705   126689551.470    24108230.599    98719120.939                  
  24346709.633   127942764.059    24346712.939    99695645.585                  
                 126225947.552                   126225947.552    24240359.176  
                 121612671.087                   121612671.087    23354434.282  
                 117788984.018                   117788984.018    22620134.945  
                 129217846.556                   129217846.556    24814963.109  
  24670571.004   129644683.882                                                  
 21  9  1 11 43 32.0000000  0 13G 2G 3G 6G14G17G19G24G30C23C27C28C33
                                E13
  22795725.685   119792364.508    22795723.862    93344704.265                  
  23731435.643   124709499.773    23731438.645    97176223.887                  
  20549453.569   107988070.043    20549456.428    84146538.125                  
  20772029.440   109157758.420    20772029.904    85057997.407                  
  21771762.195   114411392.851    21771761.802    89151736.699                  
  21121500.408   110994253.899    21121498.246    86489034.555                  
  24108108.625   126688925.640    24108111.502    98718633.277                  
  24347326.704   127946006.792    24347329.992    99698172.390                  
                 126228928.971                   126228928.971    24240931.736  
                 121611729.309                   121611729.309    23354253.412  
                 117789821.049                   117789821.049    22620295.677  
                 129216546.314                   129216546.314    24814713.407  
  24670922.541   129646531.293                                                  
 21  9  1 11 43 33.0000000  0 13G 2G 3G 6G14G17G19G24G30C23C27C28C33
                                E13
  22795363.605   119790461.762    22795361.782    93343221.610                  
  23731796.901   124711398.285    23731799.921    97177703.249                  
  20549348.249   107987516.559    20549351.072    84146106.839                  
  20772301.281   109159186.933    20772301.746    85059110.536                  
  21771859.045   114411901.814    21771858.652    89152133.293                  
  21121442.852   110993951.528    21121440.708    86488798.941                  
  24107989.618   126688300.344    24107992.513    98718146.036                  
  24347943.757   127949249.446    24347947.063    99700699.133                  
                 126231910.565                   126231910.565    24241504.313  
                 121610787.660                   121610787.660    23354072.577  
                 117790658.133                   117790658.133    22620456.444  
                 129215246.423                   129215246.423    24814463.777  
  24671274.096   129648378.778                                                  
 21  9  1 11 43 34.0000000  0 13G 2G 3G 6G14G17G19G24G30C23C27C28C33
                                E13
  22795001.597   119788559.397    22794999.756    93341739.246                  
  23732158.284   124713297.351    23732161.304    97179183.039                  
  20549243.018   107986963.571    20549245.859    84145675.941                  
  20772573.194   109160615.960    20772573.659    85060224.063                  
  21771955.895   114412410.785    21771955.502    89152529.894                  
  21121385.332   110993649.271    21121383.188    86488563.414                  
  24107870.735   126687675.562    24107873.612    98717659.192                  
  24348560.792   127952491.985    24348564.098    99703225.789                  
                 126234892.337                   126234892.337    24242076.943  
                 121609846.132                   121609846.132    23353891.778  
                 117791495.266                   117791495.266    22620617.194  
                 129213946.876                   129213946.876    24814214.218  
  24671625.687   129650226.315                                                  
 21  9  1 11 43 35.0000000  0 13G 2G 3G 6G14G17G19G24G30C23C27C28C33
                                E13
  22794639.659   119786657.423    22794637.837    93340257.188                  
  23732519.757   124715196.943    23732522.777    97180663.238                  
  20549137.877   107986411.091    20549140.718    84145245.437                  
  20772845.232   109162045.509    20772845.697    85061337.993                  
  21772052.763   114412919.786    21772052.352    89152926.521                  
  21121327.865   110993347.122    21121325.685    86488327.976                  
  24107751.942   126687051.329    24107754.837    98717172.777                  
  24349177.827   127955734.439    24349181.115    99705752.374                  
                 126237874.277                   126237874.277    24242649.574  
                 121608904.729                   121608904.729    23353710.997  
                 117792332.454                   117792332.454    22620777.979  
                 129212647.675                   129212647.675    24813964.713  
  24671977.260   129652073.915                                                  
 21  9  1 11 43 36.0000000  0 13G 2G 3G 6G14G17G19G24G30C23C27C28C33
                                E13
  22794277.794   119784755.821    22794275.953    93338775.423                  
  23732881.354   124717097.077    23732884.356    97182143.862                  
  20549032.843   107985859.109    20549035.684    84144815.324                  
  20773117.377   109163475.574    20773117.842    85062452.329                  
  21772149.613   114413428.798    21772149.220    89153323.151                  
  21121270.380   110993045.074    21121268.200    86488092.613                  
  24107633.256   126686427.629    24107636.133    98716686.777                  
  24349794.827   127958976.796    24349798.115    99708278.886                  
                 126240856.392                   126240856.392    24243222.276  
                 121607963.457                   121607963.457    23353530.234  
                 117793169.692                   117793169.692    22620938.765  
                 129211348.820                   129211348.820    24813715.279  
  24672328.869   129653921.567                                                  
 21  9  1 11 43 37.0000000  0 13G 2G 3G 6G14G17G19G24G30C23C27C28C33
                                E13
  22793916.000   119782854.606    22793914.177    93337293.957                  
  23733243.041   124718997.746    23733246.043    97183624.905                  
  20548927.898   107985307.621    20548930.739    84144385.593                  
  20773389.594   109164906.159    20773390.059    85063567.071                  
  21772246.481   114413937.831    21772246.106    89153719.800                  
  21121212.914   110992743.145    21121210.734    86487857.344                  
  24107514.677   126685804.449    24107517.554    98716201.185                  
  24350411.808   127962219.048    24350415.096    99710805.311                  
                 126243838.675                   126243838.675    24243794.978  
                 121607022.308                   121607022.308    23353349.507  
                 117794006.984                   117794006.984    22621099.568  
                 129210050.314                   129210050.314    24813465.917  
  24672680.477   129655769.289                                                  
 21  9  1 11 43 38.0000000  0 13G 2G 3G 6G14G17G19G24G30C23C27C28C33
                                E13
  22793554.277   119780953.762    22793552.455    93335812.781                  
  23733604.817   124720898.937    23733607.819    97185106.351                  
  20548823.042   107984756.646    20548825.901    84143956.262                  
  20773661.936   109166337.254    20773662.400    85064682.212                  
  21772343.367   114414446.887    21772342.956    89154116.470                  
  21121155.483   110992441.320    21121153.320    86487622.155                  
  24107396.187   126685181.809    24107399.082    98715716.008                  
  24351028.754   127965461.202    24351032.060    99713331.673                  
                 126246821.133                   126246821.133    24244367.734  
                 121606081.286                   121606081.286    23353168.780  
                 117794844.324                   117794844.324    22621260.354  
                 129208752.148                   129208752.148    24813216.626  
  24673032.104   129657617.061                                                  
 21  9  1 11 43 39.0000000  0 13G 2G 3G 6G14G17G19G24G30C23C27C28C33
                                E13
  22793192.644   119779053.304    22793190.821    93334331.903                  
  23733966.719   124722800.683    23733969.721    97186588.235                  
  20548718.294   107984206.167    20548721.135    84143527.317                  
  20773934.367   109167768.877    20773934.814    85065797.763                  
  21772440.235   114414955.964    21772439.842    89154513.153                  
  21121098.052   110992139.608    21121095.907    86487387.058                  
  24107277.805   126684559.694    24107280.700    98715231.246                  
  24351645.700   127968703.266    24351649.006    99715857.954                  
                 126249803.762                   126249803.762    24244940.526  
                 121605140.386                   121605140.386    23352988.088  
                 117795681.718                   117795681.718    22621421.157  
                 129207454.337                   129207454.337    24812967.371  
  24673383.713   129659464.901                                                  
 21  9  1 11 43 40.0000000  0 18G 2G 3G 6G14G17G19G24G30C23C27C28C33
                                E 1E13E21E26E27E33
  22792831.064   119777153.222    22792829.242    93332851.320                  
  23734328.692   124724702.953    23734331.711    97188070.519                  
  20548613.635   107983656.195    20548616.476    84143098.765                  
  20774206.887   109169201.014    20774207.352    85066913.711                  
  21772537.121   114415465.062    21772536.728    89154909.852                  
  21121040.674   110991838.020    21121038.494    86487152.050                  
  24107159.512   126683938.117    24107162.407    98714746.899                  
  24352262.646   127971945.242    24352265.934    99718384.164                  
                 126252786.563                   126252786.563    24245513.335  
                 121604199.614                   121604199.614    23352807.415  
                 117796519.165                   117796519.165    22621581.996  
                 129206156.866                   129206156.866    24812718.224  
  25392551.687   133438725.602                                                  
  24673735.357   129661312.797                                                  
  23456302.866   123263679.030                                                  
  23423240.456   123089929.937                                                  
  25870143.175   135948494.573                                                  
  26985622.455   141810418.262                                                  
 21  9  1 11 43 41.0000000  0 18G 2G 3G 6G14G17G19G24G30C23C27C28C33
                                E 1E13E21E26E27E33
  22792469.556   119775253.496    22792467.733    93331371.016                  
  23734690.807   124726605.773    23734693.791    97189553.233                  
  20548509.084   107983106.714    20548511.925    84142670.598                  
  20774479.515   109170633.665    20774479.980    85068030.063                  
  21772634.007   114415974.177    21772633.596    89155306.563                  
  21120983.297   110991536.526    21120981.135    86486917.122                  
  24107041.344   126683317.070    24107044.221    98714262.965                  
  24352879.538   127975187.109    24352882.844    99720910.297                  
                 126255769.538                   126255769.538    24246086.180  
                 121603258.965                   121603258.965    23352626.777  
                 117797356.665                   117797356.665    22621742.817  
                 129204859.741                   129204859.741    24812469.112  
  25392160.194   133436668.363                                                  
  24674087.020   129663160.745                                                  
  23456362.066   123263990.152                                                  
  23423203.360   123089734.949                                                  
  25870617.579   135950987.566                                                  
  26985281.800   141808628.102                                                  
 21  9  1 11 43 42.0000000  0 18G 2G 3G 6G14G17G19G24G30C23C27C28C33
                                E 1E13E21E26E27E33
  22792108.119   119773354.168    22792106.297    93329891.020                  
  23735052.995   124728509.112    23735055.997    97191036.355                  
  20548404.621   107982557.737    20548407.462    84142242.829                  
  20774752.232   109172066.841    20774752.697    85069146.821                  
  21772730.875   114416483.321    21772730.482    89155703.297                  
  21120925.955   110991235.150    21120923.775    86486682.285                  
  24106923.266   126682696.554    24106926.143    98713779.446                  
  24353496.413   127978428.882    24353499.719    99723436.351                  
                 126258752.682                   126258752.682    24246659.061  
                 121602318.446                   121602318.446    23352446.157  
                 117798194.216                   117798194.216    22621903.656  
                 129203562.968                   129203562.968    24812220.089  
  25391768.773   133434611.394                                                  
  24674438.700   129665008.772                                                  
  23456421.355   123264301.711                                                  
  23423166.299   123089540.227                                                  
  25871092.037   135953480.800                                                  
  26984941.180   141806838.167                                                  
 21  9  1 11 43 43.0000000  0 18G 2G 3G 6G14G17G19G24G30C23C27C28C33
                                E 1E13E21E26E27E33
  22791746.772   119771455.219    22791744.931    93328411.320                  
  23735415.307   124730413.000    23735418.309    97192519.906                  
  20548300.248   107982009.265    20548303.072    84141815.446                  
  20775025.056   109173500.527    20775025.521    85070263.981                  
  21772827.761   114416992.471    21772827.385    89156100.042                  
  21120868.613   110990933.890    21120866.451    86486447.535                  
  24106805.277   126682076.558    24106808.154    98713296.332                  
  24354113.305   127981670.550    24354116.593    99725962.328                  
                 126261736.001                   126261736.001    24247231.978  
                 121601378.047                   121601378.047    23352265.572  
                 117799031.817                   117799031.817    22622064.513  
                 129202266.538                   129202266.538    24811971.120  
  25391377.406   133432554.656                                                  
  24674790.362   129666856.847                                                  
  23456480.716   123264613.687                                                  
  23423129.293   123089345.762                                                  
  25871566.514   135955974.262                                                  
  26984600.615   141805048.456                                                  
 21  9  1 11 43 44.0000000  0 18G 2G 3G 6G14G17G19G24G30C23C27C28C33
                                E 1E13E21E26E27E33
  22791385.478   119769556.649    22791383.655    93326931.914                  
  23735777.709   124732317.410    23735780.693    97194003.860                  
  20548195.965   107981461.292    20548198.806    84141388.454                  
  20775297.988   109174934.733    20775298.435    85071381.544                  
  21772924.664   114417501.648    21772924.253    89156496.801                  
  21120811.325   110990632.737    21120809.145    86486212.870                  
  24106687.395   126681457.093    24106690.272    98712813.632                  
  24354730.144   127984912.120    24354733.432    99728488.228                  
                 126264719.493                   126264719.493    24247804.948  
                 121600437.778                   121600437.778    23352085.006  
                 117799869.468                   117799869.468    22622225.388  
                 129200970.457                   129200970.457    24811722.222  
  25390986.056   133430498.160                                                  
  24675142.060   129668704.983                                                  
  23456540.166   123264926.080                                                  
  23423092.339   123089151.551                                                  
  25872041.061   135958467.965                                                  
  26984260.085   141803258.962                                                  
 21  9  1 11 43 45.0000000  0 18G 2G 3G 6G14G17G19G24G30C23C27C28C33
                                E 1E13E21E26E27E33
  22791024.274   119767658.483    22791022.433    93325452.829                  
  23736140.200   124734222.363    23736143.202    97195488.238                  
  20548091.788   107980913.821    20548094.612    84140961.851                  
  20775571.009   109176369.458    20775571.455    85072499.512                  
  21773021.568   114418010.854    21773021.157    89156893.587                  
  21120754.037   110990331.692    21120751.857    86485978.290                  
  24106569.620   126680838.165    24106572.497    98712331.351                  
  24355346.982   127988153.597    24355350.288    99731014.051                  
                 126267703.152                   126267703.152    24248377.918  
                 121599497.631                   121599497.631    23351904.457  
                 117800707.176                   117800707.176    22622386.263  
                 129199674.722                   129199674.722    24811473.396  
  25390594.760   133428441.915                                                  
  24675493.759   129670553.181                                                  
  23456599.706   123265238.906                                                  
  23423055.440   123088957.604                                                  
  25872515.645   135960961.903                                                  
  26983919.608   141801469.688                                                  
 21  9  1 11 43 46.0000000  0 18G 2G 3G 6G14G17G19G24G30C23C27C28C33
                                E 1E13E21E26E27E33
  22790663.141   119765760.684    22790661.300    93323974.024                  
  23736502.798   124736127.847    23736505.800    97196973.031                  
  20547987.701   107980366.855    20547990.542    84140535.645                  
  20775844.119   109177804.703    20775844.583    85073617.882                  
  21773118.454   114418520.075    21773118.061    89157290.382                  
  21120696.767   110990030.758    21120694.605    86485743.796                  
  24106451.935   126680219.766    24106454.812    98711849.481                  
  24355963.803   127991394.983    24355967.091    99733539.804                  
                 126270686.985                   126270686.985    24248950.924  
                 121598557.610                   121598557.610    23351723.944  
                 117801544.935                   117801544.935    22622547.138  
                 129198379.336                   129198379.336    24811224.623  
  25390203.518   133426385.918                                                  
  24675845.457   129672401.434                                                  
  23456659.317   123265552.165                                                  
  23423018.576   123088763.925                                                  
  25872990.264   135963456.078                                                  
  26983579.168   141799680.640                                                  
 21  9  1 11 43 47.0000000  0 18G 2G 3G 6G14G17G19G24G30C23C27C28C33
                                E 1E13E21E26E27E33
  22790302.061   119763863.255    22790300.239    93322495.504                  
  23736865.503   124738033.874    23736868.505    97198458.247                  
  20547883.704   107979820.387    20547886.563    84140109.824                  
  20776117.336   109179240.458    20776117.801    85074736.652                  
  21773215.358   114419029.304    21773214.982    89157687.184                  
  21120639.515   110989729.933    21120637.352    86485509.387                  
  24106334.357   126679601.888    24106337.251    98711368.020                  
  24356580.606   127994636.275    24356583.894    99736065.484                  
                 126273670.993                   126273670.993    24249523.984  
                 121597617.713                   121597617.713    23351543.431  
                 117802382.742                   117802382.742    22622708.048  
                 129197084.296                   129197084.296    24810975.922  
  25389812.312   133424330.169                                                  
  24676197.208   129674249.753                                                  
  23456719.000   123265865.848                                                  
  23422981.784   123088570.495                                                  
  25873464.937   135965950.489                                                  
  26983238.745   141797891.809                                                  
 21  9  1 11 43 48.0000000  0 18G 2G 3G 6G14G17G19G24G30C23C27C28C33
                                E 1E13E21E26E27E33
  22789941.071   119761966.219    22789939.249    93321017.296                  
  23737228.298   124739940.438    23737231.318    97199943.879                  
  20547779.813   107979274.418    20547782.654    84139684.398                  
  20776390.643   109180676.730    20776391.125    85075855.827                  
  21773312.279   114419538.569    21773311.886    89158084.012                  
  21120582.298   110989429.214    21120580.118    86485275.062                  
  24106216.886   126678984.559    24106219.780    98710886.980                  
  24357197.373   127997877.452    24357200.679    99738591.079                  
                 126276655.169                   126276655.169    24250097.061  
                 121596677.945                   121596677.945    23351362.954  
                 117803220.602                   117803220.602    22622868.941  
                 129195789.602                   129195789.602    24810727.293  
  25389421.177   133422274.656                                                  
  24676548.924   129676098.126                                                  
  23456778.771   123266179.961                                                  
  23422945.027   123088377.335                                                  
  25873939.663   135968445.137                                                  
  26982898.376   141796103.195                                                  
 21  9  1 11 43 49.0000000  0 18G 2G 3G 6G14G17G19G24G30C23C27C28C33
                                E 1E13E21E26E27E33
  22789580.153   119760069.565    22789578.312    93319539.386                  
  23737591.218   124741847.524    23737594.220    97201429.923                  
  20547676.012   107978728.945    20547678.853    84139259.355                  
  20776664.057   109182113.532    20776664.521    85076975.409                  
  21773409.183   114420047.848    21773408.808    89158480.851                  
  21120525.099   110989128.618    21120522.919    86485040.827                  
  24106099.522   126678367.747    24106102.399    98710406.352                  
  24357814.123   128001118.542    24357817.446    99741116.601                  
                 126279639.517                   126279639.517    24250670.157  
                 121595738.301                   121595738.301    23351182.513  
                 117804058.517                   117804058.517    22623029.834  
                 129194495.254                   129194495.254    24810478.717  
  25389030.077   133420219.394                                                  
  24676900.676   129677946.559                                                  
  23456838.615   123266494.492                                                  
  23422908.306   123088184.439                                                  
  25874414.425   135970940.022                                                  
  26982558.060   141794314.801                                                  
 21  9  1 11 43 50.0000000  0 18G 2G 3G 6G14G17G19G24G30C23C27C28C33
                                E 1E13E21E26E27E33
  22789219.306   119758173.292    22789217.483    93318061.769                  
  23737954.227   124743755.153    23737957.211    97202916.382                  
  20547572.318   107978183.989    20547575.159    84138834.711                  
  20776937.578   109183550.843    20776938.042    85078095.394                  
  21773506.105   114420557.151    21773505.711    89158877.715                  
  21120467.918   110988828.133    21120465.738    86484806.683                  
  24105982.247   126677751.466    24105985.124    98709926.133                  
  24358430.872   128004359.540    24358434.178    99743642.055                  
                 126282624.030                   126282624.030    24251243.323  
                 121594798.780                   121594798.780    23351002.107  
                 117804896.476                   117804896.476    22623190.762  
                 129193201.255                   129193201.255    24810230.212  
  25388639.014   133418164.374                                                  
  24677252.428   129679795.059                                                  
  23456898.565   123266809.447                                                  
  23422871.639   123087991.792                                                  
  25874889.223   135973435.146                                                  
  26982217.780   141792526.628                                                  
 21  9  1 11 43 51.0000000  0 18G 2G 3G 6G14G17G19G24G30C23C27C28C33
                                E 1E13E21E26E27E33
  22788858.512   119756277.407    22788856.708    93316584.458                  
  23738317.343   124745663.325    23738320.345    97204403.270                  
  20547468.695   107977639.520    20547471.537    84138410.449                  
  20777211.188   109184988.667    20777211.635    85079215.778                  
  21773603.026   114421066.472    21773602.633    89159274.585                  
  21120410.755   110988527.754    21120408.575    86484572.624                  
  24105865.062   126677135.722    24105867.957    98709446.337                  
  24359047.603   128007600.422    24359050.891    99746167.419                  
                 126285608.727                   126285608.727    24251816.508  
                 121593859.372                   121593859.372    23350821.684  
                 117805734.481                   117805734.481    22623351.708  
                 129191907.613                   129191907.613    24809981.797  
  25388248.004   133416109.605                                                  
  24677604.197   129681643.609                                                  
  23456958.587   123267124.832                                                  
  23422835.043   123087799.419                                                  
  25875364.074   135975930.501                                                  
  26981877.554   141790738.680                                                  
 21  9  1 11 43 52.0000000  0 18G 2G 3G 6G14G17G19G24G30C23C27C28C33
                                E 1E13E21E26E27E33
  22788497.826   119754381.903    22788496.003    93315107.441                  
  23738680.531   124747572.023    23738683.551    97205890.566                  
  20547365.198   107977095.558    20547368.039    84137986.583                  
  20777484.888   109186427.013    20777485.353    85080336.568                  
  21773699.948   114421575.816    21773699.555    89159671.477                  
  21120353.628   110988227.487    21120351.448    86484338.652                  
  24105748.002   126676520.509    24105750.879    98708966.945                  
  24359664.299   128010841.212    24359667.605    99748692.708                  
                 126288593.587                   126288593.587    24252389.693  
                 121592920.101                   121592920.101    23350641.296  
                 117806572.550                   117806572.550    22623512.637  
                 129190614.309                   129190614.309    24809733.436  
  25387857.047   133414055.078                                                  
  24677955.985   129683492.223                                                  
  23457018.681   123267440.655                                                  
  23422798.483   123087607.298                                                  
  25875838.961   135978426.097                                                  
  26981537.364   141788950.949                                                  
 21  9  1 11 43 53.0000000  0 18G 2G 3G 6G14G17G19G24G30C23C27C28C33
                                E 1E13E21E26E27E33
  22788137.194   119752486.777    22788135.353    93313630.718                  
  23739043.862   124749481.263    23739046.882    97207378.286                  
  20547261.772   107976552.089    20547264.613    84137563.101                  
  20777758.695   109187865.882    20777759.160    85081457.762                  
  21773796.887   114422085.183    21773796.476    89160068.382                  
  21120296.501   110987927.337    21120294.321    86484104.768                  
  24105631.014   126675905.824    24105633.927    98708487.968                  
  24360280.977   128014081.902    24360284.283    99751217.919                  
                 126291578.618                   126291578.618    24252962.949  
                 121591980.957                   121591980.957    23350460.962  
                 117807410.669                   117807410.669    22623673.601  
                 129189321.351                   129189321.351    24809485.145  
  25387466.127   133412000.794                                                  
  24678307.754   129685340.894                                                  
  23457078.864   123267756.895                                                  
  23422761.977   123087415.440                                                  
  25876313.902   135980921.918                                                  
  26981197.191   141787163.439                                                  
 21  9  1 11 43 54.0000000  0 18G 2G 3G 6G14G17G19G24G30C23C27C28C33
                                E 1E13E21E26E27E33
  22787776.632   119750592.036    22787774.792    93312154.296                  
  23739407.282   124751391.031    23739410.302    97208866.417                  
  20547158.454   107976009.128    20547161.295    84137140.019                  
  20778032.592   109189305.261    20778033.056    85082579.360                  
  21773893.809   114422594.559    21773893.416    89160465.301                  
  21120239.391   110987627.287    21120237.211    86483870.961                  
  24105514.168   126675291.665    24105517.045    98708009.407                  
  24360897.637   128017322.496    24360900.943    99753743.059                  
                 126294563.820                   126294563.820    24253536.223  
                 121591041.936                   121591041.936    23350280.627  
                 117808248.837                   117808248.837    22623834.565  
                 129188028.742                   129188028.742    24809236.891  
  25387075.260   133409946.759                                                  
  24678659.578   129687189.634                                                  
  23457139.118   123268073.557                                                  
  23422725.524   123087223.836                                                  
  25876788.896   135983417.993                                                  
  26980857.108   141785376.140                                                  
 21  9  1 11 43 55.0000000  0 18G 2G 3G 6G14G17G19G24G30C23C27C28C33
                                E 1E13E21E26E27E33
  22787416.161   119748697.677    22787414.320    93310678.177                  
  23739770.792   124753301.328    23739773.794    97210354.960                  
  20547055.224   107975466.669    20547058.065    84136717.321                  
  20778306.595   109190745.157    20778307.060    85083701.352                  
  21773990.748   114423103.956    21773990.355    89160862.236                  
  21120182.318   110987327.348    21120180.156    86483637.242                  
  24105397.376   126674678.039    24105400.271    98707531.257                  
  24361514.279   128020562.989    24361517.585    99756268.114                  
                 126297549.195                   126297549.195    24254109.532  
                 121590103.043                   121590103.043    23350100.311  
                 117809087.057                   117809087.057    22623995.511  
                 129186736.484                   129186736.484    24808988.744  
  25386684.446   133407892.968                                                  
  24679011.383   129689038.419                                                  
  23457199.462   123268390.654                                                  
  23422689.107   123087032.492                                                  
  25877263.927   135985914.296                                                  
  26980517.025   141783589.078                                                  
 21  9  1 11 43 56.0000000  0 18G 2G 3G 6G14G17G19G24G30C23C27C28C33
                                E 1E13E21E26E27E33
  22787055.742   119746803.698    22787053.920    93309202.347                  
  23740134.426   124755212.173    23740137.428    97211843.926                  
  20546952.102   107974924.694    20546954.943    84136295.003                  
  20778580.706   109192185.575    20778581.188    85084823.754                  
  21774087.688   114423613.382    21774087.294    89161259.191                  
  21120125.280   110987027.526    21120123.100    86483403.617                  
  24105280.727   126674064.957    24105283.604    98707053.530                  
  24362130.921   128023803.383    24362134.227    99758793.099                  
                 126300534.743                   126300534.743    24254682.878  
                 121589164.275                   121589164.275    23349920.048  
                 117809925.333                   117809925.333    22624156.493  
                 129185444.570                   129185444.570    24808740.633  
  25386293.669   133405839.429                                                  
  24679363.206   129690887.268                                                  
  23457259.877   123268708.179                                                  
  23422652.744   123086841.418                                                  
  25877738.992   135988410.827                                                  
  26980176.995   141781802.231                                                  
 21  9  1 11 43 57.0000000  0 18G 2G 3G 6G14G17G19G24G30C23C27C28C33
                                E 1E13E21E26E27E33
  22786695.396   119744910.102    22786693.573    93307726.820                  
  23740498.133   124757123.538    23740501.152    97213333.305                  
  20546849.051   107974383.241    20546851.893    84135873.089                  
  20778854.906   109193626.509    20778855.389    85085946.562                  
  21774184.627   114424122.820    21774184.234    89161656.153                  
  21120068.242   110986727.816    21120066.062    86483170.077                  
  24105164.168   126673452.391    24105167.045    98706576.206                  
  24362747.528   128027043.675    24362750.816    99761318.001                  
                 126303520.458                   126303520.458    24255256.259  
                 121588225.629                   121588225.629    23349739.786  
                 117810763.655                   117810763.655    22624317.493  
                 129184153.005                   129184153.005    24808492.593  
  25385902.927   133403786.134                                                  
  24679715.047   129692736.173                                                  
  23457320.381   123269026.117                                                  
  23422616.416   123086650.594                                                  
  25878214.112   135990907.603                                                  
  26979837.019   141780015.601                                                  
 21  9  1 11 43 58.0000000  0 18G 2G 3G 6G14G17G19G24G30C23C27C28C33
                                E 1E13E21E26E27E33
  22786335.138   119743016.884    22786333.298    93306251.587                  
  23740861.964   124759035.445    23740864.984    97214823.101                  
  20546746.126   107973842.279    20546748.967    84135451.558                  
  20779129.196   109195067.960    20779129.678    85087069.768                  
  21774281.584   114424632.284    21774281.173    89162053.141                  
  21120011.222   110986428.212    21120009.060    86482936.617                  
  24105047.680   126672840.356    24105050.574    98706099.293                  
  24363364.116   128030283.875    24363367.422    99763842.833                  
                 126306506.344                   126306506.344    24255829.658  
                 121587287.110                   121587287.110    23349559.559  
                 117811602.033                   117811602.033    22624478.493  
                 129182861.786                   129182861.786    24808244.642  
  25385512.239   133401733.082                                                  
  24680066.888   129694585.128                                                  
  23457380.957   123269344.496                                                  
  23422580.160   123086460.043                                                  
  25878689.285   135993404.610                                                  
  26979497.079   141778229.200                                                  
 21  9  1 11 43 59.0000000  0 18G 2G 3G 6G14G17G19G24G30C23C27C28C33
                                E 1E13E21E26E27E33
  22785974.935   119741124.050    22785973.094    93304776.652                  
  23741225.902   124760947.878    23741228.904    97216313.309                  
  20546643.254   107973301.821    20546646.095    84135030.426                  
  20779403.592   109196509.931    20779404.075    85088193.382                  
  21774378.524   114425141.760    21774378.149    89162450.137                  
  21119954.237   110986128.722    21119952.057    86482703.251                  
  24104931.317   126672228.852    24104934.193    98705622.801                  
  24363980.687   128033523.984    24363983.975    99766367.591                  
                 126309492.398                   126309492.398    24256403.093  
                 121586348.714                   121586348.714    23349379.332  
                 117812440.457                   117812440.457    22624639.529  
                 129181570.915                   129181570.915    24807996.745  
  25385121.604   133399680.268                                                  
  24680418.747   129696434.156                                                  
  23457441.641   123269663.289                                                  
  23422543.957   123086269.744                                                  
  25879164.494   135995901.858                                                  
  26979157.174   141776443.004                                                  
 21  9  1 11 44  0.0000000  0 18G 2G 3G 6G14G17G19G24G30C23C27C28C33
                                E 1E13E21E26E27E33
  22785614.784   119739231.800    22785612.944    93303302.263                  
  23741589.894   124762860.971    23741592.896    97217804.078                  
  20546540.507   107972762.014    20546543.312    84134609.871                  
  20779678.078   109197952.514    20779678.543    85089317.519                  
  21774475.499   114425651.222    21774475.124    89162847.090                  
  21119897.253   110985829.341    21119895.109    86482469.962                  
  24104815.079   126671617.879    24104817.955    98705146.691                  
  24364597.329   128036763.621    24364600.688    99768891.782                  
                 126312478.642                   126312478.642    24256976.581  
                 121585410.574                   121585410.574    23349199.141  
                 117813278.921                   117813278.921    22624800.547  
                 129180280.464                   129180280.464    24807748.902  
  25384730.987   133397627.898                                                  
  24680770.606   129698283.317                                                  
  23457502.395   123269982.442                                                  
  23422507.772   123086079.741                                                  
  25879639.774   135998399.294                                                  
  26978817.323   141774657.063                                                  
 21  9  1 11 44  1.0000000  0 18G 2G 3G 6G14G17G19G24G30C23C27C28C33
                                E 1E13E21E26E27E33
  22785254.741   119737339.730    22785252.883    93301827.917                  
  23741954.047   124764774.484    23741957.031    97219295.125                  
  20546437.832   107972222.560    20546440.655    84134189.515                  
  20779952.672   109199395.512    20779953.136    85090441.934                  
  21774572.456   114426160.751    21774572.081    89163244.121                  
  21119840.322   110985530.063    21119838.142    86482236.763                  
  24104698.912   126671007.440    24104701.807    98704671.023                  
  24365213.864   128040003.522    24365217.205    99771416.378                  
                 126315465.034                   126315465.034    24257550.106  
                 121584472.425                   121584472.425    23349018.985  
                 117814117.444                   117814117.444    22624961.582  
                 129178990.286                   129178990.286    24807501.148  
  25384340.442   133395575.577                                                  
  24681122.483   129700132.462                                                  
  23457563.239   123270302.112                                                  
  23422471.677   123085889.953                                                  
  25880115.072   136000896.999                                                  
  26978477.508   141772871.308                                                  
 21  9  1 11 44  2.0000000  0 18G 2G 3G 6G14G17G19G24G30C23C27C28C33
                                E 1E13E21E26E27E33
  22784894.752   119735448.043    22784892.894    93300353.874                  
  23742318.253   124766688.531    23742321.255    97220786.590                  
  20546335.281   107971683.602    20546338.105    84133769.552                  
  20780227.372   109200839.031    20780227.819    85091566.750                  
  21774669.414   114426670.294    21774669.038    89163641.168                  
  21119783.374   110985230.890    21119781.212    86482003.641                  
  24104582.835   126670397.524    24104585.748    98704195.765                  
  24365830.363   128043243.332    24365833.722    99773940.903                  
                 126318451.597                   126318451.597    24258123.648  
                 121583534.398                   121583534.398    23348838.848  
                 117814956.019                   117814956.019    22625122.618  
                 129177700.456                   129177700.456    24807253.447  
  25383949.968   133393523.508                                                  
  24681474.378   129701981.652                                                  
  23457624.137   123270622.187                                                  
  23422435.599   123085700.425                                                  
  25880590.424   136003394.943                                                  
  26978137.746   141771085.772                                                  
 21  9  1 11 44  3.0000000  0 18G 2G 3G 6G14G17G19G24G30C23C27C28C33
                                E 1E13E21E26E27E33
  22784534.852   119733556.730    22784532.994    93298880.130                  
  23742682.603   124768603.106    23742685.605    97222278.464                  
  20546232.802   107971145.139    20546235.644    84133349.973                  
  20780502.162   109202283.059    20780502.627    85092691.969                  
  21774766.389   114427179.864    21774765.996    89164038.233                  
  21119726.479   110984931.837    21119724.299    86481770.608                  
  24104466.883   126669788.148    24104469.778    98703720.929                  
  24366446.862   128046483.028    24366450.221    99776465.339                  
                 126321438.327                   126321438.327    24258697.208  
                 121582596.500                   121582596.500    23348658.746  
                 117815794.650                   117815794.650    22625283.653  
                 129176410.973                   129176410.973    24807005.819  
  25383559.494   133391471.671                                                  
  24681826.272   129703830.909                                                  
  23457685.142   123270942.685                                                  
  23422399.593   123085511.171                                                  
  25881065.793   136005893.133                                                  
  26977798.003   141769300.465                                                  
 21  9  1 11 44  4.0000000  0 18G 2G 3G 6G14G17G19G24G30C23C27C28C33
                                E 1E13E21E26E27E33
  22784175.024   119731665.809    22784173.183    93297406.683                  
  23743047.041   124770518.224    23743050.043    97223770.766                  
  20546130.449   107970607.178    20546133.254    84132930.781                  
  20780777.059   109203727.617    20780777.506    85093817.597                  
  21774863.364   114427689.449    21774862.989    89164435.317                  
  21119669.584   110984632.887    21119667.422    86481537.665                  
  24104351.020   126669179.297    24104353.915    98703246.499                  
  24367063.343   128049722.633    24367066.703    99778989.706                  
                 126324425.230                   126324425.230    24259270.821  
                 121581658.723                   121581658.723    23348478.644  
                 117816633.329                   117816633.329    22625444.725  
                 129175121.839                   129175121.839    24806758.261  
  25383169.091   133389420.099                                                  
  24682178.203   129705680.219                                                  
  23457746.200   123271263.593                                                  
  23422363.641   123085322.163                                                  
  25881541.235   136008391.548                                                  
  26977458.295   141767515.370                                                  
 21  9  1 11 44  5.0000000  0 18G 2G 3G 6G14G17G19G24G30C23C27C28C33
                                E 1E13E21E26E27E33
  22783815.267   119729775.259    22783813.426    93295933.527                  
  23743411.552   124772433.858    23743414.554    97225263.468                  
  20546028.166   107970069.720    20546030.972    84132511.981                  
  20781052.045   109205172.686    20781052.492    85094943.624                  
  21774960.339   114428199.051    21774959.946    89164832.409                  
  21119612.725   110984334.046    21119610.545    86481304.802                  
  24104235.265   126668570.977    24104238.159    98702772.484                  
  24367679.807   128052962.129    24367683.148    99781513.993                  
                 126327412.306                   126327412.306    24259844.452  
                 121580721.071                   121580721.071    23348298.578  
                 117817472.056                   117817472.056    22625605.796  
                 129173833.056                   129173833.056    24806510.757  
  25382778.743   133387368.758                                                  
  24682530.115   129707529.582                                                  
  23457807.366   123271584.942                                                  
  23422327.724   123085133.417                                                  
  25882016.711   136010890.190                                                  
  26977118.658   141765730.492                                                  
 21  9  1 11 44  6.0000000  0 18G 2G 3G 6G14G17G19G24G30C23C27C28C33
                                E 1E13E21E26E27E33
  22783455.581   119727885.086    22783453.723    93294460.663                  
  23743776.223   124774350.059    23743779.207    97226756.610                  
  20545925.973   107969532.780    20545928.815    84132093.587                  
  20781327.121   109206618.266    20781327.586    85096070.050                  
  21775057.314   114428708.682    21775056.921    89165229.527                  
  21119555.883   110984035.319    21119553.703    86481072.023                  
  24104119.616   126667963.200    24104122.493    98702298.891                  
  24368296.235   128056201.531    24368299.576    99784038.198                  
                 126330399.547                   126330399.547    24260418.120  
                 121579783.548                   121579783.548    23348118.547  
                 117818310.835                   117818310.835    22625766.885  
                 129172544.617                   129172544.617    24806263.325  
  25382388.447   133385317.675                                                  
  24682882.064   129709379.021                                                  
  23457868.603   123271906.751                                                  
  23422291.861   123084944.925                                                  
  25882492.242   136013389.090                                                  
  26976779.057   141763945.831                                                  
 21  9  1 11 44  7.0000000  0 18G 2G 3G 6G14G17G19G24G30C23C27C28C33
                                E 1E13E21E26E27E33
  22783095.967   119725995.296    22783094.126    93292988.101                  
  23744140.965   124776266.788    23744143.931    97228250.165                  
  20545823.906   107968996.351    20545826.747    84131675.590                  
  20781602.322   109208064.371    20781602.769    85097196.888                  
  21775154.307   114429218.331    21775153.896    89165626.652                  
  21119499.042   110983736.695    21119496.880    86480839.331                  
  24104004.057   126667355.965    24104006.934    98701825.722                  
  24368912.662   128059440.836    24368916.004    99786562.332                  
                 126333386.962                   126333386.962    24260991.822  
                 121578846.146                   121578846.146    23347938.517  
                 117819149.669                   117819149.669    22625927.957  
                 129171256.526                   129171256.526    24806015.964  
  25381998.188   133383266.857                                                  
  24683233.994   129711228.512                                                  
  23457929.912   123272228.968                                                  
  23422256.033   123084756.698                                                  
  25882967.826   136015888.210                                                  
  26976439.474   141762161.390                                                  
 21  9  1 11 44  8.0000000  0 18G 2G 3G 6G14G17G19G24G30C23C27C28C33
                                E 1E13E21E26E27E33
  22782736.424   119724105.913    22782734.584    93291515.855                  
  23744505.779   124778184.012    23744508.781    97229744.101                  
  20545721.891   107968460.348    20545724.732    84131257.925                  
  20781877.594   109209511.013    20781878.059    85098324.137                  
  21775251.283   114429728.013    21775250.907    89166023.804                  
  21119442.236   110983438.206    21119440.074    86480606.742                  
  24103888.605   126666749.201    24103891.482    98701352.918                  
  24369529.054   128062680.048    24369532.396    99789086.391                  
                 126336374.546                   126336374.546    24261565.561  
                 121577908.866                   121577908.866    23347758.522  
                 117819988.552                   117819988.552    22626089.064  
                 129169968.790                   129169968.790    24805768.657  
  25381607.964   133381216.235                                                  
  24683585.960   129713078.045                                                  
  23457991.292   123272551.567                                                  
  23422220.278   123084568.758                                                  
  25883443.446   136018387.559                                                  
  26976099.963   141760377.210                                                  
 21  9  1 11 44  9.0000000  0 18G 2G 3G 6G14G17G19G24G30C23C27C28C33
                                E 1E13E21E26E27E33
  22782376.953   119722216.894    22782375.095    93290043.894                  
  23744870.736   124780101.801    23744873.720    97231238.484                  
  20545620.020   107967924.902    20545622.843    84130840.690                  
  20782152.974   109210958.148    20782153.438    85099451.776                  
  21775348.276   114430237.700    21775347.883    89166420.965                  
  21119385.466   110983139.814    21119383.304    86480374.231                  
  24103773.243   126666143.017    24103776.138    98700880.567                  
  24370145.446   128065919.145    24370148.788    99791610.362                  
                 126339362.305                   126339362.305    24262139.317  
                 121576971.718                   121576971.718    23347578.563  
                 117820827.493                   117820827.493    22626250.171  
                 129168681.406                   129168681.406    24805521.439  
  25381217.794   133379165.895                                                  
  24683937.944   129714927.652                                                  
  23458052.779   123272874.629                                                  
  23422184.557   123084381.050                                                  
  25883919.101   136020887.163                                                  
  26975760.487   141758593.218                                                  
 21  9  1 11 44 10.0000000  0 18G 2G 3G 6G14G17G19G24G30C23C27C28C33
                                E 1E13E21E26E27E33
  22782017.553   119720328.257    22782015.695    93288572.231                  
  23745235.782   124782020.120    23745238.784    97232733.278                  
  20545518.220   107967389.949    20545521.043    84130423.848                  
  20782428.461   109212405.808    20782428.925    85100579.823                  
  21775445.269   114430747.414    21775444.876    89166818.144                  
  21119328.697   110982841.539    21119326.534    86480141.809                  
  24103657.988   126665537.344    24103660.883    98700408.614                  
  24370761.802   128069158.145    24370765.162    99794134.259                  
                 126342350.229                   126342350.229    24262713.128  
                 121576034.694                   121576034.694    23347398.622  
                 117821666.482                   117821666.482    22626411.296  
                 129167394.369                   129167394.369    24805274.274  
  25380827.678   133377115.792                                                  
  24684289.928   129716777.317                                                  
  23458114.338   123273198.117                                                  
  23422148.873   123084193.618                                                  
  25884394.792   136023386.988                                                  
  26975421.047   141756809.446                                                  
 21  9  1 11 44 11.0000000  0 18G 2G 3G 6G14G17G19G24G30C23C27C28C33
                                E 1E13E21E26E27E33
  22781658.243   119718440.007    22781656.385    93287100.867                  
  23745600.918   124783938.973    23745603.920    97234228.489                  
  20545416.528   107966855.495    20545419.333    84130007.391                  
  20782704.037   109213853.979    20782704.501    85101708.270                  
  21775542.262   114431257.139    21775541.887    89167215.333                  
  21119271.962   110982543.372    21119269.800    86479909.469                  
  24103542.840   126664932.208    24103545.717    98699937.082                  
  24371378.141   128072397.051    24371381.500    99796658.082                  
                 126345338.328                   126345338.328    24263286.955  
                 121575097.796                   121575097.796    23347218.699  
                 117822505.525                   117822505.525    22626572.421  
                 129166107.680                   129166107.680    24805027.182  
  25380437.597   133375065.936                                                  
  24684641.912   129718627.046                                                  
  23458175.986   123273522.036                                                  
  23422113.278   123084006.427                                                  
  25884870.537   136025887.044                                                  
  26975081.661   141755025.911                                                  
 21  9  1 11 44 12.0000000  0 18G 2G 3G 6G14G17G19G24G30C23C27C28C33
                                E 1E13E21E26E27E33
  22781298.986   119716552.129    22781297.146    93285629.792                  
  23745966.179   124785858.367    23745969.163    97235724.120                  
  20545314.906   107966321.543    20545317.748    84129591.324                  
  20782979.720   109215302.675    20782980.167    85102837.120                  
  21775639.273   114431766.891    21775638.880    89167612.542                  
  21119215.246   110982245.311    21119213.084    86479677.214                  
  24103427.781   126664327.603    24103430.676    98699465.957                  
  24371994.461   128075635.849    24371997.820    99799181.820                  
                 126348326.593                   126348326.593    24263860.819  
                 121574161.022                   121574161.022    23347038.794  
                 117823344.618                   117823344.618    22626733.564  
                 129164821.340                   129164821.340    24804780.160  
  25380047.588   133373016.344                                                  
  24684993.914   129720476.823                                                  
  23458237.706   123273846.374                                                  
  23422077.701   123083819.503                                                  
  25885346.336   136028387.346                                                  
  26974742.292   141753242.574                                                  
 21  9  1 11 44 13.0000000  0 18G 2G 3G 6G14G17G19G24G30C23C27C28C33
                                E 1E13E21E26E27E33
  22780939.801   119714664.639    22780937.961    93284159.023                  
  23746331.529   124787778.288    23746334.513    97237220.165                  
  20545213.392   107965788.089    20545216.216    84129175.644                  
  20783255.493   109216751.888    20783255.939    85103966.379                  
  21775736.284   114432276.663    21775735.908    89168009.770                  
  21119158.566   110981947.368    21119156.386    86479445.050                  
  24103312.812   126663723.526    24103315.725    98698995.250                  
  24372610.782   128078874.558    24372614.123    99801705.488                  
                 126351315.029                   126351315.029    24264434.719  
                 121573224.374                   121573224.374    23346858.924  
                 117824183.757                   117824183.757    22626894.725  
                 129163535.351                   129163535.351    24804533.193  
  25379657.596   133370966.981                                                  
  24685345.916   129722326.667                                                  
  23458299.497   123274171.147                                                  
  23422042.177   123083632.842                                                  
  25885822.188   136030887.884                                                  
  26974402.978   141751459.474                                                  
 21  9  1 11 44 14.0000000  0 18G 2G 3G 6G14G17G19G24G30C23C27C28C33
                                E 1E13E21E26E27E33
  22780580.705   119712777.528    22780578.847    93282688.544                  
  23746696.968   124789698.741    23746699.952    97238716.617                  
  20545111.986   107965255.132    20545114.791    84128760.355                  
  20783531.355   109218201.614    20783531.819    85105096.036                  
  21775833.277   114432786.465    21775832.901    89168407.016                  
  21119101.885   110981649.525    21119099.705    86479212.964                  
  24103197.986   126663119.980    24103200.863    98698524.957                  
  24373227.066   128082113.159    24373230.426    99804229.075                  
                 126354303.634                   126354303.634    24265008.654  
                 121572287.850                   121572287.850    23346679.072  
                 117825022.954                   117825022.954    22627055.885  
                 129162249.712                   129162249.712    24804286.296  
  25379267.676   133368917.868                                                  
  24685697.953   129724176.555                                                  
  23458361.395   123274496.340                                                  
  23422006.725   123083446.429                                                  
  25886298.058   136033388.653                                                  
  26974063.716   141749676.582                                                  
 21  9  1 11 44 15.0000000  0 18G 2G 3G 6G14G17G19G24G30C23C27C28C33
                                E 1E13E21E26E27E33
  22780221.663   119710890.801    22780219.823    93281218.367                  
  23747062.515   124791619.728    23747065.517    97240213.488                  
  20545010.668   107964722.679    20545013.474    84128345.456                  
  20783807.342   109219651.859    20783807.806    85106226.097                  
  21775930.306   114433296.296    21775929.912    89168804.284                  
  21119045.222   110981351.801    21119043.042    86478980.972                  
  24103083.213   126662516.966    24103086.126    98698055.075                  
  24373843.315   128085351.661    24373846.675    99806752.583                  
                 126357292.407                   126357292.407    24265582.625  
                 121571351.449                   121571351.449    23346499.238  
                 117825862.198                   117825862.198    22627217.046  
                 129160964.419                   129160964.419    24804039.471  
  25378877.792   133366869.003                                                  
  24686049.991   129726026.510                                                  
  23458423.365   123274821.958                                                  
  23421971.308   123083260.285                                                  
  25886773.981   136035889.663                                                  
  26973724.509   141747893.917                                                  
 21  9  1 11 44 16.0000000  0 18G 2G 3G 6G14G17G19G24G30C23C27C28C33
                                E 1E13E21E26E27E33
  22779862.692   119709004.449    22779860.852    93279748.487                  
  23747428.186   124793541.249    23747431.188    97241710.777                  
  20544909.423   107964190.722    20544912.246    84127930.945                  
  20784083.400   109221102.621    20784083.865    85107356.559                  
  21776027.316   114433806.142    21776026.941    89169201.567                  
  21118988.578   110981054.175    21118986.398    86478749.058                  
  24102968.583   126661914.477    24102971.460    98697585.601                  
  24374459.582   128088590.062    24374462.924    99809276.008                  
                 126360281.352                   126360281.352    24266156.613  
                 121570415.173                   121570415.173    23346319.440  
                 117826701.497                   117826701.497    22627378.225  
                 129159679.478                   129159679.478    24803792.718  
  25378487.961   133364820.397                                                  
  24686402.047   129727876.586                                                  
  23458485.406   123275148.016                                                  
  23421935.928   123083074.335                                                  
  25887249.959   136038390.808                                                  
  26973385.301   141746111.535                                                  
 21  9  1 11 44 17.0000000  0 18G 2G 3G 6G14G17G19G24G30C23C27C28C33
                                E 1E13E21E26E27E33
  22779503.829   119707118.497    22779501.952    93278278.909                  
  23747793.947   124795463.333    23747796.914    97243208.516                  
  20544808.302   107963659.250    20544811.125    84127516.794                  
  20784359.584   109222553.903    20784360.048    85108487.429                  
  21776124.363   114434315.973    21776123.952    89169598.819                  
  21118931.969   110980756.651    21118929.806    86478517.207                  
  24102854.043   126661312.489    24102856.920    98697116.492                  
  24375075.795   128091828.370    24375079.155    99811799.362                  
                 126363270.460                   126363270.460    24266730.638  
                 121569479.018                   121569479.018    23346139.660  
                 117827540.840                   117827540.840    22627539.403  
                 129158394.882                   129158394.882    24803546.018  
  25378098.166   133362772.032                                                  
  24686754.102   129729726.659                                                  
  23458547.537   123275474.488                                                  
  23421900.601   123082888.710                                                  
  25887725.971   136040892.296                                                  
  26973046.165   141744329.313                                                  
 21  9  1 11 44 18.0000000  0 18G 2G 3G 6G14G17G19G24G30C23C27C28C33
                                E 1E13E21E26E27E33
  22779145.001   119705232.917    22779143.160    93276809.629                  
  23748159.780   124797385.919    23748162.782    97244706.633                  
  20544707.252   107963128.285    20544710.076    84127103.055                  
  20784635.839   109224005.703    20784636.303    85109618.703                  
  21776221.374   114434825.857    21776220.999    89169996.134                  
  21118875.377   110980459.257    21118873.197    86478285.474                  
  24102739.574   126660711.062    24102742.486    98696647.848                  
  24375692.027   128095066.575    24375695.368    99814322.641                  
                 126366259.742                   126366259.742    24267304.698  
                 121568542.992                   121568542.992    23345959.898  
                 117828380.238                   117828380.238    22627700.600  
                 129157110.642                   129157110.642    24803299.408  
  25377708.425   133360723.919                                                  
  24687106.158   129731576.788                                                  
  23458609.739   123275801.410                                                  
  23421865.327   123082703.356                                                  
  25888202.038   136043394.004                                                  
  26972707.064   141742547.313                                                  
 21  9  1 11 44 19.0000000  0 18G 2G 3G 6G14G17G19G24G30C23C27C28C33
                                E 1E13E21E26E27E33
  22778786.262   119703347.722    22778784.422    93275340.648                  
  23748525.738   124799309.042    23748528.740    97246205.173                  
  20544606.328   107962597.836    20544609.134    84126689.719                  
  20784912.219   109225458.026    20784912.666    85110750.383                  
  21776318.403   114435335.761    21776318.028    89170393.462                  
  21118818.804   110980161.973    21118816.642    86478053.820                  
  24102625.248   126660110.175    24102628.125    98696179.624                  
  24376308.204   128098304.677    24376311.563    99816845.835                  
                 126369249.190                   126369249.190    24267878.794  
                 121567607.091                   121567607.091    23345780.171  
                 117829219.689                   117829219.689    22627861.814  
                 129155826.747                   129155826.747    24803052.833  
  25377318.720   133358676.044                                                  
  24687458.249   129733426.978                                                  
  23458672.048   123276128.741                                                  
  23421830.107   123082518.254                                                  
  25888678.140   136045895.950                                                  
  26972368.000   141740765.531                                                  
 21  9  1 11 44 20.0000000  0 18G 2G 3G 6G14G17G19G24G30C23C27C28C33
                                E 1E13E21E26E27E33
  22778427.595   119701462.911    22778425.737    93273871.964                  
  23748891.802   124801232.699    23748894.804    97247704.124                  
  20544505.458   107962067.890    20544508.281    84126276.773                  
  20785188.689   109226910.863    20785189.135    85111882.461                  
  21776415.432   114435845.692    21776415.056    89170790.808                  
  21118762.266   110979864.802    21118760.086    86477822.258                  
  24102510.993   126659509.825    24102513.888    98695711.819                  
  24376924.382   128101542.682    24376927.723    99819368.956                  
                 126372238.812                   126372238.812    24268452.926  
                 121566671.309                   121566671.309    23345600.480  
                 117830059.189                   117830059.189    22628023.028  
                 129154543.204                   129154543.204    24802806.348  
  25376929.086   133356628.418                                                  
  24687810.340   129735277.227                                                  
  23458734.393   123276456.508                                                  
  23421794.923   123082333.410                                                  
  25889154.296   136048398.140                                                  
  26972028.989   141738983.972                                                  
 21  9  1 11 44 21.0000000  0 18G 2G 3G 6G14G17G19G24G30C23C27C28C33
                                E 1E13E21E26E27E33
  22778069.000   119699578.476    22778067.141    93272403.575                  
  23749257.957   124803156.893    23749260.958    97249203.501                  
  20544404.712   107961538.445    20544407.535    84125864.219                  
  20785465.247   109228364.216    20785465.694    85113014.946                  
  21776512.478   114436355.632    21776512.103    89171188.164                  
  21118705.729   110979567.739    21118703.549    86477590.785                  
  24102396.846   126658910.004    24102399.741    98695244.426                  
  24377540.523   128104780.579    24377543.883    99821891.993                  
                 126375228.598                   126375228.598    24269027.075  
                 121565735.655                   121565735.655    23345420.771  
                 117830898.738                   117830898.738    22628184.261  
                 129153260.008                   129153260.008    24802559.916  
  25376539.452   133354581.042                                                  
  24688162.431   129737127.532                                                  
  23458796.863   123276784.696                                                  
  23421759.793   123082148.827                                                  
  25889630.488   136050900.555                                                  
  26971689.995   141737202.638                                                  
 21  9  1 11 44 22.0000000  0 18G 2G 3G 6G14G17G19G24G30C23C27C28C33
                                E 1E13E21E26E27E33
  22777710.476   119697694.434    22777708.617    93270935.488                  
  23749624.218   124805081.619    23749627.220    97250703.282                  
  20544304.056   107961009.499    20544306.879    84125452.055                  
  20785741.896   109229818.077    20785742.360    85114147.825                  
  21776609.525   114436865.607    21776609.132    89171585.547                  
  21118649.227   110979270.784    21118647.047    86477359.391                  
  24102282.806   126658310.707    24102285.701    98694777.441                  
  24378156.665   128108018.376    24378160.025    99824414.949                  
                 126378218.555                   126378218.555    24269601.279  
                 121564800.126                   121564800.126    23345241.134  
                 117831738.339                   117831738.339    22628345.493  
                 129151977.163                   129151977.163    24802313.556  
  25376149.925   133352533.918                                                  
  24688514.540   129738977.889                                                  
  23458859.387   123277113.313                                                  
  23421724.716   123081964.512                                                  
  25890106.715   136053403.208                                                  
  26971351.056   141735421.525                                                  
 21  9  1 11 44 23.0000000  0 18G 2G 3G 6G14G17G19G24G30C23C27C28C33
                                E 1E13E21E26E27E33
  22777352.023   119695810.758    22777350.183    93269467.696                  
  23749990.586   124807006.863    23749993.588    97252203.477                  
  20544203.507   107960481.040    20544206.312    84125040.274                  
  20786018.651   109231272.466    20786019.116    85115281.117                  
  21776706.572   114437375.587    21776706.178    89171982.937                  
  21118592.725   110978973.941    21118590.563    86477128.090                  
  24102168.855   126657711.939    24102171.768    98694310.871                  
  24378772.753   128111256.068    24378776.113    99826937.828                  
                 126381208.680                   126381208.680    24270175.500  
                 121563864.719                   121563864.719    23345061.497  
                 117832577.988                   117832577.988    22628506.743  
                 129150694.667                   129150694.667    24802067.285  
  25375760.398   133350487.040                                                  
  24688866.685   129740828.317                                                  
  23458922.000   123277442.356                                                  
  23421689.693   123081780.457                                                  
  25890583.014   136055906.102                                                  
  26971012.152   141733640.608                                                  
 21  9  1 11 44 24.0000000  0 18G 2G 3G 6G14G17G19G24G30C23C27C28C33
                                E 1E13E21E26E27E33
  22776993.642   119693927.473    22776991.801    93268000.204                  
  23750357.062   124808932.654    23750360.064    97253704.093                  
  20544103.047   107959953.097    20544105.853    84124628.890                  
  20786295.514   109232727.368    20786295.978    85116414.812                  
  21776803.618   114437885.595    21776803.243    89172380.352                  
  21118536.259   110978677.204    21118534.079    86476896.868                  
  24102055.011   126657113.699    24102057.924    98693844.719                  
  24379388.859   128114493.656    24379392.219    99829460.629                  
                 126384198.971                   126384198.971    24270749.738  
                 121562929.434                   121562929.434    23344881.877  
                 117833417.691                   117833417.691    22628667.993  
                 129149412.523                   129149412.523    24801821.068  
  25375370.943   133348440.409                                                  
  24689218.794   129742678.792                                                  
  23458984.702   123277771.824                                                  
  23421654.723   123081596.652                                                  
  25891059.348   136058409.228                                                  
  26970673.319   141731859.938                                                  
 21  9  1 11 44 25.0000000  0 18G 2G 3G 6G14G17G19G24G30C23C27C28C33
                                E 1E13E21E26E27E33
  22776635.332   119692044.564    22776633.474    93266533.004                  
  23750723.627   124810858.981    23750726.611    97255205.137                  
  20544002.659   107959425.636    20544005.482    84124217.886                  
  20786572.484   109234182.778    20786572.912    85117548.902                  
  21776900.683   114438395.613    21776900.308    89172777.774                  
  21118479.829   110978380.575    21118477.649    86476665.731                  
  24101941.275   126656515.990    24101944.188    98693378.972                  
  24380004.948   128117731.136    24380008.271    99831983.348                  
                 126387189.434                   126387189.434    24271324.049  
                 121561994.278                   121561994.278    23344702.294  
                 117834257.447                   117834257.447    22628829.261  
                 129148130.731                   129148130.731    24801574.904  
  25374981.523   133346394.027                                                  
  24689570.957   129744529.329                                                  
  23459047.476   123278101.715                                                  
  23421619.807   123081413.108                                                  
  25891535.719   136060912.579                                                  
  26970334.505   141730079.473                                                  
 21  9  1 11 44 26.0000000  0 18G 2G 3G 6G14G17G19G24G30C23C27C28C33
                                E 1E13E21E26E27E33
  22776277.094   119690162.027    22776275.254    93265066.097                  
  23751090.300   124812785.828    23751093.302    97256706.578                  
  20543902.378   107958898.676    20543905.201    84123807.272                  
  20786849.543   109235638.720    20786849.972    85118683.402                  
  21776997.747   114438905.656    21776997.336    89173175.212                  
  21118423.380   110978084.058    21118421.218    86476434.684                  
  24101827.646   126655918.806    24101830.541    98692913.636                  
  24380620.982   128120968.531    24380624.341    99834505.993                  
                 126390180.063                   126390180.063    24271898.359  
                 121561059.243                   121561059.243    23344522.746  
                 117835097.249                   117835097.249    22628990.547  
                 129146849.284                   129146849.284    24801328.794  
  25374592.157   133344347.886                                                  
  24689923.102   129746379.921                                                  
  23459110.339   123278432.046                                                  
  23421584.927   123081229.826                                                  
  25892012.143   136063416.177                                                  
  26969995.744   141728299.234                                                  
 21  9  1 11 44 27.0000000  0 18G 2G 3G 6G14G17G19G24G30C23C27C28C33
                                E 1E13E21E26E27E33
  22775918.945   119688279.887    22775917.105    93263599.496                  
  23751457.061   124814713.212    23751460.063    97258208.433                  
  20543802.204   107958372.222    20543805.028    84123397.050                  
  20787126.673   109237095.172    20787127.138    85119818.300                  
  21777094.794   114439415.719    21777094.419    89173572.663                  
  21118366.986   110977787.655    21118364.806    86476203.723                  
  24101714.106   126655322.156    24101717.001    98692448.719                  
  24381237.017   128124205.821    24381240.376    99837028.554                  
                 126393170.860                   126393170.860    24272472.705  
                 121560124.333                   121560124.333    23344343.198  
                 117835937.101                   117835937.101    22629151.815  
                 129145568.187                   129145568.187    24801082.774  
  25374202.845   133342301.995                                                  
  24690275.282   129748230.578                                                  
  23459173.274   123278762.805                                                  
  23421550.100   123081046.792                                                  
  25892488.602   136065920.007                                                  
  26969657.001   141726519.215                                                  
 21  9  1 11 44 28.0000000  0 18G 2G 3G 6G14G17G19G24G30C23C27C28C33
                                E 1E13E21E26E27E33
  22775560.868   119686398.122    22775558.992    93262133.188                  
  23751823.948   124816641.142    23751826.932    97259710.714                  
  20543702.120   107957846.266    20543704.943    84122987.215                  
  20787403.947   109238552.140    20787404.394    85120953.602                  
  21777191.859   114439925.805    21777191.483    89173970.133                  
  21118310.591   110977491.358    21118308.411    86475972.839                  
  24101600.656   126654726.035    24101603.568    98691984.206                  
  24381853.033   128127443.005    24381856.393    99839551.035                  
                 126396161.823                   126396161.823    24273047.087  
                 121559189.546                   121559189.546    23344163.686  
                 117836777.008                   117836777.008    22629313.118  
                 129144287.444                   129144287.444    24800836.842  
  25373813.586   133340256.370                                                  
  24690627.463   129750081.284                                                  
  23459236.298   123279093.981                                                  
  23421515.327   123080864.038                                                  
  25892965.098   136068424.063                                                  
  26969318.311   141724739.425                                                  
 21  9  1 11 44 29.0000000  0 18G 2G 3G 6G14G17G19G24G30C23C27C28C33
                                E 1E13E21E26E27E33
  22775202.844   119684516.738    22775200.986    93260667.172                  
  23752190.906   124818569.585    23752193.908    97261213.399                  
  20543602.125   107957320.806    20543604.948    84122577.761                  
  20787681.274   109240009.616    20787681.739    85122089.298                  
  21777288.941   114440435.906    21777288.548    89174367.614                  
  21118254.232   110977195.176    21118252.052    86475742.048                  
  24101487.313   126654130.450    24101490.225    98691520.114                  
  24382469.032   128130680.086    24382472.392    99842073.438                  
                 126399152.958                   126399152.958    24273621.505  
                 121558254.883                   121558254.883    23343984.173  
                 117837616.964                   117837616.964    22629474.422  
                 129143007.051                   129143007.051    24800590.947  
  25373424.345   133338210.960                                                  
  24690979.644   129751932.047                                                  
  23459299.394   123279425.582                                                  
  23421480.571   123080681.527                                                  
  25893441.664   136070928.362                                                  
  26968979.676   141722959.855                                                  
 21  9  1 11 44 30.0000000  0 18G 2G 3G 6G14G17G19G24G30C23C27C28C33
                                E 1E13E21E26E27E33
  22774844.892   119682635.745    22774843.034    93259201.466                  
  23752557.972   124820498.574    23752560.974    97262716.507                  
  20543502.219   107956795.857    20543505.060    84122168.714                  
  20787958.745   109241467.629    20787959.191    85123225.409                  
  21777386.005   114440946.028    21777385.612    89174765.114                  
  21118197.891   110976899.099    21118195.711    86475511.336                  
  24101374.094   126653535.391    24101376.971    98691056.434                  
  24383085.013   128133917.067    24383088.373    99844595.761                  
                 126402144.258                   126402144.258    24274195.958  
                 121557320.343                   121557320.343    23343804.715  
                 117838456.970                   117838456.970    22629635.743  
                 129141727.009                   129141727.009    24800345.122  
  25373035.157   133336165.828                                                  
  24691331.842   129753782.868                                                  
  23459362.579   123279757.624                                                  
  23421445.906   123080499.277                                                  
  25893918.267   136073432.893                                                  
  26968641.075   141721180.503                                                  
 21  9  1 11 44 31.0000000  0 18G 2G 3G 6G14G17G19G24G30C23C27C28C33
                                E 1E13E21E26E27E33
  22774487.011   119680755.128    22774485.188    93257736.052                  
  23752925.162   124822428.091    23752928.164    97264220.023                  
  20543402.421   107956271.397    20543405.244    84121760.047                  
  20788236.286   109242926.152    20788236.733    85124361.921                  
  21777483.088   114441456.179    21777482.695    89175162.632                  
  21118141.586   110976603.133    21118139.406    86475280.716                  
  24101260.966   126652940.854    24101263.843    98690593.161                  
  24383700.976   128137153.954    24383704.336    99847118.008                  
                 126405135.727                   126405135.727    24274770.447  
                 121556385.931                   121556385.931    23343625.274  
                 117839297.028                   117839297.028    22629797.065  
                 129140447.313                   129140447.313    24800099.388  
  25372646.042   133334120.935                                                  
  24691684.058   129755633.751                                                  
  23459425.835   123280090.085                                                  
  23421411.275   123080317.294                                                  
  25894394.905   136075937.668                                                  
  26968302.529   141719401.376                                                  
 21  9  1 11 44 32.0000000  0 18G 2G 3G 6G14G17G19G24G30C23C27C28C33
                                E 1E13E21E26E27E33
  22774129.238   119678874.891    22774127.379    93256270.930                  
  23753292.442   124824358.145    23753295.444    97265723.961                  
  20543302.711   107955747.443    20543305.535    84121351.766                  
  20788513.917   109244385.184    20788514.382    85125498.829                  
  21777580.152   114441966.341    21777579.777    89175560.161                  
  21118085.281   110976307.282    21118083.101    86475050.183                  
  24101147.926   126652346.851    24101150.821    98690130.302                  
  24384316.921   128140390.727    24384320.281    99849640.167                  
                 126408127.364                   126408127.364    24275344.936  
                 121555451.640                   121555451.640    23343445.851  
                 117840137.132                   117840137.132    22629958.404  
                 129139167.969                   129139167.969    24799853.689  
  25372256.962   133332076.284                                                  
  24692036.275   129757484.687                                                  
  23459489.198   123280422.960                                                  
  23421376.681   123080135.564                                                  
  25894871.579   136078442.660                                                  
  26967964.000   141717622.458                                                  
 21  9  1 11 44 33.0000000  0 18G 2G 3G 6G14G17G19G24G30C23C27C28C33
                                E 1E13E21E26E27E33
  22773771.500   119676995.031    22773769.659    93254806.106                  
  23753659.794   124826288.728    23753662.796    97267228.309                  
  20543203.092   107955223.981    20543205.933    84120943.876                  
  20788791.673   109245844.734    20788792.120    85126636.141                  
  21777677.235   114442476.530    21777676.860    89175957.711                  
  21118028.993   110976011.539    21118026.813    86474819.734                  
  24101034.976   126651753.392    24101037.889    98689667.863                  
  24384932.849   128143627.406    24384936.208    99852162.254                  
                 126411119.168                   126411119.168    24275919.497  
                 121554517.472                   121554517.472    23343266.464  
                 117840977.289                   117840977.289    22630119.744  
                 129137888.977                   129137888.977    24799608.079  
  25371867.917   133330031.886                                                  
  24692388.509   129759335.684                                                  
  23459552.616   123280756.281                                                  
  23421342.158   123079954.095                                                  
  25895348.325   136080947.895                                                  
  26967625.543   141715843.768                                                  
 21  9  1 11 44 34.0000000  0 18G 2G 3G 6G14G17G19G24G30C23C27C28C33
                                E 1E13E21E26E27E33
  22773413.851   119675115.555    22773411.993    93253341.577                  
  23754027.306   124828219.847    23754030.308    97268733.082                  
  20543103.597   107954701.024    20543106.420    84120536.375                  
  20789069.519   109247304.804    20789069.965    85127773.855                  
  21777774.335   114442986.746    21777773.960    89176355.282                  
  21117972.742   110975715.911    21117970.562    86474589.374                  
  24100922.151   126651160.454    24100925.046    98689205.831                  
  24385548.740   128146863.979    24385552.100    99854684.262                  
                 126414111.140                   126414111.140    24276494.075  
                 121553583.429                   121553583.429    23343087.077  
                 117841817.496                   117841817.496    22630281.083  
                 129136610.337                   129136610.337    24799362.523  
  25371478.926   133327987.729                                                  
  24692740.761   129761186.731                                                  
  23459616.140   123281090.016                                                  
  23421307.689   123079772.884                                                  
  25895825.088   136083453.357                                                  
  26967287.104   141714065.290                                                  
 21  9  1 11 44 35.0000000  0 18G 2G 3G 6G14G17G19G24G30C23C27C28C33
                                E 1E13E21E26E27E33
  22773056.274   119673236.449    22773054.416    93251877.343                  
  23754394.872   124830151.492    23754397.874    97270238.257                  
  20543004.174   107954178.566    20543006.997    84120129.269                  
  20789347.453   109248765.391    20789347.900    85128911.977                  
  21777871.435   114443496.982    21777871.060    89176752.868                  
  21117916.508   110975420.392    21117914.346    86474359.097                  
  24100809.415   126650568.042    24100812.328    98688744.214                  
  24386164.614   128150100.453    24386167.974    99857206.183                  
                 126417103.280                   126417103.280    24277068.672  
                 121552649.508                   121552649.508    23342907.744  
                 117842657.758                   117842657.758    22630442.458  
                 129135332.046                   129135332.046    24799117.038  
  25371089.971   133325943.827                                                  
  24693092.995   129763037.843                                                  
  23459679.718   123281424.188                                                  
  23421273.237   123079591.922                                                  
  25896301.905   136085959.059                                                  
  26966948.718   141712287.035                                                  
 21  9  1 11 44 36.0000000  0 18G 2G 3G 6G14G17G19G24G30C23C27C28C33
                                E 1E13E21E26E27E33
  22772698.769   119671357.741    22772696.892    93250413.413                  
  23754762.563   124832083.671    23754765.565    97271743.851                  
  20542904.840   107953656.604    20542907.663    84119722.543                  
  20789625.495   109250226.488    20789625.942    85130050.497                  
  21777968.536   114444007.235    21777968.142    89177150.464                  
  21117860.292   110975124.981    21117858.112    86474128.907                  
  24100696.805   126649976.175    24100699.682    98688283.019                  
  24386780.488   128153336.821    24386783.847    99859728.032                  
                 126420095.589                   126420095.589    24277643.322  
                 121551715.715                   121551715.715    23342728.392  
                 117843498.066                   117843498.066    22630603.816  
                 129134054.106                   129134054.106    24798871.625  
  25370701.106   133323900.180                                                  
  24693445.283   129764889.007                                                  
  23459743.403   123281758.780                                                  
  23421238.857   123079411.233                                                  
  25896778.758   136088464.999                                                  
  26966610.368   141710509.014                                                  
 21  9  1 11 44 37.0000000  0 18G 2G 3G 6G14G17G19G24G30C23C27C28C33
                                E 1E13E21E26E27E33
  22772341.317   119669479.407    22772339.476    93248949.778                  
  23755130.343   124834016.383    23755133.345    97273249.859                  
  20542805.613   107953135.141    20542808.436    84119316.208                  
  20789903.645   109251688.113    20789904.074    85131189.423                  
  21778065.636   114444517.504    21778065.243    89177548.078                  
  21117804.094   110974829.679    21117801.914    86473898.806                  
  24100584.266   126649384.825    24100587.161    98687822.227                  
  24387396.326   128156573.077    24387399.685    99862249.788                  
                 126423088.062                   126423088.062    24278218.007  
                 121550782.044                   121550782.044    23342549.094  
                 117844338.420                   117844338.420    22630765.209  
                 129132776.516                   129132776.516    24798626.283  
  25370312.240   133321856.774                                                  
  24693797.535   129766740.233                                                  
  23459807.142   123282093.800                                                  
  23421204.513   123079230.800                                                  
  25897255.682   136090971.167                                                  
  26966272.054   141708731.202                                                  
 21  9  1 11 44 38.0000000  0 18G 2G 3G 6G14G17G19G24G30C23C27C28C33
                                E 1E13E21E26E27E33
  22771983.954   119667601.454    22771982.114    93247486.438                  
  23755498.212   124835949.624    23755501.214    97274756.280                  
  20542706.476   107952614.171    20542709.299    84118910.257                  
  20790181.865   109253150.249    20790182.312    85132328.750                  
  21778162.736   114445027.793    21778162.361    89177945.708                  
  21117747.913   110974534.491    21117745.751    86473668.789                  
  24100471.834   126648794.015    24100474.729    98687361.860                  
  24388012.146   128159809.237    24388015.505    99864771.473                  
                 126426080.702                   126426080.702    24278792.693  
                 121549848.492                   121549848.492    23342369.814  
                 117845178.833                   117845178.833    22630926.602  
                 129131499.277                   129131499.277    24798380.995  
  25369923.446   133319813.618                                                  
  24694149.841   129768591.512                                                  
  23459870.988   123282429.249                                                  
  23421170.240   123079050.625                                                  
  25897732.642   136093477.582                                                  
  26965933.793   141706953.610                                                  
 21  9  1 11 44 39.0000000  0 18G 2G 3G 6G14G17G19G24G30C23C27C28C33
                                E 1E13E21E26E27E33
  22771626.681   119665723.882    22771624.823    93246023.395                  
  23755866.207   124837883.405    23755869.191    97276263.120                  
  20542607.446   107952093.723    20542610.251    84118504.716                  
  20790460.193   109254612.910    20790460.658    85133468.483                  
  21778259.836   114445538.099    21778259.461    89178343.345                  
  21117691.787   110974239.400    21117689.607    86473438.843                  
  24100359.491   126648203.727    24100362.404    98686901.891                  
  24388627.948   128163045.306    24388631.308    99867293.083                  
                 126429073.512                   126429073.512    24279367.432  
                 121548915.072                   121548915.072    23342190.588  
                 117846019.293                   117846019.293    22631087.995  
                 129130222.390                   129130222.390    24798135.779  
  25369534.705   133317770.710                                                  
  24694502.146   129770442.844                                                  
  23459934.905   123282765.120                                                  
  23421136.003   123078870.711                                                  
  25898209.638   136095984.217                                                  
  26965595.568   141705176.238                                                  
 21  9  1 11 44 40.0000000  0 18G 2G 3G 6G14G17G19G24G30C23C27C28C33
                                E 1E13E21E26E27E33
  22771269.461   119663846.698    22771267.603    93244560.652                  
  23756234.291   124839817.717    23756237.293    97277770.379                  
  20542508.505   107951573.762    20542511.328    84118099.552                  
  20790738.646   109256076.079    20790739.075    85134608.613                  
  21778356.955   114446048.429    21778356.579    89178741.009                  
  21117635.642   110973944.423    21117633.462    86473208.996                  
  24100247.274   126647613.976    24100250.186    98686442.347                  
  24389243.715   128166281.263    24389247.074    99869814.606                  
                 126432066.490                   126432066.490    24279942.207  
                 121547981.770                   121547981.770    23342011.344  
                 117846859.802                   117846859.802    22631249.423  
                 129128945.855                   129128945.855    24797890.633  
  25369145.983   133315728.055                                                  
  24694854.434   129772294.243                                                  
  23459998.894   123283101.437                                                  
  23421101.802   123078691.058                                                  
  25898686.687   136098491.093                                                  
  26965257.397   141703399.101                                                  
 21  9  1 11 44 41.0000000  0 18G 2G 3G 6G14G17G19G24G30C23C27C28C33
                                E 1E13E21E26E27E33
  22770912.313   119661969.895    22770910.455    93243098.206                  
  23756602.482   124841752.564    23756605.484    97279278.051                  
  20542409.636   107951054.297    20542412.459    84117694.774                  
  20791017.153   109257539.764    20791017.617    85135749.153                  
  21778454.073   114446558.774    21778453.697    89179138.680                  
  21117579.516   110973649.555    21117577.354    86472979.226                  
  24100135.164   126647024.745    24100138.041    98685983.208                  
  24389859.481   128169517.120    24389862.841    99872336.055                  
                 126435059.628                   126435059.628    24280517.018  
                 121547048.590                   121547048.590    23341832.136  
                 117847700.360                   117847700.360    22631410.834  
                 129127669.672                   129127669.672    24797645.560  
  25368757.313   133313685.641                                                  
  24695206.758   129774145.695                                                  
  23460062.955   123283438.165                                                  
  23421067.654   123078511.658                                                  
  25899163.754   136100998.207                                                  
  26964919.262   141701622.161                                                  
 21  9  1 11 44 42.0000000  0 18G 2G 3G 6G14G17G19G24G30C23C27C28C33
                                E 1E13E21E26E27E33
  22770555.236   119660093.468    22770553.378    93241636.062                  
  23756970.781   124843687.926    23756973.783    97280786.126                  
  20542310.873   107950535.337    20542313.715    84117290.387                  
  20791295.802   109259003.972    20791296.231    85136890.094                  
  21778551.209   114447069.145    21778550.816    89179536.367                  
  21117523.443   110973354.793    21117521.263    86472749.544                  
  24100023.125   126646436.048    24100026.020    98685524.481                  
  24390475.248   128172752.875    24390478.572    99874857.418                  
                 126438052.940                   126438052.940    24281091.847  
                 121546115.539                   121546115.539    23341652.945  
                 117848540.973                   117848540.973    22631572.263  
                 129126393.835                   129126393.835    24797400.540  
  25368368.716   133311643.488                                                  
  24695559.099   129775997.206                                                  
  23460127.123   123283775.324                                                  
  23421033.578   123078332.518                                                  
  25899640.893   136103505.546                                                  
  26964581.162   141699845.458                                                  
 21  9  1 11 44 43.0000000  0 18G 2G 3G 6G14G17G19G24G30C23C27C28C33
                                E 1E13E21E26E27E33
  22770198.231   119658217.425    22770196.373    93240174.208                  
  23757339.169   124845623.829    23757342.153    97282294.617                  
  20542212.219   107950016.867    20542215.042    84116886.387                  
  20791574.523   109260468.699    20791574.988    85138031.438                  
  21778648.327   114447579.524    21778647.934    89179934.066                  
  21117467.352   110973060.145    21117465.208    86472519.946                  
  24099911.193   126645847.890    24099914.106    98685066.176                  
  24391090.961   128175988.521    24391094.320    99877378.703                  
                 126441046.418                   126441046.418    24281666.729  
                 121545182.609                   121545182.609    23341473.772  
                 117849381.633                   117849381.633    22631733.692  
                 129125118.356                   129125118.356    24797155.591  
  25367980.154   133309601.567                                                  
  24695911.440   129777848.767                                                  
  23460191.362   123284112.906                                                  
  23420999.537   123078153.637                                                  
  25900118.067   136106013.117                                                  
  26964243.098   141698068.966                                                  
 21  9  1 11 44 44.0000000  0 18G 2G 3G 6G14G17G19G24G30C23C27C28C33
                                E 1E13E21E26E27E33
  22769841.315   119656341.767    22769839.457    93238712.656                  
  23757707.664   124847560.265    23757710.666    97283803.531                  
  20542113.653   107949498.896    20542116.476    84116482.773                  
  20791853.334   109261933.942    20791853.798    85139173.184                  
  21778745.445   114448089.933    21778745.052    89180331.789                  
  21117411.315   110972765.608    21117409.135    86472290.437                  
  24099799.387   126645260.250    24099802.282    98684608.274                  
  24391706.656   128179224.073    24391710.015    99879899.910                  
                 126444040.059                   126444040.059    24282241.629  
                 121544249.802                   121544249.802    23341294.653  
                 117850222.343                   117850222.343    22631895.156  
                 129123843.228                   129123843.228    24796910.714  
  25367591.646   133307559.907                                                  
  24696263.782   129779700.392                                                  
  23460255.672   123284450.919                                                  
  23420965.533   123077975.020                                                  
  25900595.278   136108520.926                                                  
  26963905.087   141696292.700                                                  
 21  9  1 11 44 45.0000000  0 18G 2G 3G 6G14G17G19G24G30C23C27C28C33
                                E 1E13E21E26E27E33
  22769484.453   119654466.481    22769482.595    93237251.394                  
  23758076.248   124849497.233    23758079.232    97285312.856                  
  20542015.177   107948981.426    20542018.018    84116079.552                  
  20792132.287   109263399.696    20792132.716    85140315.332                  
  21778842.581   114448600.363    21778842.206    89180729.527                  
  21117355.295   110972471.192    21117353.115    86472061.024                  
  24099687.652   126644673.149    24099690.564    98684150.793                  
  24392322.333   128182459.511    24392325.692    99882421.030                  
                 126447033.866                   126447033.866    24282816.547  
                 121543317.117                   121543317.117    23341115.534  
                 117851063.102                   117851063.102    22632056.621  
                 129122568.446                   129122568.446    24796665.926  
  25367203.173   133305518.493                                                  
  24696616.141   129781552.067                                                  
  23460320.108   123284789.358                                                  
  23420931.599   123077796.653                                                  
  25901072.559   136111028.970                                                  
  26963567.113   141694516.649                                                  
 21  9  1 11 44 46.0000000  0 18G 2G 3G 6G14G17G19G24G30C23C27C28C33
                                E 1E13E21E26E27E33
  22769127.680   119652591.586    22769125.822    93235790.437                  
  23758444.939   124851434.741    23758447.941    97286822.603                  
  20541916.826   107948464.467    20541919.631    84115676.727                  
  20792411.294   109264865.970    20792411.759    85141457.878                  
  21778939.717   114449110.816    21778939.324    89181127.280                  
  21117299.276   110972176.882    21117297.114    86471831.691                  
  24099576.042   126644086.579    24099578.937    98683693.725                  
  24392937.992   128185694.855    24392941.352    99884942.078                  
                 126450027.844                   126450027.844    24283391.500  
                 121542384.560                   121542384.560    23340936.469  
                 117851903.913                   117851903.913    22632218.085  
                 129121294.019                   129121294.019    24796421.174  
  25366814.736   133303477.329                                                  
  24696968.518   129783403.804                                                  
  23460384.579   123285128.231                                                  
  23420897.720   123077618.544                                                  
  25901549.859   136113537.243                                                  
  26963229.174   141692740.832                                                  
 21  9  1 11 44 47.0000000  0 18G 2G 3G 6G14G17G19G24G30C23C27C28C33
                                E 1E13E21E26E27E33
  22768770.961   119650717.060    22768769.120    93234329.770                  
  23758813.738   124853372.768    23758816.740    97288332.754                  
  20541818.546   107947947.999    20541821.352    84115274.281                  
  20792690.426   109266332.754    20792690.873    85142600.829                  
  21779036.853   114449621.281    21779036.460    89181525.047                  
  21117243.292   110971882.680    21117241.112    86471602.440                  
  24099464.521   126643500.540    24099467.416    98683237.070                  
  24393553.652   128188930.087    24393557.011    99887463.036                  
                 126453021.988                   126453021.988    24283966.508  
                 121541452.122                   121541452.122    23340757.385  
                 117852744.774                   117852744.774    22632379.568  
                 129120019.941                   129120019.941    24796176.494  
  25366426.389   133301436.414                                                  
  24697320.895   129785255.590                                                  
  23460449.140   123285467.524                                                  
  23420863.876   123077440.696                                                  
  25902027.212   136116045.765                                                  
  26962891.306   141690965.215                                                  
 21  9  1 11 44 48.0000000  0 18G 2G 3G 6G14G17G19G24G30C23C27C28C33
                                E 1E13E21E26E27E33
  22768414.349   119648842.919    22768412.473    93232869.402                  
  23759182.644   124855311.341    23759185.646    97289843.328                  
  20541720.338   107947432.029    20541723.179    84114872.227                  
  20792969.647   109267800.063    20792970.094    85143744.185                  
  21779134.007   114450131.767    21779133.596    89181922.828                  
  21117187.344   110971588.595    21117185.164    86471373.281                  
  24099353.108   126642915.027    24099356.003    98682780.828                  
  24394169.275   128192165.214    24394172.635    99889983.913                  
                 126456016.298                   126456016.298    24284541.515  
                 121540519.809                   121540519.809    23340578.338  
                 117853585.684                   117853585.684    22632541.032  
                 129118746.218                   129118746.218    24795931.903  
  25366038.059   133299395.755                                                  
  24697673.308   129787107.442                                                  
  23460513.808   123285807.251                                                  
  23420830.085   123077263.114                                                  
  25902504.618   136118554.501                                                  
  26962553.457   141689189.839                                                  
 21  9  1 11 44 49.0000000  0 18G 2G 3G 6G14G17G19G24G30C23C27C28C33
                                E 1E13E21E26E27E33
  22768057.755   119646969.165    22768055.914    93231409.332                  
  23759551.639   124857250.436    23759554.641    97291354.313                  
  20541622.255   107946916.564    20541625.078    84114470.566                  
  20793248.958   109269267.883    20793249.405    85144887.940                  
  21779231.143   114450642.273    21779230.768    89182320.625                  
  21117131.396   110971294.613    21117129.216    86471144.207                  
  24099241.784   126642330.047    24099244.679    98682325.000                  
  24394784.881   128195400.246    24394788.240    99892504.716                  
                 126459010.774                   126459010.774    24285116.576  
                 121539587.618                   121539587.618    23340399.326  
                 117854426.643                   117854426.643    22632702.532  
                 129117472.847                   129117472.847    24795687.365  
  25365649.783   133297355.345                                                  
  24698025.703   129788959.349                                                  
  23460578.512   123286147.397                                                  
  23420796.349   123077085.786                                                  
  25902982.061   136121063.484                                                  
  26962215.661   141687414.679                                                  
 21  9  1 11 44 50.0000000  0 18G 2G 3G 6G14G17G19G24G30C23C27C28C33
                                E 1E13E21E26E27E33
  22767701.285   119645095.787    22767699.427    93229949.559                  
  23759920.742   124859190.066    23759923.744    97292865.710                  
  20541524.261   107946401.591    20541527.085    84114069.284                  
  20793528.358   109270736.225    20793528.823    85146032.106                  
  21779328.297   114451152.808    21779327.904    89182718.445                  
  21117075.484   110971000.755    21117073.304    86470915.226                  
  24099130.567   126641745.581    24099133.462    98681869.574                  
  24395400.487   128198635.165    24395403.828    99895025.434                  
                 126462005.415                   126462005.415    24285691.673  
                 121538655.552                   121538655.552    23340220.332  
                 117855267.655                   117855267.655    22632864.068  
                 129116199.827                   129116199.827    24795442.899  
  25365261.543   133295315.175                                                  
  24698378.116   129790811.299                                                  
  23460643.323   123286487.981                                                  
  23420762.648   123076908.706                                                  
  25903459.539   136123572.695                                                  
  26961877.900   141685639.722                                                  
 21  9  1 11 44 51.0000000  0 18G 2G 3G 6G14G17G19G24G30C23C27C28C33
                                E 1E13E21E26E27E33
  22767344.852   119643222.784    22767342.994    93228490.074                  
  23760289.934   124861130.226    23760292.936    97294377.524                  
  20541426.357   107945887.118    20541429.180    84113668.398                  
  20793807.883   109272205.081    20793808.348    85147176.668                  
  21779425.433   114451663.355    21779425.058    89183116.274                  
  21117019.572   110970706.996    21117017.392    86470686.323                  
  24099019.440   126641161.661    24099022.334    98681414.571                  
  24396016.039   128201869.977    24396019.398    99897546.067                  
                 126465000.231                   126465000.231    24286266.805  
                 121537723.596                   121537723.596    23340041.356  
                 117856108.731                   117856108.731    22633025.586  
                 129114927.168                   129114927.168    24795198.504  
  25364873.356   133293275.250                                                  
  24698730.565   129792663.321                                                  
  23460708.223   123286828.996                                                  
  23420729.000   123076731.897                                                  
  25903937.089   136126082.136                                                  
  26961540.176   141683864.997                                                  
 21  9  1 11 44 52.0000000  0 18G 2G 3G 6G14G17G19G24G30C23C27C28C33
                                E 1E13E21E26E27E33
  22766988.508   119641350.180    22766986.667    93227030.907                  
  23760659.233   124863070.909    23760662.235    97295889.746                  
  20541328.560   107945373.138    20541331.383    84113267.894                  
  20794087.498   109273674.453    20794087.962    85148321.634                  
  21779522.605   114452173.926    21779522.211    89183514.121                  
  21116963.696   110970413.354    21116961.516    86470457.512                  
  24098908.419   126640578.267    24098911.314    98680959.976                  
  24396631.573   128205104.696    24396634.932    99900066.625                  
                 126467995.207                   126467995.207    24286841.937  
                 121536791.778                   121536791.778    23339862.415  
                 117856949.839                   117856949.839    22633187.104  
                 129113654.853                   129113654.853    24794954.163  
  25364485.223   133291235.585                                                  
  24699082.977   129794515.395                                                  
  23460773.195   123287170.419                                                  
  23420695.407   123076555.340                                                  
  25904414.656   136128591.817                                                  
  26961202.505   141682090.492                                                  
 21  9  1 11 44 53.0000000  0 18G 2G 3G 6G14G17G19G24G30C23C27C28C33
                                E 1E13E21E26E27E33
  22766632.235   119639477.947    22766630.377    93225572.019                  
  23761028.639   124865012.143    23761031.641    97297402.394                  
  20541230.834   107944859.659    20541233.657    84112867.785                  
  20794367.202   109275144.345    20794367.666    85149466.999                  
  21779619.758   114452684.520    21779619.383    89183911.984                  
  21116907.837   110970119.824    21116905.657    86470228.789                  
  24098797.524   126639995.403    24098800.401    98680505.796                  
  24397247.107   128208339.303    24397250.467    99902587.098                  
                 126470990.345                   126470990.345    24287417.141  
                 121535860.078                   121535860.078    23339683.493  
                 117857790.999                   117857790.999    22633348.640  
                 129112382.886                   129112382.886    24794709.876  
  25364097.144   133289196.167                                                  
  24699435.444   129796367.519                                                  
  23460838.238   123287512.271                                                  
  23420661.849   123076379.039                                                  
  25904892.277   136131101.727                                                  
  26960864.852   141680316.207                                                  
 21  9  1 11 44 54.0000000  0 18G 2G 3G 6G14G17G19G24G30C23C27C28C33
                                E 1E13E21E26E27E33
  22766276.034   119637606.097    22766274.176    93224113.442                  
  23761398.135   124866953.891    23761401.137    97298915.442                  
  20541133.216   107944346.688    20541136.039    84112468.065                  
  20794647.013   109276614.753    20794647.477    85150612.774                  
  21779716.948   114453195.134    21779716.537    89184309.868                  
  21116851.996   110969826.394    21116849.834    86470000.140                  
  24098686.701   126639413.079    24098689.595    98680052.040                  
  24397862.624   128211573.820    24397865.983    99905107.500                  
                 126473985.649                   126473985.649    24287992.363  
                 121534928.507                   121534928.507    23339504.606  
                 117858632.212                   117858632.212    22633510.176  
                 129111111.277                   129111111.277    24794465.678  
  25363709.100   133287156.995                                                  
  24699787.893   129798219.711                                                  
  23460903.389   123287854.560                                                  
  23420628.344   123076202.995                                                  
  25905369.934   136133611.872                                                  
  26960527.252   141678542.140                                                  
 21  9  1 11 44 55.0000000  0 18G 2G 3G 6G14G17G19G24G30C23C27C28C33
                                E 1E13E21E26E27E33
  22765919.905   119635734.632    22765918.046    93222655.155                  
  23761767.738   124868896.176    23761770.740    97300428.911                  
  20541035.704   107943834.210    20541038.528    84112068.734                  
  20794926.913   109278085.680    20794927.378    85151758.954                  
  21779814.102   114453705.769    21779813.727    89184707.765                  
  21116796.174   110969533.076    21116794.011    86469771.582                  
  24098575.984   126638831.278    24098578.879    98679598.688                  
  24398478.104   128214808.227    24398481.464    99907627.816                  
                 126476981.122                   126476981.122    24288567.602  
                 121533997.055                   121533997.055    23339325.719  
                 117859473.473                   117859473.473    22633671.748  
                 129109840.016                   129109840.016    24794221.551  
  25363321.092   133285118.085                                                  
  24700140.359   129800071.952                                                  
  23460968.593   123288197.265                                                  
  23420594.893   123076027.222                                                  
  25905847.662   136136122.254                                                  
  26960189.724   141676768.292                                                  
 21  9  1 11 44 56.0000000  0 18G 2G 3G 6G14G17G19G24G30C23C27C28C33
                                E 1E13E21E26E27E33
  22765563.864   119633863.516    22765562.006    93221197.129                  
  23762137.466   124870838.989    23762140.468    97301942.785                  
  20540938.282   107943322.213    20540941.106    84111669.769                  
  20795206.921   109279557.119    20795207.385    85152905.527                  
  21779911.274   114454216.425    21779910.898    89185105.677                  
  21116740.404   110969239.860    21116738.224    86469543.098                  
  24098465.375   126638249.981    24098468.288    98679145.714                  
  24399093.567   128218042.556    24399096.926    99910148.090                  
                 126479976.778                   126479976.778    24289142.878  
                 121533065.719                   121533065.719    23339146.886  
                 117860314.782                   117860314.782    22633833.302  
                 129108569.111                   129108569.111    24793977.496  
  25362933.156   133283079.397                                                  
  24700492.843   129801924.255                                                  
  23461033.904   123288540.431                                                  
  23420561.496   123075851.680                                                  
  25906325.409   136138632.883                                                  
  26959852.196   141674994.632                                                  
 21  9  1 11 44 57.0000000  0 18G 2G 3G 6G14G17G19G24G30C23C27C28C33
                                E 1E13E21E26E27E33
  22765207.860   119631992.811    22765206.019    93219739.437                  
  23762507.265   124872782.337    23762510.267    97303457.086                  
  20540840.932   107942810.742    20540843.773    84111271.220                  
  20795487.035   109281029.073    20795487.482    85154052.509                  
  21780008.463   114454727.101    21780008.088    89185503.606                  
  21116684.617   110968946.761    21116682.437    86469314.712                  
  24098354.855   126637669.228    24098357.768    98678693.183                  
  24399708.994   128221276.752    24399712.353    99912668.245                  
                 126482972.577                   126482972.577    24289718.207  
                 121532134.516                   121532134.516    23338968.035  
                 117861156.140                   117861156.140    22633994.874  
                 129107298.554                   129107298.554    24793733.495  
  25362545.255   133281040.977                                                  
  24700845.346   129803776.605                                                  
  23461099.287   123288884.005                                                  
  23420528.135   123075676.411                                                  
  25906803.208   136141143.724                                                  
  26959514.740   141673221.231                                                  
 21  9  1 11 44 58.0000000  0 18G 2G 3G 6G14G17G19G24G30C23C27C28C33
                                E 1E13E21E26E27E33
  22764851.962   119630122.488    22764850.104    93218282.042                  
  23762877.154   124874726.215    23762880.174    97304971.792                  
  20540743.724   107942299.758    20540746.548    84110873.050                  
  20795767.240   109282501.547    20795767.704    85155199.886                  
  21780105.635   114455237.798    21780105.260    89185901.554                  
  21116628.866   110968653.774    21116626.704    86469086.405                  
  24098244.460   126637089.017    24098247.337    98678241.071                  
  24400324.439   128224510.852    24400327.798    99915188.321                  
                 126485968.547                   126485968.547    24290293.536  
                 121531203.433                   121531203.433    23338789.238  
                 117861997.550                   117861997.550    22634156.463  
                 129106028.352                   129106028.352    24793489.565  
  25362157.408   133279002.800                                                  
  24701197.848   129805629.017                                                  
  23461164.741   123289227.993                                                  
  23420494.845   123075501.404                                                  
  25907281.044   136143654.807                                                  
  26959177.319   141671448.055                                                  
 21  9  1 11 44 59.0000000  0 18G 2G 3G 6G14G17G19G24G30C23C27C28C33
                                E 1E13E21E26E27E33
  22764496.119   119628252.543    22764494.260    93216824.944                  
  23763247.186   124876670.625    23763250.188    97306486.918                  
  20540646.588   107941789.281    20540649.394    84110475.274                  
  20796047.533   109283974.546    20796047.998    85156347.680                  
  21780202.825   114455748.518    21780202.432    89186299.515                  
  21116573.132   110968360.901    21116570.952    86468858.195                  
  24098134.137   126636509.340    24098137.032    98677789.374                  
  24400939.848   128227744.828    24400943.208    99917708.305                  
                 126488964.680                   126488964.680    24290868.918  
                 121530272.475                   121530272.475    23338610.458  
                 117862839.007                   117862839.007    22634318.053  
                 129104758.505                   129104758.505    24793245.706  
  25361769.596   133276964.890                                                  
  24701550.368   129807481.473                                                  
  23461230.285   123289572.394                                                  
  23420461.573   123075326.663                                                  
  25907758.915   136146166.117                                                  
  26958839.934   141669675.085                                                  
 21  9  1 11 45  0.0000000  0 18G 2G 3G 6G14G17G19G24G30C23C27C28C33
                                E 1E13E21E26E27E33
  22764140.364   119626382.976    22764138.506    93215368.142                  
  23763617.289   124878615.562    23763620.309    97308002.452                  
  20540549.524   107941279.303    20540552.347    84110077.891                  
  20796327.934   109285448.038    20796328.380    85157495.856                  
  21780300.014   114456259.262    21780299.639    89186697.500                  
  21116517.417   110968068.128    21116515.237    86468630.063                  
  24098023.939   126635930.200    24098026.833    98677338.094                  
  24401555.239   128230978.714    24401558.581    99920228.211                  
                 126491960.976                   126491960.976    24291444.319  
                 121529341.639                   121529341.639    23338431.696  
                 117863680.519                   117863680.519    22634479.660  
                 129103489.007                   129103489.007    24793001.919  
  25361381.838   133274927.223                                                  
  24701902.888   129809333.987                                                  
  23461295.900   123289917.266                                                  
  23420428.372   123075152.175                                                  
  25908236.858   136148677.659                                                  
  26958502.603   141667902.346                                                  
 21  9  1 11 45  1.0000000  0 18G 2G 3G 6G14G17G19G24G30C23C27C28C33
                                E 1E13E21E26E27E33
  22763784.664   119624513.800    22763782.805    93213911.641                  
  23763987.499   124880561.034    23763990.501    97309518.406                  
  20540452.584   107940769.813    20540455.408    84109680.887                  
  20796608.442   109286922.059    20796608.888    85158644.441                  
  21780397.222   114456770.023    21780396.829    89187095.496                  
  21116461.719   110967775.476    21116459.557    86468402.020                  
  24097913.812   126635351.565    24097916.724    98676887.210                  
  24402170.595   128234212.488    24402173.954    99922748.035                  
                 126494957.440                   126494957.440    24292019.755  
                 121528410.929                   121528410.929    23338252.952  
                 117864522.077                   117864522.077    22634641.268  
                 129102219.863                   129102219.863    24792758.185  
  25360994.134   133272889.798                                                  
  24702255.408   129811186.566                                                  
  23461361.604   123290262.527                                                  
  23420395.225   123074977.936                                                  
  25908714.836   136151189.429                                                  
  26958165.307   141666129.825                                                  
 21  9  1 11 45  2.0000000  0 18G 2G 3G 6G14G17G19G24G30C23C27C28C33
                                E 1E13E21E26E27E33
  22763429.034   119622645.003    22763427.176    93212455.433                  
  23764357.817   124882507.040    23764360.819    97311034.770                  
  20540355.716   107940260.824    20540358.540    84109284.273                  
  20796889.021   109288396.616    20796889.486    85159793.449                  
  21780494.411   114457280.808    21780494.018    89187493.507                  
  21116406.057   110967482.941    21116403.877    86468174.070                  
  24097803.828   126634773.482    24097806.723    98676436.758                  
  24402785.933   128237446.159    24402789.292    99925267.781                  
                 126497954.071                   126497954.071    24292595.244  
                 121527480.340                   121527480.340    23338074.262  
                 117865363.688                   117865363.688    22634802.875  
                 129100951.069                   129100951.069    24792514.523  
  25360606.484   133270852.630                                                  
  24702607.964   129813039.206                                                  
  23461427.380   123290608.231                                                  
  23420362.114   123074803.962                                                  
  25909192.869   136153701.440                                                  
  26957828.047   141664357.533                                                  
 21  9  1 11 45  3.0000000  0 18G 2G 3G 6G14G17G19G24G30C23C27C28C33
                                E 1E13E21E26E27E33
  22763073.476   119620776.583    22763071.636    93210999.524                  
  23764728.224   124884453.571    23764731.226    97312551.548                  
  20540258.956   107939752.342    20540261.779    84108888.051                  
  20797169.726   109289871.664    20797170.172    85160942.837                  
  21780591.619   114457791.622    21780591.244    89187891.542                  
  21116350.413   110967190.508    21116348.233    86467946.198                  
  24097693.916   126634195.918    24097696.792    98675986.708                  
  24403401.288   128240679.722    24403404.648    99927787.438                  
                 126500950.867                   126500950.867    24293170.734  
                 121526549.876                   121526549.876    23337895.554  
                 117866205.343                   117866205.343    22634964.518  
                 129099682.632                   129099682.632    24792270.933  
  25360218.869   133268815.706                                                  
  24702960.502   129814891.894                                                  
  23461493.263   123290954.379                                                  
  23420329.056   123074630.245                                                  
  25909670.919   136156213.683                                                  
  26957490.823   141662585.448                                                  
 21  9  1 11 45  4.0000000  0 18G 2G 3G 6G14G17G19G24G30C23C27C28C33
                                E 1E13E21E26E27E33
  22762718.026   119618908.546    22762716.167    93209543.910                  
  23765098.738   124886400.634    23765101.740    97314068.741                  
  20540162.284   107939244.351    20540165.125    84108492.214                  
  20797450.519   109291347.233    20797450.984    85162092.629                  
  21780688.826   114458302.448    21780688.433    89188289.590                  
  21116294.787   110966898.187    21116292.625    86467718.418                  
  24097584.093   126633618.879    24097587.005    98675537.067                  
  24404016.572   128243913.176    24404019.932    99930307.012                  
                 126503947.825                   126503947.825    24293746.278  
                 121525619.532                   121525619.532    23337716.900  
                 117867047.050                   117867047.050    22635126.162  
                 129098414.547                   129098414.547    24792027.414  
  25359831.308   133266779.044                                                  
  24703313.076   129816744.634                                                  
  23461559.200   123291300.937                                                  
  23420296.052   123074456.784                                                  
  25910149.022   136158726.155                                                  
  26957153.634   141660813.582                                                  
 21  9  1 11 45  5.0000000  0 18G 2G 3G 6G14G17G19G24G30C23C27C28C33
                                E 1E13E21E26E27E33
  22762362.593   119617040.890    22762360.753    93208088.594                  
  23765469.360   124888348.227    23765472.362    97315586.344                  
  20540065.720   107938736.871    20540068.543    84108096.774                  
  20797731.403   109292823.320    20797731.867    85163242.828                  
  21780786.034   114458813.297    21780785.659    89188687.657                  
  21116239.178   110966605.972    21116236.998    86467490.718                  
  24097474.395   126633042.380    24097477.307    98675087.847                  
  24404631.856   128247146.536    24404635.216    99932826.511                  
                 126506944.950                   126506944.950    24294321.839  
                 121524689.310                   121524689.310    23337538.263  
                 117867888.809                   117867888.809    22635287.823  
                 129097146.814                   129097146.814    24791783.966  
  25359443.782   133264742.625                                                  
  24703665.631   129818597.433                                                  
  23461625.244   123291647.909                                                  
  23420263.101   123074283.587                                                  
  25910627.179   136161238.865                                                  
  26956816.517   141659041.949                                                  
 21  9  1 11 45  6.0000000  0 18G 2G 3G 6G14G17G19G24G30C23C27C28C33
                                E 1E13E21E26E27E33
  22762007.285   119615173.621    22762005.427    93206633.579                  
  23765840.088   124890296.363    23765843.072    97317104.370                  
  20539969.245   107938229.886    20539972.069    84107701.724                  
  20798012.393   109294299.925    20798012.840    85164393.430                  
  21780883.259   114459324.173    21780882.866    89189085.738                  
  21116183.606   110966313.868    21116181.426    86467263.105                  
  24097364.804   126632466.409    24097367.699    98674639.039                  
  24405247.140   128250379.779    24405250.500    99935345.921                  
                 126509942.237                   126509942.237    24294897.436  
                 121523759.212                   121523759.212    23337359.662  
                 117868730.617                   117868730.617    22635449.484  
                 129095879.433                   129095879.433    24791540.572  
  25359056.328   133262706.464                                                  
  24704018.241   129820450.297                                                  
  23461691.341   123291995.339                                                  
  23420230.187   123074110.637                                                  
  25911105.372   136163751.800                                                  
  26956479.418   141657270.540                                                  
 21  9  1 11 45  7.0000000  0 18G 2G 3G 6G14G17G19G24G30C23C27C28C33
                                E 1E13E21E26E27E33
  22761652.014   119613306.728    22761650.155    93205178.859                  
  23766210.906   124892245.028    23766213.908    97318622.812                  
  20539872.860   107937723.406    20539875.683    84107307.062                  
  20798293.473   109295777.039    20798293.937    85165544.425                  
  21780980.485   114459835.057    21780980.074    89189483.836                  
  21116128.015   110966021.876    21116125.853    86467035.578                  
  24097255.303   126631890.973    24097258.197    98674190.649                  
  24405862.389   128253612.924    24405865.748    99937865.253                  
                 126512939.690                   126512939.690    24295473.068  
                 121522829.237                   121522829.237    23337181.061  
                 117869572.473                   117869572.473    22635611.145  
                 129094612.409                   129094612.409    24791297.268  
  25358668.892   133260670.552                                                  
  24704370.832   129822303.219                                                  
  23461757.546   123292343.192                                                  
  23420197.325   123073937.962                                                  
  25911583.619   136166264.964                                                  
  26956142.373   141655499.351                                                  
 21  9  1 11 45  8.0000000  0 18G 2G 3G 6G14G17G19G24G30C23C27C28C33
                                E 1E13E21E26E27E33
  22761296.849   119611440.246    22761294.973    93203724.458                  
  23766581.796   124894194.188    23766584.798    97320141.636                  
  20539776.564   107937217.378    20539779.387    84106912.754                  
  20798574.660   109297254.689    20798575.124    85166695.839                  
  21781077.692   114460345.954    21781077.299    89189881.933                  
  21116072.478   110965729.983    21116070.316    86466808.129                  
  24097145.908   126631316.059    24097148.785    98673742.659                  
  24406477.619   128256845.965    24406480.961    99940384.503                  
                 126515937.309                   126515937.309    24296048.719  
                 121521899.387                   121521899.387    23337002.496  
                 117870414.380                   117870414.380    22635772.824  
                 129093345.734                   129093345.734    24791053.999  
  25358281.527   133258634.867                                                  
  24704723.442   129824156.156                                                  
  23461823.804   123292691.446                                                  
  23420164.518   123073765.516                                                  
  25912061.901   136168778.390                                                  
  26955805.363   141653728.344                                                  
 21  9  1 11 45  9.0000000  0 18G 2G 3G 6G14G17G19G24G30C23C27C28C33
                                E 1E13E21E26E27E33
  22760941.720   119609574.121    22760939.879    93202270.335                  
  23766952.828   124896143.909    23766955.812    97321660.902                  
  20539680.375   107936711.890    20539683.198    84106518.872                  
  20798855.936   109298732.847    20798856.400    85167847.653                  
  21781174.917   114460856.888    21781174.542    89190280.063                  
  21116016.959   110965438.211    21116014.779    86466580.774                  
  24097036.604   126630741.667    24097039.480    98673295.086                  
  24407092.814   128260078.899    24407096.173    99942903.675                  
                 126518935.094                   126518935.094    24296624.423  
                 121520969.656                   121520969.656    23336823.949  
                 117871256.331                   117871256.331    22635934.520  
                 129092079.414                   129092079.414    24790810.819  
  25357894.180   133256599.457                                                  
  24705076.051   129826009.175                                                  
  23461890.152   123293040.141                                                  
  23420131.746   123073593.349                                                  
  25912540.237   136171292.027                                                  
  26955468.407   141651957.589                                                  
 21  9  1 11 45 10.0000000  0 18G 2G 3G 6G14G17G19G24G30C23C27C28C33
                                E 1E13E21E26E27E33
  22760586.698   119607708.390    22760584.840    93200816.521                  
  23767323.932   124898094.152    23767326.934    97323180.569                  
  20539584.275   107936206.886    20539587.098    84106125.360                  
  20799137.319   109300211.507    20799137.784    85168999.855                  
  21781272.143   114461367.837    21781271.767    89190678.203                  
  21115961.458   110965146.551    21115959.278    86466353.509                  
  24096927.406   126630167.824    24096930.283    98672847.933                  
  24407708.009   128263311.731    24407711.368    99945422.761                  
                 126521933.038                   126521933.038    24297200.145  
                 121520040.050                   121520040.050    23336645.419  
                 117872098.340                   117872098.340    22636096.199  
                 129090813.449                   129090813.449    24790567.693  
  25357506.905   133254564.285                                                  
  24705428.678   129827862.250                                                  
  23461956.607   123293389.267                                                  
  23420099.046   123073421.437                                                  
  25913018.626   136173805.901                                                  
  26955131.486   141650187.052                                                  
 21  9  1 11 45 11.0000000  0 18G 2G 3G 6G14G17G19G24G30C23C27C28C33
                                E 1E13E21E26E27E33
  22760231.712   119605843.023    22760229.872    93199362.988                  
  23767695.161   124900044.927    23767698.163    97324700.656                  
  20539488.283   107935702.378    20539491.106    84105732.239                  
  20799418.792   109301690.695    20799419.257    85170152.469                  
  21781369.386   114461878.801    21781368.993    89191076.359                  
  21115905.975   110964854.993    21115903.795    86466126.321                  
  24096818.298   126629594.488    24096821.175    98672401.181                  
  24408323.185   128266544.446    24408326.527    99947941.761                  
                 126524931.152                   126524931.152    24297775.903  
                 121519110.567                   121519110.567    23336466.926  
                 117872940.390                   117872940.390    22636257.914  
                 129089547.835                   129089547.835    24790324.657  
  25357119.683   133252529.368                                                  
  24705781.324   129829715.374                                                  
  23462023.115   123293738.815                                                  
  23420066.363   123073249.772                                                  
  25913497.016   136176319.993                                                  
  26954794.602   141648416.734                                                  
 21  9  1 11 45 12.0000000  0 18G 2G 3G 6G14G17G19G24G30C23C27C28C33
                                E 1E13E21E26E27E33
  22759876.833   119603978.046    22759874.975    93197909.761                  
  23768066.479   124901996.226    23768069.481    97326221.149                  
  20539392.362   107935198.378    20539395.185    84105339.512                  
  20799700.372   109303170.393    20799700.837    85171305.481                  
  21781466.611   114462389.797    21781466.236    89191474.536                  
  21115850.527   110964563.543    21115848.347    86465899.215                  
  24096709.297   126629021.699    24096712.174    98671954.849                  
  24408938.327   128269777.058    24408941.686    99950460.680                  
                 126527929.425                   126527929.425    24298351.679  
                 121518181.202                   121518181.202    23336288.468  
                 117873782.495                   117873782.495    22636419.646  
                 129088282.577                   129088282.577    24790081.674  
  25356732.497   133250494.704                                                  
  24706133.987   129831568.567                                                  
  23462089.713   123294088.798                                                  
  23420033.752   123073078.374                                                  
  25913975.477   136178834.325                                                  
  26954457.753   141646646.637                                                  
 21  9  1 11 45 13.0000000  0 18G 2G 3G 6G14G17G19G24G30C23C27C28C33
                                E 1E13E21E26E27E33
  22759522.026   119602113.456    22759520.168    93196456.832                  
  23768437.905   124903948.063    23768440.924    97327742.058                  
  20539296.566   107934694.876    20539299.371    84104947.171                  
  20799982.060   109304650.617    20799982.524    85172458.897                  
  21781563.855   114462900.814    21781563.479    89191872.730                  
  21115795.079   110964272.220    21115792.899    86465672.208                  
  24096600.403   126628449.446    24096603.298    98671508.938                  
  24409553.432   128273009.567    24409556.791    99952979.520                  
                 126530927.866                   126530927.866    24298927.508  
                 121517251.965                   121517251.965    23336109.992  
                 117874624.647                   117874624.647    22636581.361  
                 129087017.673                   129087017.673    24789838.762  
  25356345.365   133248460.289                                                  
  24706486.632   129833421.806                                                  
  23462156.400   123294439.201                                                  
  23420001.177   123072907.234                                                  
  25914453.991   136181348.904                                                  
  26954120.958   141644876.765                                                  
 21  9  1 11 45 14.0000000  0 18G 2G 3G 6G14G17G19G24G30C23C27C28C33
                                E 1E13E21E26E27E33
  22759167.254   119600249.242    22759165.396    93195004.195                  
  23768809.419   124905900.431    23768812.439    97329263.384                  
  20539200.842   107934191.871    20539203.665    84104555.218                  
  20800263.836   109306131.351    20800264.301    85173612.719                  
  21781661.116   114463411.860    21781660.722    89192270.950                  
  21115739.668   110963980.999    21115737.505    86465445.285                  
  24096491.598   126627877.719    24096494.493    98671063.438                  
  24410168.555   128276241.973    24410171.897    99955498.274                  
                 126533926.474                   126533926.474    24299503.355  
                 121516322.851                   121516322.851    23335931.588  
                 117875466.851                   117875466.851    22636743.094  
                 129085753.121                   129085753.121    24789595.922  
  25355958.268   133246426.129                                                  
  24706839.295   129835275.107                                                  
  23462223.159   123294790.040                                                  
  23419968.656   123072736.355                                                  
  25914932.542   136183863.691                                                  
  26953784.216   141643107.108                                                  
 21  9  1 11 45 15.0000000  0 18G 2G 3G 6G14G17G19G24G30C23C27C28C33
                                E 1E13E21E26E27E33
  22758812.572   119598385.471    22758810.732    93193551.945                  
  23769181.059   124907853.297    23769184.061    97330785.082                  
  20539105.207   107933689.355    20539108.012    84104163.648                  
  20800545.720   109307612.632    20800546.167    85174766.981                  
  21781758.359   114463922.876    21781757.984    89192669.122                  
  21115684.256   110963689.902    21115682.094    86465218.458                  
  24096382.901   126627306.511    24096385.796    98670618.343                  
  24410783.643   128279474.239    24410787.002    99958016.911                  
                 126536925.241                   126536925.241    24300079.238  
                 121515393.856                   121515393.856    23335753.183  
                 117876309.102                   117876309.102    22636904.844  
                 129084488.921                   129084488.921    24789353.136  
  25355571.225   133244392.195                                                  
  24707191.976   129837128.507                                                  
  23462290.007   123295141.285                                                  
  23419936.205   123072565.802                                                  
  25915411.146   136186378.727                                                  
  26953447.492   141641337.644                                                  
 21  9  1 11 45 16.0000000  0 18G 2G 3G 6G14G17G19G24G30C23C27C28C33
                                E 1E13E21E26E27E33
  22758457.979   119596522.023    22758456.121    93192099.903                  
  23769552.789   124909806.727    23769555.773    97332307.235                  
  20539009.679   107933187.350    20539012.502    84103772.478                  
  20800827.675   109309094.399    20800828.140    85175921.601                  
  21781855.620   114464433.954    21781855.245    89193067.363                  
  21115628.898   110963398.902    21115626.718    86464991.707                  
  24096274.329   126626735.843    24096277.206    98670173.664                  
  24411398.694   128282706.434    24411402.054    99960535.505                  
                 126539924.172                   126539924.172    24300655.157  
                 121514464.986                   121514464.986    23335574.797  
                 117877151.402                   117877151.402    22637066.594  
                 129083225.078                   129083225.078    24789110.439  
  25355184.236   133242358.532                                                  
  24707544.675   129838981.908                                                  
  23462356.926   123295492.970                                                  
  23419903.773   123072395.425                                                  
  25915889.785   136188893.984                                                  
  26953110.822   141639568.436                                                  
 21  9  1 11 45 17.0000000  0 18G 2G 3G 6G14G17G19G24G30C23C27C28C33
                                E 1E13E21E26E27E33
  22758103.458   119594658.954    22758101.600    93190648.161                  
  23769924.607   124911760.677    23769927.591    97333829.793                  
  20538914.240   107932685.839    20538917.064    84103381.687                  
  20801109.756   109310576.689    20801110.220    85177076.629                  
  21781952.881   114464945.059    21781952.506    89193465.626                  
  21115573.539   110963108.019    21115571.359    86464765.042                  
  24096165.828   126626165.694    24096168.705    98669729.395                  
  24412013.746   128285938.503    24412017.106    99963054.000                  
                 126542923.270                   126542923.270    24301231.093  
                 121513536.237                   121513536.237    23335396.446  
                 117877993.754                   117877993.754    22637228.363  
                 129081961.590                   129081961.590    24788867.795  
  25354797.282   133240325.120                                                  
  24707897.373   129840835.355                                                  
  23462423.935   123295845.077                                                  
  23419871.394   123072225.303                                                  
  25916368.461   136191409.481                                                  
  26952774.205   141637799.424                                                  
 21  9  1 11 45 18.0000000  0 18G 2G 3G 6G14G17G19G24G30C23C27C28C33
                                E 1E13E21E26E27E33
  22757749.008   119592796.266    22757747.132    93189196.718                  
  23770296.515   124913715.160    23770299.535    97335352.770                  
  20538818.891   107932184.828    20538821.714    84102991.289                  
  20801391.925   109312059.492    20801392.372    85178232.063                  
  21782050.142   114465456.184    21782049.767    89193863.905                  
  21115518.199   110962817.238    21115516.037    86464538.460                  
  24096057.417   126625596.082    24096060.312    98669285.544                  
  24412628.780   128289170.484    24412632.140    99965572.427                  
                 126545922.532                   126545922.532    24301807.083  
                 121512607.609                   121512607.609    23335218.095  
                 117878836.153                   117878836.153    22637390.149  
                 129080698.454                   129080698.454    24788625.223  
  25354410.382   133238291.950                                                  
  24708250.108   129842688.867                                                  
  23462491.016   123296197.622                                                  
  23419839.087   123072055.449                                                  
  25916847.208   136193925.204                                                  
  26952437.624   141636030.648                                                  
 21  9  1 11 45 19.0000000  0 18G 2G 3G 6G14G17G19G24G30C23C27C28C33
                                E 1E13E21E26E27E33
  22757394.594   119590933.953    22757392.753    93187745.563                  
  23770668.566   124915670.184    23770671.568    97336876.160                  
  20538723.667   107931684.300    20538726.473    84102601.269                  
  20801674.185   109313542.806    20801674.631    85179387.892                  
  21782147.421   114465967.333    21782147.028    89194262.203                  
  21115462.894   110962526.578    21115460.714    86464311.972                  
  24095949.113   126625026.996    24095952.025    98668842.098                  
  24413243.778   128292402.356    24413247.138    99968090.767                  
                 126548921.954                   126548921.954    24302383.073  
                 121511679.105                   121511679.105    23335039.798  
                 117879678.601                   117879678.601    22637551.917  
                 129079435.673                   129079435.673    24788382.723  
  25354023.536   133236259.043                                                  
  24708602.825   129844542.432                                                  
  23462558.185   123296550.586                                                  
  23419806.816   123071885.852                                                  
  25917325.954   136196441.159                                                  
  26952101.061   141634262.091                                                  
 21  9  1 11 45 20.0000000  0 18G 2G 3G 6G14G17G19G24G30C23C27C28C33
                                E 1E13E21E26E27E33
  22757040.305   119589072.031    22757038.446    93186294.714                  
  23771040.689   124917625.724    23771043.708    97338399.957                  
  20538628.497   107931184.284    20538631.320    84102211.649                  
  20801956.569   109315026.642    20801956.998    85180544.125                  
  21782244.682   114466478.499    21782244.307    89194660.517                  
  21115407.608   110962236.024    21115405.445    86464085.566                  
  24095840.934   126624458.452    24095843.828    98668399.079                  
  24413858.759   128295634.117    24413862.118    99970609.024                  
                 126551921.538                   126551921.538    24302959.117  
                 121510750.726                   121510750.726    23334861.501  
                 117880521.102                   117880521.102    22637713.721  
                 129078173.243                   129078173.243    24788140.276  
  25353636.743   133234226.383                                                  
  24708955.541   129846396.047                                                  
  23462625.444   123296903.982                                                  
  23419774.580   123071716.508                                                  
  25917804.773   136198957.343                                                  
  26951764.552   141632493.751                                                  
 21  9  1 11 45 21.0000000  0 18G 2G 3G 6G14G17G19G24G30C23C27C28C33
                                E 1E13E21E26E27E33
  22756686.051   119587210.476    22756684.193    93184844.156                  
  23771412.918   124919581.801    23771415.920    97339924.175                  
  20538533.451   107930684.765    20538536.275    84101822.411                  
  20802239.024   109316510.991    20802239.471    85181700.761                  
  21782341.961   114466989.689    21782341.586    89195058.844                  
  21115352.339   110961945.578    21115350.159    86463859.247                  
  24095732.844   126623890.422    24095735.739    98667956.456                  
  24414473.721   128298865.772    24414477.080    99973127.195                  
                 126554921.292                   126554921.292    24303535.196  
                 121509822.464                   121509822.464    23334683.240  
                 117881363.649                   117881363.649    22637875.525  
                 129076911.169                   129076911.169    24787897.918  
  25353249.986   133232193.966                                                  
  24709308.294   129848249.726                                                  
  23462692.757   123297257.797                                                  
  23419742.416   123071547.419                                                  
  25918283.645   136201473.774                                                  
  26951428.096   141630725.625                                                  
 21  9  1 11 45 22.0000000  0 18G 2G 3G 6G14G17G19G24G30C23C27C28C33
                                E 1E13E21E26E27E33
  22756331.887   119585349.308    22756330.029    93183393.898                  
  23771785.237   124921538.400    23771788.239    97341448.794                  
  20538438.495   107930185.747    20538441.319    84101433.564                  
  20802521.587   109317995.855    20802522.034    85182857.800                  
  21782439.240   114467500.902    21782438.865    89195457.192                  
  21115297.088   110961655.238    21115294.925    86463633.007                  
  24095624.861   126623322.929    24095627.738    98667514.254                  
  24415088.666   128302097.325    24415092.025    99975645.285                  
                 126557921.208                   126557921.208    24304111.294  
                 121508894.329                   121508894.329    23334504.996  
                 117882206.243                   117882206.243    22638037.311  
                 129075649.449                   129075649.449    24787655.614  
  25352863.282   133230161.808                                                  
  24709661.046   129850103.447                                                  
  23462760.177   123297612.050                                                  
  23419710.287   123071378.583                                                  
  25918762.534   136203990.415                                                  
  26951091.676   141628957.723                                                  
 21  9  1 11 45 23.0000000  0 18G 2G 3G 6G14G17G19G24G30C23C27C28C33
                                E 1E13E21E26E27E33
  22755977.777   119583488.527    22755975.936    93181943.937                  
  23772157.681   124923495.527    23772160.683    97342973.833                  
  20538343.629   107929687.214    20538346.434    84101045.101                  
  20802804.239   109319481.231    20802804.704    85184015.234                  
  21782536.519   114468012.133    21782536.144    89195855.556                  
  21115241.854   110961365.012    21115239.674    86463406.855                  
  24095516.968   126622755.965    24095519.863    98667072.461                  
  24415703.592   128305328.769    24415706.952    99978163.294                  
                 126560921.286                   126560921.286    24304687.445  
                 121507966.317                   121507966.317    23334326.789  
                 117883048.892                   117883048.892    22638199.133  
                 129074388.087                   129074388.087    24787413.382  
  25352476.614   133228129.896                                                  
  24710013.798   129851957.232                                                  
  23462827.686   123297966.728                                                  
  23419678.195   123071210.005                                                  
  25919241.496   136206507.300                                                  
  26950755.291   141627190.055                                                  
 21  9  1 11 45 24.0000000  0 18G 2G 3G 6G14G17G19G24G30C23C27C28C33
                                E 1E13E21E26E27E33
  22755623.756   119581628.125    22755621.915    93180494.273                  
  23772530.197   124925453.200    23772533.217    97344499.290                  
  20538248.851   107929189.191    20538251.675    84100657.026                  
  20803086.999   109320967.133    20803087.446    85185173.082                  
  21782633.816   114468523.396    21782633.441    89196253.938                  
  21115186.639   110961074.904    21115184.477    86463180.797                  
  24095409.182   126622189.534    24095412.059    98666631.086                  
  24416318.501   128308560.110    24416321.860    99980681.219                  
                 126563921.528                   126563921.528    24305263.596  
                 121507038.421                   121507038.421    23334148.599  
                 117883891.582                   117883891.582    22638360.973  
                 129073127.073                   129073127.073    24787171.221  
  25352090.000   133226098.242                                                  
  24710366.586   129853811.075                                                  
  23462895.266   123298321.840                                                  
  23419646.173   123071041.691                                                  
  25919720.475   136209024.423                                                  
  26950418.961   141625422.599                                                  
 21  9  1 11 45 25.0000000  0 18G 2G 3G 6G14G17G19G24G30C23C27C28C33
                                E 1E13E21E26E27E33
  22755269.824   119579768.110    22755267.966    93179044.910                  
  23772902.837   124927411.390    23772905.839    97346025.152                  
  20538154.181   107928691.652    20538157.005    84100269.336                  
  20803369.848   109322453.552    20803370.294    85186331.328                  
  21782731.095   114469034.671    21782730.720    89196652.336                  
  21115131.460   110960784.892    21115129.298    86462954.816                  
  24095301.486   126621623.631    24095304.380    98666190.126                  
  24416933.374   128311791.340    24416936.734    99983199.063                  
                 126566921.930                   126566921.930    24305839.800  
                 121506110.652                   121506110.652    23333970.427  
                 117884734.329                   117884734.329    22638522.813  
                 129071866.421                   129071866.421    24786929.114  
  25351703.440   133224066.841                                                  
  24710719.357   129855664.972                                                  
  23462962.901   123298677.378                                                  
  23419614.206   123070873.641                                                  
  25920199.526   136211541.778                                                  
  26950082.683   141623655.363                                                  
 21  9  1 11 45 26.0000000  0 18G 2G 3G 6G14G17G19G24G30C23C27C28C33
                                E 1E13E21E26E27E33
  22754915.946   119577908.477    22754914.087    93177595.848                  
  23773275.585   124929370.108    23773278.587    97347551.426                  
  20538059.601   107928194.636    20538062.424    84099882.051                  
  20803652.804   109323940.481    20803653.268    85187489.974                  
  21782828.392   114469545.972    21782828.016    89197050.753                  
  21115076.298   110960495.004    21115074.118    86462728.929                  
  24095193.896   126621058.263    24095196.809    98665749.579                  
  24417548.247   128315022.464    24417551.607    99985716.820                  
                 126569922.497                   126569922.497    24306416.022  
                 121505183.006                   121505183.006    23333792.272  
                 117885577.121                   117885577.121    22638684.652  
                 129070606.120                   129070606.120    24786687.095  
  25351316.933   133222035.707                                                  
  24711072.163   129857518.930                                                  
  23463030.642   123299033.353                                                  
  23419582.256   123070705.843                                                  
  25920678.594   136214059.365                                                  
  26949746.424   141621888.352                                                  
 21  9  1 11 45 27.0000000  0 18G 2G 3G 6G14G17G19G24G30C23C27C28C33
                                E 1E13E21E26E27E33
  22754562.139   119576049.222    22754560.281    93176147.078                  
  23773648.404   124931329.360    23773651.424    97349078.113                  
  20537965.091   107927698.110    20537967.933    84099495.149                  
  20803935.867   109325427.938    20803936.314    85188649.031                  
  21782925.706   114470057.299    21782925.313    89197449.192                  
  21115021.154   110960205.227    21115018.974    86462503.129                  
  24095086.414   126620493.414    24095089.309    98665309.434                  
  24418163.085   128318253.477    24418166.444    99988234.492                  
                 126572923.227                   126572923.227    24306992.281  
                 121504255.480                   121504255.480    23333614.154  
                 117886419.962                   117886419.962    22638846.528  
                 129069346.171                   129069346.171    24786445.149  
  25350930.461   133220004.807                                                  
  24711424.987   129859372.929                                                  
  23463098.455   123299389.747                                                  
  23419550.377   123070538.312                                                  
  25921157.734   136216577.192                                                  
  26949410.218   141620121.571                                                  
 21  9  1 11 45 28.0000000  0 18G 2G 3G 6G14G17G19G24G30C23C27C28C33
                                E 1E13E21E26E27E33
  22754208.404   119574190.348    22754206.546    93174698.605                  
  23774021.349   124933289.137    23774024.333    97350605.215                  
  20537870.725   107927202.059    20537873.548    84099108.614                  
  20804219.001   109326915.900    20804219.466    85189808.480                  
  21783023.021   114470568.642    21783022.628    89197847.636                  
  21114966.046   110959915.559    21114963.866    86462277.413                  
  24094979.021   126619929.102    24094981.916    98664869.711                  
  24418777.922   128321484.407    24418781.281    99990752.098                  
                 126575924.120                   126575924.120    24307568.574  
                 121503328.078                   121503328.078    23333436.053  
                 117887262.852                   117887262.852    22639008.403  
                 129068086.582                   129068086.582    24786203.238  
  25350544.044   133217974.160                                                  
  24711777.775   129861226.987                                                  
  23463166.357   123299746.570                                                  
  23419518.553   123070371.022                                                  
  25921636.892   136219095.239                                                  
  26949074.049   141618355.000                                                  
 21  9  1 11 45 29.0000000  0 18G 2G 3G 6G14G17G19G24G30C23C27C28C33
                                E 1E13E21E26E27E33
  22753854.740   119572331.857    22753852.882    93173250.430                  
  23774394.383   124935249.446    23774397.385    97352132.723                  
  20537776.412   107926706.527    20537779.236    84098722.485                  
  20804502.261   109328404.375    20804502.708    85190968.331                  
  21783120.318   114471080.011    21783119.943    89198246.110                  
  21114910.938   110959625.993    21114908.758    86462051.773                  
  24094871.736   126619365.312    24094874.648    98664430.399                  
  24419392.724   128324715.200    24419396.083    99993269.601                  
                 126578925.179                   126578925.179    24308144.904  
                 121502400.798                   121502400.798    23333257.989  
                 117888105.789                   117888105.789    22639170.279  
                 129066827.343                   129066827.343    24785961.417  
  25350157.680   133215943.777                                                  
  24712130.616   129863081.101                                                  
  23463234.367   123300103.822                                                  
  23419486.764   123070203.994                                                  
  25922116.121   136221613.521                                                  
  26948737.914   141616588.653                                                  
 21  9  1 11 45 30.0000000  0 18G 2G 3G 6G14G17G19G24G30C23C27C28C33
                                E 1E13E21E26E27E33
  22753501.166   119570473.746    22753499.308    93171802.551                  
  23774767.506   124937210.276    23774770.526    97353660.646                  
  20537682.225   107926211.489    20537685.048    84098336.741                  
  20804785.592   109329893.376    20804786.057    85192128.594                  
  21783217.633   114471591.400    21783217.257    89198644.590                  
  21114855.866   110959336.551    21114853.686    86461826.239                  
  24094764.557   126618802.059    24094767.452    98663991.496                  
  24420007.507   128327945.889    24420010.867    99995787.019                  
                 126581926.398                   126581926.398    24308721.234  
                 121501473.638                   121501473.638    23333079.942  
                 117888948.778                   117888948.778    22639332.154  
                 129065568.464                   129065568.464    24785719.667  
  25349771.351   133213913.641                                                  
  24712483.458   129864935.279                                                  
  23463302.412   123300461.496                                                  
  23419455.046   123070037.223                                                  
  25922595.386   136224132.032                                                  
  26948401.834   141614822.514                                                  
 21  9  1 11 45 31.0000000  0 18G 2G 3G 6G14G17G19G24G30C23C27C28C33
                                E 1E13E21E26E27E33
  22753147.645   119568616.015    22753145.787    93170354.968                  
  23775140.736   124939171.644    23775143.738    97355188.979                  
  20537588.109   107925716.952    20537590.914    84097951.390                  
  20805069.049   109331382.887    20805069.495    85193289.249                  
  21783314.965   114472102.812    21783314.572    89199043.094                  
  21114800.793   110959047.214    21114798.613    86461600.782                  
  24094657.486   126618239.335    24094660.363    98663553.011                  
  24420622.237   128331176.465    24420625.615    99998304.351                  
                 126584927.776                   126584927.776    24309297.635  
                 121500546.602                   121500546.602    23332901.913  
                 117889791.817                   117889791.817    22639494.065  
                 129064309.936                   129064309.936    24785477.988  
  25349385.077   133211883.751                                                  
  24712836.300   129866789.501                                                  
  23463370.565   123300819.604                                                  
  23419423.347   123069870.711                                                  
  25923074.687   136226650.766                                                  
  26948065.807   141613056.622                                                  
 21  9  1 11 45 32.0000000  0 18G 2G 3G 6G14G17G19G24G30C23C27C28C33
                                E 1E13E21E26E27E33
  22752794.196   119566758.664    22752792.338    93168907.684                  
  23775514.073   124941133.546    23775517.075    97356717.739                  
  20537494.100   107925222.914    20537496.923    84097566.426                  
  20805352.577   109332872.918    20805353.041    85194450.312                  
  21783412.280   114472614.243    21783411.905    89199441.613                  
  21114745.757   110958757.992    21114743.577    86461375.414                  
  24094550.504   126617677.130    24094553.381    98663114.930                  
  24421237.003   128334406.949    24421240.363   100000821.609                  
                 126587929.323                   126587929.323    24309874.036  
                 121499619.683                   121499619.683    23332723.901  
                 117890634.902                   117890634.902    22639655.959  
                 129063051.767                   129063051.767    24785236.363  
  25348998.856   133209854.113                                                  
  24713189.159   129868643.785                                                  
  23463438.789   123301178.138                                                  
  23419391.701   123069704.448                                                  
  25923554.024   136229169.749                                                  
  26947729.798   141611290.926                                                  
 21  9  1 11 45 33.0000000  0 18G 2G 3G 6G14G17G19G24G30C23C27C28C33
                                E 1E13E21E26E27E33
  22752440.836   119564901.704    22752438.978    93167460.703                  
  23775887.518   124943095.970    23775890.520    97358246.898                  
  20537400.180   107924729.360    20537403.003    84097181.836                  
  20805636.212   109334363.457    20805636.676    85195611.773                  
  21783509.595   114473125.700    21783509.219    89199840.149                  
  21114690.738   110958468.879    21114688.558    86461150.128                  
  24094443.594   126617115.456    24094446.507    98662677.262                  
  24421851.716   128337637.319    24421855.075   100003338.780                  
                 126590931.031                   126590931.031    24310450.508  
                 121498692.889                   121498692.889    23332545.926  
                 117891478.039                   117891478.039    22639817.888  
                 129061793.949                   129061793.949    24784994.792  
  25348612.688   133207824.728                                                  
  24713542.019   129870498.113                                                  
  23463507.102   123301537.100                                                  
  23419360.126   123069538.452                                                  
  25924033.396   136231688.953                                                  
  26947393.842   141609525.462                                                  
 21  9  1 11 45 34.0000000  0 18G 2G 3G 6G14G17G19G24G30C23C27C28C33
                                E 1E13E21E26E27E33
  22752087.548   119563045.117    22752085.671    93166014.011                  
  23776261.052   124945058.934    23776264.054    97359776.476                  
  20537306.332   107924236.300    20537309.155    84096797.633                  
  20805919.954   109335854.520    20805920.418    85196773.641                  
  21783606.945   114473637.177    21783606.552    89200238.703                  
  21114635.737   110958179.868    21114633.575    86460924.925                  
  24094336.826   126616554.319    24094339.721    98662240.016                  
  24422466.392   128340867.583    24422469.787   100005855.867                  
                 126593932.898                   126593932.898    24311026.981  
                 121497766.223                   121497766.223    23332367.968  
                 117892321.223                   117892321.223    22639979.799  
                 129060536.489                   129060536.489    24784753.328  
  25348226.539   133205795.598                                                  
  24713894.896   129872352.499                                                  
  23463575.487   123301896.488                                                  
  23419328.587   123069372.711                                                  
  25924512.840   136234208.391                                                  
  26947057.922   141607760.218                                                  
 21  9  1 11 45 35.0000000  0 18G 2G 3G 6G14G17G19G24G30C23C27C28C33
                                E 1E13E21E26E27E33
  22751734.295   119561188.914    22751732.454    93164567.622                  
  23776634.693   124947022.406    23776637.695    97361306.456                  
  20537212.627   107923743.761    20537215.432    84096413.837                  
  20806203.803   109337346.089    20806204.268    85197935.902                  
  21783704.278   114474148.675    21783703.884    89200637.275                  
  21114580.754   110957890.971    21114578.592    86460699.813                  
  24094230.148   126615993.719    24094233.043    98661803.181                  
  24423081.086   128344097.733    24423084.446   100008372.871                  
                 126596934.933                   126596934.933    24311603.471  
                 121496839.673                   121496839.673    23332190.047  
                 117893164.454                   117893164.454    22640141.746  
                 129059279.384                   129059279.384    24784511.899  
  25347840.461   133203766.723                                                  
  24714247.792   129874206.941                                                  
  23463643.961   123302256.307                                                  
  23419297.084   123069207.220                                                  
  25924992.319   136236728.067                                                  
  26946722.056   141605995.192                                                  
 21  9  1 11 45 36.0000000  0 18G 2G 3G 6G14G17G19G24G30C23C27C28C33
                                E 1E13E21E26E27E33
  22751381.167   119559333.098    22751379.309    93163121.531                  
  23777008.442   124948986.426    23777011.444    97362836.864                  
  20537118.975   107923251.704    20537121.799    84096030.418                  
  20806487.742   109338838.191    20806488.207    85199098.577                  
  21783801.592   114474660.190    21783801.217    89201035.860                  
  21114525.825   110957602.186    21114523.645    86460474.786                  
  24094123.578   126615433.647    24094126.454    98661366.761                  
  24423695.745   128347327.786    24423699.104   100010889.794                  
                 126599937.126                   126599937.126    24312180.015  
                 121495913.246                   121495913.246    23332012.125  
                 117894007.734                   117894007.734    22640303.675  
                 129058022.633                   129058022.633    24784270.560  
  25347454.418   133201738.098                                                  
  24714600.687   129876061.437                                                  
  23463712.506   123302616.555                                                  
  23419265.635   123069041.987                                                  
  25925471.834   136239247.980                                                  
  26946386.226   141604230.394                                                  
 21  9  1 11 45 37.0000000  0 18G 2G 3G 6G14G17G19G24G30C23C27C28C33
                                E 1E13E21E26E27E33
  22751028.075   119557477.661    22751026.217    93161675.734                  
  23777382.280   124950950.969    23777385.282    97364367.677                  
  20537025.449   107922760.152    20537028.254    84095647.390                  
  20806771.788   109340330.801    20806772.235    85200261.648                  
  21783898.961   114475171.729    21783898.567    89201434.462                  
  21114470.878   110957313.513    21114468.698    86460249.843                  
  24094017.096   126614874.101    24094019.973    98660930.753                  
  24424310.386   128350557.728    24424313.745   100013406.629                  
                 126602939.482                   126602939.482    24312756.595  
                 121494986.937                   121494986.937    23331834.239  
                 117894851.066                   117894851.066    22640465.640  
                 129056766.238                   129056766.238    24784029.275  
  25347068.447   133199709.722                                                  
  24714953.600   129877915.987                                                  
  23463781.141   123302977.228                                                  
  23419234.257   123068877.018                                                  
  25925951.421   136241768.108                                                  
  26946050.431   141602465.807                                                  
 21  9  1 11 45 38.0000000  0 18G 2G 3G 6G14G17G19G24G30C23C27C28C33
                                E 1E13E21E26E27E33
  22750675.073   119555622.603    22750673.214    93160230.234                  
  23777756.225   124952916.040    23777759.227    97365898.894                  
  20536931.994   107922269.090    20536934.817    84095264.746                  
  20807055.905   109341823.931    20807056.352    85201425.125                  
  21783996.293   114475683.294    21783995.918    89201833.082                  
  21114415.966   110957024.948    21114413.804    86460024.987                  
  24093910.722   126614315.091    24093913.599    98660495.159                  
  24424925.009   128353787.552    24424928.368   100015923.375                  
                 126605942.000                   126605942.000    24313333.193  
                 121494060.754                   121494060.754    23331656.388  
                 117895694.445                   117895694.445    22640627.605  
                 129055510.197                   129055510.197    24783788.079  
  25346682.494   133197681.604                                                  
  24715306.514   129879770.597                                                  
  23463849.865   123303338.323                                                  
  23419202.896   123068712.302                                                  
  25926431.026   136244288.476                                                  
  26945714.672   141600701.441                                                  
 21  9  1 11 45 39.0000000  0 18G 2G 3G 6G14G17G19G24G30C23C27C28C33
                                E 1E13E21E26E27E33
  22750322.142   119553767.923    22750320.283    93158785.031                  
  23778130.259   124954881.633    23778133.261    97367430.527                  
  20536838.646   107921778.532    20536841.487    84094882.491                  
  20807340.148   109343317.574    20807340.595    85202589.003                  
  21784093.661   114476194.871    21784093.268    89202231.711                  
  21114361.072   110956736.492    21114358.892    86459800.218                  
  24093804.437   126613756.604    24093807.332    98660059.977                  
  24425539.596   128357017.270    24425542.955   100018440.034                  
                 126608944.679                   126608944.679    24313909.844  
                 121493134.695                   121493134.695    23331478.538  
                 117896537.870                   117896537.870    22640789.552  
                 129054254.513                   129054254.513    24783546.936  
  25346296.595   133195653.742                                                  
  24715659.445   129881625.245                                                  
  23463918.661   123303699.856                                                  
  23419171.626   123068547.841                                                  
  25926910.684   136246809.068                                                  
  26945378.985   141598937.297                                                  
 21  9  1 11 45 40.0000000  0 18G 2G 3G 6G14G17G19G24G30C23C27C28C33
                                E 1E13E21E26E27E33
  22749969.282   119551913.621    22749967.424    93157340.121                  
  23778504.401   124956847.761    23778507.403    97368962.575                  
  20536745.405   107921288.470    20536748.229    84094500.625                  
  20807624.462   109344811.730    20807624.927    85203753.281                  
  21784190.994   114476706.481    21784190.619    89202630.368                  
  21114306.197   110956448.153    21114304.035    86459575.539                  
  24093698.259   126613198.645    24093701.154    98659625.203                  
  24426154.183   128360246.895    24426157.543   100020956.625                  
                 126611947.523                   126611947.523    24314486.495  
                 121492208.753                   121492208.753    23331300.723  
                 117897381.348                   117897381.348    22640951.534  
                 129052999.185                   129052999.185    24783305.865  
  25345910.767   133193626.117                                                  
  24716012.376   129883479.957                                                  
  23463987.546   123304061.809                                                  
  23419140.355   123068383.632                                                  
  25927390.378   136249329.894                                                  
  26945043.315   141597173.374                                                  
 21  9  1 11 45 41.0000000  0 18G 2G 3G 6G14G17G19G24G30C23C27C28C33
                                E 1E13E21E26E27E33
  22749616.494   119550059.710    22749614.636    93155895.515                  
  23778878.632   124958814.419    23778881.652    97370495.036                  
  20536652.236   107920798.902    20536655.060    84094119.145                  
  20807908.901   109346306.403    20807909.366    85204917.961                  
  21784288.362   114477218.105    21784287.987    89203029.036                  
  21114251.357   110956159.923    21114249.177    86459350.941                  
  24093592.206   126612641.223    24093595.083    98659190.849                  
  24426768.717   128363476.387    24426772.076   100023473.112                  
                 126614950.527                   126614950.527    24315063.200  
                 121491282.936                   121491282.936    23331122.926  
                 117898224.872                   117898224.872    22641113.535  
                 129051744.214                   129051744.214    24783064.866  
  25345524.975   133191598.757                                                  
  24716365.343   129885334.719                                                  
  23464056.503   123304424.195                                                  
  23419109.156   123068219.684                                                  
  25927870.125   136251850.952                                                  
  26944707.699   141595409.683                                                  
 21  9  1 11 45 42.0000000  0 18G 2G 3G 6G14G17G19G24G30C23C27C28C33
                                E 1E13E21E26E27E33
  22749263.777   119548206.183    22749261.919    93154451.210                  
  23779252.988   124960781.606    23779256.008    97372027.906                  
  20536559.157   107920309.829    20536561.980    84093738.047                  
  20808193.412   109347801.587    20808193.876    85206083.039                  
  21784385.713   114477729.758    21784385.338    89203427.727                  
  21114196.517   110955871.786    21114194.354    86459126.417                  
  24093486.225   126612084.329    24093489.102    98658756.905                  
  24427383.268   128366705.786    24427386.628   100025989.527                  
                 126617953.691                   126617953.691    24315639.923  
                 121490357.238                   121490357.238    23330945.147  
                 117899068.445                   117899068.445    22641275.536  
                 129050489.597                   129050489.597    24782823.920  
  25345139.218   133189571.646                                                  
  24716718.291   129887189.534                                                  
  23464125.549   123304787.011                                                  
  23419078.028   123068055.992                                                  
  25928349.909   136254372.233                                                  
  26944372.119   141593646.185                                                  
 21  9  1 11 45 43.0000000  0 18G 2G 3G 6G14G17G19G24G30C23C27C28C33
                                E 1E13E21E26E27E33
  22748911.132   119546353.035    22748909.274    93153007.199                  
  23779627.415   124962749.312    23779630.435    97373561.184                  
  20536466.202   107919821.255    20536469.025    84093357.340                  
  20808478.047   109349297.302    20808478.494    85207248.531                  
  21784483.099   114478241.429    21784482.724    89203826.434                  
  21114141.712   110955583.788    21114139.568    86458902.007                  
  24093380.333   126611527.961    24093383.246    98658323.372                  
  24427997.784   128369935.067    24428001.143   100028505.852                  
                 126620957.020                   126620957.020    24316216.681  
                 121489431.663                   121489431.663    23330767.404  
                 117899912.066                   117899912.066    22641437.536  
                 129049235.336                   129049235.336    24782583.063  
  25344753.515   133187544.784                                                  
  24717071.258   129889044.408                                                  
  23464194.666   123305150.251                                                  
  23419046.918   123067892.558                                                  
  25928829.728   136256893.761                                                  
  26944036.574   141591882.919                                                  
 21  9  1 11 45 44.0000000  0 18G 2G 3G 6G14G17G19G24G30C23C27C28C33
                                E 1E13E21E26E27E33
  22748558.558   119544500.265    22748556.700    93151563.485                  
  23780001.986   124964717.558    23780004.988    97375094.882                  
  20536373.319   107919333.177    20536376.142    84092977.020                  
  20808762.754   109350793.515    20808763.219    85208414.414                  
  21784580.467   114478753.124    21784580.074    89204225.157                  
  21114086.944   110955295.895    21114084.764    86458677.675                  
  24093274.585   126610972.121    24093277.461    98657890.249                  
  24428612.264   128373164.255    24428615.623   100031022.098                  
                 126623960.513                   126623960.513    24316793.458  
                 121488506.212                   121488506.212    23330589.679  
                 117900755.738                   117900755.738    22641599.555  
                 129047981.435                   129047981.435    24782342.260  
  25344367.884   133185518.181                                                  
  24717424.243   129890899.337                                                  
  23464263.855   123305513.915                                                  
  23419015.861   123067729.379                                                  
  25929309.600   136259415.517                                                  
  26943701.083   141590119.881                                                  
 21  9  1 11 45 45.0000000  0 18G 2G 3G 6G14G17G19G24G30C23C27C28C33
                                E 1E13E21E26E27E33
  22748206.056   119542647.883    22748204.198    93150120.067                  
  23780376.628   124966686.324    23780379.612    97376628.987                  
  20536280.525   107918845.598    20536283.366    84092597.086                  
  20809047.587   109352290.254    20809048.033    85209580.704                  
  21784677.836   114479264.839    21784677.460    89204623.893                  
  21114032.175   110955008.105    21114029.995    86458453.421                  
  24093168.907   126610416.811    24093171.784    98657457.543                  
  24429226.744   128376393.322    24429230.103   100033538.254                  
                 126626964.160                   126626964.160    24317370.287  
                 121487580.878                   121487580.878    23330411.972  
                 117901599.457                   117901599.457    22641761.609  
                 129046727.883                   129046727.883    24782101.511  
  25343982.288   133183491.830                                                  
  24717777.246   129892754.313                                                  
  23464333.133   123305878.012                                                  
  23418984.859   123067566.453                                                  
  25929789.526   136261937.499                                                  
  26943365.628   141588357.059                                                  
 21  9  1 11 45 46.0000000  0 18G 2G 3G 6G14G17G19G24G30C23C27C28C33
                                E 1E13E21E26E27E33
  22747853.643   119540795.871    22747851.785    93148676.941                  
  23780751.359   124968655.609    23780754.361    97378163.493                  
  20536187.838   107918358.514    20536190.662    84092217.543                  
  20809332.508   109353787.513    20809332.955    85210747.394                  
  21784775.222   114479776.577    21784774.846    89205022.653                  
  21113977.442   110954720.438    21113975.262    86458229.265                  
  24093063.319   126609862.036    24093066.214    98657025.246                  
  24429841.188   128379622.268    24429844.565   100036054.321                  
                 126629967.972                   126629967.972    24317947.135  
                 121486655.668                   121486655.668    23330234.300  
                 117902443.223                   117902443.223    22641923.627  
                 129045474.692                   129045474.692    24781860.851  
  25343596.728   133181465.731                                                  
  24718130.248   129894609.348                                                  
  23464402.519   123306242.538                                                  
  23418953.892   123067403.790                                                  
  25930269.488   136264459.713                                                  
  26943030.227   141586594.464                                                  
 21  9  1 11 45 47.0000000  0 18G 2G 3G 6G14G17G19G24G30C23C27C28C33
                                E 1E13E21E26E27E33
  22747501.284   119538944.242    22747499.426    93147234.114                  
  23781126.197   124970625.433    23781129.217    97379698.419                  
  20536095.241   107917871.921    20536098.064    84091838.384                  
  20809617.519   109355285.284    20809617.984    85211914.492                  
  21784872.626   114480288.339    21784872.215    89205421.426                  
  21113922.727   110954432.868    21113920.547    86458005.187                  
  24092957.856   126609307.787    24092960.733    98656593.368                  
  24430455.614   128382851.121    24430458.974   100038570.305                  
                 126632971.944                   126632971.944    24318524.019  
                 121485730.581                   121485730.581    23330056.646  
                 117903287.038                   117903287.038    22642085.681  
                 129044221.855                   129044221.855    24781620.263  
  25343211.222   133179439.882                                                  
  24718483.268   129896464.430                                                  
  23464471.958   123306607.493                                                  
  23418922.996   123067241.383                                                  
  25930749.486   136266982.154                                                  
  26942694.843   141584832.085                                                  
 21  9  1 11 45 48.0000000  0 18G 2G 3G 6G14G17G19G24G30C23C27C28C33
                                E 1E13E21E26E27E33
  22747148.996   119537092.993    22747147.138    93145791.586                  
  23781501.143   124972595.780    23781504.163    97381233.754                  
  20536002.733   107917385.836    20536005.556    84091459.614                  
  20809902.637   109356783.570    20809903.102    85213081.984                  
  21784969.994   114480800.121    21784969.619    89205820.218                  
  21113868.013   110954145.415    21113865.833    86457781.195                  
  24092852.482   126608754.059    24092855.377    98656161.890                  
  24431070.023   128386079.863    24431073.400   100041086.208                  
                 126635976.083                   126635976.083    24319100.938  
                 121484805.613                   121484805.613    23329879.028  
                 117904130.905                   117904130.905    22642247.718  
                 129042969.376                   129042969.376    24781379.746  
  25342825.752   133177414.296                                                  
  24718836.289   129898319.571                                                  
  23464541.486   123306972.875                                                  
  23418892.136   123067079.226                                                  
  25931229.537   136269504.831                                                  
  26942359.513   141583069.925                                                  
 21  9  1 11 45 49.0000000  0 18G 2G 3G 6G14G17G19G24G30C23C27C28C33
                                E 1E13E21E26E27E33
  22746796.798   119535242.128    22746794.940    93144349.351                  
  23781876.196   124974566.659    23781879.198    97382769.508                  
  20535910.332   107916900.246    20535913.156    84091081.234                  
  20810187.845   109358282.354    20810188.292    85214249.870                  
  21785067.398   114481311.922    21785067.023    89206219.023                  
  21113813.333   110953858.068    21113811.153    86457557.288                  
  24092747.216   126608200.869    24092750.093    98655730.832                  
  24431684.413   128389308.489    24431687.773   100043602.018                  
                 126638980.375                   126638980.375    24319677.875  
                 121483880.770                   121483880.770    23329701.392  
                 117904974.816                   117904974.816    22642409.808  
                 129041717.255                   129041717.255    24781139.282  
  25342440.335   133175388.946                                                  
  24719189.291   129900174.759                                                  
  23464611.104   123307338.675                                                  
  23418861.348   123066917.323                                                  
  25931709.642   136272027.735                                                  
  26942024.237   141581307.979                                                  
 21  9  1 11 45 50.0000000  0 18G 2G 3G 6G14G17G19G24G30C23C27C28C33
                                E 1E13E21E26E27E33
  22746444.653   119533391.653    22746442.795    93142907.423                  
  23782251.338   124976538.077    23782254.358    97384305.671                  
  20535818.039   107916415.155    20535820.862    84090703.239                  
  20810473.160   109359781.681    20810473.624    85215418.175                  
  21785164.802   114481823.763    21785164.427    89206617.860                  
  21113758.672   110953570.841    21113756.492    86457333.478                  
  24092642.057   126607648.212    24092644.934    98655300.191                  
  24432298.786   128392537.011    24432302.146   100046117.749                  
                 126641984.833                   126641984.833    24320254.866  
                 121482956.047                   121482956.047    23329523.827  
                 117905818.776                   117905818.776    22642571.862  
                 129040465.485                   129040465.485    24780898.908  
  25342054.971   133173363.874                                                  
  24719542.348   129902030.005                                                  
  23464680.793   123307704.915                                                  
  23418830.577   123066755.679                                                  
  25932189.765   136274550.868                                                  
  26941688.978   141579546.266                                                  
 21  9  1 11 45 51.0000000  0 18G 2G 3G 6G14G17G19G24G30C23C27C28C33
                                E 1E13E21E26E27E33
  22746092.598   119531541.553    22746090.739    93141465.789                  
  23782626.588   124978510.000    23782629.608    97385842.239                  
  20535725.817   107915930.552    20535728.640    84090325.626                  
  20810758.564   109361281.513    20810759.028    85216586.875                  
  21785262.206   114482335.613    21785261.813    89207016.702                  
  21113704.046   110953283.723    21113701.866    86457109.749                  
  24092536.987   126607096.081    24092539.882    98654869.961                  
  24432913.123   128395765.426    24432916.500   100048633.398                  
                 126644989.474                   126644989.474    24320831.857  
                 121482031.454                   121482031.454    23329346.263  
                 117906662.774                   117906662.774    22642733.934  
                 129039214.073                   129039214.073    24780658.587  
  25341669.679   133171339.032                                                  
  24719895.404   129903885.290                                                  
  23464750.554   123308071.583                                                  
  23418799.861   123066594.296                                                  
  25932669.941   136277074.235                                                  
  26941353.773   141577784.760                                                  
 21  9  1 11 45 52.0000000  0 18G 2G 3G 6G14G17G19G24G30C23C27C28C33
                                E 1E13E21E26E27E33
  22745740.614   119529691.812    22745738.755    93140024.419                  
  23783001.945   124980482.457    23783004.947    97387379.212                  
  20535633.702   107915446.441    20535636.525    84089948.390                  
  20811044.075   109362781.855    20811044.522    85217755.978                  
  21785359.592   114482847.483    21785359.217    89207415.567                  
  21113649.421   110952996.705    21113647.241    86456886.094                  
  24092432.024   126606544.449    24092434.919    98654440.106                  
  24433527.442   128398993.780    24433530.802   100051149.023                  
                 126647994.266                   126647994.266    24321408.901  
                 121481106.960                   121481106.960    23329168.734  
                 117907506.828                   117907506.828    22642896.042  
                 129037963.019                   129037963.019    24780418.321  
  25341284.405   133169314.444                                                  
  24720248.460   129905740.636                                                  
  23464820.421   123308438.679                                                  
  23418769.197   123066433.157                                                  
  25933150.171   136279597.864                                                  
  26941018.621   141576023.443                                                  
 21  9  1 11 45 53.0000000  0 18G 2G 3G 6G14G17G19G24G30C23C27C28C33
                                E 1E13E21E26E27E33
  22745388.701   119527842.485    22745386.843    93138583.386                  
  23783377.373   124982455.445    23783380.393    97388916.605                  
  20535541.659   107914962.844    20535544.500    84089571.563                  
  20811329.675   109364282.723    20811330.140    85218925.485                  
  21785457.014   114483359.383    21785456.621    89207814.445                  
  21113594.813   110952709.809    21113592.669    86456662.539                  
  24092327.169   126605993.386    24092330.064    98654010.707                  
  24434141.762   128402221.976    24434145.121   100053664.496                  
                 126650999.207                   126650999.207    24321985.963  
                 121480182.602                   121480182.602    23328991.223  
                 117908350.936                   117908350.936    22643058.131  
                 129036712.325                   129036712.325    24780178.143  
  25340899.203   133167290.118                                                  
  24720601.516   129907596.046                                                  
  23464890.361   123308806.196                                                  
  23418738.588   123066272.282                                                  
  25933630.437   136282121.683                                                  
  26940683.506   141574262.386                                                  
 21  9  1 11 45 54.0000000  0 18G 2G 3G 6G14G17G19G24G30C23C27C28C33
                                E 1E13E21E26E27E33
  22745036.860   119525993.536    22745035.002    93137142.649                  
  23783752.944   124984428.958    23783755.946    97390454.405                  
  20535449.740   107914479.731    20535452.564    84089195.110                  
  20811615.383   109365784.104    20811615.848    85220095.390                  
  21785554.418   114483871.292    21785554.043    89208213.340                  
  21113540.259   110952423.017    21113538.079    86456439.062                  
  24092222.403   126605442.845    24092225.280    98653581.711                  
  24434756.045   128405450.063    24434759.404   100056179.891                  
                 126654004.307                   126654004.307    24322563.061  
                 121479258.364                   121479258.364    23328813.712  
                 117909195.089                   117909195.089    22643220.257  
                 129035461.984                   129035461.984    24779938.019  
  25340514.018   133165266.047                                                  
  24720954.608   129909451.504                                                  
  23464960.372   123309174.143                                                  
  23418708.014   123066111.656                                                  
  25934110.757   136284645.749                                                  
  26940348.444   141572501.556                                                  
 21  9  1 11 45 55.0000000  0 18G 2G 3G 6G14G17G19G24G30C23C27C28C33
                                E 1E13E21E26E27E33
  22744685.072   119524144.965    22744683.214    93135702.202                  
  23784128.586   124986403.000    23784131.606    97391992.622                  
  20535357.894   107913997.120    20535360.717    84088819.051                  
  20811901.180   109367286.005    20811901.645    85221265.700                  
  21785651.840   114484383.230    21785651.465    89208612.250                  
  21113485.705   110952136.348    21113483.525    86456215.688                  
  24092117.726   126604892.824    24092120.621    98653153.126                  
  24435370.293   128408678.035    24435373.652   100058695.192                  
                 126657009.568                   126657009.568    24323140.177  
                 121478334.245                   121478334.245    23328636.255  
                 117910039.293                   117910039.293    22643382.383  
                 129034211.999                   129034211.999    24779697.985  
  25340128.905   133163242.222                                                  
  24721307.700   129911307.020                                                  
  23465030.472   123309542.519                                                  
  23418677.494   123065951.297                                                  
  25934591.094   136287170.032                                                  
  26940013.400   141570740.934                                                  
 21  9  1 11 45 56.0000000  0 18G 2G 3G 6G14G17G19G24G30C23C27C28C33
                                E 1E13E21E26E27E33
  22744333.374   119522296.776    22744331.516    93134262.060                  
  23784504.318   124988377.570    23784507.338    97393531.245                  
  20535266.154   107913515.008    20535268.977    84088443.379                  
  20812187.085   109368788.419    20812187.531    85222436.410                  
  21785749.262   114484895.182    21785748.887    89209011.177                  
  21113431.169   110951849.781    21113429.006    86455992.390                  
  24092013.157   126604343.340    24092016.051    98652724.956                  
  24435984.540   128411905.899    24435987.900   100061210.410                  
                 126660014.988                   126660014.988    24323717.347  
                 121477410.249                   121477410.249    23328458.816  
                 117910883.542                   117910883.542    22643544.508  
                 129032962.376                   129032962.376    24779458.004  
  25339743.845   133161218.659                                                  
  24721660.792   129913162.578                                                  
  23465100.661   123309911.329                                                  
  23418647.045   123065791.185                                                  
  25935071.520   136289694.558                                                  
  26939678.391   141568980.532                                                  
 21  9  1 11 45 57.0000000  0 18G 2G 3G 6G14G17G19G24G30C23C27C28C33
                                E 1E13E21E26E27E33
  22743981.766   119520448.977    22743979.907    93132822.214                  
  23784880.175   124990352.668    23784883.177    97395070.285                  
  20535174.504   107913033.391    20535177.327    84088068.094                  
  20812473.078   109370291.346    20812473.543    85223607.527                  
  21785846.702   114485407.161    21785846.309    89209410.117                  
  21113376.668   110951563.332    21113374.488    86455769.180                  
  24091908.694   126603794.383    24091911.607    98652297.198                  
  24436598.752   128415133.660    24436602.112   100063725.547                  
                 126663020.571                   126663020.571    24324294.534  
                 121476486.374                   121476486.374    23328281.394  
                 117911727.845                   117911727.845    22643706.634  
                 129031713.104                   129031713.104    24779218.076  
  25339358.804   133159195.339                                                  
  24722013.919   129915018.191                                                  
  23465170.922   123310280.559                                                  
  23418616.614   123065631.328                                                  
  25935551.965   136292219.308                                                  
  26939343.454   141567220.356                                                  
 21  9  1 11 45 58.0000000  0 18G 2G 3G 6G14G17G19G24G30C23C27C28C33
                                E 1E13E21E26E27E33
  22743630.193   119518601.563    22743628.352    93131382.668                  
  23785256.122   124992328.288    23785259.142    97396609.730                  
  20535082.961   107912552.268    20535085.784    84087693.190                  
  20812759.179   109371794.788    20812759.644    85224779.040                  
  21785944.124   114485919.155    21785943.749    89209809.075                  
  21113322.185   110951276.992    21113320.005    86455546.058                  
  24091804.339   126603245.961    24091807.234    98651869.856                  
  24437212.964   128418361.301    24437216.323   100066240.594                  
                 126666026.312                   126666026.312    24324871.757  
                 121475562.624                   121475562.624    23328104.009  
                 117912572.192                   117912572.192    22643868.795  
                 129030464.190                   129030464.190    24778978.238  
  25338973.833   133157172.289                                                  
  24722367.047   129916873.860                                                  
  23465241.255   123310650.223                                                  
  23418586.254   123065471.738                                                  
  25936032.445   136294744.292                                                  
  26939008.535   141565460.394                                                  
 21  9  1 11 45 59.0000000  0 18G 2G 3G 6G14G17G19G24G30C23C27C28C33
                                E 1E13E21E26E27E33
  22743278.727   119516754.527    22743276.886    93129943.422                  
  23785632.175   124994304.445    23785635.177    97398149.590                  
  20534991.507   107912071.644    20534994.313    84087318.680                  
  20813045.352   109373298.742    20813045.816    85225950.950                  
  21786041.564   114486431.184    21786041.188    89210208.059                  
  21113267.703   110950990.763    21113265.541    86455323.025                  
  24091700.073   126602698.074    24091702.986    98651442.933                  
  24437827.140   128421588.825    24437830.500   100068755.543                  
                 126669032.215                   126669032.215    24325449.016  
                 121474638.991                   121474638.991    23327926.623  
                 117913416.586                   117913416.586    22644030.939  
                 129029215.637                   129029215.637    24778738.472  
  25338588.899   133155149.477                                                  
  24722720.175   129918729.581                                                  
  23465311.694   123311020.313                                                  
  23418555.948   123065312.406                                                  
  25936512.979   136297269.497                                                  
  26938673.687   141563700.664                                                  
 21  9  1 11 46  0.0000000  0 18G 2G 3G 6G14G17G19G24G30C23C27C28C33
                                E 1E13E21E26E27E33
  22742927.315   119514907.870    22742925.456    93128504.468                  
  23786008.318   124996281.125    23786011.338    97399689.860                  
  20534900.125   107911591.521    20534902.948    84086944.554                  
  20813331.667   109374803.222    20813332.114    85227123.274                  
  21786139.003   114486943.228    21786138.628    89210607.054                  
  21113213.256   110950704.642    21113211.076    86455100.071                  
  24091595.915   126602150.708    24091598.828    98651016.410                  
  24438441.299   128424816.251    24438444.658   100071270.423                  
                 126672038.281                   126672038.281    24326026.292  
                 121473715.480                   121473715.480    23327749.273  
                 117914261.032                   117914261.032    22644193.118  
                 129027967.438                   129027967.438    24778498.777  
  25338204.018   133153126.929                                                  
  24723073.320   129920585.356                                                  
  23465382.206   123311390.828                                                  
  23418525.660   123065153.318                                                  
  25936993.566   136299794.945                                                  
  26938338.858   141561941.145                                                  
 21  9  1 11 46  1.0000000  0 18G 2G 3G 6G14G17G19G24G30C23C27C28C33
                                E 1E13E21E26E27E33
  22742575.974   119513061.595    22742574.115    93127065.812                  
  23786384.586   124998258.339    23786387.606    97401230.546                  
  20534808.868   107911111.894    20534811.673    84086570.821                  
  20813618.054   109376308.219    20813618.519    85228295.997                  
  21786236.443   114487455.298    21786236.068    89211006.070                  
  21113158.845   110950418.636    21113156.665    86454877.212                  
  24091491.864   126601603.876    24091494.758    98650590.310                  
  24439055.439   128428043.558    24439058.798   100073785.207                  
                 126675044.504                   126675044.504    24326603.623  
                 121472792.091                   121472792.091    23327571.940  
                 117915105.524                   117915105.524    22644355.297  
                 129026719.597                   129026719.597    24778259.135  
  25337819.209   133151104.633                                                  
  24723426.466   129922441.186                                                  
  23465452.788   123311761.772                                                  
  23418495.444   123064994.479                                                  
  25937474.171   136302320.621                                                  
  26938004.082   141560181.846                                                  
 21  9  1 11 46  2.0000000  0 18G 2G 3G 6G14G17G19G24G30C23C27C28C33
                                E 1E13E21E26E27E33
  22742224.722   119511215.700    22742222.864    93125627.453                  
  23786760.944   125000236.078    23786763.946    97402771.641                  
  20534717.682   107910632.754    20534720.506    84086197.468                  
  20813904.548   109377813.723    20813904.995    85229469.117                  
  21786333.883   114487967.391    21786333.508    89211405.101                  
  21113104.416   110950132.736    21113102.253    86454654.430                  
  24091387.902   126601057.570    24091390.796    98650164.616                  
  24439669.562   128431270.761    24439672.921   100076299.911                  
                 126678050.886                   126678050.886    24327180.953  
                 121471868.824                   121471868.824    23327394.644  
                 117915950.063                   117915950.063    22644517.477  
                 129025472.113                   129025472.113    24778019.565  
  25337434.417   133149082.590                                                  
  24723779.611   129924297.063                                                  
  23465523.460   123312133.144                                                  
  23418465.263   123064835.913                                                  
  25937954.848   136304846.518                                                  
  26937669.323   141558422.771                                                  
 21  9  1 11 46  3.0000000  0 18G 2G 3G 6G14G17G19G24G30C23C27C28C33
                                E 1E13E21E26E27E33
  22741873.543   119509370.185    22741871.684    93124189.391                  
  23787137.373   125002214.345    23787140.392    97404313.144                  
  20534626.604   107910154.122    20534629.427    84085824.508                  
  20814191.114   109379319.743    20814191.578    85230642.641                  
  21786431.341   114488479.503    21786430.965    89211804.153                  
  21113050.040   110949846.950    21113047.878    86454431.742                  
  24091284.047   126600511.792    24091286.942    98649739.335                  
  24440283.666   128434497.851    24440287.026   100078814.528                  
                 126681057.429                   126681057.429    24327758.337  
                 121470945.676                   121470945.676    23327217.365  
                 117916794.649                   117916794.649    22644679.656  
                 129024224.987                   129024224.987    24777780.084  
  25337049.679   133147060.802                                                  
  24724132.792   129926152.996                                                  
  23465594.204   123312504.945                                                  
  23418435.118   123064677.594                                                  
  25938435.543   136307372.656                                                  
  26937334.619   141556663.906                                                  
 21  9  1 11 46  4.0000000  0 18G 2G 3G 6G14G17G19G24G30C23C27C28C33
                                E 1E13E21E26E27E33
  22741522.416   119507525.059    22741520.558    93122751.629                  
  23787513.944   125004193.126    23787516.946    97405855.051                  
  20534535.615   107909675.980    20534538.438    84085451.929                  
  20814477.822   109380826.280    20814478.287    85231816.562                  
  21786528.798   114488991.634    21786528.423    89212203.215                  
  21112995.683   110949561.269    21112993.503    86454209.134                  
  24091180.281   126599966.560    24091183.176    98649314.476                  
  24440897.717   128437724.820    24440901.077   100081329.047                  
                 126684064.132                   126684064.132    24328335.738  
                 121470022.648                   121470022.648    23327040.105  
                 117917639.287                   117917639.287    22644841.889  
                 129022978.219                   129022978.219    24777540.640  
  25336664.995   133145039.269                                                  
  24724485.974   129928008.985                                                  
  23465665.037   123312877.176                                                  
  23418405.062   123064519.527                                                  
  25938916.309   136309899.019                                                  
  26936999.985   141554905.286                                                  
 21  9  1 11 46  5.0000000  0 18G 2G 3G 6G14G17G19G24G30C23C27C28C33
                                E 1E13E21E26E27E33
  22741171.379   119505680.301    22741169.521    93121314.157                  
  23787890.588   125006172.452    23787893.607    97407397.388                  
  20534444.715   107909198.331    20534447.538    84085079.738                  
  20814764.602   109382333.337    20814765.067    85232990.894                  
  21786626.256   114489503.792    21786625.881    89212602.297                  
  21112941.343   110949275.701    21112939.163    86453986.613                  
  24091076.623   126599421.829    24091079.518    98648890.016                  
  24441511.786   128440951.692    24441515.146   100083843.488                  
                 126687070.992                   126687070.992    24328913.176  
                 121469099.741                   121469099.741    23326862.880  
                 117918483.968                   117918483.968    22645004.086  
                 129021731.809                   129021731.809    24777301.284  
  25336280.364   133143017.983                                                  
  24724839.173   129929865.024                                                  
  23465735.959   123313249.837                                                  
  23418375.025   123064361.718                                                  
  25939397.075   136312425.609                                                  
  26936665.352   141553146.858                                                  
 21  9  1 11 46  6.0000000  0 18G 2G 3G 6G14G17G19G24G30C23C27C28C33
                                E 1E13E21E26E27E33
  22740820.396   119503835.929    22740818.538    93119876.984                  
  23788267.338   125008152.292    23788270.340    97408940.118                  
  20534353.923   107908721.187    20534356.746    84084707.937                  
  20815051.471   109383840.898    20815051.936    85234165.617                  
  21786723.714   114490015.974    21786723.338    89213001.399                  
  21112887.021   110948990.243    21112884.841    86453764.176                  
  24090973.072   126598877.645    24090975.967    98648465.976                  
  24442125.820   128444178.452    24442129.179   100086357.852                  
                 126690078.014                   126690078.014    24329490.631  
                 121468176.957                   121468176.957    23326685.655  
                 117919328.702                   117919328.702    22645166.301  
                 129020485.759                   129020485.759    24777062.000  
  25335895.751   133140996.961                                                  
  24725192.372   129931721.130                                                  
  23465806.952   123313622.925                                                  
  23418345.040   123064204.159                                                  
  25939877.948   136314952.442                                                  
  26936330.773   141551388.660                                                  
 21  9  1 11 46  7.0000000  0 18G 2G 3G 6G14G17G19G24G30C23C27C28C33
                                E 1E13E21E26E27E33
  22740469.502   119501991.925    22740467.644    93118440.102                  
  23788644.196   125010132.678    23788647.198    97410483.278                  
  20534263.219   107908244.554    20534266.043    84084336.534                  
  20815338.466   109385348.984    20815338.912    85235340.747                  
  21786821.171   114490528.176    21786820.796    89213400.520                  
  21112832.717   110948704.895    21112830.537    86453541.829                  
  24090869.628   126598333.988    24090872.523    98648042.347                  
  24442739.817   128447405.104    24442743.177   100088872.124                  
                 126693085.200                   126693085.200    24330068.140  
                 121467254.292                   121467254.292    23326508.483  
                 117920173.479                   117920173.479    22645328.534  
                 129019240.064                   129019240.064    24776822.752  
  25335511.246   133138976.206                                                  
  24725545.607   129933577.289                                                  
  23465878.035   123313996.448                                                  
  23418315.092   123064046.866                                                  
  25940358.821   136317479.507                                                  
  26935996.265   141549630.711                                                  
 21  9  1 11 46  8.0000000  0 18G 2G 3G 6G14G17G19G24G30C23C27C28C33
                                E 1E13E21E26E27E33
  22740118.679   119500148.340    22740116.821    93117003.538                  
  23789021.143   125012113.563    23789024.163    97412026.820                  
  20534172.606   107907768.384    20534175.411    84083965.488                  
  20815625.531   109386857.587    20815625.996    85236516.281                  
  21786918.665   114491040.396    21786918.272    89213799.648                  
  21112778.449   110948419.649    21112776.269    86453319.559                  
  24090766.256   126597790.839    24090769.169    98647619.114                  
  24443353.815   128450631.633    24443357.174   100091386.298                  
                 126696092.539                   126696092.539    24330645.685  
                 121466331.749                   121466331.749    23326331.294  
                 117921018.309                   117921018.309    22645490.785  
                 129017994.723                   129017994.723    24776583.628  
  25335126.740   133136955.665                                                  
  24725898.824   129935433.457                                                  
  23465949.172   123314370.379                                                  
  23418285.215   123063889.832                                                  
  25940839.748   136320006.777                                                  
  26935661.756   141547872.942                                                  
 21  9  1 11 46  9.0000000  0 18G 2G 3G 6G14G17G19G24G30C23C27C28C33
                                E 1E13E21E26E27E33
  22739767.928   119498305.128    22739766.052    93115567.269                  
  23789398.197   125014094.988    23789401.199    97413570.790                  
  20534082.099   107907292.727    20534084.922    84083594.847                  
  20815912.705   109388366.695    20815913.151    85237692.212                  
  21787016.140   114491552.642    21787015.765    89214198.800                  
  21112724.181   110948134.526    21112722.001    86453097.386                  
  24090663.027   126597248.254    24090665.904    98647196.320                  
  24443967.776   128453858.056    24443971.136   100093900.394                  
                 126699100.039                   126699100.039    24331223.212  
                 121465409.329                   121465409.329    23326154.159  
                 117921863.188                   117921863.188    22645653.017  
                 129016749.743                   129016749.743    24776344.523  
  25334742.306   133134935.409                                                  
  24726252.041   129937289.706                                                  
  23466020.416   123314744.747                                                  
  23418255.374   123063733.051                                                  
  25941320.729   136322534.296                                                  
  26935327.320   141546115.415                                                  
 21  9  1 11 46 10.0000000  0 18G 2G 3G 6G14G17G19G24G30C23C27C28C33
                                E 1E13E21E26E27E33
  22739417.249   119496462.297    22739415.373    93114131.297                  
  23789775.341   125016076.938    23789778.361    97415115.164                  
  20533991.682   107906817.566    20533994.505    84083224.594                  
  20816199.985   109389876.328    20816200.432    85238868.547                  
  21787113.616   114492064.911    21787113.240    89214597.972                  
  21112669.948   110947849.512    21112667.786    86452875.297                  
  24090559.851   126596706.179    24090562.764    98646773.927                  
  24444581.720   128457084.379    24444585.098   100096414.414                  
                 126702107.704                   126702107.704    24331800.828  
                 121464487.027                   121464487.027    23325977.041  
                 117922708.108                   117922708.108    22645815.286  
                 129015505.121                   129015505.121    24776105.525  
  25334357.907   133132915.405                                                  
  24726605.275   129939146.009                                                  
  23466091.767   123315119.550                                                  
  23418225.604   123063576.524                                                  
  25941801.727   136325062.042                                                  
  26934992.901   141544358.097                                                  
 21  9  1 11 46 11.0000000  0 18G 2G 3G 6G14G17G19G24G30C23C27C28C33
                                E 1E13E21E26E27E33
  22739066.641   119494619.848    22739064.782    93112695.625                  
  23790152.591   125018059.410    23790155.611    97416659.945                  
  20533901.336   107906342.908    20533904.159    84082854.730                  
  20816487.354   109391386.474    20816487.819    85240045.284                  
  21787211.091   114492577.207    21787210.716    89214997.163                  
  21112615.716   110947564.606    21112613.554    86452653.292                  
  24090456.800   126596164.630    24090459.695    98646351.938                  
  24445195.664   128460310.582    24445199.024   100098928.336                  
                 126705115.520                   126705115.520    24332378.444  
                 121463564.848                   121463564.848    23325799.959  
                 117923553.083                   117923553.083    22645977.555  
                 129014260.859                   129014260.859    24775866.562  
  25333973.563   133130895.653                                                  
  24726958.546   129941002.365                                                  
  23466163.153   123315494.781                                                  
  23418195.852   123063420.247                                                  
  25942282.779   136327590.016                                                  
  26934658.536   141542601.000                                                  
 21  9  1 11 46 12.0000000  0 18G 2G 3G 6G14G17G19G24G30C23C27C28C33
                                E 1E13E21E26E27E33
  22738716.104   119492777.780    22738714.246    93111260.249                  
  23790529.967   125020042.419    23790532.951    97418205.145                  
  20533811.115   107905868.730    20533813.939    84082485.243                  
  20816774.813   109392897.140    20816775.278    85241222.429                  
  21787308.602   114493089.518    21787308.227    89215396.366                  
  21112561.537   110947279.800    21112559.357    86452431.363                  
  24090353.857   126595623.626    24090356.734    98645930.374                  
  24445809.554   128463536.665    24445812.914   100101442.167                  
                 126708123.500                   126708123.500    24332956.096  
                 121462642.790                   121462642.790    23325622.877  
                 117924398.102                   117924398.102    22646139.841  
                 129013016.953                   129013016.953    24775627.671  
  25333589.254   133128876.157                                                  
  24727311.799   129942858.761                                                  
  23466234.647   123315870.437                                                  
  23418166.171   123063264.226                                                  
  25942763.885   136330118.223                                                  
  26934324.224   141540844.125                                                  
 21  9  1 11 46 13.0000000  0 18G 2G 3G 6G14G17G19G24G30C23C27C28C33
                                E 1E13E21E26E27E33
  22738365.639   119490936.097    22738363.781    93109825.171                  
  23790907.397   125022025.936    23790910.417    97419750.747                  
  20533720.984   107905395.052    20533723.807    84082116.141                  
  20817062.380   109394408.316    20817062.844    85242399.969                  
  21787406.078   114493601.841    21787405.703    89215795.581                  
  21112507.358   110946995.112    21112505.178    86452209.531                  
  24090251.003   126595083.142    24090253.898    98645509.218                  
  24446423.445   128466762.660    24446426.804   100103955.929                  
                 126711131.636                   126711131.636    24333533.784  
                 121461720.852                   121461720.852    23325445.848  
                 117925243.167                   117925243.167    22646302.127  
                 129011773.406                   129011773.406    24775388.888  
  25333204.998   133126856.908                                                  
  24727665.087   129944715.223                                                  
  23466306.195   123316246.519                                                  
  23418136.545   123063108.456                                                  
  25943245.026   136332646.649                                                  
  26933989.949   141539087.470                                                  
 21  9  1 11 46 14.0000000  0 18G 2G 3G 6G14G17G19G24G30C23C27C28C33
                                E 1E13E21E26E27E33
  22738015.263   119489094.798    22738013.405    93108390.391                  
  23791284.951   125024009.993    23791287.971    97421296.761                  
  20533630.942   107904921.875    20533633.765    84081747.434                  
  20817350.053   109395920.012    20817350.518    85243577.911                  
  21787503.571   114494114.204    21787503.196    89216194.825                  
  21112453.197   110946710.535    21112451.035    86451987.782                  
  24090148.256   126594543.194    24090151.133    98645088.484                  
  24447037.299   128469988.522    24447040.659   100106469.590                  
                 126714139.935                   126714139.935    24334111.471  
                 121460799.030                   121460799.030    23325268.802  
                 117926088.282                   117926088.282    22646464.414  
                 129010530.215                   129010530.215    24775150.140  
  25332820.796   133124837.913                                                  
  24728018.358   129946571.731                                                  
  23466377.868   123316623.038                                                  
  23418106.936   123062952.948                                                  
  25943726.221   136335175.325                                                  
  26933655.708   141537331.035                                                  
 21  9  1 11 46 15.0000000  0 18G 2G 3G 6G14G17G19G24G30C23C27C28C33
                                E 1E13E21E26E27E33
  22737664.941   119487253.895    22737663.083    93106955.933                  
  23791662.613   125025994.610    23791665.615    97422843.230                  
  20533540.971   107904449.179    20533543.795    84081379.090                  
  20817637.816   109397432.215    20817638.280    85244756.247                  
  21787601.100   114494626.617    21787600.707    89216594.122                  
  21112399.072   110946426.017    21112396.892    86451766.050                  
  24090045.598   126594003.696    24090048.493    98644668.055                  
  24447651.136   128473214.282    24447654.513   100108983.165                  
                 126717148.391                   126717148.391    24334689.213  
                 121459877.337                   121459877.337    23325091.792  
                 117926933.446                   117926933.446    22646626.718  
                 129009287.387                   129009287.387    24774911.463  
  25332436.648   133122819.250                                                  
  24728371.646   129948428.298                                                  
  23466449.576   123316999.974                                                  
  23418077.398   123062797.698                                                  
  25944207.451   136337704.218                                                  
  26933321.504   141535574.821                                                  
 21  9  1 11 46 16.0000000  0 18G 2G 3G 6G14G17G19G24G30C23C27C28C33
                                E 1E13E21E26E27E33
  22737314.708   119485413.359    22737312.832    93105521.751                  
  23792040.364   125027979.718    23792043.384    97424390.067                  
  20533451.144   107903976.997    20533453.967    84081011.156                  
  20817925.686   109398944.950    20817926.132    85245934.997                  
  21787698.594   114495139.022    21787698.219    89216993.398                  
  21112344.964   110946141.663    21112342.784    86451544.476                  
  24089943.066   126593464.817    24089945.961    98644248.149                  
  24448264.955   128476439.934    24448268.332   100111496.660                  
                 126720157.004                   126720157.004    24335267.007  
                 121458955.759                   121458955.759    23324914.817  
                 117927778.657                   117927778.657    22646789.041  
                 129008044.913                   129008044.913    24774672.858  
  25332052.535   133120800.772                                                  
  24728724.953   129950284.900                                                  
  23466521.392   123317377.353                                                  
  23418047.896   123062642.695                                                  
  25944688.718   136340233.352                                                  
  26932987.353   141533818.853                                                  
 21  9  1 11 46 17.0000000  0 18G 2G 3G 6G14G17G19G24G30C23C27C28C33
                                E 1E13E21E26E27E33
  22736964.529   119483573.208    22736962.653    93104087.862                  
  23792418.223   125029965.347    23792421.243    97425937.308                  
  20533361.388   107903505.308    20533364.193    84080643.606                  
  20818213.645   109400458.192    20818214.092    85247114.149                  
  21787796.105   114495651.453    21787795.712    89217392.695                  
  21112290.857   110945857.423    21112288.695    86451322.988                  
  24089840.623   126592926.466    24089843.500    98643828.657                  
  24448878.756   128479665.462    24448882.115   100114010.056                  
                 126723165.777                   126723165.777    24335844.802  
                 121458034.304                   121458034.304    23324737.860  
                 117928623.914                   117928623.914    22646951.363  
                 129006802.800                   129006802.800    24774434.324  
  25331668.477   133118782.550                                                  
  24729078.259   129952141.578                                                  
  23466593.279   123317755.151                                                  
  23418018.466   123062487.958                                                  
  25945170.038   136342762.714                                                  
  26932653.238   141532063.081                                                  
 21  9  1 11 46 18.0000000  0 18G 2G 3G 6G14G17G19G24G30C23C27C28C33
                                E 1E13E21E26E27E33
  22736614.421   119481733.429    22736612.563    93102654.277                  
  23792796.188   125031951.514    23792799.172    97427484.973                  
  20533271.703   107903034.121    20533274.526    84080276.450                  
  20818501.694   109401971.945    20818502.158    85248293.699                  
  21787893.616   114496163.890    21787893.241    89217791.999                  
  21112236.803   110945573.278    21112234.623    86451101.583                  
  24089738.251   126592388.628    24089741.164    98643409.563                  
  24449492.539   128482890.896    24449495.898   100116523.383                  
                 126726174.710                   126726174.710    24336422.633  
                 121457112.968                   121457112.968    23324560.939  
                 117929469.218                   117929469.218    22647113.685  
                 129005561.042                   129005561.042    24774195.862  
  25331284.471   133116764.591                                                  
  24729431.583   129953998.286                                                  
  23466665.255   123318133.384                                                  
  23417989.054   123062333.468                                                  
  25945651.411   136345292.294                                                  
  26932319.159   141530307.536                                                  
 21  9  1 11 46 19.0000000  0 18G 2G 3G 6G14G17G19G24G30C23C27C28C33
                                E 1E13E21E26E27E33
  22736264.403   119479894.032    22736262.544    93101220.985                  
  23793174.243   125033938.203    23793177.245    97429033.047                  
  20533182.144   107902563.423    20533184.967    84079909.675                  
  20818789.867   109403486.217    20818790.314    85249473.655                  
  21787991.146   114496676.362    21787990.752    89218191.333                  
  21112182.731   110945289.252    21112180.587    86450880.269                  
  24089636.023   126591851.319    24089638.917    98642990.887                  
  24450106.304   128486116.195    24450109.663   100119036.610                  
                 126729183.800                   126729183.800    24337000.499  
                 121456191.754                   121456191.754    23324384.017  
                 117930314.571                   117930314.571    22647276.025  
                 129004319.648                   129004319.648    24773957.454  
  25330900.520   133114746.882                                                  
  24729784.925   129955855.052                                                  
  23466737.321   123318512.042                                                  
  23417959.695   123062179.240                                                  
  25946132.821   136347822.114                                                  
  26931985.133   141528552.204                                                  
 21  9  1 11 46 20.0000000  0 18G 2G 3G 6G14G17G19G24G30C23C27C28C33
                                E 1E13E21E26E27E33
  22735914.438   119478055.019    22735912.579    93099787.988                  
  23793552.388   125035925.415    23793555.407    97430581.523                  
  20533092.656   107902093.219    20533095.479    84079543.289                  
  20819078.113   109405001.003    20819078.577    85250654.013                  
  21788088.657   114497188.855    21788088.282    89218590.680                  
  21112128.713   110945005.339    21112126.533    86450659.040                  
  24089533.883   126591314.535    24089536.760    98642572.616                  
  24450720.033   128489341.398    24450723.393   100121549.753                  
                 126732193.050                   126732193.050    24337578.401  
                 121455270.659                   121455270.659    23324207.132  
                 117931159.974                   117931159.974    22647438.383  
                 129003078.608                   129003078.608    24773719.117  
  25330516.621   133112729.425                                                  
  24730138.267   129957711.883                                                  
  23466809.458   123318891.129                                                  
  23417930.408   123062025.269                                                  
  25946614.284   136350352.157                                                  
  26931651.161   141526797.096                                                  
 21  9  1 11 46 21.0000000  0 18G 2G 3G 6G14G17G19G24G30C23C27C28C33
                                E 1E13E21E26E27E33
  22735564.562   119476216.381    22735562.704    93098355.286                  
  23793930.639   125037913.157    23793933.659    97432130.414                  
  20533003.275   107901623.516    20533006.098    84079177.285                  
  20819366.465   109406516.308    20819366.912    85251834.765                  
  21788186.204   114497701.371    21788185.829    89218990.043                  
  21112074.713   110944721.539    21112072.533    86450437.895                  
  24089431.815   126590778.294    24089434.728    98642154.761                  
  24451333.745   128492566.477    24451337.122   100124062.802                  
                 126735202.457                   126735202.457    24338156.321  
                 121454349.686                   121454349.686    23324030.282  
                 117932005.423                   117932005.423    22647600.741  
                 129001837.929                   129001837.929    24773480.851  
  25330132.759   133110712.230                                                  
  24730491.591   129959568.758                                                  
  23466881.685   123319270.647                                                  
  23417901.138   123061871.548                                                  
  25947095.765   136352882.427                                                  
  26931317.207   141525042.223                                                  
 21  9  1 11 46 22.0000000  0 18G 2G 3G 6G14G17G19G24G30C23C27C28C33
                                E 1E13E21E26E27E33
  22735214.758   119474378.131    22735212.900    93096922.883                  
  23794308.998   125039901.419    23794312.000    97433679.706                  
  20532913.983   107901154.301    20532916.806    84078811.664                  
  20819654.925   109408032.124    20819655.371    85253015.923                  
  21788283.715   114498213.901    21788283.340    89219389.417                  
  21112020.749   110944437.843    21112018.569    86450216.833                  
  24089329.873   126590242.570    24089332.785    98641737.320                  
  24451947.439   128495791.450    24451950.798   100126575.770                  
                 126738212.024                   126738212.024    24338734.277  
                 121453428.833                   121453428.833    23323853.433  
                 117932850.919                   117932850.919    22647763.099  
                 129000597.610                   129000597.610    24773242.675  
  25329748.932   133108695.286                                                  
  24730844.951   129961425.683                                                  
  23466953.983   123319650.596                                                  
  23417871.940   123061718.079                                                  
  25947577.299   136355412.936                                                  
  26930983.307   141523287.558                                                  
