     2.11           OBSERVATION DATA    M (MIXED)           RINEX VERSION / TYPE
CONVBIN 2.4.3                           20210901 004916 UTC PGM / RUN BY / DATE 
log: logs/21_08_31_18_48_31_moip_VZ.rtcm                    COMMENT             
format: RTCM 3, station ID: 2629                            COMMENT             
2629                                                        MARKER NAME         
                                                            MARKER NUMBER       
                                                            OBSERVER / AGENCY   
                    LEICA GR50                              REC # / TYPE / VERS 
                    GPPNULLANTENNA                          ANT # / TYPE        
  -379585.6102 -4941592.3870  4001595.9303                  APPROX POSITION XYZ 
        0.0000        0.0000        0.0000                  ANTENNA: DELTA H/E/N
     1     1                                                WAVELENGTH FACT L1/2
     7    C1    L1    C2    L2    P2    C5    L5            # / TYPES OF OBSERV 
  2021     8    31    18    48   40.0000000     GPS         TIME OF FIRST OBS   
  2021     8    31    19    18   35.0000000     GPS         TIME OF LAST OBS    
                                                            END OF HEADER       
 21  8 31 18 48 40.0000000  0 14G 5G10G13G15G18G23G29R 4R 5R19R20E 5
                                E 9E36
  23086260.703   121319145.242    23086259.970    94534400.994    23086259.648  
                                
  23844677.985   125304648.271    23844680.558    97640009.815    23844680.755  
  23844679.683    93571668.280  
  21962971.319   115416193.401                    89934694.515    21962969.800  
                                
  20284895.447   106597892.329    20284894.160    83063304.847    20284893.928  
                                
  20392833.959   107165086.089    20392832.887    83505271.171    20392832.958  
  20392837.193    80025917.777  
  21259207.641   111717923.697    21259206.694    87052948.435    21259206.783  
  21259211.000    83425760.087  
  22149899.758   116398500.430    22149899.240    90700125.042    22149899.043  
                                
  19854295.790   106318900.743    19854295.379    82692498.380    19854295.415  
                                
  19756177.307   105608135.430    19756178.468    82139693.637    19756178.504  
                                
  19764044.502   105724306.019    19764045.395    82230041.658    19764045.073  
                                
  20244746.147   108257780.311    20244749.327    84200506.262    20244748.416  
                                
  23842145.176   125291367.013                                                  
  23842148.679    93561769.870  
  22407882.401   117754253.056                                                  
  22407885.600    87933404.835  
  23719442.509   124646530.019                                                  
  23719446.565    93080219.888  
 21  8 31 18 48 41.0000000  0 14G 5G10G13G15G18G23G29R 4R 5R19R20E 5
                                E 9E36
  23086792.556   121321940.099    23086791.824    94536578.799    23086791.502  
                                
  23844199.346   125302133.018    23844201.901    97638049.883    23844202.097  
  23844201.043    93569790.021  
  21963375.677   115418318.379                    89936350.347    21963374.159  
                                
  20285032.145   106598610.635    20285030.858    83063864.568    20285030.608  
                                
  20392609.488   107163906.561    20392608.416    83504352.058    20392608.488  
  20392612.723    80025036.961  
  21258921.236   111716418.571    21258920.289    87051775.610    21258920.378  
  21258924.595    83424636.130  
  22150500.658   116401658.216    22150500.139    90702585.657    22150499.943  
                                
  19854705.920   106321097.035    19854705.509    82694206.610    19854705.563  
                                
  19755884.559   105606570.529    19755885.720    82138476.490    19755885.738  
                                
  19764389.034   105726149.036    19764389.928    82231475.118    19764389.588  
                                
  20244245.528   108255103.281    20244248.709    84198424.128    20244247.780  
                                
  23841865.526   125289897.412                                                  
  23841869.028    93560672.439  
  22408124.687   117755526.342                                                  
  22408127.904    87934355.676  
  23719612.693   124647424.281                                                  
  23719616.732    93080887.685  
 21  8 31 18 48 42.0000000  0 14G 5G10G13G15G18G23G29R 4R 5R19R20E 5
                                E 9E36
  23087324.374   121324734.879    23087323.641    94538756.553    23087323.320  
                                
  23843720.742   125299617.843    23843723.297    97636090.019    23843723.493  
  23843722.421    93567911.809  
  21963780.143   115420443.788                    89938006.510    21963778.624  
                                
  20285168.932   106599329.501    20285167.646    83064424.731    20285167.395  
                                
  20392385.089   107162727.297    20392384.017    83503433.149    20392384.088  
  20392388.323    80024156.337  
  21258634.849   111714913.613    21258633.902    87050602.919    21258633.991  
  21258638.209    83423512.304  
  22151101.611   116404816.237    22151101.093    90705046.457    22151100.896  
                                
  19855116.139   106323293.683    19855115.728    82695915.119    19855115.764  
                                
  19755591.918   105605006.130    19755593.061    82137259.739    19755593.097  
                                
  19764733.692   105727992.693    19764734.585    82232909.068    19764734.246  
                                
  20243744.981   108252426.607    20243748.162    84196342.273    20243747.232  
                                
  23841585.912   125288428.055                                                  
  23841589.414    93559575.189  
  22408367.027   117756799.860                                                  
  22408370.244    87935306.680  
  23719782.914   124648318.762                                                  
  23719786.952    93081555.645  
 21  8 31 18 48 43.0000000  0 14G 5G10G13G15G18G23G29R 4R 5R19R20E 5
                                E 9E36
  23087856.246   121327529.850    23087855.531    94540934.448    23087855.191  
                                
  23843242.138   125297102.886    23843244.711    97634130.319    23843244.907  
  23843243.835    93566033.767  
  21964184.715   115422569.855                    89939663.185    21964183.196  
                                
  20285305.880   106600049.145    20285304.594    83064985.488    20285304.344  
                                
  20392160.761   107161548.485    20392159.689    83502514.597    20392159.779  
  20392164.014    80023276.060  
  21258348.552   111713409.042    21258347.605    87049430.529    21258347.694  
  21258351.893    83422388.761  
  22151702.653   116407974.743    22151702.135    90707507.632    22151701.939  
                                
  19855526.448   106325490.947    19855526.037    82697624.100    19855526.090  
                                
  19755299.420   105603442.533    19755300.563    82136043.609    19755300.599  
                                
  19765078.493   105729837.120    19765079.386    82234343.621    19765079.046  
                                
  20243244.541   108249750.563    20243247.722    84194260.906    20243246.793  
                                
  23841306.404   125286959.181                                                  
  23841309.925    93558478.303  
  22408609.456   117758073.834                                                  
  22408612.673    87936258.020  
  23719953.206   124649213.649                                                  
  23719957.244    93082223.908  
 21  8 31 18 48 44.0000000  0 14G 5G10G13G15G18G23G29R 4R 5R19R20E 5
                                E 9E36
  23088388.135   121330324.942    23088387.402    94543112.436    23088387.063  
                                
  23842763.605   125294588.196    23842766.178    97632170.824    23842766.375  
  23842765.303    93564155.910  
  21964589.431   115424696.582                    89941320.372    21964587.912  
                                
  20285442.971   106600769.558    20285441.685    83065546.851    20285441.435  
                                
  20391936.541   107160370.146    20391935.469    83501596.408    20391935.540  
  20391939.775    80022396.129  
  21258062.308   111711904.861    21258061.361    87048258.440    21258061.450  
  21258065.667    83421265.505  
  22152303.785   116411133.726    22152303.267    90709969.176    22152303.070  
                                
  19855936.899   106327688.795    19855936.488    82699333.539    19855936.542  
                                
  19755007.047   105601879.692    19755008.190    82134828.063    19755008.226  
                                
  19765423.418   105731682.330    19765424.330    82235778.786    19765423.990  
                                
  20242744.226   108247075.120    20242747.425    84192180.005    20242746.496  
                                
  23841026.969   125285490.772                                                  
  23841030.489    93557381.761  
  22408851.957   117759348.250                                                  
  22408855.173    87937209.694  
  23720123.569   124650108.966                                                  
  23720127.625    93082892.488  
 21  8 31 18 48 45.0000000  0 14G 5G10G13G15G18G23G29R 4R 5R19R20E 5
                                E 9E36
  23088920.042   121333120.086    23088919.309    94545290.471    23088918.970  
                                
  23842285.109   125292073.593    23842287.664    97630211.396    23842287.878  
  23842286.806    93562278.123  
  21964994.218   115426823.805                    89942977.951    21964992.699  
                                
  20285580.188   106601490.608    20285578.901    83066108.708    20285578.651  
                                
  20391712.374   107159192.123    20391711.302    83500678.470    20391711.373  
  20391715.608    80021516.439  
  21257776.135   111710400.916    21257775.188    87047086.534    21257775.278  
  21257779.477    83420142.426  
  22152904.970   116414293.036    22152904.452    90712430.978    22152904.256  
                                
  19856347.404   106329887.067    19856346.993    82701043.306    19856347.047  
                                
  19754714.799   105600317.445    19754715.942    82133612.982    19754715.978  
                                
  19765768.505   105733528.280    19765769.398    82237214.525    19765769.059  
                                
  20242244.001   108244400.136    20242247.182    84190099.462    20242246.252  
                                
  23840747.586   125284022.688                                                  
  23840751.107    93556285.469  
  22409094.547   117760622.968                                                  
  22409097.745    87938161.592  
  23720293.986   124651004.551                                                  
  23720298.042    93083561.269  
 21  8 31 18 48 46.0000000  0 14G 5G10G13G15G18G23G29R 4R 5R19R20E 5
                                E 9E36
  23089451.949   121335915.386    23089451.217    94547468.617    23089450.895  
                                
  23841806.630   125289559.194    23841809.185    97628252.108    23841809.382  
  23841808.327    93560400.482  
  21965399.148   115428951.658                    89944636.016    21965397.611  
                                
  20285717.529   106602212.400    20285716.242    83066671.141    20285716.010  
                                
  20391488.296   107158014.538    20391487.206    83499760.874    20391487.296  
  20391491.531    80020637.075  
  21257489.999   111708897.328    21257489.052    87045914.900    21257489.141  
  21257493.340    83419019.615  
  22153506.263   116417452.794    22153505.745    90714893.118    22153505.548  
                                
  19856758.017   106332085.945    19856757.606    82702753.540    19856757.659  
                                
  19754422.676   105598755.944    19754423.837    82132398.484    19754423.855  
                                
  19766113.752   105735375.005    19766114.646    82238650.862    19766114.306  
                                
  20241743.865   108241725.764    20241747.045    84188019.397    20241746.116  
                                
  23840468.311   125282555.059                                                  
  23840471.814    93555189.514  
  22409337.190   117761898.107                                                  
  22409340.406    87939113.808  
  23720464.492   124651900.529                                                  
  23720468.530    93084230.343  
 21  8 31 18 48 47.0000000  0 14G 5G10G13G15G18G23G29R 4R 5R19R20E 5
                                E 9E36
  23089983.857   121338710.548    23089983.142    94549646.666    23089982.802  
                                
  23841328.151   125287044.765    23841330.706    97626292.817    23841330.903  
  23841329.848    93558522.815  
  21965804.113   115431079.873                    89946294.365    21965802.594  
                                
  20285854.978   106602934.685    20285853.691    83067233.961    20285853.459  
                                
  20391264.219   107156837.134    20391263.147    83498843.414    20391263.218  
  20391267.453    80019757.843  
  21257203.898   111707393.831    21257202.951    87044743.344    21257203.040  
  21257207.239    83417896.873  
  22154107.591   116420612.716    22154107.073    90717355.393    22154106.877  
                                
  19857168.700   106334285.102    19857168.289    82704463.993    19857168.325  
                                
  19754130.660   105597194.864    19754131.804    82131184.310    19754131.840  
                                
  19766459.071   105737222.228    19766459.965    82240087.591    19766459.625  
                                
  20241243.782   108239051.664    20241246.963    84185939.537    20241246.052  
                                
  23840189.072   125281087.614                                                  
  23840192.592    93554093.691  
  22409579.869   117763173.412                                                  
  22409583.068    87940066.142  
  23720635.034   124652796.645                                                  
  23720639.072    93084899.518  
 21  8 31 18 48 48.0000000  0 14G 5G10G13G15G18G23G29R 4R 5R19R20E 5
                                E 9E36
  23090515.799   121341505.906    23090515.085    94551824.863    23090514.745  
                                
  23840849.726   125284530.620    23840852.281    97624333.730    23840852.478  
  23840851.423    93556645.346  
  21966209.240   115433208.777                    89947953.249    21966207.721  
                                
  20285992.569   106603657.789    20285991.282    83067797.416    20285991.050  
                                
  20391040.266   107155660.239    20391039.194    83497926.355    20391039.266  
  20391043.501    80018878.995  
  21256917.868   111705890.759    21256916.921    87043572.118    21256917.011  
  21256921.210    83416774.450  
  22154708.991   116423773.170    22154708.473    90719818.073    22154708.277  
                                
  19857579.509   106336484.866    19857579.098    82706174.916    19857579.134  
                                
  19753838.752   105595634.554    19753839.896    82129970.736    19753839.931  
                                
  19766804.551   105739070.314    19766805.444    82241524.989    19766805.105  
                                
  20240743.861   108236378.215    20240747.041    84183860.199    20240746.112  
                                
  23839909.922   125279620.686                                                  
  23839913.443    93552998.258  
  22409822.656   117764449.213                                                  
  22409825.854    87941018.842  
  23720805.629   124653693.228                                                  
  23720809.686    93085569.038  
 21  8 31 18 48 49.0000000  0 14G 5G10G13G15G18G23G29R 4R 5R19R20E 5
                                E 9E36
  23091047.742   121344301.294    23091047.010    94554003.091    23091046.670  
                                
  23840371.318   125282016.581    23840373.874    97622374.741    23840374.070  
  23840373.016    93554767.992  
  21966614.438   115435338.183                    89949612.527    21966612.919  
                                
  20286130.303   106604381.524    20286129.017    83068361.365    20286128.767  
                                
  20390816.368   107154483.674    20390815.295    83497009.552    20390815.385  
  20390819.620    80018000.394  
  21256631.892   111704387.934    21256630.945    87042401.087    21256631.035  
  21256635.234    83415652.217  
  22155310.480   116426933.938    22155309.962    90722281.011    22155309.766  
                                
  19857990.372   106338685.085    19857989.961    82707886.200    19857990.014  
                                
  19753546.987   105594074.885    19753548.130    82128757.658    19753548.166  
                                
  19767150.156   105740919.078    19767151.049    82242962.919    19767150.710  
                                
  20240243.993   108233705.252    20240247.173    84181781.229    20240246.244  
                                
  23839630.826   125278154.099                                                  
  23839634.346    93551903.090  
  22410065.478   117765725.326                                                  
  22410068.694    87941971.792  
  23720976.296   124654590.092                                                  
  23720980.353    93086238.778  
 21  8 31 18 48 50.0000000  0 14G 5G10G13G15G18G23G29R 4R 5R19R20E 5
                                E 9E36
  23091579.685   121347096.653    23091578.953    94556181.293    23091578.613  
                                
  23839892.929   125279502.587    23839895.484    97620415.788    23839895.681  
  23839894.626    93552890.656  
  21967019.761   115437468.044                    89951272.156    21967018.242  
                                
  20286268.127   106605105.831    20286266.841    83068925.758    20286266.608  
                                
  20390592.540   107153307.377    20390591.450    83496092.959    20390591.540  
  20390595.775    80017121.990  
  21256345.952   111702885.306    21256345.005    87041230.210    21256345.095  
  21256349.294    83414530.120  
  22155911.988   116430094.987    22155911.487    90724744.157    22155911.291  
                                
  19858401.323   106340885.698    19858400.912    82709597.785    19858400.948  
                                
  19753255.328   105592515.769    19753256.472    82127545.015    19753256.490  
                                
  19767495.868   105742768.497    19767496.761    82244401.356    19767496.422  
                                
  20239744.196   108231032.690    20239747.377    84179702.569    20239746.465  
                                
  23839351.801   125276687.782                                                  
  23839355.321    93550808.106  
  22410308.371   117767001.685                                                  
  22410311.588    87942924.915  
  23721146.999   124655487.168                                                  
  23721151.056    93086908.670  
 21  8 31 18 48 51.0000000  0 15G 5G10G13G15G18G23G29R 4R 5R19R20E 3
                                E 5E 9E36
  23092111.646   121349892.114    23092110.914    94558359.583    23092110.574  
                                
  23839414.539   125276988.771    23839417.095    97618456.975    23839417.291  
  23839416.237    93551013.471  
  21967425.155   115439598.468                    89952932.232    21967423.637  
                                
  20286406.094   106605830.836    20286404.807    83069490.706    20286404.575  
                                
  20390368.766   107152131.470    20390367.694    83495176.668    20390367.766  
  20390372.001    80016243.878  
  21256060.066   111701382.974    21256059.101    87040059.567    21256059.190  
  21256063.390    83413408.255  
  22156513.602   116433256.430    22156513.084    90727207.626    22156512.887  
                                
  19858812.364   106343086.865    19858811.971    82711309.801    19858812.007  
                                
  19752963.777   105590957.355    19752964.921    82126332.905    19752964.957  
                                
  19767841.740   105744618.624    19767842.634    82245840.343    19767842.294  
                                
  20239244.525   108228360.686    20239247.705    84177624.342    20239246.776  
                                
  27619387.756   145140871.932                                                  
  27619392.009   108384432.029  
  23839072.866   125275221.863                                                  
  23839076.368    93549713.429  
  22410551.319   117768278.413                                                  
  22410554.517    87943878.318  
  23721317.791   124656384.590                                                  
  23721321.848    93087578.825  
 21  8 31 18 48 52.0000000  0 15G 5G10G13G15G18G23G29R 4R 5R19R20E 3
                                E 5E 9E36
  23092643.607   121352687.654    23092642.874    94560537.927    23092642.535  
                                
  23838936.221   125274475.140    23838938.777    97616498.302    23838938.973  
  23838937.919    93549136.398  
  21967830.693   115441729.500                    89954592.771    21967829.174  
                                
  20286544.204   106606556.563    20286542.917    83070056.206    20286542.685  
                                
  20390145.082   107150955.972    20390144.010    83494260.694    20390144.081  
  20390148.316    80015366.068  
  21255774.233   111699880.965    21255773.286    87038889.170    21255773.375  
  21255777.575    83412286.625  
  22157115.288   116436418.281    22157114.787    90729671.403    22157114.591  
                                
  19859223.513   106345288.512    19859223.102    82713022.194    19859223.155  
                                
  19752672.369   105589399.570    19752673.513    82125121.297    19752673.549  
                                
  19768187.738   105746469.506    19768188.632    82247279.912    19768188.292  
                                
  20238744.942   108225689.181    20238748.123    84175546.507    20238747.194  
                                
  27618825.793   145137918.809                                                  
  27618830.064   108382226.768  
  23838793.984   125273756.350                                                  
  23838797.486    93548619.057  
  22410794.355   117769555.535                                                  
  22410797.554    87944832.013  
  23721488.619   124657282.366                                                  
  23721492.675    93088249.245  
 21  8 31 18 48 53.0000000  0 15G 5G10G13G15G18G23G29R 4R 5R19R20E 3
                                E 5E 9E36
  23093175.586   121355483.286    23093174.871    94562716.341    23093174.531  
                                
  23838457.903   125271961.585    23838460.459    97614539.686    23838460.655  
  23838459.601    93547259.402  
  21968236.302   115443861.039                    89956253.713    21968234.783  
                                
  20286682.421   106607282.927    20286681.134    83070622.201    20286680.902  
                                
  20389921.451   107149780.807    20389920.379    83493344.982    20389920.451  
  20389924.685    80014488.510  
  21255488.472   111698379.217    21255487.525    87037718.974    21255487.614  
  21255491.813    83411165.186  
  22157717.027   116439580.472    22157716.527    90732135.446    22157716.330  
                                
  19859634.733   106347490.591    19859634.322    82714734.922    19859634.375  
                                
  19752381.069   105587842.373    19752382.212    82123910.146    19752382.248  
                                
  19768533.861   105748321.075    19768534.755    82248720.023    19768534.415  
                                
  20238245.450   108223018.103    20238248.630    84173469.004    20238247.701  
                                
  27618263.830   145134965.744                                                  
  27618268.119   108380021.556  
  23838515.156   125272291.194                                                  
  23838518.676    93547524.943  
  22411037.445   117770832.977                                                  
  22411040.662    87945785.947  
  23721659.519   124658180.446                                                  
  23721663.557    93088919.884  
 21  8 31 18 48 54.0000000  0 15G 5G10G13G15G18G23G29R 4R 5R19R20E 3
                                E 5E 9E36
  23093707.600   121358278.999    23093706.867    94564894.819    23093706.546  
                                
  23837979.657   125269448.263    23837982.212    97612581.252    23837982.409  
  23837981.354    93545382.564  
  21968642.036   115445993.192                    89957915.131    21968640.517  
                                
  20286820.798   106608010.028    20286819.512    83071188.771    20286819.261  
                                
  20389697.910   107148606.062    20389696.820    83492429.599    20389696.909  
  20389701.144    80013611.270  
  21255202.764   111696877.806    21255201.817    87036549.042    21255201.906  
  21255206.105    83410044.002  
  22158318.873   116442743.091    22158318.355    90734599.822    22158318.159  
                                
  19860046.060   106349693.249    19860045.649    82716448.098    19860045.702  
                                
  19752089.911   105586285.884    19752091.036    82122699.544    19752091.072  
                                
  19768880.163   105750173.418    19768881.056    82250160.730    19768880.717  
                                
  20237746.046   108220347.613    20237749.227    84171391.956    20237748.298  
                                
  27617701.867   145132012.797                                                  
  27617706.156   108377816.463  
  23838236.435   125270826.470                                                  
  23838239.955    93546431.155  
  22411280.589   117772110.818                                                  
  22411283.806    87946740.183  
  23721830.507   124659078.889                                                  
  23721834.546    93089590.804  
 21  8 31 18 48 55.0000000  0 15G 5G10G13G15G18G23G29R 4R 5R19R20E 3
                                E 5E 9E36
  23094239.632   121361074.903    23094238.900    94567073.443    23094238.578  
                                
  23837501.428   125266935.180    23837503.966    97610623.011    23837504.162  
  23837503.126    93543505.920  
  21969047.895   115448125.993                    89959577.056    21969046.376  
                                
  20286959.283   106608737.903    20286957.997    83071755.949    20286957.764  
                                
  20389474.458   107147431.799    20389473.368    83491514.586    20389473.457  
  20389477.692    80012734.383  
  21254917.127   111695376.783    21254916.180    87035379.416    21254916.270  
  21254920.469    83408923.104  
  22158920.774   116445906.183    22158920.255    90737064.569    22158920.059  
                                
  19860457.512   106351896.497    19860457.101    82718161.735    19860457.154  
                                
  19751798.878   105584730.162    19751800.022    82121489.538    19751800.057  
                                
  19769226.590   105752026.553    19769227.483    82251602.052    19769227.144  
                                
  20237246.750   108217677.744    20237249.931    84169315.391    20237249.001  
                                
  27617139.994   145129060.138                                                  
  27617144.318   108375611.533  
  23837957.785   125269362.222                                                  
  23837961.305    93545337.723  
  22411523.858   117773389.122                                                  
  22411527.057    87947694.761  
  23722001.550   124659977.775                                                  
  23722005.606    93090262.041  
 21  8 31 18 48 56.0000000  0 15G 5G10G13G15G18G23G29R 4R 5R19R20E 3
                                E 5E 9E36
  23094771.700   121363870.887    23094770.968    94569252.134    23094770.628  
                                
  23837023.235   125264422.271    23837025.773    97608664.914    23837025.987  
  23837024.933    93541629.410  
  21969453.861   115450259.357                    89961239.420    21969452.342  
                                
  20287097.929   106609466.448    20287096.642    83072323.650    20287096.410  
                                
  20389251.077   107146257.905    20389249.987    83490599.866    20389250.076  
  20389254.311    80011857.769  
  21254631.545   111693876.036    21254630.598    87034210.004    21254630.687  
  21254634.886    83407802.425  
  22159522.763   116449069.650    22159522.263    90739529.616    22159522.048  
                                
  19860869.035   106354100.238    19860868.642    82719875.754    19860868.678  
                                
  19751507.952   105583175.124    19751509.096    82120280.061    19751509.132  
                                
  19769573.141   105753880.443    19769574.035    82253043.965    19769573.695  
                                
  20236747.579   108215008.401    20236750.759    84167239.231    20236749.830  
                                
  27616578.102   145126107.540                                                  
  27616582.444   108373406.669  
  23837679.243   125267898.360                                                  
  23837682.763    93544244.575  
  22411767.181   117774667.776                                                  
  22411770.379    87948649.593  
  23722172.663   124660876.972                                                  
  23722176.702    93090933.518  
 21  8 31 18 48 57.0000000  0 15G 5G10G13G15G18G23G29R 4R 5R19R20E 3
                                E 5E 9E36
  23095303.768   121366666.903    23095303.036    94571430.845    23095302.696  
                                
  23836545.060   125261909.477    23836547.615    97606706.899    23836547.812  
  23836546.758    93539752.970  
  21969859.935   115452393.247                    89962902.194    21969858.416  
                                
  20287236.700   106610195.661    20287235.413    83072891.868    20287235.163  
                                
  20389027.750   107145084.360    20389026.660    83489685.415    20389026.749  
  20389030.984    80010981.430  
  21254346.016   111692375.573    21254345.069    87033040.813    21254345.158  
  21254349.357    83406681.952  
  22160124.806   116452233.473    22160124.306    90741994.932    22160124.109  
                                
  19861280.648   106356304.425    19861280.237    82721590.121    19861280.291  
                                
  19751217.170   105581620.718    19751218.313    82119071.081    19751218.349  
                                
  19769919.836   105755734.982    19769920.730    82254486.383    19769920.390  
                                
  20236248.479   108212339.533    20236251.660    84165163.449    20236250.731  
                                
  27616016.247   145123155.006                                                  
  27616020.589   108371201.875  
  23837400.736   125266434.848                                                  
  23837404.256    93543151.697  
  22412010.557   117775946.770                                                  
  22412013.755    87949604.686  
  23722343.831   124661776.483                                                  
  23722347.887    93091605.233  
 21  8 31 18 48 58.0000000  0 15G 5G10G13G15G18G23G29R 4R 5R19R20E 3
                                E 5E 9E36
  23095835.872   121369463.071    23095835.140    94573609.673    23095834.800  
                                
  23836066.921   125259396.855    23836069.476    97604749.021    23836069.673  
  23836068.618    93537876.673  
  21970266.116   115454527.744                    89964565.439    21970264.597  
                                
  20287375.596   106610925.605    20287374.309    83073460.656    20287374.077  
                                
  20388804.512   107143911.241    20388803.422    83488771.299    20388803.512  
  20388807.746    80010105.397  
  21254060.558   111690875.454    21254059.611    87031871.891    21254059.700  
  21254063.899    83405561.730  
  22160726.957   116455397.718    22160726.438    90744460.577    22160726.242  
                                
  19861692.386   106358509.179    19861691.975    82723304.933    19861692.029  
                                
  19750926.530   105580067.017    19750927.674    82117862.647    19750927.709  
                                
  19770266.674   105757590.318    19770267.567    82255929.423    19770267.228  
                                
  20235749.504   108209671.261    20235752.685    84163088.122    20235751.756  
                                
  27615454.409   145120202.681                                                  
  27615458.769   108368997.221  
  23837122.337   125264971.770                                                  
  23837125.857    93542059.141  
  22412254.022   117777226.166                                                  
  22412257.221    87950560.077  
  23722515.070   124662676.355                                                  
  23722519.126    93092277.217  
 21  8 31 18 48 59.0000000  0 15G 5G10G13G15G18G23G29R 4R 5R19R20E 3
                                E 5E 9E36
  23096367.958   121372259.269    23096367.243    94575788.531    23096366.904  
                                
  23835588.799   125256884.389    23835591.355    97602791.258    23835591.551  
  23835590.515    93536000.492  
  21970672.404   115456662.784                    89966229.104    21970670.885  
                                
  20287514.635   106611656.206    20287513.348    83074029.956    20287513.116  
                                
  20388581.346   107142738.474    20388580.256    83487857.452    20388580.345  
  20388584.580    80009229.627  
  21253775.136   111689375.596    21253774.189    87030703.170    21253774.278  
  21253778.460    83404441.706  
  22161329.161   116458562.315    22161328.642    90746926.490    22161328.446  
                                
  19862104.178   106360714.413    19862103.785    82725020.114    19862103.821  
                                
  19750635.998   105578513.948    19750637.141    82116654.702    19750637.177  
                                
  19770613.637   105759446.338    19770614.512    82257372.994    19770614.173  
                                
  20235250.601   108207003.474    20235253.782    84161013.179    20235252.853  
                                
  27614892.589   145117250.412                                                  
  27614896.967   108366792.593  
  23836843.973   125263509.056                                                  
  23836847.511    93540966.853  
  22412497.541   117778505.896                                                  
  22412500.740    87951515.720  
  23722686.380   124663576.556                                                  
  23722690.418    93092949.436  
 21  8 31 18 49  0.0000000  0 15G 5G10G13G15G18G23G29R 4R 5R19R20E 3
                                E 5E 9E36
  23096900.044   121375055.464    23096899.311    94577967.384    23096898.990  
                                
  23835110.714   125254371.982    23835113.269    97600833.549    23835113.466  
  23835112.411    93534124.359  
  21971078.781   115458798.300                    89967893.142    21971077.262  
                                
  20287653.781   106612387.418    20287652.494    83074599.729    20287652.262  
                                
  20388358.233   107141566.004    20388357.143    83486943.841    20388357.233  
  20388361.450    80008354.086  
  21253489.768   111687875.966    21253488.821    87029534.635    21253488.910  
  21253493.091    83403321.860  
  22161931.418   116461727.212    22161930.918    90749392.648    22161930.721  
                                
  19862516.059   106362920.073    19862515.666    82726735.623    19862515.702  
                                
  19750345.572   105576961.444    19750346.716    82115447.195    19750346.734  
                                
  19770960.725   105761303.024    19770961.618    82258817.085    19770961.279  
                                
  20234751.805   108204336.134    20234754.986    84158938.581    20234754.057  
                                
  27614330.787   145114298.148                                                  
  27614335.183   108364588.007  
  23836565.681   125262046.633                                                  
  23836569.201    93539874.788  
  22412741.132   117779785.903                                                  
  22412744.330    87952471.567  
  23722857.726   124664476.980                                                  
  23722861.764    93093621.846  
 21  8 31 18 49  1.0000000  0 15G 5G10G13G15G18G23G29R 4R 5R19R20E 3
                                E 5E 9E36
  23097432.112   121377851.456    23097431.379    94580146.079    23097431.058  
                                
  23834632.610   125251859.519    23834635.165    97598875.788    23834635.362  
  23834634.308    93532248.165  
  21971485.212   115460934.129                    89969557.429    21971483.693  
                                
  20287793.016   106613119.076    20287791.729    83075169.852    20287791.479  
                                
  20388135.139   107140393.680    20388134.066    83486030.342    20388134.138  
  20388138.373    80007478.642  
  21253204.399   111686376.381    21253203.452    87028366.124    21253203.542  
  21253207.741    83402202.038  
  22162533.711   116464892.261    22162533.193    90751858.916    22162532.997  
                                
  19862928.011   106365125.976    19862927.618    82728451.328    19862927.654  
                                
  19750055.201   105575409.340    19750056.344    82114240.005    19750056.380  
                                
  19771307.902   105763160.155    19771308.795    82260261.518    19771308.456  
                                
  20234253.045   108201669.042    20234256.208    84156864.176    20234255.279  
                                
  27613768.949   145111345.770                                                  
  27613773.345   108362383.320  
  23836287.425   125260584.368                                                  
  23836290.945    93538782.830  
  22412984.740   117781066.032                                                  
  22412987.921    87953427.505  
  23723029.090   124665377.518                                                  
  23723033.146    93094294.315  
 21  8 31 18 49  2.0000000  0 15G 5G10G13G15G18G23G29R 4R 5R19R20E 3
                                E 5E 9E36
  23097964.216   121380647.686    23097963.483    94582324.962    23097963.162  
                                
  23834154.560   125249347.341    23834157.098    97596918.249    23834157.312  
  23834156.258    93530372.190  
  21971891.786   115463070.675                    89971222.270    21971890.267  
                                
  20287932.394   106613851.555    20287931.108    83075740.615    20287930.876  
                                
  20387912.151   107139221.872    20387911.079    83485117.247    20387911.150  
  20387915.385    80006603.594  
  21252919.138   111684877.239    21252918.191    87027197.964    21252918.281  
  21252922.462    83401082.550  
  22163136.112   116468057.826    22163135.594    90754325.583    22163135.397  
                                
  19863340.071   106367332.513    19863339.660    82730167.521    19863339.696  
                                
  19749765.008   105573858.069    19749766.152    82113033.463    19749766.169  
                                
  19771655.240   105765018.225    19771656.133    82261706.683    19771655.794  
                                
  20233754.410   108199002.631    20233757.591    84154790.303    20233756.662  
                                
  27613207.183   145108393.689                                                  
  27613211.596   108360178.826  
  23836009.275   125259122.637                                                  
  23836012.813    93537691.275  
  22413228.420   117782346.670                                                  
  22413231.601    87954383.828  
  23723200.543   124666278.523                                                  
  23723204.582    93094967.147  
 21  8 31 18 49  3.0000000  0 15G 5G10G13G15G18G23G29R 4R 5R19R20E 3
                                E 5E 9E36
  23098496.337   121383443.969    23098495.605    94584503.886    23098495.283  
                                
  23833676.528   125246835.297    23833679.065    97594960.813    23833679.262  
  23833678.226    93528496.320  
  21972298.449   115465207.772                    89972887.547    21972296.930  
                                
  20288071.898   106614584.692    20288070.611    83076311.890    20288070.379  
                                
  20387689.235   107138050.429    20387688.145    83484204.432    20387688.234  
  20387692.451    80005728.823  
  21252633.913   111683378.364    21252632.966    87026030.012    21252633.055  
  21252637.237    83399963.265  
  22163738.566   116471223.756    22163738.048    90756792.544    22163737.851  
                                
  19863752.220   106369539.499    19863751.809    82731884.072    19863751.863  
                                
  19749474.940   105572307.418    19749476.066    82111827.406    19749476.102  
                                
  19772002.721   105766876.963    19772003.597    82263152.371    19772003.257  
                                
  20233255.882   108196336.665    20233259.045    84152716.777    20233258.116  
                                
  27612645.416   145105441.681                                                  
  27612649.848   108357974.413  
  23835731.198   125257661.270                                                  
  23835734.718    93536599.999  
  22413472.171   117783627.662                                                  
  22413475.370    87955340.413  
  23723372.068   124667179.862                                                  
  23723376.124    93095640.217  
 21  8 31 18 49  4.0000000  0 15G 5G10G13G15G18G23G29R 4R 5R19R20E 3
                                E 5E 9E36
  23099028.477   121386240.358    23099027.744    94586682.890    23099027.405  
                                
  23833198.550   125244323.451    23833201.105    97593003.527    23833201.301  
  23833200.247    93526620.564  
  21972705.237   115467345.421                    89974553.250    21972703.718  
                                
  20288211.544   106615318.533    20288210.258    83076883.717    20288210.025  
                                
  20387466.390   107136879.378    20387465.300    83483291.925    20387465.390  
  20387469.625    80004854.331  
  21252348.741   111681879.811    21252347.794    87024862.308    21252347.884  
  21252352.083    83398844.214  
  22164341.109   116474390.073    22164340.591    90759259.801    22164340.395  
                                
  19864164.441   106371747.013    19864164.048    82733601.026    19864164.083  
                                
  19749184.979   105570757.472    19749186.105    82110621.892    19749186.141  
                                
  19772350.327   105768736.442    19772351.203    82264598.630    19772350.863  
                                
  20232757.426   108193671.258    20232760.589    84150643.684    20232759.660  
                                
  27612083.668   145102489.781                                                  
  27612088.099   108355770.088  
  23835453.174   125256200.299                                                  
  23835456.694    93535509.012  
  22413716.012   117784909.009                                                  
  22413719.210    87956297.259  
  23723543.646   124668081.521                                                  
  23723547.685    93096313.536  
 21  8 31 18 49  5.0000000  0 15G 5G10G13G15G18G23G29R 4R 5R19R20E 3
                                E 5E 9E36
  23099560.599   121389036.658    23099559.866    94588861.826    23099559.526  
                                
  23832720.553   125241811.577    23832723.109    97591046.219    23832723.305  
  23832722.269    93524744.814  
  21973112.097   115469483.501                    89976219.289    21973110.578  
                                
  20288351.298   106616052.908    20288350.011    83077455.955    20288349.761  
                                
  20387243.582   107135708.551    20387242.509    83482379.592    20387242.581  
  20387246.816    80003980.012  
  21252063.587   111680381.391    21252062.640    87023694.708    21252062.730  
  21252066.929    83397725.264  
  22164943.671   116477556.624    22164943.170    90761727.242    22164942.956  
                                
  19864576.750   106373954.866    19864576.339    82735318.247    19864576.393  
                                
  19748895.126   105569208.015    19748896.252    82109416.757    19748896.287  
                                
  19772698.058   105770596.498    19772698.934    82266045.338    19772698.594  
                                
  20232259.059   108191006.214    20232262.222    84148570.873    20232261.293  
                                
  27611521.937   145099537.861                                                  
  27611526.404   108353565.717  
  23835175.203   125254739.548                                                  
  23835178.723    93534418.196  
  22413959.888   117786190.565                                                  
  22413963.087    87957254.263  
  23723715.260   124668983.365                                                  
  23723719.299    93096986.991  
 21  8 31 18 49  6.0000000  0 15G 5G10G13G15G18G23G29R 4R 5R19R20E 3
                                E 5E 9E36
  23100092.684   121391832.897    23100091.952    94591040.711    23100091.612  
                                
  23832242.539   125239299.731    23832245.076    97589088.933    23832245.273  
  23832244.237    93522869.111  
  21973519.028   115471621.998                    89977885.648    21973517.509  
                                
  20288491.141   106616787.835    20288489.854    83078028.630    20288489.622  
                                
  20387020.844   107134537.961    20387019.754    83481467.447    20387019.843  
  20387024.078    80003105.868  
  21251778.487   111678883.135    21251777.540    87022527.240    21251777.629  
  21251781.811    83396606.441  
  22165546.304   116480723.431    22165545.803    90764194.879    22165545.589  
                                
  19864989.132   106376163.089    19864988.721    82737035.754    19864988.774  
                                
  19748605.362   105567659.051    19748606.488    82108212.014    19748606.523  
                                
  19773045.879   105772457.148    19773046.754    82267492.510    19773046.415  
                                
  20231760.745   108188341.511    20231763.908    84146498.321    20231762.979  
                                
  27610960.171   145096585.879                                                  
  27610964.638   108351361.328  
  23834897.286   125253279.064                                                  
  23834900.806    93533327.573  
  22414203.801   117787472.329                                                  
  22414206.981    87958211.431  
  23723886.928   124669885.406                                                  
  23723890.966    93097660.593  
 21  8 31 18 49  7.0000000  0 15G 5G10G13G15G18G23G29R 4R 5R19R20E 3
                                E 5E 9E36
  23100624.806   121394629.168    23100624.073    94593219.621    23100623.734  
                                
  23831764.578   125236787.984    23831767.116    97587131.728    23831767.312  
  23831766.276    93520993.447  
  21973926.085   115473761.014                    89979552.409    21973924.566  
                                
  20288631.127   106617523.398    20288629.840    83078601.789    20288629.608  
                                
  20386798.143   107133367.721    20386797.070    83480555.569    20386797.160  
  20386801.377    80002231.989  
  21251493.441   111677385.134    21251492.476    87021359.965    21251492.583  
  21251496.764    83395487.801  
  22166148.990   116483890.569    22166148.490    90766662.781    22166148.275  
                                
  19865401.585   106378371.779    19865401.174    82738753.624    19865401.227  
                                
  19748315.705   105566110.705    19748316.849    82107007.743    19748316.884  
                                
  19773393.825   105774318.479    19773394.718    82268940.212    19773394.378  
                                
  20231262.521   108185677.304    20231265.684    84144426.160    20231264.755  
                                
  27610398.440   145093634.035                                                  
  27610402.925   108349157.009  
  23834619.423   125251818.927                                                  
  23834622.943    93532237.213  
  22414447.766   117788754.422                                                  
  22414450.965    87959168.836  
  23724058.614   124670787.731                                                  
  23724062.670    93098334.405  
 21  8 31 18 49  8.0000000  0 15G 5G10G13G15G18G23G29R 4R 5R19R20E 3
                                E 5E 9E36
  23101156.981   121397425.771    23101156.249    94595398.785    23101155.927  
                                
  23831286.689   125234276.642    23831289.227    97585174.842    23831289.423  
  23831288.387    93519118.094  
  21974333.284   115475900.808                    89981219.783    21974331.765  
                                
  20288771.274   106618259.874    20288769.987    83079175.669    20288769.755  
                                
  20386575.566   107132198.085    20386574.494    83479644.164    20386574.565  
  20386578.800    80001358.564  
  21251208.465   111675887.656    21251207.518    87020193.101    21251207.608  
  21251211.789    83394369.559  
  22166751.784   116487058.309    22166751.283    90769131.148    22166751.069  
                                
  19865814.180   106380581.202    19865813.787    82740472.061    19865813.823  
                                
  19748026.227   105564563.267    19748027.353    82105804.177    19748027.388  
                                
  19773741.967   105776180.745    19773742.842    82270388.642    19773742.503  
                                
  20230764.440   108183013.852    20230767.603    84142354.584    20230766.674  
                                
  27609836.781   145090682.500                                                  
  27609841.284   108346952.945  
  23834341.685   125250359.397                                                  
  23834345.205    93531147.304  
  22414691.857   117790037.116                                                  
  22414695.056    87960126.692  
  23724230.442   124671690.631                                                  
  23724234.498    93099008.653  
 21  8 31 18 49  9.0000000  0 15G 5G10G13G15G18G23G29R 4R 5R19R20E 3
                                E 5E 9E36
  23101689.228   121400222.699    23101688.495    94597578.203    23101688.156  
                                
  23830808.872   125231765.707    23830811.409    97583218.270    23830811.606  
  23830810.569    93517243.050  
  21974740.608   115478041.427                    89982887.802    21974739.089  
                                
  20288911.599   106618997.301    20288910.312    83079750.287    20288910.080  
                                
  20386353.115   107131029.089    20386352.042    83478733.258    20386352.114  
  20386356.349    80000485.610  
  21250923.633   111674390.738    21250922.686    87019026.669    21250922.775  
  21250926.957    83393251.724  
  22167354.720   116490226.704    22167354.220    90771600.029    22167354.005  
                                
  19866226.919   106382791.372    19866226.508    82742191.075    19866226.562  
                                
  19747736.910   105563016.747    19747738.053    82104601.331    19747738.089  
                                
  19774090.270   105778043.982    19774091.163    82271837.821    19774090.824  
                                
  20230266.520   108180351.183    20230269.683    84140283.624    20230268.754  
                                
  27609275.158   145087731.325                                                  
  27609279.679   108344749.150  
  23834064.071   125248900.524                                                  
  23834067.592    93530057.884  
  22414936.073   117791320.430                                                  
  22414939.272    87961085.008  
  23724402.378   124672594.122                                                  
  23724406.434    93099683.331  
 21  8 31 18 49 10.0000000  0 15G 5G10G13G15G18G23G29R 4R 5R19R20E 3
                                E 5E 9E36
  23102221.457   121403019.628    23102220.724    94599757.628    23102220.403  
                                
  23830331.072   125229254.861    23830333.609    97581261.781    23830333.806  
  23830332.769    93515368.070  
  21975148.058   115480182.509                    89984556.178    21975146.539  
                                
  20289052.032   106619735.315    20289050.763    83080325.365    20289050.513  
                                
  20386130.717   107129860.369    20386129.627    83477822.567    20386129.716  
  20386133.951    79999612.860  
  21250638.783   111672894.005    21250637.836    87017860.384    21250637.925  
  21250642.107    83392134.034  
  22167957.692   116493395.383    22167957.192    90774069.129    22167956.996  
                                
  19866639.729   106385001.960    19866639.336    82743910.422    19866639.372  
                                
  19747447.699   105561470.804    19747448.843    82103398.931    19747448.879  
                                
  19774438.716   105779907.879    19774439.609    82273287.519    19774439.270  
                                
  20229768.653   108177688.943    20229771.816    84138212.995    20229770.887  
                                
  27608713.552   145084780.182                                                  
  27608718.091   108342545.370  
  23833786.512   125247441.915                                                  
  23833790.032    93528968.665  
  22415180.325   117792604.002                                                  
  22415183.505    87962043.517  
  23724574.349   124673497.835                                                  
  23724578.406    93100358.179  
 21  8 31 18 49 11.0000000  0 15G 5G10G13G15G18G23G29R 4R 5R19R20E 3
                                E 5E 9E36
  23102753.704   121405816.524    23102752.971    94601937.030    23102752.631  
                                
  23829853.290   125226744.065    23829855.809    97579305.321    23829856.024  
  23829854.987    93513493.131  
  21975555.579   115482324.072                    89986224.929    21975554.060  
                                
  20289192.589   106620473.930    20289191.303    83080900.910    20289191.071  
                                
  20385908.372   107128691.956    20385907.282    83476912.116    20385907.372  
  20385911.607    79998740.342  
  21250354.022   111671397.495    21250353.075    87016694.270    21250353.165  
  21250357.346    83391016.510  
  22168560.736   116496564.349    22168560.236    90776538.452    22168560.039  
                                
  19867052.611   106387212.965    19867052.218    82745630.094    19867052.271  
                                
  19747158.614   105559925.446    19747159.758    82102196.988    19747159.794  
                                
  19774787.287   105781772.434    19774788.162    82274737.726    19774787.823  
                                
  20229270.876   108175027.134    20229274.039    84136142.699    20229273.127  
                                
  27608151.965   145081829.075                                                  
  27608156.503   108340341.610  
  23833509.006   125245983.632                                                  
  23833512.544    93527879.688  
  22415424.630   117793887.861                                                  
  22415427.829    87963002.241  
  23724746.374   124674401.804                                                  
  23724750.413    93101033.223  
 21  8 31 18 49 12.0000000  0 15G 5G10G13G15G18G23G29R 4R 5R19R20E 3
                                E 5E 9E36
  23103285.968   121408613.602    23103285.236    94604116.569    23103284.896  
                                
  23829375.544   125224233.507    23829378.063    97577349.041    23829378.260  
  23829377.223    93511618.374  
  21975963.225   115484466.284                    89987894.187    21975961.706  
                                
  20289333.272   106621213.318    20289331.986    83081477.055    20289331.753  
                                
  20385686.135   107127524.005    20385685.045    83476002.024    20385685.135  
  20385689.352    79997868.177  
  21250069.315   111669901.372    21250068.368    87015528.462    21250068.457  
  21250072.639    83389899.276  
  22169163.852   116499733.786    22169163.351    90779008.140    22169163.155  
                                
  19867465.600   106389424.543    19867465.207    82747350.211    19867465.260  
                                
  19746869.672   105558380.822    19746870.798    82100995.614    19746870.834  
                                
  19775135.983   105783637.753    19775136.858    82276188.532    19775136.519  
                                
  20228773.224   108172365.949    20228776.404    84134072.888    20228775.475  
                                
  27607590.413   145078878.159                                                  
  27607594.969   108338138.013  
  23833231.607   125244525.825                                                  
  23833235.127    93526791.067  
  22415669.025   117795172.163                                                  
  22415672.205    87963961.296  
  23724918.453   124675306.195                                                  
  23724922.509    93101708.586  
 21  8 31 18 49 13.0000000  0 15G 5G10G13G15G18G23G29R 4R 5R19R20E 3
                                E 5E 9E36
  23103818.286   121411410.997    23103817.554    94606296.359    23103817.232  
                                
  23828897.887   125221723.403    23828900.406    97575393.112    23828900.621  
  23828899.584    93509743.929  
  21976371.032   115486609.315                    89989564.076    21976369.513  
                                
  20289474.152   106621953.650    20289472.865    83082053.933    20289472.633  
                                
  20385463.988   107126356.684    20385462.916    83475092.423    20385462.987  
  20385467.222    79996996.475  
  21249784.733   111668405.798    21249783.786    87014363.080    21249783.875  
  21249788.057    83388782.449  
  22169767.092   116502903.853    22169766.592    90781478.315    22169766.395  
                                
  19867878.749   106391636.848    19867878.356    82749070.895    19867878.392  
                                
  19746580.873   105556837.100    19746581.999    82099794.938    19746582.035  
                                
  19775484.875   105785504.147    19775485.751    82277640.169    19775485.412  
                                
  20228275.732   108169705.513    20228278.895    84132003.656    20228277.966  
                                
  27607028.932   145075927.600                                                  
  27607033.507   108335934.685  
  23832954.298   125243068.642                                                  
  23832957.836    93525702.914  
  22415913.544   117796457.085                                                  
  22415916.725    87964920.815  
  23725090.675   124676211.173                                                  
  23725094.731    93102384.373  
 21  8 31 18 49 14.0000000  0 15G 5G10G13G15G18G23G29R 4R 5R19R20E 3
                                E 5E 9E36
  23104350.622   121414208.392    23104349.890    94608476.148    23104349.550  
                                
  23828420.230   125219213.343    23828422.767    97573437.226    23828422.964  
  23828421.927    93507869.536  
  21976778.928   115488752.827                    89991234.348    21976777.409  
                                
  20289615.156   106622694.592    20289613.869    83082631.291    20289613.637  
                                
  20385241.911   107125189.677    20385240.821    83474183.067    20385240.911  
  20385245.146    79996125.011  
  21249500.169   111666910.439    21249499.222    87013197.862    21249499.311  
  21249503.493    83387665.789  
  22170370.422   116506074.228    22170369.921    90783948.733    22170369.725  
                                
  19868291.953   106393849.572    19868291.560    82750791.900    19868291.595  
                                
  19746292.217   105555293.954    19746293.343    82098594.713    19746293.378  
                                
  19775833.911   105787371.142    19775834.787    82279092.276    19775834.447  
                                
  20227778.294   108167045.531    20227781.457    84129934.781    20227780.528  
                                
  27606467.452   145072977.089                                                  
  27606472.026   108333731.391  
  23832677.078   125241611.794                                                  
  23832680.598    93524615.005  
  22416158.100   117797742.291                                                  
  22416161.281    87965880.547  
  23725262.932   124677116.421                                                  
  23725266.988    93103060.374  
 21  8 31 18 49 15.0000000  0 15G 5G10G13G15G18G23G29R 4R 5R19R20E 3
                                E 5E 9E36
  23104882.941   121417005.801    23104882.208    94610655.945    23104881.886  
                                
  23827942.591   125216703.360    23827945.110    97571481.392    23827945.325  
  23827944.288    93505995.208  
  21977186.931   115490896.840                    89992905.008    21977185.412  
                                
  20289756.268   106623436.150    20289754.981    83083209.126    20289754.749  
                                
  20385019.889   107124022.979    20385018.817    83473273.952    20385018.888  
  20385023.123    79995253.771  
  21249215.640   111665415.311    21249214.711    87012032.827    21249214.801  
  21249218.964    83386549.288  
  22170973.769   116509244.902    22170973.269    90786419.388    22170973.072  
                                
  19868705.245   106396062.726    19868704.852    82752513.245    19868704.906  
                                
  19746003.632   105553751.390    19746004.758    82097394.944    19746004.794  
                                
  19776183.054   105789238.844    19776183.929    82280544.929    19776183.590  
                                
  20227280.946   108164386.009    20227284.108    84127866.264    20227283.179  
                                
  27605905.989   145070026.589                                                  
  27605910.581   108331528.103  
  23832399.894   125240155.240                                                  
  23832403.432    93523527.321  
  22416402.727   117799027.770                                                  
  22416405.907    87966840.487  
  23725435.261   124678021.909                                                  
  23725439.299    93103736.546  
 21  8 31 18 49 16.0000000  0 15G 5G10G13G15G18G23G29R 4R 5R19R20E 3
                                E 5E 9E36
  23105415.295   121419803.258    23105414.562    94612835.782    23105414.222  
                                
  23827465.006   125214193.529    23827467.525    97569525.673    23827467.740  
  23827466.703    93504120.960  
  21977595.006   115493041.382                    89994576.079    21977593.487  
                                
  20289897.522   106624178.375    20289896.236    83083787.483    20289895.986  
                                
  20384797.956   107122856.647    20384796.883    83472365.124    20384796.955  
  20384801.190    79994382.806  
  21248931.183   111663920.456    21248930.236    87010868.010    21248930.344  
  21248934.507    83385433.005  
  22171577.206   116512415.943    22171576.688    90788890.332    22171576.491  
                                
  19869118.627   106398276.395    19869118.234    82754234.982    19869118.270  
                                
  19745715.190   105552209.491    19745716.316    82096195.687    19745716.352  
                                
  19776532.322   105791107.207    19776533.197    82281998.100    19776532.858  
                                
  20226783.686   108161726.979    20226786.849    84125798.130    20226785.920  
                                
  27605344.527   145067076.191                                                  
  27605349.137   108329324.906  
  23832122.799   125238699.075                                                  
  23832126.337    93522439.921  
  22416647.407   117800313.599                                                  
  22416650.588    87967800.680  
  23725607.608   124678927.721                                                  
  23725611.664    93104412.964  
 21  8 31 18 49 17.0000000  0 15G 5G10G13G15G18G23G29R 4R 5R19R20E 3
                                E 5E 9E36
  23105947.649   121422600.858    23105946.916    94615015.725    23105946.594  
                                
  23826987.420   125211683.889    23826989.940    97567570.107    23826990.136  
  23826989.118    93502246.902  
  21978003.224   115495186.558                    89996247.640    21978001.705  
                                
  20290038.902   106624921.339    20290037.615    83084366.416    20290037.383  
                                
  20384576.094   107121690.744    20384575.004    83471456.628    20384575.093  
  20384579.328    79993512.175  
  21248646.798   111662425.956    21248645.851    87009703.465    21248645.940  
  21248650.104    83384316.991  
  22172180.732   116515587.428    22172180.232    90791361.618    22172180.018  
                                
  19869532.116   106400490.599    19869531.723    82755957.141    19869531.777  
                                
  19745426.874   105550668.300    19745427.999    82094996.978    19745428.035  
                                
  19776881.768   105792976.403    19776882.644    82283451.917    19776882.305  
                                
  20226286.552   108159068.532    20226289.697    84123730.448    20226288.786  
                                
  27604783.118   145064126.014                                                  
  27604787.746   108327121.827  
  23831845.793   125237243.354                                                  
  23831849.313    93521352.859  
  22416892.177   117801599.853                                                  
  22416895.358    87968761.194  
  23725780.062   124679833.925                                                  
  23725784.118    93105089.673  
 21  8 31 18 49 18.0000000  0 15G 5G10G13G15G18G23G29R 4R 5R19R20E 3
                                E 5E 9E36
  23106479.967   121425398.198    23106479.234    94617195.475    23106478.912  
                                
  23826509.835   125209174.076    23826512.354    97565614.406    23826512.551  
  23826511.514    93500372.687  
  21978411.477   115497331.942                    89997919.363    21978409.959  
                                
  20290180.353   106625664.632    20290179.067    83084945.605    20290178.834  
                                
  20384354.232   107120524.879    20384353.142    83470548.161    20384353.231  
  20384357.466    79992641.557  
  21248362.395   111660931.409    21248361.448    87008538.885    21248361.555  
  21248365.718    83383200.929  
  22172784.241   116518758.959    22172783.740    90793832.941    22172783.544  
                                
  19869945.624   106402704.928    19869945.230    82757679.397    19869945.266  
                                
  19745138.628   105549127.401    19745139.754    82093798.502    19745139.790  
                                
  19777231.251   105794845.931    19777232.126    82284905.990    19777231.787  
                                
  20225789.436   108156410.210    20225792.599    84121662.867    20225791.670  
                                
  27604221.637   145061175.570                                                  
  27604226.283   108324918.580  
  23831568.770   125235787.660                                                  
  23831572.308    93520265.818  
  22417136.947   117802886.118                                                  
  22417140.128    87969721.715  
  23725952.516   124680740.118                                                  
  23725956.554    93105766.373  
 21  8 31 18 49 19.0000000  0 15G 5G10G13G15G18G23G29R 4R 5R19R20E 3
                                E 5E 9E36
  23107012.267   121428195.487    23107011.534    94619375.176    23107011.213  
                                
  23826032.232   125206664.307    23826034.751    97563658.749    23826034.966  
  23826033.929    93498498.511  
  21978819.802   115499477.760                    89999591.430    21978818.284  
                                
  20290321.894   106626408.512    20290320.625    83085525.252    20290320.375  
                                
  20384132.424   107119359.281    20384131.352    83469639.905    20384131.423  
  20384135.658    79991771.150  
  21248078.009   111659437.035    21248077.062    87007374.440    21248077.151  
  21248081.333    83382085.009  
  22173387.803   116521930.740    22173387.302    90796304.459    22173387.106  
                                
  19870359.220   106404919.667    19870358.827    82759401.974    19870358.863  
                                
  19744850.473   105547587.085    19744851.598    82092600.480    19744851.634  
                                
  19777580.858   105796716.098    19777581.734    82286360.559    19777581.394  
                                
  20225292.391   108153752.319    20225295.554    84119595.620    20225294.625  
                                
  27603660.210   145058225.144                                                  
  27603664.856   108322715.331  
  23831291.818   125234332.252                                                  
  23831295.356    93519178.988  
  22417381.753   117804172.630                                                  
  22417384.915    87970682.422  
  23726125.005   124681646.525                                                  
  23726129.044    93106443.238  
 21  8 31 18 49 20.0000000  0 15G 5G10G13G15G18G23G29R 4R 5R19R20E 3
                                E 5E 9E36
  23107544.585   121430992.832    23107543.853    94621554.926    23107543.531  
                                
  23825554.664   125204154.669    23825557.184    97561703.194    23825557.380  
  23825556.362    93496624.438  
  21979228.253   115501624.113                    90001263.910    21979226.734  
                                
  20290463.577   106627153.040    20290462.291    83086105.404    20290462.058  
                                
  20383910.687   107118194.040    20383909.597    83468731.926    20383909.686  
  20383913.921    79990900.998  
  21247793.695   111657942.934    21247792.748    87006210.203    21247792.837  
  21247797.019    83380969.284  
  22173991.454   116525102.879    22173990.954    90798776.253    22173990.757  
                                
  19870772.888   106407134.867    19870772.477    82761124.907    19870772.530  
                                
  19744562.442   105546047.389    19744563.568    82091402.941    19744563.603  
                                
  19777930.591   105798586.922    19777931.466    82287815.645    19777931.127  
                                
  20224795.454   108151094.940    20224798.617    84117528.764    20224797.688  
                                
  27603098.748   145055274.785                                                  
  27603103.412   108320512.158  
  23831014.937   125232877.191                                                  
  23831018.457    93518092.415  
  22417626.630   117805459.474                                                  
  22417629.810    87971643.374  
  23726297.531   124682553.241                                                  
  23726301.569    93107120.331  
 21  8 31 18 49 21.0000000  0 15G 5G10G13G15G18G23G29R 4R 5R19R20E 3
                                E 5E 9E36
  23108076.886   121433790.051    23108076.153    94623734.577    23108075.813  
                                
  23825077.097   125201644.991    23825079.616    97559747.605    23825079.813  
  23825078.794    93494750.327  
  21979636.756   115503770.852                    90002936.696    21979635.255  
                                
  20290605.350   106627898.073    20290604.081    83086685.951    20290603.831  
                                
  20383688.986   107117028.982    20383687.896    83467824.089    20383687.985  
  20383692.220    79990030.985  
  21247509.417   111656448.954    21247508.470    87005046.063    21247508.559  
  21247512.723    83379853.641  
  22174595.123   116528275.220    22174594.641    90801248.205    22174594.426  
                                
  19871186.609   106409350.336    19871186.216    82762848.054    19871186.270  
                                
  19744274.483   105544508.171    19744275.626    82090205.774    19744275.662  
                                
  19778280.430   105800458.287    19778281.306    82289271.144    19778280.967  
                                
  20224298.570   108148437.873    20224301.733    84115462.160    20224300.804  
                                
  27602537.285   145052324.388                                                  
  27602541.967   108318308.922  
  23830738.074   125231422.324                                                  
  23830741.613    93517005.988  
  22417871.543   117806746.482                                                  
  22417874.723    87972604.454  
  23726470.110   124683460.094                                                  
  23726474.148    93107797.524  
 21  8 31 18 49 22.0000000  0 15G 5G10G13G15G18G23G29R 4R 5R19R20E 3
                                E 5E 9E36
  23108609.239   121436587.655    23108608.507    94625914.518    23108608.185  
                                
  23824599.618   125199135.791    23824602.120    97557792.391    23824602.334  
  23824601.298    93492876.592  
  21980045.439   115505918.449                    90004610.155    21980043.920  
                                
  20290747.319   106628644.077    20290746.033    83087267.256    20290745.801  
                                
  20383467.410   107115864.608    20383466.338    83466916.786    20383466.410  
  20383470.645    79989161.485  
  21247225.228   111654955.546    21247224.281    87003882.368    21247224.370  
  21247228.551    83378738.436  
  22175198.935   116531448.213    22175198.435    90803720.666    22175198.238  
                                
  19871600.474   106411566.651    19871600.081    82764571.848    19871600.134  
                                
  19743986.738   105542969.933    19743987.863    82089009.359    19743987.899  
                                
  19778630.449   105802330.683    19778631.324    82290727.451    19778631.003  
                                
  20223801.847   108145781.668    20223805.010    84113396.219    20223804.081  
                                
  27601975.894   145049374.337                                                  
  27601980.594   108316105.980  
  23830461.355   125229968.155                                                  
  23830464.893    93515920.082  
  22418116.580   117808034.150                                                  
  22418119.761    87973566.024  
  23726642.778   124684367.584                                                  
  23726646.834    93108475.197  
 21  8 31 18 49 23.0000000  0 15G 5G10G13G15G18G23G29R 4R 5R19R20E 3
                                E 5E 9E36
  23109141.683   121439385.498    23109140.950    94628094.656    23109140.611  
                                
  23824122.158   125196626.876    23824124.678    97555837.390    23824124.874  
  23824123.856    93491003.058  
  21980454.228   115508066.753                    90006284.160    21980452.727  
                                
  20290889.432   106629390.927    20290888.145    83087849.221    20290887.913  
                                
  20383245.942   107114700.773    20383244.852    83466009.902    20383244.941  
  20383249.176    79988292.392  
  21246941.128   111653462.613    21246940.181    87002719.041    21246940.271  
  21246944.434    83377623.574  
  22175802.837   116534621.754    22175802.337    90806193.554    22175802.140  
                                
  19872014.499   106413783.630    19872014.088    82766296.165    19872014.142  
                                
  19743699.118   105541432.476    19743700.244    82087813.564    19743700.279  
                                
  19778980.646   105804203.953    19778981.522    82292184.440    19778981.182  
                                
  20223305.249   108143126.100    20223308.394    84111330.776    20223307.482  
                                
  27601414.574   145046424.600                                                  
  27601419.274   108313903.269  
  23830184.742   125228514.526                                                  
  23830188.263    93514834.580  
  22418361.708   117809322.347                                                  
  22418364.871    87974527.989  
  23726815.572   124685275.561                                                  
  23726819.610    93109153.232  
 21  8 31 18 49 24.0000000  0 15G 5G10G13G15G18G23G29R 4R 5R19R20E 3
                                E 5E 9E36
  23109674.072   121442183.296    23109673.340    94630274.758    23109673.018  
                                
  23823644.751   125194118.002    23823647.253    97553882.421    23823647.450  
  23823646.431    93489129.550  
  21980863.125   115510215.479                    90007958.495    21980861.606  
                                
  20291031.651   106630138.331    20291030.365    83088431.609    20291030.132  
                                
  20383024.509   107113537.182    20383023.419    83465103.206    20383023.508  
  20383027.743    79987423.479  
  21246657.064   111651969.824    21246656.117    87001555.831    21246656.207  
  21246660.370    83376508.838  
  22176406.792   116537795.548    22176406.309    90808666.637    22176406.095  
                                
  19872428.560   106416000.967    19872428.149    82768020.761    19872428.203  
                                
  19743411.587   105539895.547    19743412.731    82086618.173    19743412.767  
                                
  19779330.950   105806077.803    19779331.826    82293641.879    19779331.486  
                                
  20222808.704   108140470.898    20222811.867    84109265.617    20222810.938  
                                
  27600853.237   145043474.837                                                  
  27600857.954   108311700.524  
  23829908.166   125227061.150                                                  
  23829911.704    93513749.269  
  22418606.889   117810610.760                                                  
  22418610.051    87975490.120  
  23726988.383   124686183.743                                                  
  23726992.421    93109831.422  
 21  8 31 18 49 25.0000000  0 15G 5G10G13G15G18G23G29R 4R 5R19R20E 3
                                E 5E 9E36
  23110206.462   121444981.046    23110205.747    94632454.821    23110205.408  
                                
  23823167.345   125191609.198    23823169.846    97551927.511    23823170.043  
  23823169.024    93487256.088  
  21981272.111   115512364.678                    90009633.197    21981270.593  
                                
  20291173.996   106630886.307    20291172.709    83089014.450    20291172.477  
                                
  20382803.147   107112373.879    20382802.057    83464196.738    20382802.147  
  20382806.381    79986554.778  
  21246373.036   111650477.243    21246372.089    87000392.781    21246372.179  
  21246376.360    83375394.246  
  22177010.801   116540969.620    22177010.300    90811139.941    22177010.104  
                                
  19872842.710   106418218.670    19872842.299    82769745.640    19872842.353  
                                
  19743124.200   105538359.168    19743125.326    82085423.211    19743125.361  
                                
  19779681.362   105807952.299    19779682.237    82295099.820    19779681.898  
                                
  20222312.267   108137816.139    20222315.412    84107200.805    20222314.483  
                                
  27600291.917   145040525.100                                                  
  27600296.653   108309497.787  
  23829631.660   125225608.061                                                  
  23829635.181    93512664.172  
  22418852.123   117811899.447                                                  
  22418855.286    87976452.445  
  23727161.266   124687092.157                                                  
  23727165.304    93110509.781  
 21  8 31 18 49 26.0000000  0 15G 5G10G13G15G18G23G29R 4R 5R19R20E 3
                                E 5E 9E36
  23110738.888   121447778.904    23110738.155    94634634.966    23110737.833  
                                
  23822689.956   125189100.550    23822692.475    97549972.723    23822692.672  
  23822691.653    93485382.743  
  21981681.205   115514514.443                    90011308.337    21981679.686  
                                
  20291316.466   106631634.993    20291315.179    83089597.840    20291314.947  
                                
  20382581.839   107111210.963    20382580.749    83463290.569    20382580.839  
  20382585.074    79985686.367  
  21246089.062   111648984.955    21246088.115    86999229.962    21246088.204  
  21246092.385    83374279.880  
  22177614.881   116544144.068    22177614.381    90813613.534    22177614.184  
                                
  19873256.950   106420436.845    19873256.539    82771470.881    19873256.593  
                                
  19742836.902   105536823.431    19742838.028    82084228.742    19742838.063  
                                
  19780031.916   105809827.508    19780032.792    82296558.313    19780032.452  
                                
  20221815.902   108135161.887    20221819.064    84105136.384    20221818.135  
                                
  27599730.616   145037575.477                                                  
  27599735.351   108307295.136  
  23829355.227   125224155.368                                                  
  23829358.747    93511579.369  
  22419097.411   117813188.485                                                  
  22419100.592    87977415.047  
  23727334.202   124688000.903                                                  
  23727338.240    93111188.395  
 21  8 31 18 49 27.0000000  0 15G 5G10G13G15G18G23G29R 4R 5R19R20E 3
                                E 5E 9E36
  23111271.313   121450576.860    23111270.580    94636815.193    23111270.259  
                                
  23822212.621   125186592.095    23822215.122    97548018.078    23822215.337  
  23822214.300    93483509.544  
  21982090.388   115516664.810                    90012983.947    21982088.869  
                                
  20291459.061   106632384.402    20291457.792    83090181.796    20291457.542  
                                
  20382360.639   107110048.469    20382359.567    83462384.732    20382359.638  
  20382363.873    79984818.269  
  21245805.141   111647493.011    21245804.212    86998067.409    21245804.301  
  21245808.464    83373165.762  
  22178219.033   116547318.939    22178218.532    90816087.460    22178218.336  
                                
  19873671.261   106422655.567    19873670.868    82773196.556    19873670.904  
                                
  19742549.729   105535288.407    19742550.854    82083034.834    19742550.890  
                                
  19780382.614   105811703.491    19780383.489    82298017.409    19780383.150  
                                
  20221319.661   108132508.233    20221322.806    84103072.431    20221321.877  
                                
  27599169.314   145034625.990                                                  
  27599174.067   108305092.617  
  23829078.864   125222703.107                                                  
  23829082.402    93510494.886  
  22419342.789   117814477.935                                                  
  22419345.969    87978377.937  
  23727507.192   124688910.033                                                  
  23727511.230    93111867.289  
 21  8 31 18 49 28.0000000  0 15G 5G10G13G15G18G23G29R 4R 5R19R20E 3
                                E 5E 9E36
  23111803.792   121453375.021    23111803.059    94638995.574    23111802.738  
                                
  23821735.339   125184083.893    23821737.841    97546063.647    23821738.055  
  23821737.019    93481636.544  
  21982499.713   115518815.854                    90014660.079    21982498.212  
                                
  20291601.834   106633134.605    20291600.547    83090766.368    20291600.315  
                                
  20382139.510   107108886.469    20382138.420    83461479.278    20382138.509  
  20382142.744    79983950.544  
  21245521.327   111646001.481    21245520.380    86996905.180    21245520.469  
  21245524.633    83372051.963  
  22178823.274   116550494.300    22178822.773    90818561.769    22178822.577  
                                
  19874085.715   106424874.917    19874085.322    82774922.719    19874085.358  
                                
  19742262.734   105533754.159    19742263.860    82081841.537    19742263.896  
                                
  19780733.454   105813580.283    19780734.330    82299477.134    19780733.990  
                                
  20220823.527   108129855.217    20220826.672    84101008.979    20220825.761  
                                
  27598608.101   145031676.752                                                  
  27598612.872   108302890.268  
  23828802.609   125221251.344                                                  
  23828806.147    93509410.782  
  22419588.237   117815767.869                                                  
  22419591.418    87979341.192  
  23727680.289   124689819.598                                                  
  23727684.328    93112546.507  
 21  8 31 18 49 29.0000000  0 15G 5G10G13G15G18G23G29R 4R 5R19R20E 3
                                E 5E 9E36
  23112336.271   121456173.199    23112335.556    94641175.972    23112335.217  
                                
  23821258.057   125181575.820    23821260.559    97544109.306    23821260.756  
  23821259.737    93479763.639  
  21982909.146   115520967.392                    90016336.604    21982907.627  
                                
  20291744.715   106633885.443    20291743.428    83091351.436    20291743.196  
                                
  20381918.470   107107724.806    20381917.380    83460574.086    20381917.469  
  20381921.704    79983083.066  
  21245237.549   111644510.194    21245236.602    86995743.140    21245236.691  
  21245240.855    83370938.344  
  22179427.604   116553669.992    22179427.104    90821036.337    22179426.907  
                                
  19874500.241   106427094.710    19874499.830    82776649.227    19874499.884  
                                
  19741975.829   105532220.529    19741976.955    82080648.709    19741976.991  
                                
  19781084.438   105815457.780    19781085.295    82300937.405    19781084.956  
                                
  20220327.483   108127202.673    20220330.646    84098945.892    20220329.717  
                                
  27598046.871   145028727.567                                                  
  27598051.642   108300687.961  
  23828526.408   125219799.919                                                  
  23828529.946    93508326.923  
  22419833.776   117817058.099                                                  
  22419836.939    87980304.676  
  23727853.404   124690729.456                                                  
  23727857.443    93113225.948  
 21  8 31 18 49 30.0000000  0 15G 5G10G13G15G18G23G29R 4R 5R19R20E 3
                                E 5E 9E36
  23112868.768   121458971.457    23112868.035    94643356.435    23112867.714  
                                
  23820780.812   125179067.873    23820783.313    97542155.055    23820783.510  
  23820782.491    93477890.820  
  21983318.686   115523119.475                    90018013.550    21983317.168  
                                
  20291887.720   106634636.928    20291886.434    83091937.010    20291886.202  
                                
  20381697.466   107106563.477    20381696.376    83459669.157    20381696.465  
  20381700.700    79982215.842  
  21244953.807   111643019.169    21244952.860    86994581.302    21244952.949  
  21244957.113    83369824.912  
  22180031.988   116556846.034    22180031.488    90823511.172    22180031.291  
                                
  19874914.856   106429314.957    19874914.463    82778376.086    19874914.498  
                                
  19741689.049   105530687.519    19741690.175    82079456.376    19741690.211  
                                
  19781435.546   105817335.956    19781436.422    82302398.206    19781436.082  
                                
  20219831.547   108124550.592    20219834.691    84096883.162    20219833.780  
                                
  27597485.677   145025778.481                                                  
  27597490.466   108298485.728  
  23828250.278   125218348.840                                                  
  23828253.816    93507243.325  
  22420079.368   117818348.657                                                  
  22420082.530    87981268.405  
  23728026.609   124691639.602                                                  
  23728030.647    93113905.607  
 21  8 31 18 49 31.0000000  0 15G 5G10G13G15G18G23G29R 4R 5R19R20E 3
                                E 5E 9E36
  23113401.211   121461769.533    23113400.496    94645536.750    23113400.175  
                                
  23820303.548   125176559.847    23820306.032    97540200.753    23820306.246  
  23820305.228    93476017.952  
  21983728.280   115525271.876                    90019690.743    21983726.761  
                                
  20292030.816   106635388.884    20292029.529    83092522.949    20292029.297  
                                
  20381476.515   107105402.322    20381475.425    83458764.360    20381475.515  
  20381479.749    79981348.743  
  21244670.100   111641528.226    21244669.153    86993419.526    21244669.243  
  21244673.406    83368711.541  
  22180636.390   116560022.237    22180635.907    90825986.135    22180635.693  
                                
  19875329.542   106431535.482    19875329.131    82780103.156    19875329.185  
                                
  19741402.359   105529154.982    19741403.484    82078264.402    19741403.520  
                                
  19781786.744   105819214.600    19781787.601    82303859.376    19781787.262  
                                
  20219335.663   108121898.840    20219338.808    84094820.688    20219337.879  
                                
  27596924.446   145022829.261                                                  
  27596929.235   108296283.404  
  23827974.183   125216897.937                                                  
  23827977.721    93506159.861  
  22420324.977   117819639.351                                                  
  22420328.122    87982232.234  
  23728199.849   124692549.882                                                  
  23728203.887    93114585.355  
 21  8 31 18 49 32.0000000  0 15G 5G10G13G15G18G23G29R 4R 5R19R20E 3
                                E 5E 9E36
  23113933.726   121464567.855    23113932.993    94647717.260    23113932.672  
                                
  23819826.356   125174052.141    23819828.857    97538246.701    23819829.054  
  23819828.035    93474145.307  
  21984137.981   115527424.998                    90021368.503    21984136.462  
                                
  20292174.054   106636141.664    20292172.767    83093109.533    20292172.535  
                                
  20381255.636   107104241.695    20381254.546    83457859.975    20381254.636  
  20381258.870    79980482.043  
  21244386.465   111640037.717    21244385.518    86992258.095    21244385.608  
  21244389.771    83367598.505  
  22181240.899   116563198.959    22181240.398    90828461.506    22181240.202  
                                
  19875744.300   106433756.641    19875743.907    82781830.727    19875743.961  
                                
  19741115.811   105527623.256    19741116.937    82077073.062    19741116.973  
                                
  19782138.102   105821094.192    19782138.960    82305321.280    19782138.638  
                                
  20218839.887   108119247.736    20218843.032    84092758.718    20218842.103  
                                
  27596363.270   145019880.337                                                  
  27596368.076   108294081.279  
  23827698.178   125215447.577                                                  
  23827701.716    93505076.802  
  22420570.676   117820930.552                                                  
  22420573.839    87983196.445  
  23728373.143   124693460.635                                                  
  23728377.181    93115265.463  
 21  8 31 18 49 33.0000000  0 15G 5G10G13G15G18G23G29R 4R 5R19R20E 3
                                E 5E 9E36
  23114466.223   121467366.124    23114465.508    94649897.732    23114465.186  
                                
  23819349.163   125171544.479    23819351.647    97536292.683    23819351.844  
  23819350.825    93472272.716  
  21984547.807   115529578.601                    90023046.635    21984546.288  
                                
  20292317.417   106636895.048    20292316.148    83093696.586    20292315.916  
                                
  20381034.847   107103081.361    20381033.757    83456955.822    20381033.846  
  20381038.081    79979615.563  
  21244102.848   111638547.413    21244101.901    86991096.824    21244102.009  
  21244106.154    83366485.620  
  22181845.461   116566375.984    22181844.979    90830937.107    22181844.764  
                                
  19876159.183   106435978.165    19876158.772    82783558.586    19876158.826  
                                
  19740829.371   105526092.032    19740830.496    82075882.115    19740830.532  
                                
  19782489.604   105822974.330    19782490.462    82306783.624    19782490.122  
                                
  20218344.183   108116597.010    20218347.345    84090697.050    20218346.416  
                                
  27595802.111   145016931.424                                                  
  27595806.918   108291879.162  
  23827422.245   125213997.499                                                  
  23827425.783    93503993.952  
  22420816.429   117822222.041                                                  
  22420819.592    87984160.871  
  23728546.508   124694371.641                                                  
  23728550.546    93115945.759  
 21  8 31 18 49 34.0000000  0 15G 5G10G13G15G18G23G29R 4R 5R19R20E 3
                                E 5E 9E36
  23114998.720   121470164.412    23114998.005    94652078.211    23114997.683  
                                
  23818871.989   125169036.925    23818874.491    97534338.750    23818874.687  
  23818873.669    93470400.179  
  21984957.705   115531732.666                    90024725.124    21984956.204  
                                
  20292460.905   106637649.034    20292459.619    83094284.109    20292459.386  
                                
  20380814.093   107101921.324    20380813.003    83456051.896    20380813.092  
  20380817.327    79978749.294  
  21243819.303   111637057.329    21243818.356    86989935.717    21243818.445  
  21243822.608    83365372.898  
  22182450.113   116569553.308    22182449.613    90833412.944    22182449.416  
                                
  19876574.102   106438200.147    19876573.709    82785286.794    19876573.744  
                                
  19740543.055   105524561.426    19740544.181    82074691.641    19740544.217  
                                
  19782841.195   105824855.182    19782842.053    82308246.513    19782841.713  
                                
  20217848.567   108113946.763    20217851.712    84088635.746    20217850.801  
                                
  27595240.934   145013982.541                                                  
  27595245.759   108289677.079  
  23827146.365   125212547.735                                                  
  23827149.903    93502911.336  
  22421062.235   117823513.782                                                  
  22421065.398    87985125.485  
  23728719.909   124695282.884                                                  
  23728723.947    93116626.229  
 21  8 31 18 49 35.0000000  0 14G 5G10G13G15G18G23G29R 4R 5R19R20E 5
                                E 9E36
  23115531.288   121472963.048    23115530.555    94654258.960    23115530.234  
                                
  23818394.886   125166529.750    23818397.370    97532385.107    23818397.566  
  23818396.548    93468527.957  
  21985367.781   115533887.534                    90026404.242    21985366.262  
                                
  20292604.554   106638403.947    20292603.286    83094872.349    20292603.035  
                                
  20380593.464   107100761.923    20380592.392    83455148.465    20380592.463  
  20380596.698    79977883.510  
  21243535.864   111635567.789    21243534.917    86988775.039    21243535.007  
  21243539.170    83364260.578  
  22183054.855   116572731.242    22183054.354    90835889.254    22183054.158  
                                
  19876989.199   106440422.864    19876988.788    82787015.576    19876988.824  
                                
  19740256.883   105523031.736    19740258.009    82073501.887    19740258.062  
                                
  19783193.000   105826737.025    19783193.858    82309710.169    19783193.518  
                                
  20217353.131   108111297.280    20217356.276    84086575.039    20217355.347  
                                
  23826870.610   125211098.610                                                  
  23826874.148    93501829.197  
  22421308.167   117824806.157                                                  
  22421311.329    87986090.568  
  23728893.417   124696194.717                                                  
  23728897.474    93117307.147  
 21  8 31 18 49 36.0000000  0 14G 5G10G13G15G18G23G29R 4R 5R19R20E 5
                                E 9E36
  23116063.892   121475761.854    23116063.177    94656439.846    23116062.838  
                                
  23817917.837   125164022.874    23817920.338    97530431.695    23817920.535  
  23817919.516    93466655.937  
  21985777.964   115536043.097                    90028083.902    21985776.463  
                                
  20292748.364   106639159.673    20292747.095    83095461.229    20292746.863  
                                
  20380372.924   107099603.024    20380371.852    83454245.427    20380371.924  
  20380376.159    79977018.099  
  21243252.479   111634078.662    21243251.532    86987614.682    21243251.622  
  21243255.785    83363148.574  
  22183659.685   116575909.684    22183659.185    90838365.960    22183658.989  
                                
  19877404.386   106442646.230    19877403.993    82788744.861    19877404.029  
                                
  19739970.871   105521502.825    19739971.997    82072312.732    19739972.033  
                                
  19783544.931   105828619.729    19783545.788    82311174.497    19783545.467  
                                
  20216857.784   108108648.466    20216860.929    84084514.851    20216860.000  
                                
  23826594.927   125209649.993                                                  
  23826598.465    93500747.438  
  22421554.205   117826099.008                                                  
  22421557.350    87987056.007  
  23729067.033   124697106.998                                                  
  23729071.071    93117988.394  
 21  8 31 18 49 37.0000000  0 14G 5G10G13G15G18G23G29R 4R 5R19R20E 5
                                E 9E36
  23116596.478   121478560.623    23116595.746    94658620.702    23116595.424  
                                
  23817440.805   125161516.013    23817443.307    97528478.304    23817443.504  
  23817442.485    93464783.926  
  21986188.237   115538199.072                    90029763.880    21986186.736  
                                
  20292892.281   106639915.951    20292890.995    83096050.534    20292890.762  
                                
  20380152.456   107098444.366    20380151.366    83453342.576    20380151.438  
  20380155.673    79976152.872  
  21242969.148   111632589.705    21242968.201    86986454.459    21242968.290  
  21242972.454    83362036.685  
  22184264.570   116579088.375    22184264.069    90840842.857    22184263.873  
                                
  19877819.644   106444869.937    19877819.233    82790474.413    19877819.287  
                                
  19739684.949   105519974.437    19739686.075    82071123.988    19739686.111  
                                
  19783897.004   105830503.048    19783897.862    82312639.298    19783897.522  
                                
  20216362.508   108106000.019    20216365.653    84082454.947    20216364.724  
                                
  23826319.315   125208201.623                                                  
  23826322.853    93499665.865  
  22421800.262   117827392.073                                                  
  22421803.425    87988021.609  
  23729240.666   124698019.483                                                  
  23729244.687    93118669.791  
 21  8 31 18 49 38.0000000  0 14G 5G10G13G15G18G23G29R 4R 5R19R20E 5
                                E 9E36
  23117129.065   121481359.423    23117128.350    94660801.588    23117128.028  
                                
  23816963.792   125159009.287    23816966.276    97526525.015    23816966.472  
  23816965.454    93462912.023  
  21986598.599   115540355.604                    90031444.292    21986597.080  
                                
  20293036.323   106640672.889    20293035.037    83096640.353    20293034.805  
                                
  20379932.024   107097286.087    20379930.934    83452440.023    20379931.023  
  20379935.258    79975287.920  
  21242685.871   111631101.030    21242684.924    86985294.452    21242685.013  
  21242689.176    83360925.014  
  22184869.525   116582267.425    22184869.025    90843320.039    22184868.829  
                                
  19878234.992   106447094.116    19878234.599    82792204.330    19878234.634  
                                
  19739399.152   105518446.726    19739400.278    82069935.768    19739400.313  
                                
  19784249.202   105832387.019    19784250.060    82314104.606    19784249.721  
                                
  20215867.322   108103352.106    20215870.467    84080395.455    20215869.537  
                                
  23826043.775   125206753.631                                                  
  23826047.313    93498584.577  
  22422046.372   117828685.492                                                  
  22422049.535    87988987.470  
  23729414.371   124698932.284                                                  
  23729418.409    93119351.430  
 21  8 31 18 49 39.0000000  0 15G 5G10G13G15G18G23G29R 4R 5R19R20E 3
                                E 5E 9E36
  23117661.669   121484158.203    23117660.936    94662982.455    23117660.614  
                                
  23816486.778   125156502.596    23816489.280    97524571.745    23816489.476  
  23816488.458    93461040.141  
  21987009.051   115542512.576                    90033125.036    21987007.550  
                                
  20293180.473   106641430.405    20293179.204    83097230.630    20293178.954  
                                
  20379711.681   107096128.071    20379710.591    83451537.671    20379710.663  
  20379714.915    79974423.164  
  21242402.611   111629612.552    21242401.664    86984134.599    21242401.753  
  21242405.917    83359813.483  
  22185474.535   116585446.759    22185474.035    90845797.433    22185473.838  
                                
  19878650.429   106449318.666    19878650.018    82793934.531    19878650.071  
                                
  19739113.480   105516919.544    19739114.606    82068747.960    19739114.641  
                                
  19784601.508   105834271.619    19784602.366    82315570.400    19784602.026  
                                
  20215372.243   108100704.609    20215375.387    84078336.300    20215374.458  
                                
  27592435.658   144999241.046                                                  
  27592440.537   108278668.832  
  23825768.288   125205305.912                                                  
  23825771.808    93497503.486  
  22422292.553   117829979.141                                                  
  22422295.716    87989953.502  
  23729588.111   124699845.314                                                  
  23729592.150    93120033.238  
 21  8 31 18 49 40.0000000  0 15G 5G10G13G15G18G23G29R 4R 5R19R20E 3
                                E 5E 9E36
  23118194.255   121486957.004    23118193.540    94665163.344    23118193.218  
                                
  23816009.800   125153995.984    23816012.284    97522618.548    23816012.481  
  23816011.462    93459168.327  
  21987419.609   115544670.018                    90034806.162    21987418.090  
                                
  20293324.729   106642188.505    20293323.443    83097821.355    20293323.211  
                                
  20379491.374   107094970.346    20379490.284    83450635.552    20379490.373  
  20379494.608    79973558.631  
  21242119.405   111628124.264    21242118.458    86982974.894    21242118.547  
  21242122.710    83358702.104  
  22186079.598   116588626.365    22186079.098    90848275.051    22186078.883  
                                
  19879065.919   106451543.632    19879065.508    82795665.058    19879065.544  
                                
  19738827.879   105515392.908    19738829.005    82067560.578    19738829.059  
                                
  19784953.939   105836156.805    19784954.796    82317036.647    19784954.457  
                                
  20214877.217   108098057.533    20214880.362    84076277.458    20214879.433  
                                
  27591874.643   144996292.838                                                  
  27591879.539   108276467.262  
  23825492.855   125203858.496                                                  
  23825496.393    93496422.622  
  22422538.788   117831273.077                                                  
  22422541.933    87990919.751  
  23729761.888   124700758.570                                                  
  23729765.926    93120715.220  
 21  8 31 18 49 41.0000000  0 15G 5G10G13G15G18G23G29R 4R 5R19R20E 3
                                E 5E 9E36
  23118726.877   121489755.969    23118726.144    94667344.351    23118725.823  
                                
  23815532.840   125151489.675    23815535.324    97520665.582    23815535.521  
  23815534.502    93457296.747  
  21987830.293   115546828.155                    90036487.830    21987828.774  
                                
  20293469.147   106642947.430    20293467.860    83098412.725    20293467.628  
                                
  20379271.156   107093813.135    20379270.066    83449733.829    20379270.138  
  20379274.373    79972694.487  
  21241836.270   111626636.413    21241835.323    86981815.525    21241835.430  
  21241839.576    83357591.045  
  22186684.750   116591806.480    22186684.250    90850753.060    22186684.035  
                                
  19879481.535   106453769.250    19879481.124    82797396.096    19879481.177  
                                
  19738542.439   105513867.036    19738543.565    82066373.791    19738543.601  
                                
  19785306.530   105838042.939    19785307.388    82318503.634    19785307.049  
                                
  20214382.334   108095411.125    20214385.479    84074219.148    20214384.550  
                                
  27591313.663   144993344.909                                                  
  27591318.559   108274265.899  
  23825217.511   125202411.589                                                  
  23825221.049    93495342.143  
  22422785.113   117832567.501                                                  
  22422788.258    87991886.363  
  23729935.771   124701672.319                                                  
  23729939.809    93121397.558  
 21  8 31 18 49 42.0000000  0 15G 5G10G13G15G18G23G29R 4R 5R19R20E 3
                                E 5E 9E36
  23119259.517   121492554.928    23119258.784    94669525.362    23119258.462  
                                
  23815055.934   125148983.436    23815058.418    97518712.661    23815058.614  
  23815057.596    93455425.186  
  21988241.066   115548986.756                    90038169.863    21988239.547  
                                
  20293613.672   106643706.945    20293612.403    83099004.552    20293612.153  
                                
  20379051.010   107092656.220    20379049.920    83448832.337    20379049.991  
  20379054.226    79971830.552  
  21241553.171   111625148.757    21241552.242    86980656.319    21241552.331  
  21241556.477    83356480.132  
  22187289.956   116594986.876    22187289.456    90853231.302    22187289.259  
                                
  19879897.222   106455995.238    19879896.829    82799127.427    19879896.865  
                                
  19738257.089   105512341.758    19738258.215    82065187.464    19738258.268  
                                
  19785659.229   105839929.600    19785660.069    82319971.047    19785659.729  
                                
  20213887.523   108092765.154    20213890.668    84072161.175    20213889.739  
                                
  27590752.682   144990397.021                                                  
  27590757.579   108272064.547  
  23824942.239   125200964.989                                                  
  23824945.777    93494261.891  
  22423031.491   117833862.212                                                  
  22423034.636    87992853.197  
  23730109.690   124702586.277                                                  
  23730113.729    93122080.070  
 21  8 31 18 49 43.0000000  0 15G 5G10G13G15G18G23G29R 4R 5R19R20E 3
                                E 5E 9E36
  23119792.121   121495353.855    23119791.406    94671706.342    23119791.084  
                                
  23814579.010   125146477.214    23814581.494    97516759.761    23814581.690  
  23814580.672    93453553.672  
  21988651.911   115551145.782                    90039852.219    21988650.410  
                                
  20293758.321   106644467.025    20293757.035    83099596.823    20293756.802  
                                
  20378830.899   107091499.569    20378829.809    83447931.053    20378829.881  
  20378834.116    79970966.817  
  21241270.126   111623661.285    21241269.179    86979497.250    21241269.268  
  21241273.432    83355369.360  
  22187895.234   116598167.546    22187894.733    90855709.743    22187894.519  
                                
  19880312.980   106458221.582    19880312.569    82800859.028    19880312.605  
                                
  19737971.864   105510817.032    19737972.989    82064001.568    19737973.025  
                                
  19786012.035   105841816.901    19786012.893    82321438.950    19786012.553  
                                
  20213392.784   108090119.568    20213395.911    84070103.497    20213394.982  
                                
  27590191.702   144987449.112                                                  
  27590196.634   108269863.178  
  23824667.020   125199518.658                                                  
  23824670.541    93493181.839  
  22423277.905   117835157.145                                                  
  22423281.068    87993820.194  
  23730283.681   124703500.484                                                  
  23730287.719    93122762.748  
 21  8 31 18 49 44.0000000  0 15G 5G10G13G15G18G23G29R 4R 5R19R20E 3
                                E 5E 9E36
  23120324.778   121498152.952    23120324.064    94673887.454    23120323.742  
                                
  23814102.139   125143971.292    23814104.623    97514807.095    23814104.820  
  23814103.801    93451682.356  
  21989062.898   115553305.483                    90041535.105    21989061.379  
                                
  20293903.114   106645227.896    20293901.827    83100189.711    20293901.595  
                                
  20378610.878   107090343.408    20378609.788    83447030.148    20378609.877  
  20378614.112    79970103.457  
  21240987.152   111622174.218    21240986.205    86978338.497    21240986.294  
  21240990.458    83354258.890  
  22188500.582   116601348.690    22188500.082    90858188.560    22188499.886  
                                
  19880728.846   106460448.545    19880728.435    82802591.111    19880728.489  
                                
  19737686.781   105509293.088    19737687.907    82062816.279    19737687.943  
                                
  19786365.002   105843705.081    19786365.842    82322907.539    19786365.520  
                                
  20212898.169   108087474.591    20212901.296    84068046.297    20212900.385  
                                
  27589630.776   144984501.447                                                  
  27589635.708   108267661.998  
  23824391.855   125198072.823                                                  
  23824395.393    93492102.157  
  22423524.390   117836452.546                                                  
  22423527.553    87994787.538  
  23730457.707   124704415.113                                                  
  23730461.746    93123445.755  
 21  8 31 18 49 45.0000000  0 15G 5G10G13G15G18G23G29R 4R 5R19R20E 3
                                E 5E 9E36
  23120857.490   121500952.339    23120856.775    94676068.793    23120856.436  
                                
  23813625.358   125141465.699    23813627.824    97512854.687    23813628.020  
  23813627.020    93449811.300  
  21989474.029   115555465.944                    90043218.579    21989472.510  
                                
  20294048.068   106645989.661    20294046.781    83100783.295    20294046.549  
                                
  20378391.000   107089187.836    20378389.892    83446129.703    20378389.981  
  20378394.216    79969240.528  
  21240704.267   111620687.658    21240703.320    86977180.139    21240703.410  
  21240707.573    83353148.793  
  22189106.039   116604530.433    22189105.556    90860667.840    22189105.342  
                                
  19881144.855   106462676.259    19881144.462    82804323.777    19881144.498  
                                
  19737401.842   105507770.013    19737402.968    82061631.670    19737403.021  
                                
  19786718.165   105845594.201    19786719.005    82324376.855    19786718.666  
                                
  20212403.680   108084830.366    20212406.807    84065989.678    20212405.895  
                                
  27589069.885   144981554.069                                                  
  27589074.835   108265461.047  
  23824116.851   125196627.592                                                  
  23824120.389    93491022.924  
  22423771.018   117837748.516                                                  
  22423774.163    87995755.308  
  23730631.877   124705330.288                                                  
  23730635.915    93124129.165  
 21  8 31 18 49 46.0000000  0 15G 5G10G13G15G18G23G29R 4R 5R19R20E 3
                                E 5E 9E36
  23121390.219   121503751.868    23121389.504    94678250.244    23121389.183  
                                
  23813148.612   125138960.334    23813151.096    97510902.457    23813151.293  
  23813150.274    93447940.404  
  21989885.249   115557627.016                    90044902.529    21989883.748  
                                
  20294193.164   106646752.171    20294191.877    83101377.456    20294191.645  
                                
  20378171.175   107088032.706    20378170.085    83445229.603    20378170.156  
  20378174.391    79968377.930  
  21240421.454   111619201.445    21240420.507    86976022.051    21240420.597  
  21240424.760    83352038.958  
  22189711.602   116607712.599    22189711.102    90863147.450    22189710.887  
                                
  19881560.971   106464904.514    19881560.578    82806056.862    19881560.614  
                                
  19737117.045   105506247.625    19737118.171    82060447.592    19737118.225  
                                
  19787071.436   105847484.014    19787072.276    82325846.712    19787071.936  
                                
  20211909.315   108082186.727    20211912.442    84063933.514    20211911.513  
                                
  27588509.048   144978606.888                                                  
  27588513.998   108263260.234  
  23823841.918   125195182.790                                                  
  23823845.438    93489944.013  
  22424017.718   117839044.902                                                  
  22424020.863    87996723.389  
  23730806.100   124706245.851                                                  
  23730810.138    93124812.864  
 21  8 31 18 49 47.0000000  0 15G 5G10G13G15G18G23G29R 4R 5R19R20E 3
                                E 5E 9E36
  23121922.984   121506551.513    23121922.251    94680431.788    23121921.930  
                                
  23812671.885   125136455.184    23812674.369    97508950.392    23812674.565  
  23812673.547    93446069.673  
  21990296.611   115559788.707                    90046586.961    21990295.092  
                                
  20294338.403   106647515.410    20294337.117    83101972.187    20294336.885  
                                
  20377951.439   107086878.015    20377950.349    83444329.842    20377950.439  
  20377954.674    79967515.657  
  21240138.713   111617715.573    21240137.766    86974864.233    21240137.855  
  21240142.001    83350929.385  
  22190317.219   116610895.208    22190316.736    90865627.402    22190316.522  
                                
  19881977.176   106467133.296    19881976.765    82807790.359    19881976.819  
                                
  19736832.392   105504725.929    19736833.500    82059264.051    19736833.553  
                                
  19787424.903   105849374.726    19787425.743    82327317.266    19787425.403  
                                
  20211415.040   108079543.658    20211418.167    84061877.794    20211417.238  
                                
  27587948.246   144975659.857                                                  
  27587953.196   108261059.533  
  23823567.057   125193738.437                                                  
  23823570.595    93488865.436  
  22424264.489   117840341.703                                                  
  22424267.634    87997691.774  
  23730980.376   124707161.798                                                  
  23730984.415    93125496.848  
 21  8 31 18 49 48.0000000  0 15G 5G10G13G15G18G23G29R 4R 5R19R20E 3
                                E 5E 9E36
  23122455.767   121509351.253    23122455.052    94682613.410    23122454.730  
                                
  23812195.193   125133950.165    23812197.677    97506998.431    23812197.873  
  23812196.855    93444199.058  
  21990708.081   115561950.970                    90048271.848    21990706.580  
                                
  20294483.786   106648279.349    20294482.499    83102567.467    20294482.267  
                                
  20377731.793   107085723.726    20377730.703    83443430.396    20377730.793  
  20377735.028    79966653.690  
  21239856.007   111616230.032    21239855.060    86973706.670    21239855.167  
  21239859.313    83349820.052  
  22190922.925   116614078.225    22190922.425    90868107.677    22190922.228  
                                
  19882393.489   106469362.573    19882393.078    82809524.241    19882393.113  
                                
  19736547.846   105503204.901    19736548.971    82058081.032    19736549.007  
                                
  19787778.459   105851266.188    19787779.299    82328788.407    19787778.960  
                                
  20210920.890   108076901.135    20210924.017    84059822.496    20210923.088  
                                
  27587387.463   144972713.010                                                  
  27587392.431   108258858.949  
  23823292.303   125192294.495                                                  
  23823295.823    93487787.172  
  22424511.350   117841638.881                                                  
  22424514.495    87998660.442  
  23731154.760   124708078.115                                                  
  23731158.781    93126181.109  
 21  8 31 18 49 49.0000000  0 15G 5G10G13G15G18G23G29R 4R 5R19R20E 3
                                E 5E 9E36
  23122988.549   121512151.095    23122987.835    94684795.103    23122987.513  
                                
  23811718.537   125131445.358    23811721.020    97505046.638    23811721.199  
  23811720.198    93442328.594  
  21991119.659   115564113.796                    90049957.165    21991118.140  
                                
  20294629.293   106649043.996    20294628.007    83103163.301    20294627.774  
                                
  20377512.219   107084569.836    20377511.129    83442531.264    20377511.218  
  20377515.453    79965792.019  
  21239573.391   111614744.805    21239572.443    86972549.351    21239572.533  
  21239576.678    83348710.956  
  22191528.703   116617261.614    22191528.202    90870588.238    22191528.006  
                                
  19882809.891   106471592.344    19882809.480    82811258.508    19882809.515  
                                
  19736263.442   105501684.558    19736264.568    82056898.544    19736264.604  
                                
  19788132.159   105853158.293    19788132.999    82330260.044    19788132.659  
                                
  20210426.812   108074259.177    20210429.957    84057767.640    20210429.027  
                                
  27586826.697   144969766.252                                                  
  27586831.683   108256658.463  
  23823017.602   125190850.951                                                  
  23823021.122    93486709.201  
  22424758.264   117842936.442                                                  
  22424761.409    87999629.404  
  23731329.197   124708994.769                                                  
  23731333.236    93126865.628  
 21  8 31 18 49 50.0000000  0 15G 5G10G13G15G18G23G29R 4R 5R19R20E 3
                                E 5E 9E36
  23123521.332   121514950.835    23123520.618    94686976.718    23123520.296  
                                
  23811241.916   125128940.566    23811244.400    97503094.852    23811244.597  
  23811243.578    93440458.108  
  21991531.307   115566277.022                    90051642.798    21991529.788  
                                
  20294774.890   106649809.154    20294773.621    83103759.525    20294773.371  
                                
  20377292.662   107083416.152    20377291.572    83441632.289    20377291.661  
  20377295.896    79964930.506  
  21239290.756   111613259.689    21239289.809    86971392.118    21239289.916  
  21239294.062    83347601.948  
  22192134.534   116620445.226    22192134.034    90873068.973    22192133.819  
                                
  19883226.328   106473822.453    19883225.917    82812993.037    19883225.971  
                                
  19735979.128   105500164.724    19735980.254    82055716.452    19735980.290  
                                
  19788486.001   105855051.027    19788486.841    82331732.176    19788486.502  
                                
  20209932.823   108071617.533    20209935.968    84055713.028    20209935.038  
                                
  27586265.932   144966819.426                                                  
  27586270.917   108254457.920  
  23822742.920   125189407.622                                                  
  23822746.458    93485631.397  
  22425005.196   117844234.181                                                  
  22425008.341    88000598.493  
  23731503.653   124709911.584                                                  
  23731507.691    93127550.263  
 21  8 31 18 49 51.0000000  0 15G 5G10G13G15G18G23G29R 4R 5R19R20E 3
                                E 5E 9E36
  23124054.133   121517750.780    23124053.418    94689158.492    23124053.097  
                                
  23810765.296   125126435.997    23810767.779    97501143.242    23810767.958  
  23810766.958    93438587.826  
  21991943.081   115568440.922                    90053328.949    21991941.580  
                                
  20294920.648   106650575.115    20294919.379    83104356.378    20294919.129  
                                
  20377073.231   107082262.967    20377072.141    83440733.703    20377072.212  
  20377076.447    79964069.359  
  21239008.247   111611774.993    21239007.300    86970235.214    21239007.389  
  21239011.553    83346493.242  
  22192740.455   116623629.320    22192739.955    90875550.080    22192739.740  
                                
  19883642.909   106476053.199    19883642.498    82814728.062    19883642.551  
                                
  19735694.957   105498645.688    19735696.083    82054534.984    19735696.119  
                                
  19788839.969   105856944.544    19788840.791    82333204.914    19788840.469  
                                
  20209438.941   108068976.530    20209442.068    84053658.914    20209441.139  
                                
  27585705.219   144963872.870                                                  
  27585710.223   108252257.556  
  23822468.362   125187964.792                                                  
  23822471.900    93484553.957  
  22425252.235   117845532.390                                                  
  22425255.398    88001567.936  
  23731678.215   124710828.846                                                  
  23731682.254    93128235.229  
 21  8 31 18 49 52.0000000  0 15G 5G10G13G15G18G23G29R 4R 5R19R20E 3
                                E 5E 9E36
  23124586.934   121520550.669    23124586.219    94691340.221    23124585.897  
                                
  23810288.693   125123931.480    23810291.177    97499191.668    23810291.373  
  23810290.355    93436717.581  
  21992354.944   115570605.260                    90055015.446    21992353.443  
                                
  20295066.512   106651341.643    20295065.244    83104953.672    20295064.994  
                                
  20376853.835   107081110.054    20376852.745    83439835.332    20376852.834  
  20376857.069    79963208.422  
  21238725.756   111610290.476    21238724.809    86969078.448    21238724.898  
  21238729.061    83345384.676  
  22193346.411   116626813.678    22193345.911    90878031.396    22193345.714  
                                
  19884059.561   106478284.316    19884059.150    82816463.377    19884059.185  
                                
  19735410.875   105497127.216    19735412.001    82053353.947    19735412.055  
                                
  19789194.061   105858838.692    19789194.901    82334678.142    19789194.562  
                                
  20208945.130   108066335.939    20208948.275    84051605.122    20208947.346  
                                
  27585144.490   144960926.273                                                  
  27585149.493   108250057.182  
  23822193.858   125186522.238                                                  
  23822197.396    93483476.729  
  22425499.328   117846830.854                                                  
  22425502.473    88002537.564  
  23731852.796   124711746.340                                                  
  23731856.834    93128920.368  
 21  8 31 18 49 53.0000000  0 15G 5G10G13G15G18G23G29R 4R 5R19R20E 3
                                E 5E 9E36
  23125119.716   121523350.450    23125119.002    94693521.864    23125118.680  
                                
  23809812.126   125121426.958    23809814.592    97497240.092    23809814.789  
  23809813.788    93434847.305  
  21992766.879   115572769.961                    90056702.226    21992765.378  
                                
  20295212.485   106652108.669    20295211.198    83105551.353    20295210.966  
                                
  20376634.492   107079957.338    20376633.402    83438937.112    20376633.474  
  20376637.709    79962347.623  
  21238443.282   111608806.068    21238442.335    86967921.764    21238442.424  
  21238446.570    83344276.179  
  22193952.421   116629998.224    22193951.921    90880512.862    22193951.707  
                                
  19884476.266   106480515.705    19884475.837    82818198.899    19884475.891  
                                
  19735126.901   105495609.206    19735128.027    82052173.276    19735128.062  
                                
  19789548.261   105860733.344    19789549.083    82336151.749    19789548.744  
                                
  20208451.409   108063695.683    20208454.536    84049551.594    20208453.607  
                                
  27584583.742   144957979.614                                                  
  27584588.745   108247856.788  
  23821919.390   125185079.892                                                  
  23821922.928    93482399.650  
  22425746.457   117848129.479                                                  
  22425749.602    88003507.319  
  23732027.412   124712663.965                                                  
  23732031.450    93129605.603  
 21  8 31 18 49 54.0000000  0 15G 5G10G13G15G18G23G29R 4R 5R19R20E 3
                                E 5E 9E36
  23125652.517   121526150.295    23125651.802    94695703.564    23125651.481  
                                
  23809335.524   125118922.550    23809337.990    97495288.613    23809338.186  
  23809337.186    93432977.154  
  21993178.920   115574935.226                    90058389.446    21993177.402  
                                
  20295358.564   106652876.371    20295357.277    83106149.565    20295357.045  
                                
  20376415.204   107078805.001    20376414.114    83438039.184    20376414.203  
  20376418.438    79961487.110  
  21238160.862   111607321.953    21238159.915    86966765.313    21238160.022  
  21238164.168    83343167.913  
  22194558.485   116633183.139    22194557.985    90882994.614    22194557.770  
                                
  19884893.043   106482747.569    19884892.632    82819934.791    19884892.686  
                                
  19734843.051   105494091.827    19734844.177    82050993.089    19734844.213  
                                
  19789902.604   105862628.773    19789903.426    82337625.971    19789903.086  
                                
  20207957.742   108061055.944    20207960.887    84047498.465    20207959.957  
                                
  27584023.048   144955033.061                                                  
  27584028.069   108245656.435  
  23821644.993   125183637.922                                                  
  23821648.531    93481322.856  
  22425993.639   117849428.457                                                  
  22425996.784    88004477.335  
  23732202.099   124713581.925                                                  
  23732206.138    93130291.095  
 21  8 31 18 49 55.0000000  0 15G 5G10G13G15G18G23G29R 4R 5R19R20E 3
                                E 5E 9E36
  23126185.371   121528950.566    23126184.657    94697885.591    23126184.335  
                                
  23808859.064   125116418.685    23808861.548    97493337.556    23808861.744  
  23808860.726    93431107.370  
  21993591.123   115577101.371                    90060077.351    21993589.622  
                                
  20295504.840   106653645.082    20295503.571    83106748.563    20295503.321  
                                
  20376196.040   107077653.374    20376194.950    83437141.814    20376195.040  
  20376199.275    79960627.133  
  21237878.549   111605838.460    21237877.602    86965609.342    21237877.692  
  21237881.855    83342060.110  
  22195164.674   116636368.750    22195164.173    90885476.909    22195163.959  
                                
  19885309.981   106484980.277    19885309.552    82821671.346    19885309.606  
                                
  19734559.381   105492575.432    19734560.506    82049813.673    19734560.542  
                                
  19790257.107   105864525.170    19790257.929    82339100.946    19790257.590  
                                
  20207464.271   108058417.076    20207467.398    84045446.015    20207466.486  
                                
  27583462.407   144952086.960                                                  
  27583467.428   108243456.438  
  23821370.722   125182196.673                                                  
  23821374.260    93480246.599  
  22426240.964   117850728.130                                                  
  22426244.127    88005447.870  
  23732376.894   124714500.539                                                  
  23732380.932    93130977.073  
 21  8 31 18 49 56.0000000  0 15G 5G10G13G15G18G23G29R 4R 5R19R20E 3
                                E 5E 9E36
  23126718.279   121531750.922    23126717.547    94700067.686    23126717.225  
                                
  23808382.622   125113914.972    23808385.106    97491386.609    23808385.285  
  23808384.284    93429237.714  
  21994003.433   115579268.107                    90061765.716    21994001.932  
                                
  20295651.258   106654414.497    20295649.990    83107348.109    20295649.740  
                                
  20375976.984   107076502.157    20375975.894    83436244.763    20375975.965  
  20375980.200    79959767.456  
  21237596.326   111604355.290    21237595.379    86964453.630    21237595.468  
  21237599.614    83340952.557  
  22195770.952   116639554.774    22195770.451    90887959.527    22195770.237  
                                
  19885727.026   106487213.537    19885726.615    82823408.325    19885726.651  
                                
  19734275.835   105491059.727    19734276.961    82048634.789    19734276.996  
                                
  19790611.772   105866422.400    19790612.594    82340576.567    19790612.272  
                                
  20206970.889   108055778.761    20206974.016    84043393.992    20206973.087  
                                
  27582901.820   144949141.012                                                  
  27582906.841   108241256.546  
  23821096.539   125180755.838                                                  
  23821100.077    93479170.651  
  22426488.361   117852028.184                                                  
  22426491.524    88006418.690  
  23732551.796   124715419.529                                                  
  23732555.816    93131663.334  
 21  8 31 18 49 57.0000000  0 15G 5G10G13G15G18G23G29R 4R 5R19R20E 3
                                E 5E 9E36
  23127251.169   121534551.254    23127250.454    94702249.756    23127250.115  
                                
  23807906.198   125111411.266    23807908.664    97489435.664    23807908.861  
  23807907.842    93427368.061  
  21994415.850   115581435.279                    90063454.420    21994414.331  
                                
  20295797.784   106655184.488    20295796.498    83107948.095    20295796.265  
                                
  20375757.963   107075351.187    20375756.873    83435347.903    20375756.945  
  20375761.198    79958907.963  
  21237314.103   111602872.293    21237313.156    86963298.045    21237313.245  
  21237317.391    83339845.118  
  22196377.283   116642741.028    22196376.783    90890442.322    22196376.569  
                                
  19886144.143   106489447.142    19886143.714    82825145.582    19886143.768  
                                
  19733992.397   105489544.556    19733993.522    82047456.323    19733993.558  
                                
  19790966.543   105868320.216    19790967.365    82342052.651    19790967.026  
                                
  20206477.579   108053140.858    20206480.706    84041342.292    20206479.795  
                                
  27582341.215   144946195.051                                                  
  27582346.254   108239056.610  
  23820822.411   125179315.250                                                  
  23820825.949    93478094.890  
  22426735.793   117853328.462                                                  
  22426738.920    88007389.674  
  23732726.698   124716338.704                                                  
  23732730.736    93132349.729  
 21  8 31 18 49 58.0000000  0 15G 5G10G13G15G18G23G29R 4R 5R19R20E 3
                                E 5E 9E36
  23127784.041   121537351.625    23127783.327    94704431.854    23127783.005  
                                
  23807429.757   125108907.679    23807432.223    97487484.817    23807432.419  
  23807431.418    93425498.511  
  21994828.339   115583602.962                    90065143.521    21994826.838  
                                
  20295944.435   106655955.109    20295943.149    83108548.579    20295942.917  
                                
  20375539.014   107074200.570    20375537.906    83434451.316    20375537.996  
  20375542.231    79958048.736  
  21237031.951   111601389.546    21237031.004    86962142.658    21237031.093  
  21237035.239    83338737.871  
  22196983.669   116645927.627    22196983.168    90892925.385    22196982.954  
                                
  19886561.331   106491681.186    19886560.920    82826883.172    19886560.956  
                                
  19733709.065   105488030.027    19733710.191    82046278.359    19733710.227  
                                
  19791321.458   105870218.709    19791322.262    82343529.257    19791321.940  
                                
  20205984.376   108050503.412    20205987.503    84039290.943    20205986.574  
                                
  27581780.610   144943249.156                                                  
  27581785.649   108236856.772  
  23820548.353   125177875.017                                                  
  23820551.874    93477019.389  
  22426983.279   117854629.065                                                  
  22426986.424    88008360.906  
  23732901.654   124717258.190                                                  
  23732905.692    93133036.356  
 21  8 31 18 49 59.0000000  0 15G 5G10G13G15G18G23G29R 4R 5R19R20E 3
                                E 5E 9E36
  23128316.931   121540151.878    23128316.199    94706613.870    23128315.877  
                                
  23806953.351   125106404.125    23806955.817    97485533.994    23806956.013  
  23806955.012    93423628.976  
  21995240.916   115585771.050                    90066832.940    21995239.415  
                                
  20296091.176   106656726.262    20296089.889    83109149.477    20296089.657  
                                
  20375320.101   107073050.178    20375318.993    83433554.911    20375319.082  
  20375323.317    79957189.681  
  21236749.835   111599906.948    21236748.888    86960987.389    21236748.977  
  21236753.123    83337630.741  
  22197590.108   116649114.453    22197589.607    90895408.623    22197589.393  
                                
  19886978.591   106493915.547    19886978.180    82828621.006    19886978.215  
                                
  19733425.841   105486516.012    19733426.967    82045100.789    19733427.003  
                                
  19791676.444   105872117.765    19791677.266    82345006.305    19791676.926  
                                
  20205491.245   108047866.359    20205494.354    84037239.902    20205493.443  
                                
  27581220.023   144940303.228                                                  
  27581225.062   108234656.893  
  23820274.314   125176435.025                                                  
  23820277.852    93475944.070  
  22427230.819   117855929.880                                                  
  22427233.964    88009332.292  
  23733076.663   124718177.843                                                  
  23733080.701    93133723.112  
 21  8 31 18 50  0.0000000  0 15G 5G10G13G15G18G23G29R 4R 5R19R20E 3
                                E 5E 9E36
  23128849.803   121542952.087    23128849.071    94708795.853    23128848.749  
                                
  23806476.945   125103900.577    23806479.411    97483583.177    23806479.589  
  23806478.589    93421759.441  
  21995653.566   115587939.545                    90068522.677    21995652.065  
                                
  20296238.023   106657497.957    20296236.737    83109750.801    20296236.505  
                                
  20375101.241   107071900.030    20375100.133    83432658.694    20375100.222  
  20375104.457    79956330.802  
  21236467.719   111598424.497    21236466.772    86959832.239    21236466.861  
  21236471.007    83336523.718  
  22198196.582   116652301.516    22198196.082    90897892.047    22198195.868  
                                
  19887395.886   106496150.252    19887395.475    82830359.112    19887395.529  
                                
  19733142.707   105485002.468    19733143.832    82043923.590    19733143.868  
                                
  19792031.573   105874017.411    19792032.395    82346483.810    19792032.055  
                                
  20204998.149   108045229.672    20205001.276    84035189.147    20205000.347  
                                
  27580659.418   144937357.273                                                  
  27580664.457   108232456.992  
  23820000.346   125174995.276                                                  
  23820003.884    93474868.930  
  22427478.394   117857230.906                                                  
  22427481.539    88010303.835  
  23733251.708   124719097.699                                                  
  23733255.746    93134410.015  
 21  8 31 18 50  1.0000000  0 15G 5G10G13G15G18G23G29R 4R 5R19R20E 3
                                E 5E 9E36
  23129382.622   121545752.161    23129381.889    94710977.725    23129381.568  
                                
  23806000.539   125101396.988    23806003.005    97481632.333    23806003.201  
  23806002.183    93419889.875  
  21996066.287   115590108.387                    90070212.682    21996064.786  
                                
  20296384.960   106658270.131    20296383.674    83110352.494    20296383.442  
                                
  20374882.399   107070750.060    20374881.309    83431762.612    20374881.398  
  20374885.633    79955472.061  
  21236185.638   111596942.143    21236184.691    86958677.156    21236184.781  
  21236188.926    83335416.765  
  22198803.093   116655488.738    22198802.592    90900375.594    22198802.396  
                                
  19887813.271   106498385.268    19887812.860    82832097.458    19887812.895  
                                
  19732859.661   105483489.362    19732860.769    82042746.728    19732860.823  
                                
  19792386.773   105875917.569    19792387.595    82347961.710    19792387.256  
                                
  20204505.143   108042593.279    20204508.252    84033138.622    20204507.340  
                                
  27580098.796   144934411.216                                                  
  27580103.853   108230257.021  
  23819726.414   125173555.709                                                  
  23819729.952    93473793.933  
  22427726.023   117858532.087                                                  
  22427729.168    88011275.494  
  23733426.788   124720017.681                                                  
  23733430.827    93135097.014  
 21  8 31 18 50  2.0000000  0 15G 5G10G13G15G18G23G29R 4R 5R19R20E 3
                                E 5E 9E36
  23129915.423   121548551.998    23129914.690    94713159.413    23129914.368  
                                
  23805524.079   125098893.243    23805526.545    97479681.365    23805526.741  
  23805525.741    93418020.196  
  21996479.061   115592277.499                    90071902.896    21996477.560  
                                
  20296531.969   106659042.674    20296530.682    83110954.474    20296530.450  
                                
  20374663.593   107069600.164    20374662.485    83430866.591    20374662.574  
  20374666.809    79954613.370  
  21235903.558   111595459.774    21235902.593    86957522.061    21235902.700  
  21235906.828    83334309.799  
  22199409.621   116658676.022    22199409.121    90902859.189    22199408.906  
                                
  19888230.673   106500620.467    19888230.262    82833835.943    19888230.316  
                                
  19732576.652   105481976.601    19732577.777    82041570.136    19732577.813  
                                
  19792742.081   105877818.115    19792742.885    82349439.917    19792742.546  
                                
  20204012.154   108039957.108    20204015.281    84031088.269    20204014.370  
                                
  27579538.137   144931464.986                                                  
  27579543.194   108228056.916  
  23819452.482   125172116.215                                                  
  23819456.020    93472718.989  
  22427973.634   117859833.318                                                  
  22427976.779    88012247.190  
  23733601.851   124720937.683                                                  
  23733605.890    93135784.031  
 21  8 31 18 50  3.0000000  0 15G 5G10G13G15G18G23G29R 4R 5R19R20E 3
                                E 5E 9E36
  23130448.241   121551351.937    23130447.509    94715341.197    23130447.187  
                                
  23805047.673   125096389.651    23805050.121    97477730.526    23805050.318  
  23805049.317    93416150.657  
  21996891.943   115594447.181                    90073593.562    21996890.442  
                                
  20296679.120   106659815.937    20296677.834    83111557.023    20296677.601  
                                
  20374444.840   107068450.668    20374443.750    83429970.882    20374443.822  
  20374448.075    79953754.986  
  21235621.531   111593977.716    21235620.584    86956367.208    21235620.673  
  21235624.819    83333203.070  
  22200016.221   116661863.713    22200015.720    90905343.107    22200015.524  
                                
  19888648.183   106502856.146    19888647.754    82835574.794    19888647.808  
                                
  19732293.785   105480464.537    19732294.911    82040394.086    19732294.947  
                                
  19793097.496   105879719.437    19793098.300    82350918.712    19793097.960  
                                
  20203519.291   108037321.466    20203522.400    84029038.316    20203521.489  
                                
  27578977.479   144928518.856                                                  
  27578982.554   108225856.899  
  23819178.621   125170677.150                                                  
  23819182.159    93471644.360  
  22428221.316   117861134.908                                                  
  22428224.461    88013219.170  
  23733776.986   124721858.035                                                  
  23733781.024    93136471.313  
 21  8 31 18 50  4.0000000  0 15G 5G10G13G15G18G23G29R 4R 5R19R20E 3
                                E 5E 9E36
  23130981.042   121554151.917    23130980.309    94717522.998    23130979.988  
                                
  23804571.267   125093886.197    23804573.733    97475779.784    23804573.912  
  23804572.911    93414281.194  
  21997304.914   115596617.378                    90075284.620    21997303.413  
                                
  20296826.379   106660589.836    20296825.092    83112160.066    20296824.860  
                                
  20374226.159   107067301.523    20374225.051    83429075.442    20374225.141  
  20374229.376    79952896.857  
  21235339.540   111592495.922    21235338.593    86955212.566    21235338.682  
  21235342.828    83332096.533  
  22200622.892   116665051.742    22200622.392    90907827.283    22200622.177  
                                
  19889065.764   106505092.248    19889065.335    82837313.988    19889065.389  
                                
  19732011.044   105478953.104    19732012.169    82039218.527    19732012.205  
                                
  19793453.054   105881621.435    19793453.858    82352398.046    19793453.536  
                                
  20203026.499   108034686.328    20203029.626    84026988.769    20203028.697  
                                
  27578416.874   144925572.828                                                  
  27578421.931   108223656.950  
  23818904.850   125169238.413                                                  
  23818908.388    93470569.977  
  22428469.053   117862436.837                                                  
  22428472.215    88014191.383  
  23733952.173   124722778.698                                                  
  23733956.212    93137158.812  
 21  8 31 18 50  5.0000000  0 15G 5G10G13G15G18G23G29R 4R 5R19R20E 3
                                E 5E 9E36
  23131513.914   121556952.182    23131513.199    94719705.025    23131512.860  
                                
  23804094.950   125091383.115    23804097.398    97473829.327    23804097.595  
  23804096.594    93412412.008  
  21997718.028   115598788.339                    90076976.280    21997716.527  
                                
  20296973.816   106661364.627    20296972.530    83112763.795    20296972.297  
                                
  20374007.585   107066152.962    20374006.495    83428180.462    20374006.567  
  20374010.820    79952039.170  
  21235057.674   111591014.630    21235056.727    86954058.313    21235056.816  
  21235060.962    83330990.376  
  22201229.652   116668240.354    22201229.152    90910311.912    22201228.938  
                                
  19889483.470   106507329.070    19889483.059    82839053.734    19889483.095  
                                
  19731728.463   105477442.527    19731729.589    82038043.636    19731729.624  
                                
  19793808.790   105883524.358    19793809.576    82353878.102    19793809.255  
                                
  20202533.850   108032051.936    20202536.959    84024939.795    20202536.048  
                                
  27577856.305   144922627.126                                                  
  27577861.380   108221457.244  
  23818631.186   125167800.275                                                  
  23818634.724    93469496.051  
  22428716.914   117863739.327                                                  
  22428720.059    88015164.022  
  23734127.469   124723699.891                                                  
  23734131.507    93137846.721  
 21  8 31 18 50  6.0000000  0 15G 5G10G13G15G18G23G29R 4R 5R19R20E 3
                                E 5E 9E36
  23132046.804   121559752.529    23132046.089    94721887.111    23132045.768  
                                
  23803618.669   125088880.198    23803621.117    97471879.004    23803621.314  
  23803620.313    93410542.946  
  21998131.267   115600959.878                    90078668.382    21998129.766  
                                
  20297121.397   106662140.125    20297120.110    83113368.081    20297119.878  
                                
  20373789.101   107065004.815    20373788.011    83427285.802    20373788.082  
  20373792.335    79951181.785  
  21234775.844   111589533.653    21234774.879    86952904.306    21234774.986  
  21234779.132    83329884.453  
  22201836.502   116671429.355    22201836.020    90912796.842    22201835.805  
                                
  19889901.284   106509566.442    19889900.873    82840793.915    19889900.926  
                                
  19731446.025   105475932.645    19731447.133    82036869.284    19731447.187  
                                
  19794164.670   105885428.043    19794165.456    82355358.746    19794165.134  
                                
  20202041.308   108029418.094    20202044.435    84022891.254    20202043.506  
                                
  27577295.789   144919681.559                                                  
  27577300.864   108219257.634  
  23818357.593   125166362.554                                                  
  23818361.131    93468422.426  
  22428964.846   117865042.205                                                  
  22428967.991    88016136.952  
  23734302.835   124724621.440                                                  
  23734306.874    93138534.889  
 21  8 31 18 50  7.0000000  0 15G 5G10G13G15G18G23G29R 4R 5R19R20E 3
                                E 5E 9E36
  23132579.765   121562553.184    23132579.033    94724069.442    23132578.711  
                                
  23803142.442   125086377.697    23803144.908    97469929.006    23803145.104  
  23803144.104    93408674.189  
  21998544.649   115603132.209                    90080361.105    21998543.148  
                                
  20297269.138   106662916.539    20297267.851    83113973.082    20297267.619  
                                
  20373570.741   107063857.284    20373569.633    83426391.624    20373569.723  
  20373573.958    79950324.863  
  21234494.139   111588053.212    21234493.174    86951750.716    21234493.263  
  21234497.409    83328778.927  
  22202443.477   116674618.980    22202442.977    90915282.260    22202442.763  
                                
  19890319.222   106511804.565    19890318.811    82842534.677    19890318.847  
                                
  19731163.712   105474423.663    19731164.838    82035695.628    19731164.874  
                                
  19794520.728   105887332.682    19794521.514    82356840.134    19794521.192  
                                
  20201548.909   108026785.028    20201552.036    84020843.316    20201551.107  
                                
  27576735.327   144916736.344                                                  
  27576740.420   108217058.283  
  23818084.108   125164925.443                                                  
  23818087.646    93467349.261  
  22429212.886   117866345.666                                                  
  22429216.031    88017110.314  
  23734478.327   124725543.558                                                  
  23734482.365    93139223.483  
 21  8 31 18 50  8.0000000  0 15G 5G10G13G15G18G23G29R 4R 5R19R20E 3
                                E 5E 9E36
  23133112.673   121565353.701    23133111.941    94726251.657    23133111.619  
                                
  23802666.233   125083875.115    23802668.681    97467978.948    23802668.877  
  23802667.876    93406805.390  
  21998958.102   115605304.883                    90082054.102    21998956.601  
                                
  20297416.968   106663693.420    20297415.681    83114578.438    20297415.449  
                                
  20373352.400   107062709.933    20373351.310    83425497.582    20373351.381  
  20373355.616    79949468.072  
  21234212.416   111586572.859    21234211.469    86950597.194    21234211.558  
  21234215.704    83327673.464  
  22203050.470   116677808.754    22203049.988    90917767.808    22203049.773  
                                
  19890737.232   106514042.939    19890736.821    82844275.632    19890736.857  
                                
  19730881.507   105472915.119    19730882.633    82034522.316    19730882.668  
                                
  19794876.875   105889237.863    19794877.661    82358321.933    19794877.340  
                                
  20201056.582   108024152.276    20201059.691    84018795.613    20201058.780  
                                
  27576174.848   144913791.023                                                  
  27576179.922   108214858.882  
  23817810.676   125163488.523                                                  
  23817814.214    93466276.238  
  22429460.962   117867649.286                                                  
  22429464.107    88018083.796  
  23734653.818   124726465.800                                                  
  23734657.857    93139912.170  
 21  8 31 18 50  9.0000000  0 15G 5G10G13G15G18G23G29R 4R 5R19R20E 3
                                E 5E 9E36
  23133645.581   121568154.137    23133644.866    94728433.816    23133644.527  
                                
  23802190.005   125081372.550    23802192.453    97466028.895    23802192.650  
  23802191.649    93404936.592  
  21999371.627   115607477.966                    90083747.409    21999370.126  
                                
  20297564.906   106664470.820    20297563.619    83115184.205    20297563.387  
                                
  20373134.112   107061562.798    20373133.004    83424603.713    20373133.093  
  20373137.328    79948611.448  
  21233930.746   111585092.635    21233929.799    86949443.771    21233929.888  
  21233934.034    83326568.106  
  22203657.517   116680998.732    22203657.016    90920253.502    22203656.802  
                                
  19891155.296   106516281.603    19891154.867    82846016.818    19891154.921  
                                
  19730599.409   105471407.061    19730600.534    82033349.390    19730600.570  
                                
  19795233.130   105891143.562    19795233.934    82359804.140    19795233.595  
                                
  20200564.308   108021519.897    20200567.417    84016748.209    20200566.506  
                                
  27575614.368   144910845.668                                                  
  27575619.443   108212659.430  
  23817537.298   125162051.829                                                  
  23817540.836    93465203.380  
  22429709.073   117868953.097                                                  
  22429712.218    88019057.419  
  23734829.346   124727388.226                                                  
  23734833.384    93140600.991  
 21  8 31 18 50 10.0000000  0 15G 5G10G13G15G18G23G29R 4R 5R19R20E 3
                                E 5E 9E36
  23134178.561   121570954.892    23134177.828    94730616.220    23134177.506  
                                
  23801713.831   125078870.363    23801716.297    97464079.142    23801716.476  
  23801715.475    93403068.085  
  21999785.295   115609651.829                    90085441.328    21999783.794  
                                
  20297713.022   106665249.156    20297711.735    83115790.700    20297711.503  
                                
  20372915.931   107060416.286    20372914.841    83423710.329    20372914.912  
  20372919.165    79947755.288  
  21233649.166   111583612.954    21233648.219    86948290.777    21233648.308  
  21233652.454    83325463.150  
  22204264.652   116684189.346    22204264.170    90922739.692    22204263.955  
                                
  19891573.485   106518521.006    19891573.074    82847758.573    19891573.110  
                                
  19730317.471   105469899.917    19730318.579    82032177.167    19730318.633  
                                
  19795589.563   105893050.273    19795590.350    82361287.136    19795590.028  
                                
  20200072.178   108018888.274    20200075.305    84014701.391    20200074.375  
                                
  27575053.942   144907900.679                                                  
  27575059.034   108210460.241  
  23817264.009   125160615.762                                                  
  23817267.547    93464130.993  
  22429957.292   117870257.512                                                  
  22429960.437    88020031.495  
  23735004.980   124728311.210                                                  
  23735009.019    93141290.232  
 21  8 31 18 50 11.0000000  0 15G 5G10G13G15G18G23G29R 4R 5R19R20E 3
                                E 5E 9E36
  23134711.558   121573755.881    23134710.843    94732798.812    23134710.503  
                                
  23801237.765   125076368.491    23801240.213    97462129.631    23801240.410  
  23801239.409    93401199.794  
  22000199.106   115611826.410                    90087135.805    22000197.605  
                                
  20297861.281   106666028.308    20297860.013    83116397.829    20297859.762  
                                
  20372697.875   107059270.301    20372696.767    83422817.356    20372696.857  
  20372701.092    79946899.523  
  21233367.693   111582133.707    21233366.728    86947138.117    21233366.818  
  21233370.963    83324358.520  
  22204871.913   116687380.479    22204871.413    90925226.288    22204871.198  
                                
  19891991.799   106520761.069    19891991.388    82849500.842    19891991.423  
                                
  19730035.659   105468393.582    19730036.785    82031005.570    19730036.820  
                                
  19795946.175   105894957.842    19795946.962    82362770.800    19795946.640  
                                
  20199580.190   108016257.322    20199583.299    84012655.095    20199582.370  
                                
  27574493.569   144904955.930                                                  
  27574498.662   108208261.267  
  23816990.845   125159180.227                                                  
  23816994.366    93463059.007  
  22430205.618   117871562.420                                                  
  22430208.763    88021005.942  
  23735180.722   124729234.684                                                  
  23735184.761    93141979.839  
 21  8 31 18 50 12.0000000  0 15G 5G10G13G15G18G23G29R 4R 5R19R20E 3
                                E 5E 9E36
  23135244.609   121576557.026    23135243.876    94734981.522    23135243.554  
                                
  23800761.716   125073866.850    23800764.164    97460180.302    23800764.361  
  23800763.360    93399331.693  
  22000613.042   115614001.626                    90088830.776    22000611.541  
                                
  20298009.719   106666808.237    20298008.433    83117005.566    20298008.200  
                                
  20372479.891   107058124.795    20372478.783    83421924.752    20372478.872  
  20372483.107    79946044.110  
  21233086.256   111580654.848    21233085.309    86945985.759    21233085.398  
  21233089.544    83323254.177  
  22205479.263   116690572.062    22205478.763    90927713.235    22205478.549  
                                
  19892410.238   106523001.728    19892409.809    82851243.579    19892409.862  
                                
  19729754.025   105466888.017    19729755.133    82029834.580    19729755.187  
                                
  19796302.895   105896866.172    19796303.699    82364255.054    19796303.359  
                                
  20199088.309   108013626.980    20199091.418    84010609.271    20199090.489  
                                
  27573933.250   144902011.405                                                  
  27573938.361   108206062.411  
  23816717.771   125157745.165                                                  
  23816721.291    93461987.367  
  22430454.015   117872867.777                                                  
  22430457.178    88021980.719  
  23735356.518   124730158.565                                                  
  23735360.556    93142669.748  
 21  8 31 18 50 13.0000000  0 15G 5G10G13G15G18G23G29R 4R 5R19R20E 3
                                E 5E 9E36
  23135777.642   121579358.251    23135776.909    94737164.293    23135776.587  
                                
  23800285.668   125071365.332    23800288.116    97458231.073    23800288.312  
  23800287.312    93397463.689  
  22001027.067   115616177.355                    90090526.147    22001025.566  
                                
  20298158.247   106667588.800    20298156.978    83117613.802    20298156.746  
                                
  20372261.978   107056979.636    20372260.870    83421032.420    20372260.960  
  20372265.195    79945188.961  
  21232804.908   111579176.253    21232803.943    86944833.612    21232804.033  
  21232808.178    83322150.042  
  22206086.667   116693763.981    22206086.167    90930200.457    22206085.953  
                                
  19892828.748   106525242.835    19892828.319    82852986.663    19892828.373  
                                
  19729472.499   105465383.091    19729473.624    82028664.082    19729473.660  
                                
  19796659.793   105898775.279    19796660.579    82365739.915    19796660.257  
                                
  20198596.500   108010997.121    20198599.609    84008563.823    20198598.698  
                                
  27573372.931   144899066.962                                                  
  27573378.024   108203863.652  
  23816444.732   125156310.466                                                  
  23816448.270    93460916.003  
  22430702.466   117874173.472                                                  
  22430705.611    88022955.758  
  23735532.403   124731082.773                                                  
  23735536.441    93143359.914  
 21  8 31 18 50 14.0000000  0 15G 5G10G13G15G18G23G29R 4R 5R19R20E 3
                                E 5E 9E36
  23136310.692   121582159.396    23136309.960    94739347.003    23136309.638  
                                
  23799809.673   125068863.876    23799812.139    97456281.900    23799812.335  
  23799811.334    93395595.708  
  22001441.181   115618353.536                    90092221.875    22001439.680  
                                
  20298306.899   106668369.939    20298305.612    83118222.484    20298305.380  
                                
  20372044.101   107055834.749    20372042.993    83420140.303    20372043.083  
  20372047.336    79944334.017  
  21232523.561   111577697.837    21232522.596    86943681.597    21232522.685  
  21232526.831    83321046.030  
  22206694.125   116696956.157    22206693.624    90932687.866    22206693.410  
                                
  19893247.330   106527484.298    19893246.901    82854730.023    19893246.955  
                                
  19729191.062   105463878.705    19729192.187    82027494.004    19729192.223  
                                
  19797016.798   105900684.941    19797017.584    82367225.208    19797017.245  
                                
  20198104.780   108008367.686    20198107.889    84006518.710    20198106.978  
                                
  27572812.630   144896122.530                                                  
  27572817.741   108201664.864  
  23816171.783   125154876.037                                                  
  23816175.321    93459844.839  
  22430950.988   117875479.392                                                  
  22430954.133    88023930.958  
  23735708.305   124732007.183                                                  
  23735712.344    93144050.216  
 21  8 31 18 50 15.0000000  0 15G 5G10G13G15G18G23G29R 4R 5R19R20E 3
                                E 5E 9E36
  23136843.707   121584960.427    23136842.975    94741529.624    23136842.653  
                                
  23799333.660   125066362.391    23799336.108    97454332.695    23799336.304  
  23799335.304    93393727.725  
  22001855.368   115620530.087                    90093917.884    22001853.867  
                                
  20298455.641   106669151.594    20298454.354    83118831.565    20298454.122  
                                
  20371826.278   107054690.068    20371825.170    83419248.341    20371825.259  
  20371829.494    79943479.218  
  21232242.266   111576219.535    21232241.302    86942529.676    21232241.391  
  21232245.537    83319942.101  
  22207301.600   116700148.534    22207301.100    90935175.433    22207300.885  
                                
  19893665.965   106529726.078    19893665.554    82856473.627    19893665.590  
                                
  19728909.732   105462374.796    19728910.840    82026324.300    19728910.893  
                                
  19797373.875   105902595.171    19797374.661    82368710.943    19797374.339  
                                
  20197613.132   108005738.583    20197616.241    84004473.854    20197615.312  
                                
  27572252.293   144893177.999                                                  
  27572257.404   108199466.044  
  23815898.852   125153441.805                                                  
  23815902.390    93458773.828  
  22431199.529   117876785.492                                                  
  22431202.674    88024906.292  
  23735884.244   124732931.751                                                  
  23735888.300    93144740.640  
 21  8 31 18 50 16.0000000  0 15G 5G10G13G15G18G23G29R 4R 5R19R20E 3
                                E 5E 9E36
  23137376.723   121587761.431    23137375.990    94743712.228    23137375.650  
                                
  23798857.629   125063860.929    23798860.095    97452383.502    23798860.291  
  23798859.273    93391859.750  
  22002269.625   115622707.063                    90095614.234    22002268.124  
                                
  20298604.490   106669933.783    20298603.203    83119441.063    20298602.971  
                                
  20371608.508   107053545.636    20371607.400    83418356.578    20371607.490  
  20371611.725    79942624.610  
  21231960.972   111574741.406    21231960.007    86941377.887    21231960.097  
  21231964.242    83318838.302  
  22207909.147   116703341.170    22207908.646    90937663.199    22207908.432  
                                
  19894084.672   106531968.253    19894084.261    82858217.538    19894084.315  
                                
  19728628.491   105460871.404    19728629.617    82025154.995    19728629.653  
                                
  19797731.094   105904505.975    19797731.881    82370197.121    19797731.559  
                                
  20197121.555   108003109.898    20197124.664    84002429.321    20197123.735  
                                
  27571691.974   144890233.477                                                  
  27571697.067   108197267.223  
  23815625.974   125152007.848                                                  
  23815629.512    93457703.010  
  22431448.122   117878091.829                                                  
  22431451.267    88025881.799  
  23736060.236   124733856.513                                                  
  23736064.274    93145431.207  
 21  8 31 18 50 17.0000000  0 15G 5G10G13G15G18G23G29R 4R 5R19R20E 3
                                E 5E 9E36
  23137909.755   121590562.527    23137909.023    94745894.902    23137908.683  
                                
  23798381.670   125061359.653    23798384.100    97450434.453    23798384.296  
  23798383.296    93389991.927  
  22002684.008   115624884.630                    90097311.036    22002682.507  
                                
  20298753.464   106670716.702    20298752.195    83120051.128    20298751.963  
                                
  20371390.792   107052401.620    20371389.684    83417465.137    20371389.773  
  20371394.008    79941770.315  
  21231679.768   111573263.597    21231678.803    86940226.350    21231678.892  
  21231683.020    83317734.752  
  22208516.765   116706534.196    22208516.265    90940151.269    22208516.050  
                                
  19894503.486   106534210.932    19894503.058    82859961.842    19894503.111  
                                
  19728347.376   105459368.699    19728348.501    82023986.222    19728348.537  
                                
  19798088.421   105906417.510    19798089.207    82371683.875    19798088.886  
                                
  20196630.068   108000481.759    20196633.177    84000385.213    20196632.266  
                                
  27571131.655   144887289.095                                                  
  27571136.766   108195068.492  
  23815353.185   125150574.297                                                  
  23815356.723    93456632.505  
  22431696.770   117879398.551                                                  
  22431699.933    88026857.600  
  23736236.281   124734781.648                                                  
  23736240.320    93146122.066  
 21  8 31 18 50 18.0000000  0 15G 5G10G13G15G18G23G29R 4R 5R19R20E 3
                                E 5E 9E36
  23138442.788   121593363.675    23138442.056    94748077.608    23138441.716  
                                
  23797905.710   125058858.522    23797908.158    97448485.511    23797908.355  
  23797907.354    93388124.175  
  22003098.515   115627062.724                    90099008.262    22003096.997  
                                
  20298902.581   106671500.256    20298901.294    83120661.692    20298901.062  
                                
  20371173.165   107051257.969    20371172.057    83416573.978    20371172.147  
  20371176.381    79940916.285  
  21231398.581   111571786.053    21231397.616    86939075.017    21231397.705  
  21231401.851    83316631.391  
  22209124.419   116709727.569    22209123.937    90942639.602    22209123.722  
                                
  19894922.372   106536454.016    19894921.943    82861706.472    19894921.997  
                                
  19728066.385   105457866.612    19728067.511    82022817.931    19728067.547  
                                
  19798445.909   105908329.804    19798446.695    82373171.218    19798446.356  
                                
  20196138.687   107997854.101    20196141.797    83998341.479    20196140.867  
                                
  27570571.372   144884344.805                                                  
  27570576.483   108192869.844  
  23815080.450   125149141.112                                                  
  23815083.971    93455562.267  
  22431945.507   117880705.604                                                  
  22431948.652    88027833.644  
  23736412.380   124735707.085                                                  
  23736416.419    93146813.137  
 21  8 31 18 50 19.0000000  0 15G 5G10G13G15G18G23G29R 4R 5R19R20E 3
                                E 5E 9E36
  23138975.804   121596164.717    23138975.071    94750260.240    23138974.731  
                                
  23797429.751   125056357.354    23797432.199    97446536.551    23797432.396  
  23797431.395    93386256.420  
  22003513.059   115629241.170                    90100705.748    22003511.540  
                                
  20299051.769   106672284.308    20299050.500    83121272.642    20299050.250  
                                
  20370955.574   107050114.497    20370954.466    83415682.965    20370954.538  
  20370958.790    79940062.402  
  21231117.447   111570308.620    21231116.482    86937923.770    21231116.572  
  21231120.717    83315528.108  
  22209732.145   116712921.120    22209731.644    90945128.083    22209731.430  
                                
  19895341.293   106538697.390    19895340.882    82863451.316    19895340.936  
                                
  19727785.466   105456364.978    19727786.574    82021649.996    19727786.628  
                                
  19798803.504   105910242.606    19798804.272    82374658.955    19798803.950  
                                
  20195647.361   107995226.784    20195650.470    83996298.012    20195649.541  
                                
  27570011.089   144881400.447                                                  
  27570016.199   108190671.129  
  23814807.769   125147708.127                                                  
  23814811.289    93454492.183  
  22432194.261   117882012.813                                                  
  22432197.406    88028809.809  
  23736588.515   124736632.669                                                  
  23736592.572    93147504.315  
 21  8 31 18 50 20.0000000  0 15G 5G10G13G15G18G23G29R 4R 5R19R20E 3
                                E 5E 9E36
  23139508.854   121598965.927    23139508.122    94752442.999    23139507.782  
                                
  23796953.828   125053856.432    23796956.276    97444587.776    23796956.472  
  23796955.471    93384388.855  
  22003927.727   115631420.286                    90102403.755    22003926.226  
                                
  20299201.118   106673069.153    20299199.850    83121884.211    20299199.600  
                                
  20370738.090   107048971.535    20370736.982    83414792.341    20370737.072  
  20370741.307    79939208.885  
  21230836.367   111568831.588    21230835.403    86936772.839    21230835.492  
  21230839.638    83314425.135  
  22210339.959   116716115.164    22210339.459    90947616.947    22210339.245  
                                
  19895760.358   106540941.383    19895759.929    82865196.644    19895759.982  
                                
  19727504.708   105454864.120    19727505.816    82020482.662    19727505.870  
                                
  19799161.206   105912156.200    19799161.992    82376147.303    19799161.653  
                                
  20195156.177   107992600.129    20195159.286    83994255.063    20195158.357  
                                
  27569450.824   144878456.294                                                  
  27569455.934   108188472.589  
  23814535.177   125146275.629                                                  
  23814538.697    93453422.461  
  22432443.105   117883320.494                                                  
  22432446.250    88029786.324  
  23736764.722   124737558.690                                                  
  23736768.778    93148195.822  
 21  8 31 18 50 21.0000000  0 15G 5G10G13G15G18G23G29R 4R 5R19R20E 3
                                E 5E 9E36
  23140041.977   121601767.527    23140041.244    94754626.064    23140040.904  
                                
  23796478.029   125051356.003    23796480.477    97442639.390    23796480.674  
  23796479.673    93382521.652  
  22004342.557   115633600.267                    90104102.442    22004341.056  
                                
  20299350.664   106673855.001    20299349.378    83122496.560    20299349.145  
                                
  20370520.713   107047829.257    20370519.606    83413902.259    20370519.677  
  20370523.930    79938355.894  
  21230555.431   111567355.171    21230554.448    86935622.381    21230554.555  
  21230558.683    83313322.619  
  22210947.899   116719309.890    22210947.399    90950106.343    22210947.184  
                                
  19896179.565   106543186.219    19896179.136    82866942.625    19896179.190  
                                
  19727224.129   105453364.253    19727225.255    82019316.100    19727225.290  
                                
  19799519.158   105914070.881    19799519.926    82377636.497    19799519.605  
                                
  20194665.136   107989974.299    20194668.245    83992212.751    20194667.316  
                                
  27568890.665   144875512.599                                                  
  27568895.776   108186274.364  
  23814262.710   125144843.847                                                  
  23814266.230    93452353.277  
  22432692.074   117884628.850                                                  
  22432695.219    88030763.339  
  23736941.053   124738485.362                                                  
  23736945.110    93148887.826  
 21  8 31 18 50 22.0000000  0 15G 5G10G13G15G18G23G29R 4R 5R19R20E 3
                                E 5E 9E36
  23140575.135   121604569.227    23140574.384    94756809.193    23140574.063  
                                
  23796002.231   125048855.695    23796004.696    97440691.100    23796004.893  
  23796003.875    93380654.536  
  22004757.511   115635780.806                    90105801.563    22004755.992  
                                
  20299500.335   106674641.515    20299499.049    83123109.422    20299498.816  
                                
  20370303.408   107046687.363    20370302.300    83413012.472    20370302.390  
  20370306.625    79937503.179  
  21230274.530   111565879.043    21230273.565    86934472.145    21230273.654  
  21230277.782    83312220.303  
  22211555.893   116722504.970    22211555.392    90952596.021    22211555.178  
                                
  19896598.862   106545431.524    19896598.433    82868688.971    19896598.486  
                                
  19726943.657   105451865.041    19726944.782    82018150.050    19726944.818  
                                
  19799877.200   105915986.248    19799877.986    82379126.218    19799877.646  
                                
  20194174.185   107987349.029    20194177.294    83990170.877    20194176.365  
                                
  27568330.507   144872568.981                                                  
  27568335.618   108184076.225  
  23813990.333   125143412.435                                                  
  23813993.853    93451284.361  
  22432941.115   117885937.549                                                  
  22432944.260    88031740.616  
  23737117.456   124739412.366                                                  
  23737121.513    93149580.056  
 21  8 31 18 50 23.0000000  0 15G 5G10G13G15G18G23G29R 4R 5R19R20E 3
                                E 5E 9E36
  23141108.275   121607370.947    23141107.542    94758992.349    23141107.203  
                                
  23795526.468   125046355.554    23795528.934    97438742.945    23795529.130  
  23795528.130    93378787.545  
  22005172.555   115637961.885                    90107501.105    22005171.036  
                                
  20299650.131   106675428.690    20299648.845    83123722.805    20299648.612  
                                
  20370086.175   107045545.827    20370085.067    83412122.966    20370085.156  
  20370089.391    79936650.736  
  21229993.682   111564403.189    21229992.717    86933322.133    21229992.807  
  21229996.952    83311118.206  
  22212163.976   116725700.414    22212163.475    90955085.973    22212163.261  
                                
  19897018.230   106547677.272    19897017.819    82870435.662    19897017.872  
                                
  19726663.327   105450366.481    19726664.453    82016984.501    19726664.489  
                                
  19800235.402   105917902.342    19800236.188    82380616.513    19800235.849  
                                
  20193683.341   107984724.268    20193686.450    83988129.398    20193685.521  
                                
  27567770.385   144869625.476                                                  
  27567775.495   108181878.149  
  23813717.991   125141981.387                                                  
  23813721.511    93450215.728  
  22433190.209   117887246.592                                                  
  22433193.354    88032718.148  
  23737293.931   124740339.678                                                  
  23737297.969    93150272.525  
 21  8 31 18 50 24.0000000  0 15G 5G10G13G15G18G23G29R 4R 5R19R20E 3
                                E 5E 9E36
  23141641.469   121610172.815    23141640.718    94761175.625    23141640.396  
                                
  23795050.759   125043855.630    23795053.207    97436794.947    23795053.403  
  23795052.403    93376920.716  
  22005587.724   115640143.594                    90109201.134    22005586.205  
                                
  20299800.070   106676216.625    20299798.784    83124336.780    20299798.551  
                                
  20369869.048   107044404.767    20369867.940    83411233.830    20369868.012  
  20369872.264    79935798.641  
  21229712.906   111562927.710    21229711.941    86932172.410    21229712.031  
  21229716.176    83310016.386  
  22212772.148   116728896.307    22212771.647    90957576.281    22212771.433  
                                
  19897437.723   106549923.573    19897437.294    82872182.785    19897437.348  
                                
  19726383.123   105448868.653    19726384.231    82015819.526    19726384.285  
                                
  19800593.747   105919819.203    19800594.534    82382107.403    19800594.194  
                                
  20193192.604   107982100.116    20193195.713    83986088.389    20193194.784  
                                
  27567210.263   144866682.154                                                  
  27567215.373   108179680.231  
  23813445.774   125140550.820                                                  
  23813449.312    93449147.443  
  22433439.393   117888556.063                                                  
  22433442.538    88033696.000  
  23737470.459   124741267.398                                                  
  23737474.497    93150965.305  
 21  8 31 18 50 25.0000000  0 15G 5G10G13G15G18G23G29R 4R 5R19R20E 3
                                E 5E 9E36
  23142174.680   121612974.855    23142173.930    94763359.033    23142173.608  
                                
  23794575.085   125041355.940    23794577.533    97434847.135    23794577.748  
  23794576.729    93375054.068  
  22006003.000   115642325.920                    90110901.645    22006001.481  
                                
  20299950.152   106677005.310    20299948.866    83124951.342    20299948.633  
                                
  20369652.011   107043264.153    20369650.885    83410345.040    20369650.974  
  20369655.227    79934946.886  
  21229432.220   111561452.598    21229431.255    86931022.970    21229431.344  
  21229435.472    83308914.841  
  22213380.374   116732092.643    22213379.873    90960066.928    22213379.659  
                                
  19897857.305   106552170.463    19897856.894    82873930.364    19897856.930  
                                
  19726103.062   105447371.566    19726104.188    82014655.125    19726104.224  
                                
  19800952.236   105921736.877    19800953.004    82383598.929    19800952.683  
                                
  20192701.992   107979476.546    20192705.101    83984047.834    20192704.172  
                                
  27566650.212   144863739.043                                                  
  27566655.340   108177482.445  
  23813173.629   125139120.696                                                  
  23813177.167    93448079.495  
  22433688.666   117889865.969                                                  
  22433691.811    88034674.176  
  23737647.076   124742195.523                                                  
  23737651.133    93151658.388  
 21  8 31 18 50 26.0000000  0 15G 5G10G13G15G18G23G29R 4R 5R19R20E 3
                                E 5E 9E36
  23142707.874   121615776.833    23142707.124    94765542.395    23142706.802  
                                
  23794099.412   125038856.271    23794101.860    97432899.337    23794102.057  
  23794101.056    93373187.443  
  22006418.383   115644508.668                    90112602.490    22006416.864  
                                
  20300100.323   106677794.548    20300099.055    83125566.333    20300098.822  
                                
  20369434.992   107042123.794    20369433.884    83409456.448    20369433.955  
  20369438.208    79934095.323  
  21229151.533   111559977.650    21229150.568    86929873.660    21229150.657  
  21229154.785    83307813.421  
  22213988.671   116735289.223    22213988.171    90962557.767    22213987.956  
                                
  19898276.977   106554417.751    19898276.566    82875678.252    19898276.602  
                                
  19725823.090   105445875.010    19725824.216    82013491.139    19725824.252  
                                
  19801310.831   105923655.143    19801311.618    82385090.914    19801311.296  
                                
  20192211.451   107976853.382    20192214.543    83982007.595    20192213.631  
                                
  27566090.161   144860795.906                                                  
  27566095.271   108175284.652  
  23812901.537   125137690.851                                                  
  23812905.058    93447011.756  
  22433937.974   117891176.100                                                  
  22433941.119    88035652.523  
  23737823.730   124743123.857                                                  
  23737827.768    93152351.630  
 21  8 31 18 50 27.0000000  0 15G 5G10G13G15G18G23G29R 4R 5R19R20E 3
                                E 5E 9E36
  23143241.086   121618578.868    23143240.335    94767725.803    23143240.014  
                                
  23793623.756   125036356.752    23793626.204    97430951.662    23793626.401  
  23793625.400    93371320.927  
  22006833.838   115646691.974                    90114303.770    22006832.337  
                                
  20300250.656   106678584.481    20300249.369    83126181.863    20300249.137  
                                
  20369218.062   107040983.820    20369216.954    83408568.159    20369217.025  
  20369221.278    79933244.042  
  21228870.918   111558502.996    21228869.935    86928724.578    21228870.042  
  21228874.170    83306712.216  
  22214597.022   116738486.161    22214596.521    90965048.885    22214596.307  
                                
  19898696.739   106556665.515    19898696.310    82877426.510    19898696.363  
                                
  19725543.243   105444379.110    19725544.369    82012327.659    19725544.405  
                                
  19801669.588   105925574.155    19801670.356    82386583.476    19801670.034  
                                
  20191721.000   107974230.731    20191724.092    83979967.754    20191723.180  
                                
  27565530.110   144857852.886                                                  
  27565535.238   108173086.945  
  23812629.517   125136261.372                                                  
  23812633.055    93445944.288  
  22434187.354   117892486.584                                                  
  22434190.499    88036631.127  
  23738000.436   124744052.516                                                  
  23738004.493    93153045.107  
 21  8 31 18 50 28.0000000  0 15G 5G10G13G15G18G23G29R 4R 5R19R20E 3
                                E 5E 9E36
  23143774.333   121621381.140    23143773.600    94769909.396    23143773.261  
                                
  23793148.172   125033857.547    23793150.603    97429004.261    23793150.799  
  23793149.798    93369454.675  
  22007249.454   115648875.999                    90116005.612    22007247.935  
                                
  20300401.131   106679375.268    20300399.844    83126798.067    20300399.612  
                                
  20369001.257   107039844.403    20369000.131    83407680.301    20369000.220  
  20369004.455    79932393.178  
  21228590.392   111557028.808    21228589.427    86927575.868    21228589.517  
  21228593.644    83305611.370  
  22215205.498   116741683.659    22215204.997    90967540.447    22215204.783  
                                
  19899116.607   106558913.888    19899116.178    82879175.245    19899116.232  
                                
  19725263.575   105442884.019    19725264.683    82011164.816    19725264.737  
                                
  19802028.469   105927494.060    19802029.255    82388076.736    19802028.934  
                                
  20191230.692   107971608.777    20191233.784    83977928.451    20191232.872  
                                
  27564970.130   144854910.139                                                  
  27564975.259   108170889.461  
  23812357.604   125134832.460                                                  
  23812361.125    93444877.241  
  22434436.824   117893797.599                                                  
  22434439.987    88037610.131  
  23738177.268   124744981.700                                                  
  23738181.307    93153738.968  
 21  8 31 18 50 29.0000000  0 15G 5G10G13G15G18G23G29R 4R 5R19R20E 3
                                E 5E 9E36
  23144307.634   121624183.702    23144306.901    94772093.207    23144306.580  
                                
  23792672.660   125031358.723    23792675.090    97427057.133    23792675.304  
  23792674.304    93367588.664  
  22007665.194   115651060.766                    90117708.026    22007663.676  
                                
  20300551.784   106680166.920    20300550.516    83127414.939    20300550.283  
                                
  20368784.523   107038705.552    20368783.416    83406792.888    20368783.505  
  20368787.740    79931542.738  
  21228309.938   111555555.099    21228308.973    86926427.527    21228309.062  
  21228313.208    83304510.878  
  22215814.063   116744881.700    22215813.563    90970032.425    22215813.348  
                                
  19899536.600   106561162.919    19899536.172    82880924.490    19899536.225  
                                
  19724984.032   105441389.759    19724985.140    82010002.613    19724985.194  
                                
  19802387.565   105929414.903    19802388.333    82389570.725    19802388.012  
                                
  20190740.509   107968987.545    20190743.600    83975889.715    20190742.671  
                                
  27564410.187   144851967.703                                                  
  27564415.315   108168692.189  
  23812085.799   125133404.123                                                  
  23812089.319    93443810.635  
  22434686.418   117895109.156                                                  
  22434689.563    88038589.541  
  23738354.171   124745911.383                                                  
  23738358.210    93154433.214  
 21  8 31 18 50 30.0000000  0 15G 5G10G13G15G18G23G29R 4R 5R19R20E 3
                                E 5E 9E36
  23144840.953   121626986.268    23144840.220    94774277.022    23144839.881  
                                
  23792197.165   125028859.991    23792199.613    97425110.071    23792199.810  
  23792198.809    93365722.720  
  22008081.042   115653246.024                    90119410.824    22008079.523  
                                
  20300702.563   106680959.186    20300701.277    83128032.289    20300701.044  
                                
  20368567.862   107037567.018    20368566.754    83405905.716    20368566.825  
  20368571.078    79930692.538  
  21228029.555   111554081.627    21228028.590    86925279.365    21228028.679  
  21228032.807    83303410.558  
  22216422.682   116748080.049    22216422.182    90972524.640    22216421.967  
                                
  19899956.665   106563412.399    19899956.254    82882674.085    19899956.308  
                                
  19724704.614   105439896.107    19724705.740    82008840.884    19724705.776  
                                
  19802746.750   105931336.302    19802747.537    82391065.146    19802747.197  
                                
  20190250.398   107966366.761    20190253.489    83973851.328    20190252.578  
                                
  27563850.279   144849025.332                                                  
  27563855.407   108166494.966  
  23811814.047   125131976.103                                                  
  23811817.567    93442744.254  
  22434936.049   117896421.001                                                  
  22434939.193    88039569.166  
  23738531.128   124746841.342                                                  
  23738535.185    93155127.666  
 21  8 31 18 50 31.0000000  0 15G 5G10G13G15G18G23G29R 4R 5R19R20E 3
                                E 5E 9E36
  23145374.272   121629788.907    23145373.539    94776460.896    23145373.218  
                                
  23791721.724   125026361.428    23791724.172    97423163.143    23791724.386  
  23791723.368    93363856.906  
  22008496.980   115655431.827                    90121114.045    22008495.461  
                                
  20300853.449   106681752.139    20300852.163    83128650.172    20300851.930  
                                
  20368351.289   107036428.878    20368350.181    83405018.856    20368350.253  
  20368354.505    79929842.631  
  21227749.226   111552608.452    21227748.243    86924131.439    21227748.332  
  21227752.478    83302310.462  
  22217031.390   116751278.783    22217030.890    90975017.160    22217030.675  
                                
  19900376.838   106565662.408    19900376.427    82884424.092    19900376.480  
                                
  19724425.322   105438403.147    19724426.447    82007679.693    19724426.483  
                                
  19803106.096   105933258.555    19803106.865    82392560.225    19803106.543  
                                
  20189760.411   107963746.520    20189763.502    83971813.363    20189762.591  
                                
  27563290.371   144846083.057                                                  
  27563295.499   108164297.822  
  23811542.384   125130548.488                                                  
  23811545.922    93441678.178  
  22435185.750   117897733.205                                                  
  22435188.913    88040549.060  
  23738708.175   124747771.633                                                  
  23738712.231    93155822.366  
 21  8 31 18 50 32.0000000  0 15G 5G10G13G15G18G23G29R 4R 5R19R20E 3
                                E 5E 9E36
  23145907.555   121632591.299    23145906.822    94778644.574    23145906.483  
                                
  23791246.211   125023862.648    23791248.659    97421216.047    23791248.856  
  23791247.855    93361990.952  
  22008912.988   115657617.885                    90122817.469    22008911.469  
                                
  20301004.407   106682545.449    20301003.138    83129268.336    20301002.888  
                                
  20368134.716   107035290.799    20368133.591    83404132.043    20368133.680  
  20368137.933    79928992.771  
  21227468.879   111551135.253    21227467.896    86922983.494    21227468.003  
  21227472.131    83301210.344  
  22217640.081   116754477.552    22217639.580    90977509.707    22217639.366  
                                
  19900797.046   106567912.558    19900796.617    82886174.208    19900796.670  
                                
  19724146.118   105436910.519    19724147.226    82006518.758    19724147.280  
                                
  19803465.496   105935181.098    19803466.264    82394055.536    19803465.943  
                                
  20189270.442   107961126.459    20189273.534    83969775.535    20189272.605  
                                
  27562730.463   144843140.624                                                  
  27562735.591   108162100.539  
  23811270.721   125129120.929                                                  
  23811274.259    93440612.148  
  22435435.470   117899045.452                                                  
  22435438.615    88041528.985  
  23738885.203   124748701.944                                                  
  23738889.259    93156517.074  
 21  8 31 18 50 33.0000000  0 15G 5G10G13G15G18G23G29R 4R 5R19R20E 3
                                E 5E 9E36
  23146440.784   121635393.448    23146440.052    94780828.064    23146439.730  
                                
  23790770.699   125021363.775    23790773.147    97419268.866    23790773.343  
  23790772.343    93360124.897  
  22009329.015   115659804.214                    90124521.108    22009327.496  
                                
  20301155.436   106683339.153    20301154.167    83129886.806    20301153.935  
                                
  20367918.162   107034152.834    20367917.054    83403245.320    20367917.143  
  20367921.378    79928142.986  
  21227188.549   111549662.055    21227187.567    86921835.547    21227187.656  
  21227191.784    83300110.234  
  22218248.807   116757676.400    22218248.324    90980002.316    22218248.110  
                                
  19901217.271   106570162.884    19901216.860    82887924.460    19901216.896  
                                
  19723866.950   105435418.270    19723868.058    82005358.122    19723868.112  
                                
  19803824.985   105937104.110    19803825.771    82395551.217    19803825.432  
                                
  20188780.510   107958506.663    20188783.601    83967737.923    20188782.690  
                                
  27562170.501   144840197.997                                                  
  27562175.630   108159903.123  
  23810999.094   125127693.478                                                  
  23811002.632    93439546.192  
  22435685.189   117900357.775                                                  
  22435688.352    88042508.967  
  23739062.249   124749632.287                                                  
  23739066.288    93157211.824  
 21  8 31 18 50 34.0000000  0 15G 5G10G13G15G18G23G29R 4R 5R19R20E 3
                                E 5E 9E36
  23146974.121   121638196.055    23146973.389    94783011.909    23146973.049  
                                
  23790295.258   125018865.377    23790297.706    97417322.060    23790297.902  
  23790296.902    93358259.214  
  22009745.238   115661991.402                    90126225.409    22009743.701  
                                
  20301306.679   106684133.866    20301305.392    83130506.061    20301305.160  
                                
  20367701.768   107033015.568    20367700.642    83402359.141    20367700.731  
  20367704.966    79927293.729  
  21226908.327   111548189.490    21226907.345    86920688.094    21226907.434  
  21226911.562    83299010.585  
  22218857.676   116760875.976    22218857.193    90982495.494    22218856.979  
                                
  19901637.658   106572414.035    19901637.247    82889675.357    19901637.283  
                                
  19723587.961   105433926.995    19723589.087    82004198.243    19723589.123  
                                
  19804184.671   105939028.218    19804185.439    82397047.745    19804185.117  
                                
  20188290.773   107955887.712    20188293.865    83965700.959    20188292.935  
                                
  27561610.611   144837255.819                                                  
  27561615.739   108157706.038  
  23810727.610   125126266.744                                                  
  23810731.148    93438480.769  
  22435935.052   117901670.768                                                  
  22435938.215    88043489.453  
  23739239.403   124750563.311                                                  
  23739243.459    93157907.063  
 21  8 31 18 50 35.0000000  0 15G 5G10G13G15G18G23G29R 4R 5R19R20E 3
                                E 5E 9E36
  23147507.422   121640998.611    23147506.690    94785195.722    23147506.368  
                                
  23789819.835   125016367.049    23789822.283    97415375.311    23789822.479  
  23789821.478    93356393.591  
  22010161.533   115664179.068                    90127930.082    22010159.996  
                                
  20301458.012   106684929.163    20301456.725    83131125.776    20301456.493  
                                
  20367485.392   107031878.599    20367484.284    83401473.188    20367484.355  
  20367488.608    79926444.697  
  21226628.141   111546717.124    21226627.176    86919540.794    21226627.266  
  21226631.393    83297911.096  
  22219466.581   116764075.798    22219466.080    90984988.862    22219465.866  
                                
  19902058.134   106574665.593    19902057.723    82891426.565    19902057.777  
                                
  19723309.115   105432436.289    19723310.223    82003038.805    19723310.277  
                                
  19804544.481   105940952.917    19804545.250    82398544.731    19804544.928  
                                
  20187801.091   107953269.212    20187804.182    83963664.350    20187803.253  
                                
  27561050.721   144834313.653                                                  
  27561055.849   108155508.983  
  23810456.162   125124840.299                                                  
  23810459.682    93437415.570  
  22436184.950   117902984.033                                                  
  22436188.113    88044470.136  
  23739416.610   124751494.556                                                  
  23739420.666    93158602.479  
 21  8 31 18 50 36.0000000  0 15G 5G10G13G15G18G23G29R 4R 5R19R20E 3
                                E 5E 9E36
  23148040.812   121643801.617    23148040.080    94787379.880    23148039.758  
                                
  23789344.519   125013869.244    23789346.967    97413428.964    23789347.163  
  23789346.162    93354528.340  
  22010578.006   115666367.633                    90129635.450    22010576.487  
                                
  20301609.541   106685725.511    20301608.272    83131746.308    20301608.040  
                                
  20367269.177   107030742.374    20367268.051    83400587.817    20367268.140  
  20367272.375    79925596.216  
  21226348.080   111545245.413    21226347.115    86918394.008    21226347.204  
  21226351.332    83296812.093  
  22220075.646   116767276.389    22220075.146    90987482.827    22220074.932  
                                
  19902478.753   106576917.979    19902478.342    82893178.423    19902478.396  
                                
  19723030.430   105430946.613    19723031.538    82001880.171    19723031.591  
                                
  19804904.488   105942878.710    19804905.257    82400042.570    19804904.935  
                                
  20187311.587   107950651.597    20187314.678    83961628.427    20187313.767  
                                
  27560490.938   144831371.975                                                  
  27560496.066   108153312.273  
  23810184.856   125123414.603                                                  
  23810188.394    93436350.931  
  22436434.991   117904298.012                                                  
  22436438.154    88045451.356  
  23739593.960   124752426.510                                                  
  23739598.016    93159298.419  
 21  8 31 18 50 37.0000000  0 15G 5G10G13G15G18G23G29R 4R 5R19R20E 3
                                E 5E 9E36
  23148574.203   121646604.555    23148573.470    94789563.994    23148573.131  
                                
  23788869.203   125011371.453    23788871.633    97411482.648    23788871.847  
  23788870.829    93352663.124  
  22010994.569   115668556.608                    90131341.147    22010993.032  
                                
  20301761.178   106686522.402    20301759.909    83132367.262    20301759.677  
                                
  20367053.015   107029606.400    20367051.889    83399702.644    20367051.979  
  20367056.232    79924747.923  
  21226068.054   111543773.876    21226067.072    86917247.355    21226067.161  
  21226071.289    83295713.217  
  22220684.730   116770477.224    22220684.230    90989976.987    22220684.015  
                                
  19902899.443   106579170.719    19902899.015    82894930.546    19902899.068  
                                
  19722751.852   105429457.448    19722752.960    82000721.934    19722753.013  
                                
  19805264.603   105944805.085    19805265.371    82401540.860    19805265.050  
                                
  20186822.154   107948034.408    20186825.245    83959592.829    20186824.334  
                                
  27559931.155   144828430.234                                                  
  27559936.284   108151115.536  
  23809913.604   125121989.166                                                  
  23809917.125    93435286.481  
  22436685.068   117905612.222                                                  
  22436688.231    88046432.740  
  23739771.328   124753358.664                                                  
  23739775.384    93159994.497  
 21  8 31 18 50 38.0000000  0 15G 5G10G13G15G18G23G29R 4R 5R19R20E 3
                                E 5E 9E36
  23149107.557   121649407.382    23149106.825    94791748.010    23149106.485  
                                
  23788393.886   125008873.636    23788396.335    97409536.294    23788396.531  
  23788395.530    93350797.860  
  22011411.185   115670745.959                    90133047.132    22011409.648  
                                
  20301912.904   106687319.753    20301911.635    83132988.577    20301911.403  
                                
  20366836.871   107028470.610    20366835.764    83398817.612    20366835.835  
  20366840.088    79923899.768  
  21225788.047   111542302.408    21225787.064    86916100.760    21225787.153  
  21225791.281    83294614.399  
  22221293.867   116773678.194    22221293.367    90992471.244    22221293.152  
                                
  19903320.170   106581423.754    19903319.759    82896682.907    19903319.812  
                                
  19722473.363   105427968.718    19722474.471    81999564.033    19722474.525  
                                
  19805624.825   105946732.013    19805625.593    82403039.577    19805625.253  
                                
  20186332.793   107945417.523    20186335.884    83957557.474    20186334.973  
                                
  27559371.337   144825488.455                                                  
  27559376.483   108148918.749  
  23809642.371   125120563.904                                                  
  23809645.909    93434222.160  
  22436935.181   117906926.573                                                  
  22436938.344    88047414.236  
  23739948.749   124754290.944                                                  
  23739952.806    93160690.683  
 21  8 31 18 50 39.0000000  0 15G 5G10G13G15G18G23G29R 4R 5R19R20E 3
                                E 5E 9E36
  23149640.930   121652210.208    23149640.197    94793932.033    23149639.876  
                                
  23787918.570   125006375.901    23787921.019    97407590.010    23787921.233  
  23787920.214    93348932.673  
  22011827.891   115672935.791                    90134753.495    22011826.354  
                                
  20302064.772   106688117.750    20302063.486    83133610.393    20302063.253  
                                
  20366620.817   107027335.151    20366619.691    83397932.840    20366619.781  
  20366624.016    79923051.865  
  21225508.075   111540831.205    21225507.110    86914954.370    21225507.199  
  21225511.327    83293515.775  
  22221903.040   116776879.513    22221902.540    90994965.776    22221902.343  
                                
  19903741.003   106583677.226    19903740.574    82898435.603    19903740.628  
                                
  19722194.964   105426480.598    19722196.072    81998406.608    19722196.125  
                                
  19805985.171   105948659.598    19805985.940    82404538.805    19805985.600  
                                
  20185843.503   107942801.126    20185846.595    83955522.496    20185845.683  
                                
  27558811.536   144822546.727                                                  
  27558816.664   108146722.023  
  23809371.226   125119138.995                                                  
  23809374.764    93433158.106  
  22437185.365   117908241.236                                                  
  22437188.510    88048395.964  
  23740126.225   124755223.512                                                  
  23740130.263    93161387.076  
 21  8 31 18 50 40.0000000  0 15G 5G10G13G15G18G23G29R 4R 5R19R20E 3
                                E 5E 9E36
  23150174.284   121655013.041    23150173.552    94796116.054    23150173.230  
                                
  23787443.272   125003878.251    23787445.720    97405643.800    23787445.935  
  23787444.916    93347067.558  
  22012244.686   115675126.116                    90136460.244    22012243.149  
                                
  20302216.748   106688916.351    20302215.480    83134232.682    20302215.230  
                                
  20366404.798   107026200.004    20366403.673    83397048.309    20366403.762  
  20366407.997    79922204.190  
  21225228.175   111539360.216    21225227.192    86913808.144    21225227.281  
  21225231.409    83292417.307  
  22222512.302   116780081.099    22222511.802    90997460.516    22222511.587  
                                
  19904161.890   106585931.083    19904161.479    82900188.608    19904161.515  
                                
  19721916.690   105424993.044    19721917.797    81997249.624    19721917.851  
                                
  19806345.625   105950587.808    19806346.394    82406038.526    19806346.072  
                                
  20185354.321   107940185.185    20185357.412    83953487.880    20185356.483  
                                
  27558251.771   144819605.051                                                  
  27558256.899   108144525.308  
  23809100.135   125117714.388                                                  
  23809103.655    93432094.280  
  22437435.585   117909556.174                                                  
  22437438.748    88049377.903  
  23740303.718   124756156.329                                                  
  23740307.774    93162083.669  
 21  8 31 18 50 41.0000000  0 15G 5G10G13G15G18G23G29R 4R 5R19R20E 3
                                E 5E 9E36
  23150707.657   121657815.929    23150706.924    94798300.123    23150706.603  
                                
  23786968.028   125001380.753    23786970.476    97403697.694    23786970.690  
  23786969.672    93345202.531  
  22012661.606   115677316.958                    90138167.393    22012660.069  
                                
  20302368.850   106689715.610    20302367.563    83134855.479    20302367.331  
                                
  20366188.851   107025065.217    20366187.743    83396164.062    20366187.815  
  20366192.068    79921356.785  
  21224948.292   111537889.500    21224947.327    86912662.134    21224947.417  
  21224951.544    83291319.040  
  22223121.600   116783283.048    22223121.100    90999955.540    22223120.903  
                                
  19904582.866   106588185.401    19904582.437    82901941.961    19904582.491  
                                
  19721638.522   105423506.144    19721639.630    81996093.147    19721639.684  
                                
  19806706.204   105952516.713    19806706.973    82407538.783    19806706.651  
                                
  20184865.228   107937569.764    20184868.319    83951453.661    20184867.390  
                                
  27557692.006   144816663.448                                                  
  27557697.134   108142328.672  
  23808829.116   125116290.150                                                  
  23808832.654    93431030.722  
  22437685.877   117910871.449                                                  
  22437689.040    88050360.087  
  23740481.282   124757089.463                                                  
  23740485.338    93162780.488  
 21  8 31 18 50 42.0000000  0 15G 5G10G13G15G18G23G29R 4R 5R19R20E 3
                                E 5E 9E36
  23151241.029   121660618.826    23151240.297    94800484.196    23151239.975  
                                
  23786492.765   124998883.321    23786495.213    97401751.640    23786495.428  
  23786494.409    93343337.582  
  22013078.597   115679508.301                    90139874.929    22013077.060  
                                
  20302521.058   106690515.487    20302519.771    83135478.758    20302519.539  
                                
  20365972.976   107023930.754    20365971.850    83395280.065    20365971.939  
  20365976.174    79920509.622  
  21224668.463   111536419.006    21224667.480    86911516.295    21224667.570  
  21224671.698    83290220.956  
  22223730.987   116786485.300    22223730.487    91002450.803    22223730.273  
                                
  19905003.932   106590440.138    19905003.521    82903695.645    19905003.557  
                                
  19721360.498   105422019.850    19721361.606    81994937.143    19721361.660  
                                
  19807066.926   105954446.315    19807067.695    82409039.582    19807067.373  
                                
  20184376.206   107934954.812    20184379.298    83949419.810    20184378.369  
                                
  27557132.259   144813721.942                                                  
  27557137.387   108140132.065  
  23808558.150   125114866.227                                                  
  23808561.670    93429967.407  
  22437936.222   117912187.012                                                  
  22437939.367    88051342.488  
  23740658.900   124758022.870                                                  
  23740662.974    93163477.510  
 21  8 31 18 50 43.0000000  0 15G 5G10G13G15G18G23G29R 4R 5R19R20E 3
                                E 5E 9E36
  23151774.473   121663421.952    23151773.723    94802668.453    23151773.401  
                                
  23786017.592   124996386.211    23786020.040    97399805.842    23786020.255  
  23786019.236    93341472.857  
  22013495.732   115681700.328                    90141583.004    22013494.195  
                                
  20302673.427   106691316.190    20302672.140    83136102.686    20302671.908  
                                
  20365757.207   107022796.833    20365756.081    83394396.490    20365756.171  
  20365760.406    79919662.859  
  21224388.742   111534948.977    21224387.777    86910370.822    21224387.866  
  21224391.976    83289123.198  
  22224340.446   116789688.075    22224339.946    91004946.481    22224339.749  
                                
  19905425.105   106592695.535    19905424.694    82905449.848    19905424.729  
                                
  19721082.599   105420534.389    19721083.707    81993781.789    19721083.761  
                                
  19807427.827   105956376.785    19807428.595    82410541.064    19807428.256  
                                
  20183887.346   107932340.546    20183890.419    83947386.494    20183889.508  
                                
  27556572.547   144810780.701                                                  
  27556577.676   108137935.672  
  23808287.291   125113442.846                                                  
  23808290.811    93428904.495  
  22438186.656   117913503.086                                                  
  22438189.819    88052325.270  
  23740836.625   124758956.764                                                  
  23740840.682    93164174.899  
 21  8 31 18 50 44.0000000  0 15G 5G10G13G15G18G23G29R 4R 5R19R20E 3
                                E 5E 9E36
  23152307.899   121666225.228    23152307.167    94804852.816    23152306.845  
                                
  23785542.455   124993889.341    23785544.903    97397860.230    23785545.118  
  23785544.099    93339608.305  
  22013912.973   115683893.004                    90143291.583    22013911.436  
                                
  20302825.921   106692117.658    20302824.653    83136727.207    20302824.420  
                                
  20365541.492   107021663.367    20365540.367    83393513.270    20365540.456  
  20365544.709    79918816.449  
  21224109.056   111533479.302    21224108.073    86909225.619    21224108.162  
  21224112.290    83288025.729  
  22224950.012   116792891.301    22224949.512    91007442.501    22224949.315  
                                
  19905846.385   106594951.504    19905845.974    82907204.490    19905846.010  
                                
  19720804.843   105419049.657    19720805.951    81992626.997    19720806.005  
                                
  19807788.853   105958308.053    19807789.621    82412043.156    19807789.299  
                                
  20183398.556   107929726.887    20183401.648    83945353.650    20183400.719  
                                
  27556012.872   144807839.632                                                  
  27556018.000   108135739.435  
  23808016.522   125112019.950                                                  
  23808020.042    93427841.943  
  22438437.180   117914819.597                                                  
  22438440.343    88053308.379  
  23741014.422   124759891.072                                                  
  23741018.479    93164872.592  
 21  8 31 18 50 45.0000000  0 15G 5G10G13G15G18G23G29R 4R 5R19R20E 3
                                E 5E 9E36
  23152841.361   121669028.612    23152840.629    94807037.276    23152840.307  
                                
  23785067.353   124991392.666    23785069.801    97395914.766    23785070.016  
  23785068.997    93337743.907  
  22014330.358   115686086.252                    90145000.609    22014328.821  
                                
  20302978.576   106692919.851    20302977.308    83137352.292    20302977.075  
                                
  20365325.903   107020530.333    20365324.777    83392630.386    20365324.866  
  20365329.101    79917970.343  
  21223829.459   111532009.977    21223828.476    86908080.690    21223828.566  
  21223832.675    83286928.497  
  22225559.632   116796094.947    22225559.149    91009938.846    22225558.935  
                                
  19906267.772   106597207.978    19906267.343    82908959.526    19906267.397  
                                
  19720527.212   105417565.581    19720528.320    81991472.718    19720528.374  
                                
  19808150.021   105960240.086    19808150.790    82413545.849    19808150.450  
                                
  20182909.910   107927113.771    20182912.984    83943321.225    20182912.072  
                                
  27555453.232   144804898.725                                                  
  27555458.360   108133543.294  
  23807745.842   125110597.461                                                  
  23807749.362    93426779.695  
  22438687.775   117916136.495                                                  
  22438690.938    88054291.775  
  23741192.291   124760825.749                                                  
  23741196.347    93165570.561  
 21  8 31 18 50 46.0000000  0 15G 5G10G13G15G18G23G29R 4R 5R19R20E 3
                                E 5E 9E36
  23153374.823   121671831.841    23153374.090    94809221.603    23153373.751  
                                
  23784592.234   124988895.905    23784594.682    97393969.236    23784594.896  
  23784593.878    93335879.449  
  22014747.778   115688279.840                    90146709.899    22014746.224  
                                
  20303131.303   106693722.476    20303130.034    83137977.716    20303129.802  
                                
  20365110.313   107019397.442    20365109.187    83391747.614    20365109.276  
  20365113.511    79917124.353  
  21223549.862   111530540.705    21223548.897    86906935.803    21223548.987  
  21223553.097    83285831.315  
  22226169.287   116799298.707    22226168.787    91012435.283    22226168.590  
                                
  19906689.195   106599464.703    19906688.766    82910714.754    19906688.820  
                                
  19720249.671   105416081.923    19720250.778    81990318.759    19720250.814  
                                
  19808511.279   105962172.582    19808512.048    82415048.899    19808511.726  
                                
  20182421.300   107924500.957    20182424.373    83941289.036    20182423.462  
                                
  27554893.574   144801957.697                                                  
  27554898.720   108131347.073  
  23807475.162   125109175.128                                                  
  23807478.700    93425717.561  
  22438938.406   117917453.508                                                  
  22438941.551    88055275.263  
  23741370.159   124761760.515                                                  
  23741374.233    93166268.598  
 21  8 31 18 50 47.0000000  0 15G 5G10G13G15G18G23G29R 4R 5R19R20E 3
                                E 5E 9E36
  23153908.249   121674635.081    23153907.516    94811405.949    23153907.195  
                                
  23784117.132   124986399.264    23784119.580    97392023.802    23784119.795  
  23784118.794    93334015.068  
  22015165.288   115690473.924                    90148419.575    22015163.751  
                                
  20303284.154   106694525.737    20303282.886    83138603.632    20303282.653  
                                
  20364894.795   107018264.880    20364893.669    83390865.098    20364893.758  
  20364898.011    79916278.610  
  21223270.319   111529071.676    21223269.337    86905791.107    21223269.426  
  21223273.554    83284734.313  
  22226779.014   116802502.794    22226778.513    91014931.967    22226778.317  
                                
  19907110.725   106601721.871    19907110.296    82912470.329    19907110.350  
                                
  19719972.254   105414598.880    19719973.344    81989165.279    19719973.398  
                                
  19808872.680   105964105.768    19808873.449    82416552.483    19808873.127  
                                
  20181932.760   107921888.629    20181935.852    83939257.225    20181934.923  
                                
  27554333.916   144799016.717                                                  
  27554339.062   108129150.901  
  23807204.589   125107753.138                                                  
  23807208.109    93424655.683  
  22439189.090   117918770.835                                                  
  22439192.235    88056258.979  
  23741548.116   124762695.574                                                  
  23741552.173    93166966.856  
 21  8 31 18 50 48.0000000  0 15G 5G10G13G15G18G23G29R 4R 5R19R20E 3
                                E 5E 9E36
  23154441.693   121677438.419    23154440.960    94813590.374    23154440.639  
                                
  23783642.084   124983902.788    23783644.532    97390078.500    23783644.747  
  23783643.728    93332150.817  
  22015582.923   115692668.578                    90150129.697    22015581.386  
                                
  20303437.149   106695329.705    20303435.880    83139230.103    20303435.630  
                                
  20364679.348   107017132.743    20364678.222    83389982.909    20364678.311  
  20364682.564    79915433.179  
  21222990.830   111527602.973    21222989.847    86904646.665    21222989.937  
  21222994.064    83283637.552  
  22227388.794   116805707.279    22227388.312    91017428.963    22227388.097  
                                
  19907532.327   106603979.568    19907531.898    82914226.313    19907531.952  
                                
  19719694.945   105413116.541    19719696.052    81988012.346    19719696.106  
                                
  19809234.224   105966039.707    19809234.993    82418056.658    19809234.653  
                                
  20181444.364   107919276.860    20181447.438    83937225.852    20181446.527  
                                
  27553774.294   144796075.883                                                  
  27553779.440   108126954.828  
  23806934.052   125106331.554                                                  
  23806937.590    93423594.110  
  22439439.829   117920088.528                                                  
  22439442.991    88057242.977  
  23741726.110   124763630.968                                                  
  23741730.166    93167665.371  
 21  8 31 18 50 49.0000000  0 15G 5G10G13G15G18G23G29R 4R 5R19R20E 3
                                E 5E 9E36
  23154975.173   121680241.753    23154974.422    94815774.791    23154974.101  
                                
  23783167.036   124981406.388    23783169.485    97388133.249    23783169.699  
  23783168.680    93330286.622  
  22016000.629   115694863.680                    90151840.166    22015999.092  
                                
  20303590.269   106696134.258    20303588.982    83139857.027    20303588.750  
                                
  20364463.972   107016000.900    20364462.864    83389100.953    20364462.936  
  20364467.189    79914587.967  
  21222711.394   111526134.472    21222710.411    86903502.377    21222710.501  
  21222714.611    83282540.946  
  22227998.664   116808912.057    22227998.164    91019926.189    22227997.949  
                                
  19907954.000   106606237.629    19907953.571    82915982.583    19907953.625  
                                
  19719417.742   105411634.778    19719418.850    81986859.867    19719418.904  
                                
  19809595.857   105967974.281    19809596.608    82419561.329    19809596.286  
                                
  20180956.040   107916665.521    20180959.113    83935194.810    20180958.202  
                                
  27553214.690   144793135.085                                                  
  27553219.836   108124758.784  
  23806663.587   125104910.268                                                  
  23806667.125    93422532.765  
  22439690.638   117921406.497                                                  
  22439693.783    88058227.177  
  23741904.157   124764566.625                                                  
  23741908.213    93168364.077  
 21  8 31 18 50 50.0000000  0 15G 5G10G13G15G18G23G29R 4R 5R19R20E 3
                                E 5E 9E36
  23155508.652   121683045.319    23155507.920    94817959.390    23155507.598  
                                
  23782692.042   124978910.282    23782694.490    97386188.229    23782694.705  
  23782693.686    93328422.646  
  22016418.478   115697059.487                    90153551.187    22016416.942  
                                
  20303743.513   106696939.629    20303742.245    83140484.589    20303742.012  
                                
  20364248.704   107014869.579    20364247.578    83388219.405    20364247.668  
  20364251.903    79913743.150  
  21222432.030   111524666.402    21222431.047    86902358.429    21222431.136  
  21222435.246    83281444.663  
  22228608.605   116812117.317    22228608.105    91022423.794    22228607.890  
                                
  19908375.799   106608496.325    19908375.370    82917739.347    19908375.405  
                                
  19719140.701   105410153.852    19719141.809    81985708.035    19719141.863  
                                
  19809957.652   105969909.678    19809958.420    82421066.633    19809958.098  
                                
  20180467.840   107914054.856    20180470.914    83933164.293    20180469.984  
                                
  27552655.139   144790194.571                                                  
  27552660.285   108122562.933  
  23806393.246   125103489.517                                                  
  23806396.766    93421471.814  
  22439941.537   117922724.966                                                  
  22439944.700    88059211.741  
  23742082.275   124765502.752                                                  
  23742086.349    93169063.130  
 21  8 31 18 50 51.0000000  0 15G 5G10G13G15G18G23G29R 4R 5R19R20E 3
                                E 5E 9E36
  23156042.168   121685848.979    23156041.435    94820144.062    23156041.114  
                                
  23782217.083   124976414.399    23782219.532    97384243.396    23782219.746  
  23782218.745    93326558.857  
  22016836.435   115699255.904                    90155262.683    22016834.898  
                                
  20303896.919   106697745.751    20303895.632    83141112.743    20303895.400  
                                
  20364033.490   107013738.701    20364032.364    83387338.201    20364032.453  
  20364036.706    79912898.668  
  21222152.719   111523198.706    21222151.754    86901214.772    21222151.844  
  21222155.954    83280348.651  
  22229218.618   116815323.017    22229218.118    91024921.749    22229217.903  
                                
  19908797.686   106610755.580    19908797.257    82919496.547    19908797.311  
                                
  19718863.803   105408673.650    19718864.911    81984556.769    19718864.946  
                                
  19810319.624   105971845.955    19810320.393    82422572.631    19810320.053  
                                
  20179979.730   107911444.810    20179982.803    83931134.260    20179981.874  
                                
  27552095.571   144787254.154                                                  
  27552100.717   108120367.202  
  23806122.959   125102069.206                                                  
  23806126.479    93420411.190  
  22440192.508   117924043.839                                                  
  22440195.670    88060196.609  
  23742260.519   124766439.288                                                  
  23742264.593    93169762.476  
 21  8 31 18 50 52.0000000  0 15G 5G10G13G15G18G23G29R 4R 5R19R20E 3
                                E 5E 9E36
  23156575.683   121688652.578    23156574.951    94822328.682    23156574.629  
                                
  23781742.125   124973918.533    23781744.591    97382298.566    23781744.805  
  23781743.787    93324695.057  
  22017254.498   115701452.732                    90156974.494    22017252.944  
                                
  20304050.414   106698552.402    20304049.127    83141741.307    20304048.895  
                                
  20363818.347   107012608.079    20363817.221    83386457.197    20363817.310  
  20363821.545    79912054.370  
  21221873.462   111521731.153    21221872.479    86900071.224    21221872.587  
  21221876.696    83279252.758  
  22229828.702   116818528.946    22229828.202    91027419.878    22229827.987  
                                
  19909219.663   106613015.158    19909219.234    82921253.997    19909219.288  
                                
  19718586.994   105407193.950    19718588.102    81983405.891    19718588.137  
                                
  19810681.687   105973782.711    19810682.455    82424078.996    19810682.115  
                                
  20179491.691   107908835.110    20179494.765    83929104.496    20179493.853  
                                
  27551536.038   144784313.751                                                  
  27551541.166   108118171.451  
  23805852.744   125100649.156                                                  
  23805856.264    93419350.765  
  22440443.532   117925362.941                                                  
  22440446.676    88061181.653  
  23742438.762   124767375.996                                                  
  23742442.818    93170461.972  
 21  8 31 18 50 53.0000000  0 14G 5G10G13G15G18G23G29R 4R 5R19R20E 5
                                E 9E36
  23157109.234   121691456.384    23157108.502    94824513.458    23157108.162  
                                
  23781267.220   124971422.890    23781269.668    97380353.904    23781269.882  
  23781268.882    93322831.434  
  22017672.651   115703650.228                    90158686.823    22017671.115  
                                
  20304204.052   106699359.821    20304202.783    83142370.453    20304202.551  
                                
  20363603.275   107011477.926    20363602.149    83385576.556    20363602.239  
  20363606.474    79911210.426  
  21221594.277   111520263.982    21221593.294    86898927.969    21221593.383  
  21221597.493    83278157.141  
  22230438.840   116821735.342    22230438.357    91029918.359    22230438.143  
                                
  19909641.729   106615275.310    19909641.301    82923011.886    19909641.354  
                                
  19718310.310   105405714.976    19718311.418    81982255.576    19718311.471  
                                
  19811043.909   105975720.279    19811044.678    82425585.989    19811044.338  
                                
  20179003.795   107906226.050    20179006.869    83927075.224    20179005.957  
                                
  23805582.600   125099229.578                                                  
  23805586.120    93418290.689  
  22440694.627   117926682.501                                                  
  22440697.790    88062167.043  
  23742617.095   124768313.150                                                  
  23742621.151    93171161.804  
 21  8 31 18 50 54.0000000  0 14G 5G10G13G15G18G23G29R 4R 5R19R20E 5
                                E 9E36
  23157642.786   121694260.168    23157642.053    94826698.224    23157641.713  
                                
  23780792.333   124968927.341    23780794.799    97378409.335    23780795.013  
  23780793.994    93320967.875  
  22018090.912   115705848.166                    90160399.501    22018089.357  
                                
  20304357.815   106700167.848    20304356.546    83143000.084    20304356.296  
                                
  20363388.275   107010348.081    20363387.149    83384696.157    20363387.239  
  20363391.491    79910366.711  
  21221315.109   111518797.027    21221314.126    86897784.885    21221314.215  
  21221318.325    83277061.686  
  22231049.067   116824942.013    22231048.567    91032417.061    22231048.370  
                                
  19910063.867   106617535.866    19910063.438    82924770.093    19910063.492  
                                
  19718033.751   105404236.544    19718034.841    81981105.685    19718034.894  
                                
  19811406.222   105977658.504    19811406.990    82427093.498    19811406.669  
                                
  20178515.971   107903617.425    20178519.044    83925046.293    20178518.133  
                                
  23805312.510   125097810.297                                                  
  23805316.030    93417230.843  
  22440945.776   117928002.313                                                  
  22440948.939    88063152.619  
  23742795.464   124769250.536                                                  
  23742799.538    93171861.800  
 21  8 31 18 50 55.0000000  0 14G 5G10G13G15G18G23G29R 4R 5R19R20E 5
                                E 9E36
  23158176.301   121697063.875    23158175.568    94828882.931    23158175.247  
                                
  23780317.445   124966431.778    23780319.894    97376464.740    23780320.108  
  23780319.107    93319104.313  
  22018509.243   115708046.496                    90162112.483    22018507.689  
                                
  20304511.667   106700976.385    20304510.398    83143630.116    20304510.166  
                                
  20363173.329   107009218.462    20363172.203    83383815.932    20363172.292  
  20363176.527    79909523.158  
  21221035.995   111517330.211    21221035.012    86896641.914    21221035.119  
  21221039.211    83275966.334  
  22231659.312   116828148.904    22231658.812    91034915.940    22231658.597  
                                
  19910486.059   106619796.750    19910485.630    82926528.559    19910485.683  
                                
  19717757.263   105402758.608    19717758.371    81979956.184    19717758.425  
                                
  19811768.659   105979597.282    19811769.428    82428601.434    19811769.106  
                                
  20178028.218   107901009.167    20178031.292    83923017.646    20178030.380  
                                
  23805042.491   125096391.250                                                  
  23805046.011    93416171.163  
  22441196.979   117929322.316                                                  
  22441200.142    88064138.334  
  23742973.886   124770188.107                                                  
  23742977.960    93172561.930  
 21  8 31 18 50 56.0000000  0 14G 5G10G13G15G18G23G29R 4R 5R19R20E 5
                                E 9E36
  23158709.888   121699867.781    23158709.137    94831067.791    23158708.816  
                                
  23779842.612   124963936.505    23779845.060    97374520.369    23779845.274  
  23779844.274    93317240.962  
  22018927.700   115710245.513                    90163826.001    22018926.145  
                                
  20304665.698   106701785.738    20304664.429    83144260.781    20304664.197  
                                
  20362958.454   107008089.354    20362957.328    83382936.108    20362957.417  
  20362961.652    79908679.995  
  21220756.952   111515863.814    21220755.969    86895499.265    21220756.059  
  21220760.168    83274871.299  
  22232269.646   116831356.292    22232269.164    91037415.207    22232268.949  
                                
  19910908.393   106622058.266    19910907.964    82928287.513    19910908.018  
                                
  19717480.937   105401281.479    19717482.045    81978807.305    19717482.098  
                                
  19812131.275   105981536.920    19812132.026    82430110.039    19812131.704  
                                
  20177540.590   107898401.587    20177543.664    83920989.529    20177542.753  
                                
  23804772.544   125094972.715                                                  
  23804776.064    93415111.864  
  22441448.253   117930642.809                                                  
  22441451.416    88065124.416  
  23743152.379   124771126.124                                                  
  23743156.454    93173262.406  
 21  8 31 18 50 57.0000000  0 14G 5G10G13G15G18G23G29R 4R 5R19R20E 5
                                E 9E36
  23159243.439   121702671.705    23159242.706    94833252.664    23159242.385  
                                
  23779367.796   124961441.361    23779370.262    97372576.108    23779370.477  
  23779369.476    93315377.699  
  22019346.246   115712445.040                    90165539.916    22019344.692  
                                
  20304819.836   106702595.731    20304818.567    83144891.939    20304818.317  
                                
  20362743.668   107006960.598    20362742.542    83382056.555    20362742.632  
  20362746.866    79907837.090  
  21220477.945   111514397.670    21220476.962    86894356.819    21220477.052  
  21220481.161    83273776.458  
  22232880.070   116834564.011    22232879.588    91039914.724    22232879.373  
                                
  19911330.799   106624320.197    19911330.370    82930046.793    19911330.424  
                                
  19717204.735   105399804.999    19717205.825    81977658.932    19717205.879  
                                
  19812493.999   105983477.269    19812494.767    82431619.194    19812494.445  
                                
  20177053.052   107895794.503    20177056.125    83918961.797    20177055.214  
                                
  23804502.668   125093554.537                                                  
  23804506.188    93414052.844  
  22441699.599   117931963.616                                                  
  22441702.762    88066110.740  
  23743330.927   124772064.452                                                  
  23743335.001    93173963.096  
 21  8 31 18 50 58.0000000  0 15G 5G10G13G15G18G23G29R 4R 5R19R20E 3
                                E 5E 9E36
  23159777.044   121705475.721    23159776.293    94835437.607    23159775.972  
                                
  23778892.998   124958946.387    23778895.464    97370631.963    23778895.679  
  23778894.660    93313514.567  
  22019764.935   115714645.131                    90167254.268    22019763.381  
                                
  20304974.099   106703406.411    20304972.831    83145523.631    20304972.581  
                                
  20362528.954   107005832.232    20362527.828    83381177.314    20362527.917  
  20362532.152    79906994.482  
  21220199.010   111512931.840    21220198.027    86893214.607    21220198.116  
  21220202.208    83272681.831  
  22233490.547   116837772.108    22233490.047    91042414.526    22233489.850  
                                
  19911753.276   106626582.609    19911752.847    82931806.443    19911752.901  
                                
  19716928.641   105398329.195    19716929.749    81976511.084    19716929.803  
                                
  19812856.865   105985418.358    19812857.633    82433128.933    19812857.312  
                                
  20176565.603   107893187.981    20176568.676    83916934.499    20176567.765  
                                
  27548179.253   144766673.760                                                  
  27548184.417   108104998.720  
  23804232.881   125092136.755                                                  
  23804236.401    93412994.109  
  22441950.998   117933284.804                                                  
  22441954.161    88067097.337  
  23743509.563   124773003.129                                                  
  23743513.637    93174664.044  
 21  8 31 18 50 59.0000000  0 15G 5G10G13G15G18G23G29R 4R 5R19R20E 3
                                E 5E 9E36
  23160310.631   121708279.791    23160309.898    94837622.597    23160309.559  
                                
  23778418.254   124956451.569    23778420.720    97368687.949    23778420.952  
  23778419.934    93311651.543  
  22020183.678   115716845.768                    90168969.052    22020182.123  
                                
  20305128.488   106704217.765    20305127.219    83146155.853    20305126.969  
                                
  20362314.311   107004704.245    20362313.185    83380298.360    20362313.257  
  20362317.510    79906152.158  
  21219920.128   111511466.294    21219919.145    86892072.621    21219919.234  
  21219923.344    83271587.432  
  22234101.096   116840980.575    22234100.596    91044914.633    22234100.399  
                                
  19912175.861   106628845.479    19912175.432    82933566.453    19912175.485  
                                
  19716652.690   105396854.041    19716653.798    81975363.742    19716653.833  
                                
  19813219.838   105987360.108    19813220.607    82434639.178    19813220.285  
                                
  20176078.279   107890581.972    20176081.352    83914907.605    20176080.423  
                                
  27547619.845   144763734.133                                                  
  27547624.991   108102803.548  
  23803963.148   125090719.352                                                  
  23803966.686    93411935.656  
  22442202.487   117934606.327                                                  
  22442205.650    88068084.191  
  23743688.254   124773942.126                                                  
  23743692.328    93175365.251  
 21  8 31 18 51  0.0000000  0 15G 5G10G13G15G18G23G29R 4R 5R19R20E 3
                                E 5E 9E36
  23160844.164   121711083.472    23160843.431    94839807.274    23160843.092  
                                
  23777943.456   124953956.434    23777945.940    97366743.690    23777946.155  
  23777945.136    93309788.279  
  22020602.474   115719046.472                    90170683.889    22020600.920  
                                
  20305282.930   106705029.331    20305281.643    83146788.242    20305281.411  
                                
  20362099.633   107003576.178    20362098.507    83379419.350    20362098.596  
  20362102.831    79905309.766  
  21219641.210   111510000.569    21219640.227    86890930.496    21219640.317  
  21219644.409    83270492.898  
  22234711.627   116844188.931    22234711.127    91047414.644    22234710.912  
                                
  19912598.445   106631108.385    19912598.016    82935326.491    19912598.070  
                                
  19716376.756   105395379.066    19716377.864    81974216.540    19716377.918  
                                
  19813582.901   105989302.187    19813583.669    82436149.679    19813583.330  
                                
  20175590.955   107887976.028    20175594.010    83912880.760    20175593.099  
                                
  27547060.384   144760794.144                                                  
  27547065.530   108100608.117  
  23803693.398   125089301.867                                                  
  23803696.936    93410877.149  
  22442453.940   117935927.730                                                  
  22442457.102    88069070.952  
  23743866.908   124774880.983                                                  
  23743870.982    93176066.345  
 21  8 31 18 51  1.0000000  0 15G 5G10G13G15G18G23G29R 4R 5R19R20E 3
                                E 5E 9E36
  23161377.697   121713887.317    23161376.965    94841992.093    23161376.643  
                                
  23777468.694   124951461.519    23777471.160    97364799.596    23777471.375  
  23777470.374    93307925.202  
  22021021.378   115721247.816                    90172399.222    22021019.805  
                                
  20305437.497   106705841.657    20305436.228    83147421.227    20305435.996  
                                
  20361885.061   107002448.584    20361883.936    83378540.703    20361884.025  
  20361888.260    79904467.732  
  21219362.364   111508535.223    21219361.363    86889788.672    21219361.471  
  21219365.563    83269398.652  
  22235322.247   116847397.742    22235321.765    91049915.013    22235321.550  
                                
  19913021.137   106633371.872    19913020.708    82937086.982    19913020.744  
                                
  19716100.984   105393904.820    19716102.074    81973069.906    19716102.127  
                                
  19813946.089   105991244.997    19813946.857    82437660.751    19813946.536  
                                
  20175103.738   107885370.691    20175106.812    83910854.392    20175105.882  
                                
  27546500.976   144757854.370                                                  
  27546506.123   108098412.833  
  23803423.772   125087884.854                                                  
  23803427.292    93409818.986  
  22442705.482   117937249.582                                                  
  22442708.645    88070058.047  
  23744045.652   124775820.256                                                  
  23744049.726    93176767.748  
 21  8 31 18 51  2.0000000  0 15G 5G10G13G15G18G23G29R 4R 5R19R20E 3
                                E 5E 9E36
  23161911.266   121716691.174    23161910.534    94844176.916    23161910.212  
                                
  23776993.932   124948966.695    23776996.398    97362855.575    23776996.613  
  23776995.612    93306062.200  
  22021440.371   115723449.656                    90174114.937    22021438.798  
                                
  20305592.207   106706654.602    20305590.938    83148054.691    20305590.706  
                                
  20361670.544   107001321.316    20361669.418    83377662.312    20361669.507  
  20361673.760    79903625.943  
  21219083.572   111507070.123    21219082.589    86888647.034    21219082.678  
  21219086.770    83268304.582  
  22235932.921   116850606.857    22235932.439    91052415.623    22235932.224  
                                
  19913443.918   106635635.782    19913443.471    82938847.800    19913443.525  
                                
  19715825.300   105392431.165    19715826.408    81971923.727    19715826.462  
                                
  19814309.420   105993188.512    19814310.188    82439172.372    19814309.849  
                                
  20174616.611   107882765.814    20174619.684    83908828.376    20174618.755  
                                
  27545941.551   144754914.669                                                  
  27545946.697   108096217.604  
  23803154.182   125086468.181                                                  
  23803157.702    93408761.083  
  22442957.078   117938571.733                                                  
  22442960.240    88071045.363  
  23744224.449   124776759.813                                                  
  23744228.523    93177469.364  
 21  8 31 18 51  3.0000000  0 15G 5G10G13G15G18G23G29R 4R 5R19R20E 3
                                E 5E 9E36
  23162444.853   121719495.224    23162444.121    94846361.897    23162443.781  
                                
  23776519.260   124946472.185    23776521.743    97360911.808    23776521.958  
  23776520.939    93304199.407  
  22021859.506   115725652.183                    90175831.189    22021857.934  
                                
  20305747.060   106707468.359    20305745.791    83148688.785    20305745.559  
                                
  20361456.133   107000194.564    20361455.008    83376784.323    20361455.097  
  20361459.332    79902784.537  
  21218804.851   111505605.449    21218803.868    86887505.736    21218803.957  
  21218808.049    83267210.839  
  22236543.684   116853816.489    22236543.202    91054916.635    22236542.987  
                                
  19913866.789   106637900.294    19913866.360    82940609.089    19913866.413  
                                
  19715549.778   105390958.289    19715550.868    81970778.159    19715550.922  
                                
  19814672.912   105995132.867    19814673.662    82440684.657    19814673.340  
                                
  20174129.608   107880161.581    20174132.682    83906802.862    20174131.753  
                                
  27545382.197   144751975.226                                                  
  27545387.343   108094022.554  
  23802884.681   125085052.016                                                  
  23802888.219    93407703.560  
  22443208.763   117939894.368                                                  
  22443211.926    88072033.050  
  23744403.336   124777699.828                                                  
  23744407.410    93178171.330  
 21  8 31 18 51  4.0000000  0 15G 5G10G13G15G18G23G29R 4R 5R19R20E 3
                                E 5E 9E36
  23162978.476   121722299.415    23162977.743    94848546.977    23162977.422  
                                
  23776044.587   124943977.880    23776047.053    97358968.198    23776047.285  
  23776046.267    93302336.795  
  22022278.732   115727855.328                    90177547.926    22022277.177  
                                
  20305902.056   106708282.877    20305900.787    83149323.475    20305900.537  
                                
  20361241.794   106999068.279    20361240.669    83375906.701    20361240.758  
  20361245.011    79901943.477  
  21218526.183   111504141.139    21218525.200    86886364.715    21218525.290  
  21218529.382    83266117.369  
  22237154.537   116857026.556    22237154.054    91057417.985    22237153.840  
                                
  19914289.766   106640165.392    19914289.337    82942370.829    19914289.391  
                                
  19715274.381   105389486.165    19715275.488    81969633.174    19715275.542  
                                
  19815036.528   105997078.013    19815037.297    82442197.549    19815036.957  
                                
  20173642.713   107877557.979    20173645.787    83904777.840    20173644.875  
                                
  27544822.861   144749035.965                                                  
  27544828.007   108091827.658  
  23802615.306   125083636.321                                                  
  23802618.826    93406646.385  
  22443460.537   117941217.431                                                  
  22443463.700    88073021.050  
  23744582.276   124778640.252                                                  
  23744586.351    93178873.592  
 21  8 31 18 51  5.0000000  0 15G 5G10G13G15G18G23G29R 4R 5R19R20E 3
                                E 5E 9E36
  23163512.134   121725103.879    23163511.402    94850732.278    23163511.080  
                                
  23775570.021   124941483.945    23775572.487    97357024.875    23775572.720  
  23775571.701    93300474.432  
  22022698.118   115730059.208                    90179265.237    22022696.545  
                                
  20306057.212   106709098.249    20306055.944    83149958.829    20306055.711  
                                
  20361027.581   106997942.557    20361026.455    83375029.515    20361026.544  
  20361030.797    79901102.841  
  21218247.641   111502677.316    21218246.640    86885224.073    21218246.747  
  21218250.839    83265024.245  
  22237765.514   116860237.192    22237765.032    91059919.777    22237764.818  
                                
  19914712.905   106642431.165    19914712.458    82944133.100    19914712.511  
                                
  19714999.162   105388014.912    19715000.252    81968488.867    19715000.306  
                                
  19815400.306   105999024.047    19815401.074    82443711.130    19815400.735  
                                
  20173155.961   107874955.087    20173159.034    83902753.367    20173158.105  
                                
  27544263.596   144746096.989                                                  
  27544268.760   108089632.966  
  23802346.002   125082221.201                                                  
  23802349.540    93405589.637  
  22443712.401   117942541.026                                                  
  22443715.564    88074009.448  
  23744761.324   124779581.197                                                  
  23744765.416    93179576.250  
 21  8 31 18 51  6.0000000  0 15G 5G10G13G15G18G23G29R 4R 5R19R20E 3
                                E 5E 9E36
  23164045.882   121727908.690    23164045.149    94852917.842    23164044.828  
                                
  23775095.527   124938990.433    23775097.993    97355081.874    23775098.226  
  23775097.207    93298612.394  
  22023117.664   115732263.926                    90180983.199    22023116.110  
                                
  20306212.548   106709914.577    20306211.279    83150594.932    20306211.047  
                                
  20360813.492   106996817.501    20360812.366    83374152.848    20360812.455  
  20360816.690    79900262.708  
  21217969.206   111501214.065    21217968.205    86884083.878    21217968.312  
  21217972.386    83263931.558  
  22238376.599   116863448.444    22238376.099    91062422.049    22238375.885  
                                
  19915136.150   106644697.690    19915135.721    82945895.952    19915135.775  
                                
  19714724.104   105386544.633    19714725.212    81967345.311    19714725.266  
                                
  19815764.280   106000971.069    19815765.048    82445225.486    19815764.709  
                                
  20172669.388   107872353.023    20172672.443    83900729.539    20172671.532  
                                
  27543704.403   144743158.405                                                  
  27543709.567   108087438.576  
  23802076.841   125080806.741                                                  
  23802080.361    93404533.387  
  22443964.390   117943865.263                                                  
  22443967.553    88074998.329  
  23744940.515   124780522.765                                                  
  23744944.589    93180279.360  
 21  8 31 18 51  7.0000000  0 15G 5G10G13G15G18G23G29R 4R 5R19R20E 3
                                E 5E 9E36
  23164579.612   121730713.430    23164578.879    94855103.352    23164578.557  
                                
  23774621.015   124936496.924    23774623.481    97353138.877    23774623.714  
  23774622.713    93296750.370  
  22023537.283   115734469.041                    90182701.468    22023535.710  
                                
  20306367.990   106710731.446    20306366.722    83151231.450    20306366.489  
                                
  20360599.457   106995692.695    20360598.331    83373276.373    20360598.420  
  20360602.655    79899422.751  
  21217690.771   111499750.955    21217689.788    86882943.792    21217689.877  
  21217693.969    83262838.982  
  22238987.720   116866659.936    22238987.237    91064924.511    22238987.023  
                                
  19915559.467   106646964.525    19915559.021    82947659.044    19915559.074  
                                
  19714449.153   105385074.843    19714450.261    81966202.146    19714450.315  
                                
  19816128.361   106002918.673    19816129.130    82446740.289    19816128.790  
                                
  20172182.850   107869751.355    20172185.923    83898706.020    20172184.994  
                                
  27543145.209   144740219.817                                                  
  27543150.356   108085244.173  
  23801807.733   125079392.522                                                  
  23801811.271    93403477.318  
  22444216.433   117945189.697                                                  
  22444219.596    88075987.354  
  23745119.705   124781464.503                                                  
  23745123.797    93180982.608  
 21  8 31 18 51  8.0000000  0 15G 5G10G13G15G18G23G29R 4R 5R19R20E 3
                                E 5E 9E36
  23165113.324   121733518.099    23165112.591    94857288.813    23165112.252  
                                
  23774146.521   124934003.461    23774148.987    97351195.928    23774149.202  
  23774148.201    93294888.378  
  22023956.990   115736674.593                    90184420.083    22023955.436  
                                
  20306523.558   106711548.877    20306522.289    83151868.410    20306522.057  
                                
  20360385.475   106994568.164    20360384.349    83372400.116    20360384.421  
  20360388.674    79898583.002  
  21217412.389   111498288.024    21217411.388    86881803.846    21217411.496  
  21217415.570    83261746.534  
  22239598.894   116869871.684    22239598.412    91067427.174    22239598.197  
                                
  19915982.856   106649231.740    19915982.427    82949422.426    19915982.481  
                                
  19714174.310   105383605.603    19714175.400    81965059.401    19714175.454  
                                
  19816492.586   106004866.962    19816493.336    82448255.622    19816493.014  
                                
  20171696.401   107867150.130    20171699.475    83896682.840    20171698.546  
                                
  27542586.016   144737281.236                                                  
  27542591.163   108083049.785  
  23801538.661   125077978.596                                                  
  23801542.199    93402421.460  
  22444468.511   117946514.378                                                  
  22444471.674    88076976.568  
  23745298.985   124782406.472                                                  
  23745303.059    93181686.027  
 21  8 31 18 51  9.0000000  0 15G 5G10G13G15G18G23G29R 4R 5R19R20E 3
                                E 5E 9E36
  23165647.000   121736322.510    23165646.249    94859474.068    23165645.928  
                                
  23773671.992   124931509.799    23773674.475    97349252.824    23773674.690  
  23773673.689    93293026.221  
  22024376.734   115738880.351                    90186138.848    22024375.179  
                                
  20306679.180   106712366.623    20306677.893    83152505.612    20306677.661  
                                
  20360171.494   106993443.663    20360170.368    83371523.883    20360170.457  
  20360174.692    79897743.271  
  21217133.990   111496825.040    21217132.989    86880663.858    21217133.096  
  21217137.170    83260654.041  
  22240210.086   116873083.441    22240209.604    91069929.842    22240209.389  
                                
  19916406.263   106651499.080    19916405.834    82951185.913    19916405.887  
                                
  19713899.502   105382136.616    19713900.610    81963916.858    19713900.646  
                                
  19816856.846   106006815.531    19816857.614    82449771.176    19816857.274  
                                
  20171209.989   107864549.036    20171213.062    83894659.769    20171212.133  
                                
  27542026.752   144734342.395                                                  
  27542031.916   108080855.203  
  23801269.608   125076564.673                                                  
  23801273.128    93401365.609  
  22444720.589   117947839.049                                                  
  22444723.752    88077965.767  
  23745478.211   124783348.401                                                  
  23745482.286    93182389.413  
 21  8 31 18 51 10.0000000  0 15G 5G10G13G15G18G23G29R 4R 5R19R20E 3
                                E 5E 9E36
  23166180.623   121739126.757    23166179.890    94861659.191    23166179.568  
                                
  23773197.462   124929016.061    23773199.928    97347309.656    23773200.160  
  23773199.142    93291164.021  
  22024796.548   115741086.416                    90187857.860    22024794.976  
                                
  20306834.872   106713184.829    20306833.604    83153143.175    20306833.353  
                                
  20359957.530   106992319.297    20359956.404    83370647.754    20359956.493  
  20359960.728    79896903.653  
  21216855.608   111495362.120    21216854.625    86879523.921    21216854.715  
  21216858.807    83259561.599  
  22240821.296   116876295.344    22240820.814    91072432.621    22240820.599  
                                
  19916829.741   106653766.678    19916829.294    82952949.600    19916829.347  
                                
  19713624.766   105380668.032    19713625.856    81962774.629    19713625.910  
                                
  19817221.213   106008764.573    19817221.963    82451287.093    19817221.642  
                                
  20170723.630   107861948.264    20170726.685    83892636.949    20170725.774  
                                
  27541467.487   144731403.445                                                  
  27541472.651   108078660.539  
  23801000.572   125075150.932                                                  
  23801004.110    93400309.889  
  22444972.686   117949163.853                                                  
  22444975.848    88078955.070  
  23745657.473   124784290.450                                                  
  23745661.548    93183092.887  
 21  8 31 18 51 11.0000000  0 15G 5G10G13G15G18G23G29R 4R 5R19R20E 3
                                E 5E 9E36
  23166714.281   121741931.207    23166713.548    94863844.477    23166713.209  
                                
  23772722.968   124926522.622    23772725.434    97345366.726    23772725.666  
  23772724.665    93289302.046  
  22025216.470   115743293.162                    90189577.400    22025214.916  
                                
  20306990.726   106714003.840    20306989.439    83153781.365    20306989.207  
                                
  20359743.656   106991195.462    20359742.530    83369772.038    20359742.619  
  20359746.854    79896064.426  
  21216577.298   111493899.620    21216576.315    86878384.311    21216576.405  
  21216580.497    83258469.479  
  22241432.595   116879507.735    22241432.095    91074935.776    22241431.898  
                                
  19917253.290   106656034.880    19917252.861    82954713.755    19917252.915  
                                
  19713350.191   105379200.248    19713351.281    81961633.022    19713351.334  
                                
  19817585.741   106010714.507    19817586.491    82452803.709    19817586.152  
                                
  20170237.396   107859348.168    20170240.469    83890614.651    20170239.540  
                                
  27540908.258   144728464.742                                                  
  27540913.422   108076466.059  
  23800731.661   125073737.690                                                  
  23800735.181    93399254.550  
  22445224.871   117950489.138                                                  
  22445228.052    88079944.731  
  23745836.843   124785232.957                                                  
  23745840.917    93183796.709  
 21  8 31 18 51 12.0000000  0 15G 5G10G13G15G18G23G29R 4R 5R19R20E 3
                                E 5E 9E36
  23167247.993   121744735.873    23167247.260    94866029.929    23167246.939  
                                
  23772248.527   124924029.477    23772251.011    97343424.020    23772251.226  
  23772250.225    93287440.275  
  22025636.518   115745500.581                    90191297.464    22025634.963  
                                
  20307146.722   106714823.657    20307145.454    83154420.184    20307145.221  
                                
  20359529.906   106990072.149    20359528.781    83368896.729    20359528.852  
  20359533.105    79895225.591  
  21216299.077   111492437.552    21216298.095    86877245.039    21216298.184  
  21216302.258    83257377.677  
  22242043.984   116882720.630    22242043.502    91077439.326    22242043.287  
                                
  19917676.982   106658303.688    19917676.536    82956478.386    19917676.589  
                                
  19713075.758   105377733.279    19713076.866    81960492.041    19713076.902  
                                
  19817950.412   106012665.344    19817951.162    82454321.019    19817950.841  
                                
  20169751.287   107856748.737    20169754.342    83888592.867    20169753.431  
                                
  27540349.100   144725526.294                                                  
  27540354.247   108074271.770  
  23800462.821   125072324.976                                                  
  23800466.341    93398199.599  
  22445477.164   117951814.904                                                  
  22445480.327    88080934.758  
  23746016.266   124786175.939                                                  
  23746020.358    93184500.884  
 21  8 31 18 51 13.0000000  0 15G 5G10G13G15G18G23G29R 4R 5R19R20E 3
                                E 5E 9E36
  23167781.741   121747540.619    23167780.990    94868215.450    23167780.669  
                                
  23771774.141   124921536.513    23771776.624    97341481.430    23771776.839  
  23771775.838    93285578.622  
  22026056.690   115747708.551                    90193017.958    22026055.135  
                                
  20307302.862   106715644.170    20307301.593    83155059.545    20307301.343  
                                
  20359316.211   106988949.229    20359315.085    83368021.725    20359315.174  
  20359319.409    79894387.042  
  21216020.910   111490975.789    21216019.910    86876106.005    21216020.017  
  21216024.091    83256286.105  
  22242655.444   116885933.884    22242654.962    91079943.160    22242654.747  
                                
  19918100.764   106660572.982    19918100.317    82958243.397    19918100.371  
                                
  19712801.469   105376266.991    19712802.559    81959351.595    19712802.612  
                                
  19818315.226   106014616.817    19818315.976    82455838.841    19818315.655  
                                
  20169265.285   107854149.832    20169268.358    83886571.508    20169267.447  
                                
  27539789.961   144722588.004                                                  
  27539795.125   108072077.547  
  23800194.053   125070912.661                                                  
  23800197.591    93397144.950  
  22445729.528   117953141.049                                                  
  22445732.691    88081925.052  
  23746195.778   124787119.249                                                  
  23746199.852    93185205.309  
 21  8 31 18 51 14.0000000  0 15G 5G10G13G15G18G23G29R 4R 5R19R20E 3
                                E 5E 9E36
  23168315.453   121750345.371    23168314.702    94870400.973    23168314.381  
                                
  23771299.754   124919043.608    23771302.238    97339538.909    23771302.470  
  23771301.451    93283717.042  
  22026476.951   115749917.014                    90194738.838    22026475.379  
                                
  20307459.127   106716465.281    20307457.858    83155699.374    20307457.626  
                                
  20359102.586   106987826.624    20359101.461    83367146.965    20359101.550  
  20359105.785    79893548.735  
  21215742.779   111489514.252    21215741.796    86874967.145    21215741.886  
  21215745.960    83255194.695  
  22243266.976   116889147.448    22243266.475    91082447.231    22243266.261  
                                
  19918524.600   106662842.696    19918524.171    82960008.730    19918524.224  
                                
  19712527.286   105374801.294    19712528.376    81958211.606    19712528.430  
                                
  19818680.165   106016569.022    19818680.933    82457357.220    19818680.594  
                                
  20168779.373   107851551.407    20168782.428    83884550.509    20168781.517  
                                
  27539230.821   144719649.706                                                  
  27539235.985   108069883.378  
  23799925.357   125069500.660                                                  
  23799928.895    93396090.532  
  22445981.928   117954467.461                                                  
  22445985.091    88082915.561  
  23746375.326   124788062.833                                                  
  23746379.400    93185909.937  
 21  8 31 18 51 15.0000000  0 15G 5G10G13G15G18G23G29R 4R 5R19R20E 3
                                E 5E 9E36
  23168849.165   121753150.028    23168848.414    94872586.418    23168848.092  
                                
  23770825.349   124916550.686    23770827.815    97337596.367    23770828.047  
  23770827.047    93281855.461  
  22026897.284   115752125.870                    90196460.025    22026895.730  
                                
  20307615.481   106717286.921    20307614.212    83156339.613    20307613.962  
                                
  20358889.016   106986704.253    20358887.890    83366272.390    20358887.962  
  20358892.214    79892710.601  
  21215464.701   111488052.855    21215463.719    86873828.397    21215463.808  
  21215467.882    83254103.393  
  22243878.543   116892361.227    22243878.061    91084951.472    22243877.846  
                                
  19918948.542   106665112.755    19918948.095    82961774.332    19918948.149  
                                
  19712253.176   105373336.092    19712254.266    81957072.009    19712254.319  
                                
  19819045.211   106018521.737    19819045.962    82458876.001    19819045.640  
                                
  20168293.514   107848953.335    20168296.587    83882529.788    20168295.658  
                                
  27538671.664   144716711.396                                                  
  27538676.828   108067689.194  
  23799656.732   125068088.900                                                  
  23799660.270    93395036.291  
  22446234.382   117955794.078                                                  
  22446237.544    88083906.210  
  23746554.927   124789006.584                                                  
  23746559.001    93186614.680  
 21  8 31 18 51 16.0000000  0 15G 5G10G13G15G18G23G29R 4R 5R19R20E 3
                                E 5E 9E36
  23169382.877   121755954.736    23169382.144    94874771.898    23169381.804  
                                
  23770351.016   124914057.954    23770353.500    97335653.977    23770353.714  
  23770352.713    93279993.981  
  22027317.707   115754335.263                    90198181.625    22027316.152  
                                
  20307771.960   106718109.230    20307770.673    83156980.371    20307770.441  
                                
  20358675.499   106985582.252    20358674.373    83365398.104    20358674.463  
  20358678.697    79891872.746  
  21215186.641   111486591.726    21215185.659    86872689.857    21215185.748  
  21215189.822    83253012.299  
  22244490.164   116895575.343    22244489.681    91087455.978    22244489.467  
                                
  19919372.538   106667383.274    19919372.092    82963540.293    19919372.145  
                                
  19711979.190   105371871.529    19711980.298    81955932.904    19711980.351  
                                
  19819410.383   106020475.176    19819411.151    82460395.342    19819410.811  
                                
  20167807.762   107846355.800    20167810.818    83880509.488    20167809.907  
                                
  27538112.542   144713773.185                                                  
  27538117.706   108065495.083  
  23799388.142   125066677.504                                                  
  23799391.680    93393982.333  
  22446486.889   117957121.035                                                  
  22446490.052    88084897.122  
  23746734.582   124789950.675                                                  
  23746738.657    93187319.683  
 21  8 31 18 51 17.0000000  0 15G 5G10G13G15G18G23G29R 4R 5R19R20E 3
                                E 5E 9E36
  23169916.606   121758759.441    23169915.856    94876957.384    23169915.534  
                                
  23769876.665   124911565.190    23769879.149    97333711.572    23769879.363  
  23769878.362    93278132.524  
  22027738.236   115756545.096                    90199903.575    22027736.682  
                                
  20307928.546   106718932.117    20307927.259    83157621.574    20307927.027  
                                
  20358462.053   106984460.539    20358460.928    83364524.042    20358460.999  
  20358465.252    79891035.100  
  21214908.653   111485130.814    21214907.652    86871551.472    21214907.760  
  21214911.834    83251921.338  
  22245101.838   116898789.734    22245101.356    91089960.701    22245101.142  
                                
  19919796.606   106669654.143    19919796.159    82965306.520    19919796.231  
                                
  19711705.329   105370407.515    19711706.419    81954794.227    19711706.473  
                                
  19819775.679   106022429.247    19819776.430    82461915.173    19819776.108  
                                
  20167322.100   107843758.714    20167325.156    83878489.527    20167324.245  
                                
  27537553.420   144710834.987                                                  
  27537558.585   108063300.973  
  23799119.607   125065266.392                                                  
  23799123.145    93392928.581  
  22446739.449   117958448.260                                                  
  22446742.612    88085888.220  
  23746914.273   124790894.981                                                  
  23746918.347    93188024.840  
 21  8 31 18 51 18.0000000  0 15G 5G10G13G15G18G23G29R 4R 5R19R20E 3
                                E 5E 9E36
  23170450.301   121761564.143    23170449.568    94879142.864    23170449.228  
                                
  23769402.332   124909072.625    23769404.815    97331769.312    23769405.048  
  23769404.047    93276271.178  
  22028158.855   115758755.446                    90201625.924    22028157.283  
                                
  20308085.239   106719755.640    20308083.971    83158263.279    20308083.738  
                                
  20358248.662   106983339.180    20358247.536    83363650.256    20358247.625  
  20358251.860    79890197.724  
  21214630.683   111483670.148    21214629.700    86870413.293    21214629.789  
  21214633.863    83250830.588  
  22245713.584   116902004.467    22245713.102    91092465.685    22245712.888  
                                
  19920220.745   106671925.443    19920220.298    82967073.089    19920220.370  
                                
  19711431.558   105368944.128    19711432.648    81953656.037    19711432.701  
                                
  19820141.101   106024383.994    19820141.851    82463435.536    19820141.529  
                                
  20166836.510   107841162.111    20166839.583    83876469.949    20166838.654  
                                
  27536994.317   144707896.873                                                  
  27536999.481   108061106.932  
  23798851.143   125063855.644                                                  
  23798854.681    93391875.102  
  22446992.064   117959775.784                                                  
  22446995.227    88086879.560  
  23747094.036   124791839.591                                                  
  23747098.110    93188730.242  
 21  8 31 18 51 19.0000000  0 15G 5G10G13G15G18G23G29R 4R 5R19R20E 3
                                E 5E 9E36
  23170984.066   121764369.082    23170983.334    94881328.531    23170982.994  
                                
  23768928.070   124906580.331    23768930.554    97329827.264    23768930.768  
  23768929.767    93274410.066  
  22028579.599   115760966.488                    90203348.809    22028578.045  
                                
  20308242.129   106720579.977    20308240.843    83158905.626    20308240.610  
                                
  20358035.377   106982218.347    20358034.251    83362776.877    20358034.323  
  20358038.575    79889360.736  
  21214352.819   111482209.919    21214351.836    86869275.453    21214351.926  
  21214356.000    83249740.162  
  22246325.420   116905219.698    22246324.937    91094971.060    22246324.723  
                                
  19920645.009   106674197.394    19920644.563    82968840.160    19920644.634  
                                
  19711157.965   105367481.559    19711159.055    81952518.483    19711159.109  
                                
  19820506.683   106026339.628    19820507.433    82464956.585    19820507.112  
                                
  20166351.062   107838566.188    20166354.117    83874450.901    20166353.206  
                                
  27536435.248   144704959.029                                                  
  27536440.413   108058913.083  
  23798582.786   125062445.425                                                  
  23798586.324    93390822.016  
  22447244.785   117961103.815                                                  
  22447247.948    88087871.267  
  23747273.887   124792784.677                                                  
  23747277.962    93189435.979  
 21  8 31 18 51 20.0000000  0 15G 5G10G13G15G18G23G29R 4R 5R19R20E 3
                                E 5E 9E36
  23171517.867   121767174.180    23171517.135    94883514.321    23171516.795  
                                
  23768453.844   124904088.300    23768456.328    97327885.425    23768456.542  
  23768455.541    93272549.130  
  22029000.468   115763178.170                    90205072.198    22028998.896  
                                
  20308399.144   106721405.103    20308397.858    83159548.578    20308397.626  
                                
  20357822.182   106981098.010    20357821.056    83361903.889    20357821.145  
  20357825.380    79888524.112  
  21214075.027   111480750.087    21214074.045    86868137.919    21214074.134  
  21214078.208    83248650.023  
  22246937.362   116908435.398    22246936.862    91097476.796    22246936.648  
                                
  19921069.416   106676469.944    19921068.970    82970607.696    19921069.023  
                                
  19710884.498   105366019.758    19710885.606    81951381.526    19710885.659  
                                
  19820872.408   106028296.051    19820873.177    82466478.247    19820872.837  
                                
  20165865.739   107835970.896    20165868.795    83872432.341    20165867.883  
                                
  27535876.252   144702021.403                                                  
  27535881.416   108056719.397  
  23798314.536   125061035.689                                                  
  23798318.074    93389769.292  
  22447497.579   117962432.287                                                  
  22447500.741    88088863.308  
  23747453.793   124793730.198                                                  
  23747457.885    93190142.049  
 21  8 31 18 51 21.0000000  0 15G 5G10G13G15G18G23G29R 4R 5R19R20E 3
                                E 5E 9E36
  23172051.722   121769979.548    23172050.972    94885700.322    23172050.650  
                                
  23767979.689   124901596.619    23767982.173    97325943.853    23767982.405  
  23767981.405    93270688.466  
  22029421.498   115765390.615                    90206796.176    22029419.926  
                                
  20308556.320   106722231.094    20308555.034    83160192.206    20308554.802  
                                
  20357609.094   106979978.239    20357607.968    83361031.338    20357608.057  
  20357612.292    79887687.931  
  21213797.325   111479290.739    21213796.324    86867000.767    21213796.414  
  21213800.488    83247560.254  
  22247549.376   116911651.630    22247548.894    91099982.953    22247548.679  
                                
  19921493.913   106678743.160    19921493.466    82972375.755    19921493.520  
                                
  19710611.209   105364558.815    19710612.317    81950245.236    19710612.352  
                                
  19821238.312   106030253.387    19821239.063    82468000.620    19821238.741  
                                
  20165380.524   107833376.312    20165383.579    83870414.333    20165382.668  
                                
  27535317.273   144699084.070                                                  
  27535322.437   108054525.956  
  23798046.393   125059626.541                                                  
  23798049.913    93388717.003  
  22447750.479   117963761.311                                                  
  22447753.642    88089855.767  
  23747633.841   124794676.243                                                  
  23747637.915    93190848.516  
 21  8 31 18 51 22.0000000  0 15G 5G10G13G15G18G23G29R 4R 5R19R20E 3
                                E 5E 9E36
  23172585.559   121772784.913    23172584.809    94887886.316    23172584.487  
                                
  23767505.553   124899105.008    23767508.036    97324002.347    23767508.269  
  23767507.268    93268827.856  
  22029842.582   115767603.489                    90208520.502    22029841.009  
                                
  20308713.604   106723057.672    20308712.335    83160836.300    20308712.085  
                                
  20357396.059   106978858.765    20357394.933    83360159.023    20357395.023  
  20357399.258    79886851.955  
  21213519.658   111477831.590    21213518.657    86865863.770    21213518.747  
  21213522.821    83246470.626  
  22248161.462   116914868.173    22248160.979    91102489.353    22248160.765  
                                
  19921918.499   106681016.735    19921918.034    82974144.087    19921918.106  
                                
  19710338.009   105363098.420    19710339.099    81949109.375    19710339.153  
                                
  19821604.323   106032211.318    19821605.092    82469523.448    19821604.752  
                                
  20164895.415   107830782.181    20164898.471    83868396.671    20164897.560  
                                
  27534758.330   144696146.761                                                  
  27534763.494   108052332.506  
  23797778.286   125058217.668                                                  
  23797781.807    93387664.930  
  22448003.433   117965090.584                                                  
  22448006.613    88090848.399  
  23747813.889   124795622.512                                                  
  23747817.981    93191555.132  
 21  8 31 18 51 23.0000000  0 15G 5G10G13G15G18G23G29R 4R 5R19R20E 3
                                E 5E 9E36
  23173119.379   121775590.090    23173118.628    94890072.173    23173118.307  
                                
  23767031.380   124896613.274    23767033.864    97322060.743    23767034.096  
  23767033.096    93266967.152  
  22030263.737   115769816.647                    90210245.041    22030262.182  
                                
  20308870.976   106723884.667    20308869.689    83161480.709    20308869.457  
                                
  20357183.060   106977739.408    20357181.917    83359286.797    20357182.006  
  20357186.241    79886016.076  
  21213241.991   111476372.468    21213240.991    86864726.792    21213241.080  
  21213245.154    83245381.026  
  22248773.565   116918084.792    22248773.083    91104995.804    22248772.868  
                                
  19922343.085   106683290.505    19922342.638    82975912.577    19922342.692  
                                
  19710064.881   105361638.388    19710065.971    81947973.799    19710066.025  
                                
  19821970.424   106034169.727    19821971.174    82471046.653    19821970.835  
                                
  20164410.325   107828188.281    20164413.399    83866379.193    20164412.469  
                                
  27534199.351   144693209.307                                                  
  27534204.515   108050138.953  
  23797510.215   125056808.939                                                  
  23797513.735    93386612.948  
  22448256.404   117966419.947                                                  
  22448259.567    88091841.108  
  23747993.991   124796568.869                                                  
  23747998.065    93192261.821  
 21  8 31 18 51 24.0000000  0 15G 5G10G13G15G18G23G29R 4R 5R19R20E 3
                                E 5E 9E36
  23173653.180   121778395.335    23173652.429    94892258.076    23173652.108  
                                
  23766557.244   124894121.678    23766559.727    97320119.235    23766559.960  
  23766558.959    93265106.547  
  22030684.981   115772030.348                    90211969.998    22030683.427  
                                
  20309028.474   106724712.311    20309027.205    83162125.626    20309026.973  
                                
  20356970.115   106976620.423    20356968.989    83358414.858    20356969.079  
  20356973.314    79885180.473  
  21212964.378   111474913.619    21212963.378    86863590.028    21212963.467  
  21212967.541    83244291.632  
  22249385.740   116921301.775    22249385.240    91107502.542    22249385.025  
                                
  19922767.796   106685564.756    19922767.349    82977681.439    19922767.402  
                                
  19709791.861   105360178.989    19709792.968    81946838.709    19709793.004  
                                
  19822336.667   106036128.859    19822337.418    82472570.420    19822337.078  
                                
  20163925.342   107825594.894    20163928.415    83864362.119    20163927.486  
                                
  27533640.372   144690271.951                                                  
  27533645.537   108047945.484  
  23797242.198   125055400.568                                                  
  23797245.736    93385561.245  
  22448509.430   117967749.652                                                  
  22448512.611    88092834.071  
  23748174.111   124797515.525                                                  
  23748178.185    93192968.746  
