     2.11           OBSERVATION DATA    M (MIXED)           RINEX VERSION / TYPE
CONVBIN 2.4.3                           20210831 054555 UTC PGM / RUN BY / DATE 
log: logs/21_08_31_03_04_48_tn31_VZ.rtcm                    COMMENT             
format: RTCM 3, station ID: 3666                            COMMENT             
3666                                                        MARKER NAME         
                                                            MARKER NUMBER       
                                                            OBSERVER / AGENCY   
                    LEICA GR50          4.40/7.701          REC # / TYPE / VERS 
                    GPPNULLANTENNA                          ANT # / TYPE        
   278146.3143 -5148067.5166  3742721.9101                  APPROX POSITION XYZ 
        0.0000        0.0000        0.0000                  ANTENNA: DELTA H/E/N
     1     1                                                WAVELENGTH FACT L1/2
     7    C1    L1    C2    L2    P2    C5    L5            # / TYPES OF OBSERV 
  2021     8    31     3     5    6.0000000     GPS         TIME OF FIRST OBS   
  2021     8    31     3    34   52.0000000     GPS         TIME OF LAST OBS    
                                                            END OF HEADER       
 21  8 31  3  5  6.0000000  0 14G 3G 4G16G22G26G31R 7R 8R 9E 1E 4E19
                                E21E27
  21652999.540   113787311.930    21653000.594    88665453.601    21652999.915  
  21653000.844    84971064.656  
  21793894.016   114527711.429    21793893.462    89242383.598    21793893.123  
  21793897.304    85523967.317  
  20376509.248   107079322.001                    83438443.699    20376506.389  
                                
  22543989.284   118469489.175                    92313886.764    22543985.317  
                                
  20392042.272   107160986.127    20392043.273    83502103.791    20392042.969  
  20392042.415    80022861.046  
  22547301.701   118486928.394    22547299.574    92327495.299    22547298.806  
                                
  19297957.484   103303518.787    19297957.216    80347189.607    19297956.948  
                                
  20479136.211   109664869.105    20479135.211    85294908.789    20479135.121  
                                
  20159901.202   107652817.952    20159901.560    83730021.562    20159901.703  
                                
  26176334.690   137557594.203                                                  
  26176338.157   102721604.540  
  27601385.770   145046272.091                                                  
  27601388.861   108313794.350  
  23349101.326   122700390.783                                                  
  23349102.773    91626936.100  
  23478991.200   123383011.459                                                  
  23478993.916    92136720.589  
  25078912.058   131790657.412                                                  
  25078915.060    98415149.361  
 21  8 31  3  5  7.0000000  0 14G 3G 4G16G22G26G31R 7R 8R 9E 1E 4E19
                                E21E27
  21653277.654   113788773.311    21653278.690    88666592.336    21653278.011  
  21653278.958    84972155.945  
  21793420.380   114525222.342    21793419.808    89240444.045    21793419.469  
  21793423.650    85522108.581  
  20376197.380   107077683.085                    83437166.615    20376194.521  
                                
  22544440.316   118471859.379                    92315733.671    22544436.349  
                                
  20392267.136   107162167.818    20392268.136    83503024.585    20392267.833  
  20392267.297    80023743.477  
  22547754.716   118489308.948    22547752.590    92329350.269    22547751.821  
                                
  19298171.805   103304666.092    19298171.537    80348081.948    19298171.269  
                                
  20478626.265   109662138.387    20478625.265    85292784.888    20478625.175  
                                
  20160307.151   107654985.671    20160307.508    83731707.558    20160307.651  
                                
  26175878.977   137555199.303                                                  
  26175882.461   102719816.140  
  27600881.309   145043621.063                                                  
  27600884.383   108311814.680  
  23348944.686   122699567.617                                                  
  23348946.133    91626321.396  
  23478924.423   123382660.528                                                  
  23478927.157    92136458.537  
  25079312.306   131792760.561                                                  
  25079315.308    98416719.896  
 21  8 31  3  5  8.0000000  0 14G 3G 4G16G22G26G31R 7R 8R 9E 1E 4E19
                                E21E27
  21653555.874   113790235.386    21653556.928    88667731.612    21653556.232  
  21653557.179    84973247.745  
  21792946.780   114522733.598    21792946.208    89238504.759    21792945.868  
  21792950.050    85520250.103  
  20375885.637   107076044.935                    83435890.137    20375882.796  
                                
  22544891.437   118474230.038                    92317580.933    22544887.470  
                                
  20392492.142   107163350.184    20392493.143    83503945.904    20392492.821  
  20392492.285    80024626.412  
  22548207.749   118491689.666    22548205.623    92331205.370    22548204.872  
                                
  19298386.304   103305814.317    19298386.036    80348975.009    19298385.786  
                                
  20478116.444   109659408.339    20478115.444    85290661.520    20478115.354  
                                
  20160713.171   107657153.789    20160713.528    83733393.872    20160713.689  
                                
  26175423.352   137552804.731                                                  
  26175426.855   102718027.990  
  27600376.849   145040970.129                                                  
  27600379.922   108309835.100  
  23348788.117   122698744.883                                                  
  23348789.583    91625707.012  
  23478857.772   123382310.073                                                  
  23478860.542    92136196.826  
  25079712.608   131794863.994                                                  
  25079715.646    98418290.637  
 21  8 31  3  5  9.0000000  0 14G 3G 4G16G22G26G31R 7R 8R 9E 1E 4E19
                                E21E27
  21653834.202   113791698.012    21653835.239    88668871.314    21653834.559  
  21653835.489    84974339.970  
  21792473.233   114520245.053    21792472.679    89236565.634    21792472.321  
  21792476.520    85518391.779  
  20375574.055   107074407.390                    83434614.116    20375571.214  
                                
  22545342.630   118476600.996                    92319428.431    22545338.663  
                                
  20392717.239   107164533.080    20392718.239    83504867.628    20392717.935  
  20392717.399    80025509.744  
  22548660.801   118494070.434    22548658.674    92333060.507    22548657.906  
                                
  19298600.947   103306963.334    19298600.697    80349868.680    19298600.429  
                                
  20477606.730   109656678.797    20477605.730    85288538.528    20477605.640  
                                
  20161119.244   107659322.187    20161119.619    83735080.388    20161119.762  
                                
  26174967.674   137550410.336                                                  
  26174971.159   102716239.985  
  27599872.406   145038319.219                                                  
  27599875.480   108307855.511  
  23348631.620   122697922.419                                                  
  23348633.068    91625092.835  
  23478791.120   123381959.955                                                  
  23478793.854    92135935.379  
  25080112.874   131796967.574                                                  
  25080115.894    98419861.488  
 21  8 31  3  5 10.0000000  0 14G 3G 4G16G22G26G31R 7R 8R 9E 1E 4E19
                                E21E27
  21654112.619   113793161.063    21654113.656    88670011.347    21654112.977  
  21654113.906    84975432.517  
  21791999.686   114517756.606    21791999.132    89234626.579    21791998.774  
  21792002.973    85516533.523  
  20375262.545   107072770.361                    83433338.497    20375259.703  
                                
  22545793.859   118478972.180                    92321276.102    22545789.892  
                                
  20392942.424   107165716.406    20392943.425    83505789.690    20392943.121  
  20392942.585    80026393.390  
  22549113.834   118496451.140    22549111.707    92334915.596    22549110.957  
                                
  19298815.751   103308113.057    19298815.483    80350762.902    19298815.232  
                                
  20477097.106   109653949.685    20477096.123    85286415.881    20477096.034  
                                
  20161525.353   107661490.794    20161525.729    83736767.080    20161525.872  
                                
  26174512.068   137548016.064                                                  
  26174515.535   102714452.053  
  27599367.928   145035668.183                                                  
  27599370.984   108305875.843  
  23348475.141   122697100.145                                                  
  23348476.589    91624478.797  
  23478724.558   123381610.087                                                  
  23478727.274    92135674.109  
  25080513.176   131799071.207                                                  
  25080516.178    98421432.387  
 21  8 31  3  5 11.0000000  0 14G 3G 4G16G22G26G31R 7R 8R 9E 1E 4E19
                                E21E27
  21654391.108   113794624.599    21654392.162    88671151.760    21654391.465  
  21654392.413    84976525.408  
  21791526.156   114515268.264    21791525.603    89232687.609    21791525.245  
  21791529.444    85514675.352  
  20374951.123   107071133.860                    83432063.304    20374948.282  
                                
  22546245.123   118481343.584                    92323123.949    22546241.156  
                                
  20393167.699   107166900.156    20393168.717    83506712.098    20393168.396  
  20393167.877    80027277.364  
  22549566.867   118498831.796    22549564.741    92336770.648    22549563.990  
                                
  19299030.661   103309263.500    19299030.393    80351657.693    19299030.125  
                                
  20476587.553   109651221.055    20476586.552    85284293.618    20476586.463  
                                
  20161931.516   107663659.594    20161931.892    83738453.922    20161932.035  
                                
  26174056.515   137545621.903                                                  
  26174060.017   102712664.201  
  27598863.432   145033017.070                                                  
  27598866.488   108303896.120  
  23348318.698   122696278.074                                                  
  23348320.163    91623864.921  
  23478658.050   123381260.465                                                  
  23478660.802    92135413.032  
  25080913.532   131801174.904                                                  
  25080916.569    98423003.330  
 21  8 31  3  5 12.0000000  0 14G 3G 4G16G22G26G31R 7R 8R 9E 1E 4E19
                                E21E27
  21654669.704   113796088.674    21654670.740    88672292.591    21654670.061  
  21654671.008    84977618.714  
  21791052.699   114512780.119    21791052.127    89230748.788    21791051.788  
  21791055.987    85512817.324  
  20374639.827   107069497.969                    83430788.577    20374636.986  
                                
  22546696.441   118483715.293                    92324972.025    22546692.492  
                                
  20393393.063   107168084.438    20393394.081    83507634.904    20393393.778  
  20393393.242    80028161.730  
  22550019.901   118501212.488    22550017.792    92338625.726    22550017.024  
                                
  19299245.733   103310414.744    19299245.465    80352553.096    19299245.215  
                                
  20476078.089   109648492.971    20476077.106    85282171.768    20476077.017  
                                
  20162337.715   107665828.672    20162338.090    83740140.978    20162338.233  
                                
  26173600.909   137543227.924                                                  
  26173604.393   102710876.489  
  27598358.918   145030365.922                                                  
  27598361.974   108301916.380  
  23348162.326   122695456.273                                                  
  23348163.774    91623251.237  
  23478591.541   123380911.180                                                  
  23478594.275    92135152.199  
  25081313.851   131803278.745                                                  
  25081316.871    98424574.373  
 21  8 31  3  5 13.0000000  0 14G 3G 4G16G22G26G31R 7R 8R 9E 1E 4E19
                                E21E27
  21654948.443   113797553.381    21654949.479    88673433.927    21654948.800  
  21654949.747    84978712.492  
  21790579.277   114510292.279    21790578.705    89228810.220    21790578.348  
  21790582.547    85510959.525  
  20374328.656   107067862.789                    83429514.416    20374325.815  
                                
  22547147.848   118486087.422                    92326820.446    22547143.881  
                                
  20393618.552   107169269.342    20393619.553    83508558.217    20393619.249  
  20393618.713    80029046.561  
  22550472.952   118503593.311    22550470.825    92340480.922    22550470.075  
                                
  19299460.947   103311566.875    19299460.679    80353449.208    19299460.429  
                                
  20475568.768   109645765.549    20475567.785    85280050.449    20475567.696  
                                
  20162743.985   107667998.153    20162744.342    83741828.359    20162744.503  
                                
  26173145.409   137540834.227                                                  
  26173148.894   102709088.997  
  27597854.458   145027714.883                                                  
  27597857.513   108299936.710  
  23348006.026   122694634.874                                                  
  23348007.473    91622637.852  
  23478525.158   123380562.330                                                  
  23478527.892    92134891.698  
  25081714.242   131805382.830                                                  
  25081717.244    98426145.608  
 21  8 31  3  5 14.0000000  0 14G 3G 4G16G22G26G31R 7R 8R 9E 1E 4E19
                                E21E27
  21655227.289   113799018.736    21655228.325    88674575.756    21655227.646  
  21655228.576    84979806.751  
  21790105.909   114507804.723    21790105.337    89226871.863    21790104.979  
  21790109.179    85509101.931  
  20374017.628   107066228.316                    83428240.798    20374014.786  
                                
  22547599.327   118488459.938                    92328669.149    22547595.360  
                                
  20393844.148   107170454.862    20393845.149    83509481.989    20393844.845  
  20393844.309    80029931.856  
  22550926.039   118505974.258    22550923.912    92342336.198    22550923.162  
                                
  19299676.341   103312719.847    19299676.073    80354345.957    19299675.822  
                                
  20475059.555   109643038.769    20475058.572    85277929.618    20475058.483  
                                
  20163150.327   107670168.003    20163150.702    83743516.020    20163150.845  
                                
  26172689.999   137538440.821                                                  
  26172693.520   102707301.713  
  27597349.979   145025063.893                                                  
  27597353.035   108297957.080  
  23347849.779   122693813.824                                                  
  23347851.244    91622024.735  
  23478458.900   123380213.906                                                  
  23478461.669    92134631.511  
  25082114.741   131807487.134                                                  
  25082117.779    98427717.006  
 21  8 31  3  5 15.0000000  0 14G 3G 4G16G22G26G31R 7R 8R 9E 1E 4E19
                                E21E27
  21655506.260   113800484.745    21655507.297    88675718.078    21655506.618  
  21655507.565    84980901.498  
  21789632.594   114505317.470    21789632.022    89224933.721    21789631.665  
  21789635.864    85507244.571  
  20373706.742   107064594.562                    83426967.717    20373703.919  
                                
  22548050.895   118490832.892                    92330518.174    22548046.946  
                                
  20394069.888   107171641.022    20394070.888    83510406.247    20394070.585  
  20394070.067    80030817.622  
  22551379.179   118508355.352    22551377.053    92344191.575    22551376.302  
                                
  19299891.895   103313873.719    19299891.645    80355243.391    19299891.394  
                                
  20474550.484   109640312.636    20474549.501    85275809.271    20474549.412  
                                
  20163556.758   107672338.271    20163557.133    83745203.986    20163557.276  
                                
  26172234.572   137536047.707                                                  
  26172238.038   102705514.655  
  27596845.537   145022413.030                                                  
  27596848.592   108295977.537  
  23347693.622   122692993.185                                                  
  23347695.087    91621411.913  
  23478392.641   123379865.924                                                  
  23478395.375    92134371.655  
  25082515.168   131809591.709                                                  
  25082518.188    98429288.602  
 21  8 31  3  5 16.0000000  0 14G 3G 4G16G22G26G31R 7R 8R 9E 1E 4E19
                                E21E27
  21655785.339   113801951.353    21655786.375    88676860.887    21655785.696  
  21655786.643    84981996.688  
  21789159.333   114502830.475    21789158.761    89222995.803    21789158.404  
  21789162.603    85505387.395  
  20373395.982   107062961.468                    83425695.179    20373393.141  
                                
  22548502.517   118493206.194                    92332367.501    22548498.568  
                                
  20394295.717   107172827.742    20394296.717    83511330.969    20394296.413  
  20394295.895    80031703.814  
  22551832.284   118510736.534    22551830.176    92346047.039    22551829.425  
                                
  19300107.627   103315028.430    19300107.359    80356141.500    19300107.109  
                                
  20474041.503   109637587.058    20474040.520    85273689.382    20474040.431  
                                
  20163963.242   107674508.861    20163963.617    83746892.218    20163963.760  
                                
  26171779.269   137533654.855                                                  
  26171782.771   102703727.774  
  27596341.112   145019762.207                                                  
  27596344.150   108293998.031  
  23347537.500   122692172.869                                                  
  23347538.965    91620799.342  
  23478326.526   123379518.330                                                  
  23478329.296    92134112.087  
  25082915.738   131811696.474                                                  
  25082918.775    98430860.345  
 21  8 31  3  5 17.0000000  0 14G 3G 4G16G22G26G31R 7R 8R 9E 1E 4E19
                                E21E27
  21656064.506   113803418.439    21656065.543    88678004.069    21656064.864  
  21656065.811    84983092.240  
  21788686.090   114500343.598    21788685.518    89221057.974    21788685.160  
  21788689.360    85503530.318  
  20373085.329   107061328.920                    83424423.059    20373082.506  
                                
  22548954.192   118495579.752                    92334217.022    22548950.243  
                                
  20394521.599   107174014.929    20394522.617    83512256.042    20394522.314  
  20394521.795    80032590.345  
  22552285.425   118513117.671    22552283.298    92347902.474    22552282.548  
                                
  19300323.467   103316183.898    19300323.199    80357040.193    19300322.949  
                                
  20473532.611   109634861.935    20473531.628    85271569.833    20473531.539  
                                
  20164369.780   107676679.674    20164370.156    83748580.623    20164370.298  
                                
  26171323.931   137531262.115                                                  
  26171327.451   102701940.996  
  27595836.652   145017111.285                                                  
  27595839.689   108292018.455  
  23347381.450   122691352.770                                                  
  23347382.897    91620186.934  
  23478260.446   123379171.009                                                  
  23478263.198    92133852.724  
  25083316.290   131813801.319                                                  
  25083319.327    98432432.144  
 21  8 31  3  5 18.0000000  0 14G 3G 4G16G22G26G31R 7R 8R 9E 1E 4E19
                                E21E27
  21656343.835   113804886.168    21656344.853    88679147.744    21656344.174  
  21656345.121    84984188.267  
  21788212.900   114497857.023    21788212.328    89219120.374    21788211.971  
  21788216.188    85501673.459  
  20372774.801   107059697.085                    83423151.488    20372771.978  
                                
  22549405.957   118497953.706                    92336066.842    22549402.008  
                                
  20394747.642   107175202.735    20394748.661    83513181.596    20394748.357  
  20394747.839    80033477.346  
  22552738.565   118515498.950    22552736.439    92349757.995    22552735.688  
                                
  19300539.504   103317340.266    19300539.254    80357939.578    19300538.986  
                                
  20473023.844   109632137.446    20473022.861    85269450.779    20473022.772  
                                
  20164776.390   107678850.870    20164776.765    83750269.321    20164776.908  
                                
  26170868.664   137528869.668                                                  
  26170872.166   102700154.430  
  27595332.209   145014460.478                                                  
  27595335.247   108290038.969  
  23347225.471   122690533.061                                                  
  23347226.919    91619574.808  
  23478194.420   123378824.124                                                  
  23478197.190    92133593.687  
  25083716.860   131815906.407                                                  
  25083719.897    98434004.126  
 21  8 31  3  5 19.0000000  0 14G 3G 4G16G22G26G31R 7R 8R 9E 1E 4E19
                                E21E27
  21656623.271   113806354.704    21656624.307    88680292.054    21656623.628  
  21656624.575    84985284.903  
  21787739.818   114495370.911    21787739.228    89217183.132    21787738.889  
  21787743.106    85499816.941  
  20372464.452   107058066.115                    83421880.594    20372461.611  
                                
  22549857.829   118500328.233                    92337917.120    22549853.879  
                                
  20394973.846   107176391.342    20394974.847    83514107.779    20394974.543  
  20394974.025    80034364.940  
  22553191.777   118517880.522    22553189.651    92351613.774    22553188.900  
                                
  19300755.701   103318497.680    19300755.451    80358839.789    19300755.201  
                                
  20472515.220   109629413.782    20472514.237    85267332.376    20472514.148  
                                
  20165183.089   107681022.616    20165183.464    83751958.446    20165183.625  
                                
  26170413.486   137526477.688                                                  
  26170417.006   102698368.209  
  27594827.820   145011809.917                                                  
  27594830.858   108288059.641  
  23347069.582   122689713.886                                                  
  23347071.047    91618963.091  
  23478128.537   123378477.839                                                  
  23478131.289    92133335.102  
  25084117.537   131818011.915                                                  
  25084120.574    98435576.423  
 21  8 31  3  5 20.0000000  0 14G 3G 4G16G22G26G31R 7R 8R 9E 1E 4E19
                                E21E27
  21656902.796   113807823.574    21656903.832    88681436.626    21656903.153  
  21656904.100    84986381.782  
  21787266.717   114492884.773    21787266.146    89215245.882    21787265.788  
  21787270.005    85497960.409  
  20372154.157   107056435.533                    83420610.015    20372151.315  
                                
  22550309.700   118502702.844                    92339767.469    22550305.751  
                                
  20395200.086   107177580.234    20395201.086    83515034.186    20395200.783  
  20395200.282    80035252.748  
  22553644.918   118520261.906    22553642.809    92353469.396    22553642.059  
                                
  19300972.024   103319655.634    19300971.773    80359740.421    19300971.523  
                                
  20472006.632   109626690.457    20472005.667    85265214.236    20472005.578  
                                
  20165589.770   107683194.402    20165590.163    83753647.617    20165590.306  
                                
  26169958.290   137524085.649                                                  
  26169961.811   102696581.950  
  27594323.396   145009159.118                                                  
  27594326.416   108286080.159  
  23346913.710   122688894.779                                                  
  23346915.158    91618351.417  
  23478062.672   123378131.665                                                  
  23478065.442    92133076.591  
  25084518.178   131820117.326                                                  
  25084521.216    98437148.650  
 21  8 31  3  5 21.0000000  0 14G 3G 4G16G22G26G31R 7R 8R 9E 1E 4E19
                                E21E27
  21657182.392   113809292.970    21657183.429    88682581.612    21657182.750  
  21657183.697    84987479.071  
  21786793.653   114490398.820    21786793.063    89213308.780    21786792.724  
  21786796.941    85496104.029  
  20371843.986   107054805.570                    83419339.914    20371841.163  
                                
  22550761.626   118505077.764                    92341618.060    22550757.677  
                                
  20395426.415   107178769.648    20395427.433    83515961.005    20395427.129  
  20395426.611    80036140.952  
  22554098.112   118522643.337    22554095.986    92355325.054    22554095.235  
                                
  19301188.489   103320814.369    19301188.221    80360641.657    19301187.971  
                                
  20471498.187   109623967.720    20471497.222    85263096.549    20471497.133  
                                
  20165996.540   107685366.480    20165996.916    83755337.011    20165997.076  
                                
  26169503.131   137521693.829                                                  
  26169506.633   102694795.852  
  27593818.953   145006508.319                                                  
  27593821.973   108284100.675  
  23346757.893   122688075.956                                                  
  23346759.358    91617739.957  
  23477996.860   123377785.823                                                  
  23477999.612    92132818.339  
  25084918.837   131822222.896                                                  
  25084921.875    98438720.988  
 21  8 31  3  5 22.0000000  0 14G 3G 4G16G22G26G31R 7R 8R 9E 1E 4E19
                                E21E27
  21657462.096   113810762.709    21657463.133    88683726.867    21657462.454  
  21657463.401    84988576.595  
  21786320.588   114487912.852    21786320.017    89211371.662    21786319.659  
  21786323.876    85494247.620  
  20371533.887   107053175.998                    83418070.119    20371531.064  
                                
  22551213.569   118507452.774                    92343468.718    22551209.620  
                                
  20395652.815   107179959.373    20395653.834    83516888.065    20395653.530  
  20395653.012    80037029.385  
  22554551.235   118525024.565    22554549.108    92357180.557    22554548.358  
                                
  19301405.061   103321973.675    19301404.793    80361543.339    19301404.543  
                                
  20470989.813   109621245.309    20470988.830    85260979.121    20470988.741  
                                
  20166403.329   107687538.635    20166403.704    83757026.468    20166403.847  
                                
  26169047.953   137519301.966                                                  
  26169051.420   102693009.725  
  27593314.493   145003857.283                                                  
  27593317.513   108282120.994  
  23346602.093   122687257.186                                                  
  23346603.558    91617128.538  
  23477931.013   123377440.098                                                  
  23477933.747    92132560.170  
  25085319.461   131824328.383                                                  
  25085322.463    98440293.263  
 21  8 31  3  5 23.0000000  0 14G 3G 4G16G22G26G31R 7R 8R 9E 1E 4E19
                                E21E27
  21657741.925   113812233.302    21657742.979    88684872.807    21657742.283  
  21657743.230    84989674.765  
  21785847.631   114485427.400    21785847.059    89209434.974    21785846.702  
  21785850.919    85492391.601  
  20371223.949   107051547.347                    83416801.066    20371221.108  
                                
  22551665.620   118509828.404                    92345319.878    22551661.671  
                                
  20395879.359   107181149.923    20395880.359    83517815.796    20395880.056  
  20395879.537    80037918.436  
  22555004.411   118527406.152    22555002.302    92359036.364    22555001.534  
                                
  19301621.831   103323134.117    19301621.563    80362445.930    19301621.312  
                                
  20470481.547   109618523.739    20470480.564    85258862.363    20470480.475  
                                
  20166810.188   107689711.393    20166810.582    83758716.411    20166810.725  
                                
  26168592.936   137516910.611                                                  
  26168596.456   102691223.975  
  27592810.068   145001206.543                                                  
  27592813.088   108280141.559  
  23346446.382   122686439.012                                                  
  23346447.829    91616517.572  
  23477865.398   123377095.021                                                  
  23477868.168    92132302.485  
  25085720.281   131826434.334                                                  
  25085723.319    98441865.891  
 21  8 31  3  5 24.0000000  0 14G 3G 4G16G22G26G31R 7R 8R 9E 1E 4E19
                                E21E27
  21658021.897   113813704.532    21658022.951    88686019.238    21658022.272  
  21658023.201    84990773.417  
  21785374.710   114482942.237    21785374.156    89207498.497    21785373.798  
  21785377.997    85490535.801  
  20370914.136   107049919.420                    83415532.572    20370911.295  
                                
  22552117.760   118512204.462                    92347171.368    22552113.811  
                                
  20396106.009   107182341.124    20396107.010    83518744.016    20396106.706  
  20396106.170    80038807.965  
  22555457.623   118529787.865    22555455.497    92360892.269    22555454.746  
                                
  19301838.760   103324295.477    19301838.492    80363349.224    19301838.242  
                                
  20469973.423   109615802.796    20469972.440    85256746.095    20469972.351  
                                
  20167217.138   107691884.520    20167217.513    83760406.640    20167217.656  
                                
  26168137.884   137514519.564                                                  
  26168141.350   102689438.457  
  27592305.661   144998555.888                                                  
  27592308.681   108278162.189  
  23346290.778   122685621.231                                                  
  23346292.226    91615906.887  
  23477799.783   123376750.394                                                  
  23477802.499    92132045.129  
  25086121.012   131828540.525                                                  
  25086124.014    98443438.701  
 21  8 31  3  5 25.0000000  0 14G 3G 4G16G22G26G31R 7R 8R 9E 1E 4E19
                                E21E27
  21658301.976   113815176.363    21658303.030    88687166.135    21658302.351  
  21658303.280    84991872.505  
  21784901.859   114480457.316    21784901.306    89205562.211    21784900.948  
  21784905.147    85488680.174  
  20370604.483   107048292.148                    83414264.582    20370601.642  
                                
  22552569.971   118514580.852                    92349023.114    22552566.004  
                                
  20396332.785   107183532.865    20396333.786    83519672.664    20396333.482  
  20396332.946    80039697.902  
  22555910.871   118532169.654    22555908.726    92362748.225    22555907.976  
                                
  19302055.851   103325457.658    19302055.583    80364253.157    19302055.333  
                                
  20469465.407   109613082.416    20469464.424    85254630.264    20469464.335  
                                
  20167624.158   107694058.011    20167624.516    83762097.149    20167624.676  
                                
  26167682.921   137512128.734                                                  
  26167686.387   102687653.094  
  27591801.272   144995905.271                                                  
  27591804.274   108276182.839  
  23346135.211   122684803.767                                                  
  23346136.676    91615296.444  
  23477734.257   123376406.127                                                  
  23477736.973    92131788.049  
  25086521.849   131830646.896                                                  
  25086524.851    98445011.644  
 21  8 31  3  5 26.0000000  0 14G 3G 4G16G22G26G31R 7R 8R 9E 1E 4E19
                                E21E27
  21658582.144   113816648.617    21658583.199    88688313.355    21658582.520  
  21658583.449    84992971.914  
  21784429.009   114477972.472    21784428.455    89203625.983    21784428.098  
  21784432.297    85486824.616  
  20370294.903   107046665.358                    83412996.966    20370292.044  
                                
  22553022.200   118516957.429                    92350875.004    22553018.233  
                                
  20396559.632   107184725.014    20396560.633    83520601.625    20396560.329  
  20396559.793    80040588.143  
  22556364.083   118534551.367    22556361.938    92364604.116    22556361.188  
                                
  19302273.067   103326620.501    19302272.799    80365157.599    19302272.549  
                                
  20468957.462   109610362.457    20468956.461    85252514.755    20468956.372  
                                
  20168031.179   107696231.631    20168031.554    83763787.754    20168031.697  
                                
  26167227.957   137509737.974                                                  
  26167231.424   102685867.787  
  27591296.830   144993254.531                                                  
  27591299.832   108274203.394  
  23345979.679   122683986.462                                                  
  23345981.126    91614686.120  
  23477668.785   123376062.090                                                  
  23477671.519    92131531.135  
  25086922.670   131832753.299                                                  
  25086925.689    98446584.610  
 21  8 31  3  5 27.0000000  0 14G 3G 4G16G22G26G31R 7R 8R 9E 1E 4E19
                                E21E27
  21658862.420   113818121.537    21658863.474    88689461.090    21658862.795  
  21658863.725    84994071.823  
  21783956.213   114475487.951    21783955.641    89201690.001    21783955.284  
  21783959.483    85484969.294  
  20369985.465   107045039.298                    83411729.909    20369982.606  
                                
  22553474.537   118519334.444                    92352727.226    22553470.570  
                                
  20396786.605   107185917.809    20396787.605    83521531.082    20396787.284  
  20396786.748    80041478.873  
  22556817.331   118536933.232    22556815.186    92366460.120    22556814.418  
                                
  19302490.479   103327784.260    19302490.194    80366062.748    19302489.943  
                                
  20468449.660   109607643.165    20468448.660    85250399.752    20468448.570  
                                
  20168438.325   107698405.679    20168438.682    83765478.688    20168438.825  
                                
  26166773.137   137507347.540                                                  
  26166776.622   102684082.725  
  27590792.441   144990603.914                                                  
  27590795.443   108272224.031  
  23345824.236   122683169.579                                                  
  23345825.701    91614076.110  
  23477603.438   123375718.504                                                  
  23477606.190    92131274.566  
  25087323.597   131834859.966                                                  
  25087326.617    98448157.774  
 21  8 31  3  5 28.0000000  0 14G 3G 4G16G22G26G31R 7R 8R 9E 1E 4E19
                                E21E27
  21659142.857   113819595.208    21659143.911    88690609.387    21659143.232  
  21659144.161    84995172.292  
  21783483.506   114473003.844    21783482.934    89199754.315    21783482.577  
  21783486.794    85483114.278  
  20369676.223   107043414.074                    83410463.487    20369673.364  
                                
  22553926.962   118521711.966                    92354579.827    22553923.013  
                                
  20397013.738   107187111.357    20397014.739    83522461.100    20397014.435  
  20397013.899    80042370.153  
  22557270.650   118539315.356    22557268.505    92368316.302    22557267.755  
                                
  19302708.088   103328949.043    19302707.820    80366968.673    19302707.570  
                                
  20467941.983   109604924.647    20467941.001    85248285.336    20467940.911  
                                
  20168845.542   107700580.214    20168845.917    83767169.972    20168846.060  
                                
  26166318.353   137504957.505                                                  
  26166321.873   102682297.958  
  27590288.088   144987953.488                                                  
  27590291.090   108270244.821  
  23345668.883   122682353.183                                                  
  23345670.348    91613466.457  
  23477538.198   123375375.467                                                  
  23477540.986    92131018.400  
  25087724.578   131836966.994                                                  
  25087727.633    98449731.200  
 21  8 31  3  5 29.0000000  0 14G 3G 4G16G22G26G31R 7R 8R 9E 1E 4E19
                                E21E27
  21659423.436   113821069.587    21659424.472    88691758.226    21659423.793  
  21659424.723    84996273.302  
  21783010.870   114470520.088    21783010.280    89197818.889    21783009.941  
  21783014.140    85481259.533  
  20369367.107   107041789.599                    83409197.623    20369364.266  
                                
  22554379.513   118524089.973                    92356432.780    22554375.564  
                                
  20397241.032   107188305.558    20397242.033    83523391.611    20397241.729  
  20397241.211    80043261.936  
  22557724.005   118541697.644    22557721.878    92370172.600    22557721.128  
                                
  19302925.858   103330114.781    19302925.608    80367875.324    19302925.358  
                                
  20467434.503   109602206.839    20467433.520    85246171.440    20467433.431  
                                
  20169252.866   107702755.211    20169253.241    83768861.599    20169253.402  
                                
  26165863.586   137502567.817                                                  
  26165867.106   102680513.451  
  27589783.753   144985303.203                                                  
  27589786.755   108268265.714  
  23345513.601   122681537.225                                                  
  23345515.066    91612857.140  
  23477473.012   123375032.923                                                  
  23477475.782    92130762.606  
  25088125.594   131839074.332                                                  
  25088128.650    98451304.856  
 21  8 31  3  5 30.0000000  0 14G 3G 4G16G22G26G31R 7R 8R 9E 1E 4E19
                                E21E27
  21659704.087   113822544.440    21659705.123    88692907.446    21659704.444  
  21659705.373    84997374.652  
  21782538.234   114468036.462    21782537.645    89195883.580    21782537.305  
  21782541.522    85479404.879  
  20369058.098   107040165.678                    83407932.214    20369055.257  
                                
  22554832.100   118526468.211                    92358285.935    22554828.151  
                                
  20397468.362   107189500.227    20397469.380    83524322.502    20397469.076  
  20397468.558    80044154.051  
  22558177.360   118544079.917    22558175.233    92372028.899    22558174.465  
                                
  19303143.789   103331281.222    19303143.521    80368782.540    19303143.271  
                                
  20466927.059   109599489.487    20466926.076    85244057.929    20466925.986  
                                
  20169660.244   107704930.402    20169660.619    83770553.402    20169660.762  
                                
  26165408.837   137500178.242                                                  
  26165412.322   102678729.035  
  27589279.399   144982652.832                                                  
  27589282.401   108266286.546  
  23345358.391   122680721.480                                                  
  23345359.838    91612247.980  
  23477407.844   123374690.643                                                  
  23477410.595    92130507.007  
  25088526.593   131841181.730                                                  
  25088529.631    98452878.559  
 21  8 31  3  5 31.0000000  0 14G 3G 4G16G22G26G31R 7R 8R 9E 1E 4E19
                                E21E27
  21659984.845   113824019.875    21659985.881    88694057.140    21659985.202  
  21659986.149    84998476.442  
  21782065.670   114465553.065    21782065.081    89193948.475    21782064.741  
  21782068.958    85477550.394  
  20368749.196   107038542.397                    83406667.329    20368746.355  
                                
  22555284.704   118528846.775                    92360139.373    22555280.755  
                                
  20397695.798   107190695.437    20397696.817    83525253.841    20397696.513  
  20397695.995    80045046.584  
  22558630.679   118546462.258    22558628.553    92373885.277    22558627.802  
                                
  19303361.845   103332448.483    19303361.576    80369690.418    19303361.326  
                                
  20466419.703   109596772.701    20466418.721    85241944.884    20466418.631  
                                
  20170067.622   107707105.918    20170068.015    83772245.477    20170068.158  
                                
  26164954.142   137497788.897                                                  
  26164957.591   102676944.786  
  27588775.046   144980002.500                                                  
  27588778.030   108264307.402  
  23345203.198   122679906.038                                                  
  23345204.663    91611639.050  
  23477342.747   123374348.724                                                  
  23477345.463    92130251.676  
  25088927.610   131843289.301                                                  
  25088930.612    98454452.395  
 21  8 31  3  5 32.0000000  0 14G 3G 4G16G22G26G31R 7R 8R 9E 1E 4E19
                                E21E27
  21660265.674   113825495.724    21660266.729    88695207.182    21660266.050  
  21660266.979    84999578.537  
  21781593.106   114463069.744    21781592.534    89192013.449    21781592.195  
  21781596.394    85475695.968  
  20368440.366   107036919.611                    83405402.849    20368437.525  
                                
  22555737.363   118531225.545                    92361992.991    22555733.396  
                                
  20397923.307   107191891.069    20397924.325    83526185.534    20397924.004  
  20397923.486    80045939.427  
  22559083.998   118548844.510    22559081.854    92375741.608    22559081.103  
                                
  19303580.007   103333616.439    19303579.739    80370598.857    19303579.489  
                                
  20465912.438   109594056.354    20465911.455    85239832.200    20465911.365  
                                
  20170475.036   107709281.598    20170475.411    83773937.705    20170475.572  
                                
  26164499.465   137495399.631                                                  
  26164502.931   102675160.596  
  27588270.675   144977352.042                                                  
  27588273.677   108262328.165  
  23345048.077   122679090.784                                                  
  23345049.525    91611030.250  
  23477277.721   123374007.034                                                  
  23477280.455    92129996.520  
  25089328.680   131845396.901                                                  
  25089331.682    98456026.254  
 21  8 31  3  5 33.0000000  0 14G 3G 4G16G22G26G31R 7R 8R 9E 1E 4E19
                                E21E27
  21660546.611   113826971.907    21660547.648    88696357.475    21660546.969  
  21660547.898    85000680.875  
  21781120.524   114460586.376    21781119.952    89190078.375    21781119.613  
  21781123.812    85473841.509  
  20368131.625   107035297.202                    83404138.652    20368128.784  
                                
  22556190.021   118533604.382                    92363846.647    22556186.054  
                                
  20398150.869   107193086.974    20398151.870    83527117.425    20398151.548  
  20398151.030    80046832.473  
  22559537.282   118551226.563    22559535.137    92377597.767    22559534.387  
                                
  19303798.278   103334784.955    19303798.010    80371507.719    19303797.741  
                                
  20465405.208   109591340.319    20465404.225    85237719.749    20465404.135  
                                
  20170882.485   107711457.331    20170882.860    83775629.958    20170883.003  
                                
  26164044.770   137493010.306                                                  
  26164048.236   102673376.364  
  27587766.268   144974701.310                                                  
  27587769.252   108260348.736  
  23344892.921   122678275.553                                                  
  23344894.386    91610421.480  
  23477212.714   123373665.429                                                  
  23477215.448    92129741.430  
  25089729.732   131847504.404                                                  
  25089732.716    98457600.043  
 21  8 31  3  5 34.0000000  0 14G 3G 4G16G22G26G31R 7R 8R 9E 1E 4E19
                                E21E27
  21660827.655   113828448.797    21660828.710    88697508.299    21660828.030  
  21660828.942    85001783.738  
  21780648.049   114458103.410    21780647.477    89188143.606    21780647.138  
  21780651.337    85471987.342  
  20367823.027   107033675.602                    83402875.081    20367820.186  
                                
  22556642.786   118535983.700                    92365700.675    22556638.819  
                                
  20398378.574   107194283.601    20398379.575    83528049.873    20398379.253  
  20398378.735    80047726.053  
  22559990.601   118553608.837    22559988.457    92379454.100    22559987.706  
                                
  19304016.744   103335954.439    19304016.458    80372417.327    19304016.208  
                                
  20464898.138   109588625.019    20464897.138    85235607.861    20464897.048  
                                
  20171290.006   107713633.536    20171290.381    83777322.571    20171290.524  
                                
  26163590.199   137490621.398                                                  
  26163593.648   102671592.428  
  27587261.879   144972050.796                                                  
  27587264.864   108258369.445  
  23344737.907   122677460.818                                                  
  23344739.354    91609813.070  
  23477147.814   123373324.358                                                  
  23477150.530    92129486.730  
  25090130.820   131849612.242                                                  
  25090133.822    98459174.085  
 21  8 31  3  5 35.0000000  0 14G 3G 4G16G22G26G31R 7R 8R 9E 1E 4E19
                                E21E27
  21661108.878   113829926.682    21661109.932    88698659.900    21661109.253  
  21661110.164    85002887.350  
  21780175.664   114455621.069    21780175.092    89186209.317    21780174.735  
  21780178.952    85470133.650  
  20367514.661   107032055.041                    83401612.311    20367511.802  
                                
  22557095.694   118538363.764                    92367555.267    22557091.727  
                                
  20398606.457   107195481.176    20398607.440    83528983.050    20398607.137  
  20398606.600    80048620.348  
  22560444.027   118555991.579    22560441.883    92381310.785    22560441.115  
                                
  19304235.443   103337125.125    19304235.157    80373327.860    19304234.907  
                                
  20464391.248   109585910.694    20464390.265    85233496.719    20464390.158  
                                
  20171697.670   107715810.453    20171698.045    83779015.727    20171698.188  
                                
  26163135.755   137488233.092                                                  
  26163139.221   102669808.959  
  27586757.580   144969400.693                                                  
  27586760.564   108256390.472  
  23344582.982   122676646.781                                                  
  23344584.448    91609205.190  
  23477083.092   123372984.056                                                  
  23477085.844    92129232.608  
  25090532.069   131851720.661                                                  
  25090535.107    98460748.551  
 21  8 31  3  5 36.0000000  0 14G 3G 4G16G22G26G31R 7R 8R 9E 1E 4E19
                                E21E27
  21661390.279   113831405.480    21661391.334    88699812.187    21661390.655  
  21661391.584    85003991.651  
  21779703.385   114453139.306    21779702.814    89184275.455    21779702.456  
  21779706.673    85468280.393  
  20367206.474   107030435.472                    83400350.289    20367203.633  
                                
  22557548.745   118540744.517                    92369410.384    22557544.796  
                                
  20398834.538   107196679.652    20398835.538    83529916.909    20398835.235  
  20398834.699    80049515.323  
  22560897.543   118558374.724    22560895.399    92383167.755    22560894.631  
                                
  19304454.374   103338296.974    19304454.106    80374239.279    19304453.856  
                                
  20463884.572   109583197.293    20463883.589    85231386.277    20463883.499  
                                
  20172105.477   107717988.045    20172105.852    83780709.388    20172106.013  
                                
  26162681.345   137485845.360                                                  
  26162684.812   102668025.913  
  27586253.370   144966750.951                                                  
  27586256.336   108254411.773  
  23344428.219   122675833.414                                                  
  23344429.684    91608597.801  
  23477018.442   123372644.464                                                  
  23477021.158    92128979.021  
  25090933.354   131853829.599                                                  
  25090936.356    98462323.407  
 21  8 31  3  5 37.0000000  0 14G 3G 4G16G22G26G31R 7R 8R 9E 1E 4E19
                                E21E27
  21661671.806   113832884.838    21661672.860    88700964.938    21661672.181  
  21661673.092    85005096.369  
  21779231.179   114450657.764    21779230.607    89182341.787    21779230.249  
  21779234.467    85466427.290  
  20366898.412   107028816.540                    83399088.788    20366895.553  
                                
  22558001.850   118543125.602                    92371265.774    22557997.883  
                                
  20399062.689   107197878.667    20399063.690    83530851.211    20399063.386  
  20399062.868    80050410.694  
  22561351.041   118560757.928    22561348.897    92385024.797    22561348.146  
                                
  19304673.413   103339469.656    19304673.145    80375151.368    19304672.895  
                                
  20463377.967   109580484.456    20463376.984    85229276.301    20463376.877  
                                
  20172513.319   107720165.916    20172513.713    83782403.291    20172513.856  
                                
  26162227.007   137483457.826                                                  
  26162230.456   102666243.014  
  27585749.124   144964101.214                                                  
  27585752.090   108252433.078  
  23344273.491   122675020.343                                                  
  23344274.938    91607990.642  
  23476953.881   123372305.224                                                  
  23476956.597    92128725.695  
  25091334.710   131855938.710                                                  
  25091337.712    98463898.391  
 21  8 31  3  5 38.0000000  0 14G 3G 4G16G22G26G31R 7R 8R 9E 1E 4E19
                                E21E27
  21661953.386   113834364.695    21661954.440    88702118.080    21661953.761  
  21661954.690    85006201.461  
  21778758.972   114448176.365    21778758.400    89180408.241    21778758.043  
  21778762.260    85464574.306  
  20366590.422   107027198.156                    83397827.716    20366587.581  
                                
  22558454.991   118545506.930                    92373121.364    22558451.042  
                                
  20399290.930   107199078.156    20399291.931    83531785.884    20399291.627  
  20399291.091    80051306.413  
  22561804.539   118563141.117    22561802.395    92386881.834    22561801.644  
                                
  19304892.630   103340643.101    19304892.362    80376064.054    19304892.112  
                                
  20462871.452   109577772.117    20462870.451    85227166.710    20462870.362  
                                
  20172921.216   107722344.065    20172921.591    83784097.411    20172921.734  
                                
  26161772.723   137481070.458                                                  
  26161776.172   102664460.242  
  27585244.896   144961451.440                                                  
  27585247.862   108250454.346  
  23344118.817   122674207.504                                                  
  23344120.282    91607383.651  
  23476889.374   123371966.272                                                  
  23476892.090    92128472.581  
  25091736.084   131858047.904                                                  
  25091739.068    98465473.442  
 21  8 31  3  5 39.0000000  0 14G 3G 4G16G22G26G31R 7R 8R 9E 1E 4E19
                                E21E27
  21662235.091   113835844.931    21662236.145    88703271.526    21662235.466  
  21662236.378    85007306.825  
  21778286.765   114445694.975    21778286.211    89178474.702    21778285.854  
  21778290.053    85462721.325  
  20366282.521   107025580.198                    83396566.988    20366279.680  
                                
  22558908.185   118547888.391                    92374977.052    22558904.218  
                                
  20399519.261   107200277.984    20399520.261    83532720.825    20399519.940  
  20399519.422    80052202.389  
  22562258.019   118565524.162    22562255.857    92388738.771    22562255.107  
                                
  19305111.937   103341817.153    19305111.669    80376977.213    19305111.418  
                                
  20462364.990   109575060.142    20462364.007    85225057.401    20462363.918  
                                
  20173329.130   107724522.294    20173329.505    83785791.601    20173329.648  
                                
  26161318.403   137478683.050                                                  
  26161321.852   102662677.461  
  27584740.632   144958801.439                                                  
  27584743.598   108248475.462  
  23343964.142   122673394.761                                                  
  23343965.608    91606776.740  
  23476824.920   123371627.472                                                  
  23476827.636    92128219.577  
  25092137.422   131860157.047                                                  
  25092140.424    98467048.457  
 21  8 31  3  5 40.0000000  0 14G 3G 4G16G22G26G31R 7R 8R 9E 1E 4E19
                                E21E27
  21662516.850   113837325.574    21662517.904    88704425.268    21662517.225  
  21662518.136    85008412.505  
  21777814.612   114443213.687    21777814.040    89176541.227    21777813.701  
  21777817.900    85460868.413  
  20365974.745   107023962.757                    83395306.633    20365971.903  
                                
  22559361.397   118550270.065                    92376832.893    22559357.430  
                                
  20399747.663   107201478.229    20399748.663    83533656.072    20399748.342  
  20399747.823    80053098.676  
  22562711.481   118567907.124    22562709.337    92390595.618    22562708.569  
                                
  19305331.404   103342991.895    19305331.136    80377890.894    19305330.886  
                                
  20461858.635   109572348.604    20461857.653    85222948.415    20461857.563  
                                
  20173737.062   107726700.717    20173737.437    83787485.921    20173737.580  
                                
  26160864.137   137476295.753                                                  
  26160867.622   102660894.750  
  27584236.314   144956151.336                                                  
  27584239.281   108246496.498  
  23343809.522   122672582.209                                                  
  23343810.987    91606169.955  
  23476760.538   123371288.898                                                  
  23476763.290    92127966.746  
  25092538.850   131862266.244                                                  
  25092541.888    98468623.497  
 21  8 31  3  5 41.0000000  0 14G 3G 4G16G22G26G31R 7R 8R 9E 1E 4E19
                                E21E27
  21662798.734   113838806.922    21662799.788    88705579.537    21662799.109  
  21662800.020    85009518.713  
  21777342.494   114440732.749    21777341.923    89174607.996    21777341.565  
  21777345.782    85459015.771  
  20365667.129   107022346.081                    83394046.858    20365664.288  
                                
  22559814.716   118552652.171                    92378689.050    22559810.767  
                                
  20399976.207   107202679.146    20399977.226    83534591.826    20399976.904  
  20399976.386    80053995.471  
  22563164.997   118570290.275    22563162.853    92392452.589    22563162.102  
                                
  19305551.050   103344167.570    19305550.782    80378805.285    19305550.532  
                                
  20461352.424   109569637.771    20461351.441    85220839.969    20461351.352  
                                
  20174145.101   107728879.558    20174145.494    83789180.552    20174145.637  
                                
  26160409.924   137473908.814                                                  
  26160413.391   102659112.289  
  27583732.051   144953501.382                                                  
  27583735.017   108244517.643  
  23343654.990   122671770.086                                                  
  23343656.456    91605563.504  
  23476696.192   123370950.817                                                  
  23476698.944    92127714.287  
  25092940.277   131864375.731                                                  
  25092943.297    98470198.768  
 21  8 31  3  5 42.0000000  0 14G 3G 4G16G22G26G31R 7R 8R 9E 1E 4E19
                                E21E27
  21663080.689   113840288.663    21663081.743    88706734.122    21663081.064  
  21663081.993    85010625.201  
  21776870.395   114438251.846    21776869.823    89172674.813    21776869.466  
  21776873.683    85457163.151  
  20365359.586   107020729.852                    83392787.442    20365356.744  
                                
  22560268.071   118555034.436                    92380545.342    22560264.122  
                                
  20400204.824   107203880.421    20400205.824    83535527.864    20400205.521  
  20400205.002    80054892.521  
  22563618.495   118572673.297    22563616.351    92394309.475    22563615.600  
                                
  19305770.785   103345343.863    19305770.535    80379720.161    19305770.285  
                                
  20460846.284   109566927.321    20460845.301    85218731.827    20460845.212  
                                
  20174553.176   107731058.527    20174553.569    83790875.289    20174553.712  
                                
  26159955.712   137471521.907                                                  
  26159959.178   102657329.854  
  27583227.733   144950851.249                                                  
  27583230.699   108242538.652  
  23343500.459   122670958.080                                                  
  23343501.924    91604957.136  
  23476631.899   123370612.904                                                  
  23476634.651    92127461.947  
  25093341.687   131866485.206                                                  
  25093344.707    98471774.021  
 21  8 31  3  5 43.0000000  0 14G 3G 4G16G22G26G31R 7R 8R 9E 1E 4E19
                                E21E27
  21663362.751   113841770.944    21663363.806    88707889.135    21663363.127  
  21663364.056    85011732.103  
  21776398.331   114435771.154    21776397.759    89170741.795    21776397.402  
  21776401.619    85455310.680  
  20365052.149   107019114.253                    83391528.527    20365049.326  
                                
  22560721.444   118557417.017                    92382401.892    22560717.513  
                                
  20400433.511   107205082.225    20400434.530    83536464.330    20400434.208  
  20400433.708    80055789.974  
  22564071.975   118575056.342    22564069.831    92396166.386    22564069.080  
                                
  19305990.682   103346520.940    19305990.431    80380635.658    19305990.181  
                                
  20460340.233   109564217.398    20460339.250    85216624.102    20460339.161  
                                
  20174961.286   107733237.794    20174961.679    83792570.267    20174961.822  
                                
  26159501.535   137469135.191                                                  
  26159505.001   102655547.559  
  27582723.451   144948201.128                                                  
  27582726.400   108240559.668  
  23343345.981   122670146.353                                                  
  23343347.447    91604350.983  
  23476567.642   123370275.334                                                  
  23476570.394    92127209.868  
  25093743.133   131868594.813                                                  
  25093746.153    98473349.383  
 21  8 31  3  5 44.0000000  0 14G 3G 4G16G22G26G31R 7R 8R 9E 1E 4E19
                                E21E27
  21663645.010   113843254.204    21663646.065    88709044.925    21663645.386  
  21663646.315    85012839.738  
  21775926.392   114433291.076    21775925.803    89168809.276    21775925.463  
  21775929.680    85453458.682  
  20364744.909   107017499.678                    83390270.417    20364742.068  
                                
  22561174.978   118559800.309                    92384259.009    22561171.029  
                                
  20400662.396   107206284.982    20400663.414    83537401.543    20400663.111  
  20400662.592    80056688.138  
  22564525.545   118577439.862    22564523.400    92398023.677    22564522.650  
                                
  19306210.810   103347699.254    19306210.560    80381552.120    19306210.310  
                                
  20459834.343   109561508.458    20459833.360    85214517.154    20459833.271  
                                
  20175369.522   107735417.756    20175369.915    83794265.800    20175370.058  
                                
  26159047.465   137466749.120                                                  
  26159050.932   102653765.736  
  27582219.205   144945551.427                                                  
  27582222.154   108238580.990  
  23343191.664   122669335.368                                                  
  23343193.130    91603745.366  
  23476503.564   123369938.530                                                  
  23476506.316    92126958.360  
  25094144.685   131870705.016                                                  
  25094147.705    98474925.173  
 21  8 31  3  5 45.0000000  0 14G 3G 4G16G22G26G31R 7R 8R 9E 1E 4E19
                                E21E27
  21663927.341   113844737.818    21663928.395    88710200.992    21663927.716  
  21663928.645    85013947.628  
  21775454.471   114430811.012    21775453.882    89166876.761    21775453.524  
  21775457.741    85451606.690  
  20364437.759   107015885.544                    83389012.655    20364434.917  
                                
  22561628.529   118562183.738                    92386116.229    22561624.598  
                                
  20400891.334   107207488.079    20400892.352    83538339.024    20400892.031  
  20400891.530    80057586.553  
  22564979.078   118579823.227    22564976.934    92399880.852    22564976.183  
                                
  19306431.046   103348878.163    19306430.778    80382469.052    19306430.528  
                                
  20459328.525   109558799.871    20459327.542    85212410.480    20459327.452  
                                
  20175777.776   107737597.828    20175778.169    83795961.414    20175778.312  
                                
  26158593.377   137464363.024                                                  
  26158596.826   102651983.917  
  27581714.942   144942901.532                                                  
  27581717.890   108236602.164  
  23343037.348   122668524.463                                                  
  23343038.813    91603139.822  
  23476439.450   123369601.875                                                  
  23476442.166    92126706.958  
  25094546.184   131872815.160                                                  
  25094549.186    98476500.933  
 21  8 31  3  5 46.0000000  0 14G 3G 4G16G22G26G31R 7R 8R 9E 1E 4E19
                                E21E27
  21664209.797   113846222.117    21664210.851    88711357.616    21664210.172  
  21664211.101    85015056.027  
  21774982.586   114428331.306    21774982.014    89164944.548    21774981.675  
  21774985.874    85449754.958  
  20364130.697   107014272.155                    83387755.498    20364127.856  
                                
  22562082.152   118564567.617                    92387973.822    22562078.203  
                                
  20401120.379   107208691.828    20401121.380    83539277.040    20401121.076  
  20401120.558    80058485.457  
  22565432.630   118582206.765    22565430.485    92401738.186    22565429.735  
                                
  19306651.424   103350058.011    19306651.174    80383386.734    19306650.924  
                                
  20458822.831   109556091.972    20458821.848    85210304.361    20458821.759  
                                
  20176186.101   107739778.321    20176186.494    83797657.374    20176186.637  
                                
  26158139.379   137461977.261                                                  
  26158142.810   102650202.346  
  27581210.713   144940251.743                                                  
  27581213.662   108234623.436  
  23342883.120   122667713.983                                                  
  23342884.585    91602534.589  
  23476375.461   123369265.690                                                  
  23476378.177    92126455.911  
  25094947.791   131874925.580                                                  
  25094950.775    98478076.898  
 21  8 31  3  5 47.0000000  0 14G 3G 4G16G22G26G31R 7R 8R 9E 1E 4E19
                                E21E27
  21664492.395   113847707.259    21664493.450    88712514.886    21664492.771  
  21664493.700    85016165.069  
  21774510.808   114425852.079    21774510.219    89163012.698    21774509.879  
  21774514.096    85447903.595  
  20363823.850   107012659.684                    83386499.046    20363820.991  
                                
  22562535.882   118566952.108                    92389831.883    22562531.933  
                                
  20401349.585   107209896.405    20401350.585    83540215.689    20401350.264  
  20401349.746    80059384.987  
  22565886.235   118584590.640    22565884.091    92403595.767    22565883.340  
                                
  19306872.035   103351238.983    19306871.767    80384305.279    19306871.517  
                                
  20458317.317   109553384.934    20458316.316    85208198.901    20458316.227  
                                
  20176594.533   107741959.418    20176594.926    83799353.797    20176595.069  
                                
  26157685.506   137459592.010                                                  
  26157688.973   102648421.156  
  27580706.521   144937602.279                                                  
  27580709.470   108232644.939  
  23342729.018   122666904.090                                                  
  23342730.483    91601929.803  
  23476311.651   123368930.147                                                  
  23476314.402    92126205.345  
  25095349.504   131877036.461                                                  
  25095352.506    98479653.209  
 21  8 31  3  5 48.0000000  0 14G 3G 4G16G22G26G31R 7R 8R 9E 1E 4E19
                                E21E27
  21664775.083   113849192.794    21664776.138    88713672.430    21664775.458  
  21664776.388    85017274.392  
  21774039.030   114423372.910    21774038.458    89161080.865    21774038.119  
  21774042.318    85446052.264  
  20363517.111   107011047.683                    83385242.927    20363514.270  
                                
  22562989.684   118569336.732                    92391690.018    22562985.717  
                                
  20401578.880   107211101.345    20401579.881    83541154.592    20401579.577  
  20401579.059    80060284.775  
  22566339.876   118586974.396    22566337.714    92405453.225    22566336.963  
                                
  19307092.771   103352420.573    19307092.521    80385224.285    19307092.271  
                                
  20457811.856   109550678.279    20457810.873    85206093.714    20457810.783  
                                
  20177003.019   107744140.615    20177003.412    83801050.272    20177003.555  
                                
  26157231.633   137457206.775                                                  
  26157235.081   102646639.976  
  27580202.329   144934952.613                                                  
  27580205.277   108230666.283  
  23342574.915   122666094.317                                                  
  23342576.380    91601325.103  
  23476247.840   123368594.775                                                  
  23476250.592    92125954.905  
  25095751.200   131879147.319                                                  
  25095754.202    98481229.492  
 21  8 31  3  5 49.0000000  0 14G 3G 4G16G22G26G31R 7R 8R 9E 1E 4E19
                                E21E27
  21665057.914   113850679.007    21665058.968    88714830.520    21665058.289  
  21665059.201    85018384.233  
  21773567.324   114420894.070    21773566.752    89159149.308    21773566.395  
  21773570.612    85444201.197  
  20363210.496   107009436.410                    83383987.385    20363207.637  
                                
  22563443.539   118571721.825                    92393548.528    22563439.590  
                                
  20401808.318   107212306.948    20401809.319    83542094.016    20401809.015  
  20401808.497    80061185.062  
  22566793.517   118589358.333    22566791.372    92407310.820    22566790.622  
                                
  19307313.686   103353603.090    19307313.418    80386144.018    19307313.168  
                                
  20457306.537   109547972.299    20457305.555    85203989.063    20457305.465  
                                
  20177411.558   107746322.211    20177411.951    83802747.066    20177412.094  
                                
  26156777.742   137454821.902                                                  
  26156781.173   102644859.054  
  27579698.119   144932303.094                                                  
  27579701.067   108228687.755  
  23342420.902   122665284.973                                                  
  23342422.367    91600720.720  
  23476184.084   123368259.884                                                  
  23476186.800    92125704.824  
  25096152.895   131881258.461                                                  
  25096155.880    98482805.999  
 21  8 31  3  5 50.0000000  0 14G 3G 4G16G22G26G31R 7R 8R 9E 1E 4E19
                                E21E27
  21665340.816   113852165.696    21665341.889    88715988.997    21665341.210  
  21665342.121    85019494.421  
  21773095.635   114418415.368    21773095.046    89157217.870    21773094.706  
  21773098.905    85442350.220  
  20362903.971   107007825.685                    83382732.296    20362901.112  
                                
  22563897.448   118574107.144                    92395407.236    22563893.499  
                                
  20402037.810   107213513.001    20402038.811    83543033.818    20402038.489  
  20402037.971    80062085.689  
  22567247.158   118591742.232    22567244.995    92409168.422    22567244.245  
                                
  19307534.708   103354786.324    19307534.440    80387064.330    19307534.190  
                                
  20456801.309   109545266.810    20456800.308    85201884.810    20456800.219  
                                
  20177820.133   107748504.027    20177820.509    83804444.053    20177820.669  
                                
  26156323.940   137452437.129                                                  
  26156327.371   102643078.223  
  27579193.926   144929653.504                                                  
  27579196.857   108226709.167  
  23342266.925   122664475.837                                                  
  23342268.390    91600116.497  
  23476120.398   123367925.254                                                  
  23476123.097    92125454.940  
  25096554.645   131883369.679                                                  
  25096557.629    98484382.556  
 21  8 31  3  5 51.0000000  0 14G 3G 4G16G22G26G31R 7R 8R 9E 1E 4E19
                                E21E27
  21665623.862   113853653.053    21665624.916    88717147.986    21665624.237  
  21665625.148    85020605.112  
  21772624.000   114415936.986    21772623.428    89155286.677    21772623.089  
  21772627.288    85440499.487  
  20362597.589   107006215.679                    83381477.757    20362594.730  
                                
  22564351.429   118576492.883                    92397266.260    22564347.480  
                                
  20402267.427   107214719.702    20402268.410    83543974.111    20402268.106  
  20402267.570    80062986.799  
  22567700.798   118594126.289    22567698.636    92411026.140    22567697.886  
                                
  19307755.909   103355970.477    19307755.641    80387985.344    19307755.391  
                                
  20456296.187   109542562.012    20456295.204    85199781.085    20456295.097  
                                
  20178228.798   107750686.282    20178229.173    83806141.369    20178229.334  
                                
  26155870.192   137450052.664                                                  
  26155873.605   102641297.627  
  27578689.752   144927004.032                                                  
  27578692.700   108224730.661  
  23342113.037   122663667.120                                                  
  23342114.502    91599512.588  
  23476056.803   123367591.088                                                  
  23476059.519    92125205.401  
  25096956.430   131885481.164                                                  
  25096959.414    98485959.319  
 21  8 31  3  5 52.0000000  0 14G 3G 4G16G22G26G31R 7R 8R 9E 1E 4E19
                                E21E27
  21665906.996   113855140.916    21665908.069    88718307.366    21665907.372  
  21665908.283    85021716.173  
  21772152.419   114413458.759    21772151.847    89153355.598    21772151.507  
  21772155.707    85438648.861  
  20362291.314   107004606.240                    83380223.658    20362288.455  
                                
  22564805.463   118578878.875                    92399125.481    22564801.514  
                                
  20402497.133   107215926.872    20402498.116    83544914.773    20402497.812  
  20402497.276    80063888.258  
  22568154.457   118596510.317    22568152.295    92412883.829    22568151.545  
                                
  19307977.270   103357155.370    19307977.002    80388906.933    19307976.734  
                                
  20455791.191   109539857.707    20455790.190    85197677.748    20455790.101  
                                
  20178637.498   107752868.772    20178637.891    83807838.864    20178638.034  
                                
  26155416.497   137447668.351                                                  
  26155419.946   102639517.138  
  27578185.559   144924354.501                                                  
  27578188.490   108222752.115  
  23341959.184   122662858.630                                                  
  23341960.650    91598908.843  
  23475993.314   123367257.207                                                  
  23475996.066    92124956.074  
  25097358.286   131887592.734                                                  
  25097361.288    98487536.143  
 21  8 31  3  5 53.0000000  0 14G 3G 4G16G22G26G31R 7R 8R 9E 1E 4E19
                                E21E27
  21666190.221   113856629.271    21666191.275    88719467.127    21666190.596  
  21666191.507    85022827.614  
  21771680.873   114410980.705    21771680.301    89151424.649    21771679.944  
  21771684.143    85436798.362  
  20361985.164   107002997.391                    83378970.011    20361982.305  
                                
  22565259.568   118581265.147                    92400984.915    22565255.601  
                                
  20402726.947   107217134.536    20402727.930    83545855.811    20402727.626  
  20402727.090    80064790.085  
  22568608.134   118598894.354    22568605.972    92414741.525    22568605.221  
                                
  19308198.757   103358341.020    19308198.489    80389829.100    19308198.221  
                                
  20455286.266   109537153.923    20455285.265    85195574.802    20455285.176  
                                
  20179046.252   107755051.507    20179046.645    83809536.549    20179046.788  
                                
  26154962.785   137445284.211                                                  
  26154966.198   102637736.765  
  27577681.349   144921704.905                                                  
  27577684.280   108220773.538  
  23341805.386   122662050.392                                                  
  23341806.851    91598305.293  
  23475929.790   123366923.630                                                  
  23475932.506    92124706.977  
  25097760.089   131889704.422                                                  
  25097763.073    98489113.055  
 21  8 31  3  5 54.0000000  0 14G 3G 4G16G22G26G31R 7R 8R 9E 1E 4E19
                                E21E27
  21666473.516   113858118.116    21666474.588    88720627.264    21666473.909  
  21666474.820    85023939.410  
  21771209.328   114408502.778    21771208.756    89149493.804    21771208.416  
  21771212.615    85434947.977  
  20361679.121   107001389.107                    83377716.801    20361676.244  
                                
  22565713.710   118583651.679                    92402844.558    22565709.743  
                                
  20402956.832   107218342.674    20402957.833    83546797.225    20402957.511  
  20402956.993    80065692.266  
  22569061.793   118601278.367    22569059.630    92416599.200    22569058.862  
                                
  19308420.368   103359527.390    19308420.100    80390751.837    19308419.850  
                                
  20454781.448   109534450.596    20454780.447    85193472.217    20454780.358  
                                
  20179455.060   107757234.457    20179455.435    83811234.397    20179455.596  
                                
  26154509.162   137442900.210                                                  
  26154512.629   102635956.515  
  27577177.139   144919055.271                                                  
  27577180.069   108218794.915  
  23341651.623   122661242.400                                                  
  23341653.088    91597701.927  
  23475866.390   123366590.339                                                  
  23475869.142    92124458.090  
  25098161.999   131891816.213                                                  
  25098165.001    98490690.032  
 21  8 31  3  5 55.0000000  0 14G 3G 4G16G22G26G31R 7R 8R 9E 1E 4E19
                                E21E27
  21666756.919   113859607.445    21666757.991    88721787.762    21666757.312  
  21666758.223    85025051.571  
  21770737.835   114406025.000    21770737.264    89147563.049    21770736.906  
  21770741.123    85433097.682  
  20361373.167   106999781.355                    83376463.996    20361370.308  
                                
  22566167.886   118586038.447                    92404704.358    22566163.937  
                                
  20403186.842   107219551.256    20403187.843    83547738.957    20403187.521  
  20403187.003    80066594.781  
  22569515.469   118603662.343    22569513.307    92418456.827    22569512.539  
                                
  19308642.141   103360714.495    19308641.873    80391675.130    19308641.623  
                                
  20454276.702   109531747.729    20454275.719    85191369.969    20454275.612  
                                
  20179863.903   107759417.612    20179864.296    83812932.388    20179864.439  
                                
  26154055.521   137440516.317                                                  
  26154058.970   102634176.340  
  27576672.929   144916405.552                                                  
  27576675.859   108216816.227  
  23341497.895   122660434.605                                                  
  23341499.361    91597098.704  
  23475803.027   123366257.308                                                  
  23475805.779    92124209.396  
  25098563.856   131893928.065                                                  
  25098566.858    98492267.058  
 21  8 31  3  5 56.0000000  0 14G 3G 4G16G22G26G31R 7R 8R 9E 1E 4E19
                                E21E27
  21667040.411   113861097.174    21667041.483    88722948.574    21667040.786  
  21667041.715    85026164.031  
  21770266.326   114403547.275    21770265.736    89145632.345    21770265.396  
  21770269.613    85431247.437  
  20361067.339   106998174.088                    83375211.561    20361064.480  
                                
  22566622.117   118588425.384                    92406564.294    22566618.168  
                                
  20403416.906   107220760.220    20403417.906    83548680.990    20403417.585  
  20403417.084    80067497.578  
  22569969.110   118606046.224    22569966.966    92420314.376    22569966.197  
                                
  19308864.038   103361902.264    19308863.770    80392598.934    19308863.520  
                                
  20453772.045   109529045.278    20453771.044    85189268.049    20453770.955  
                                
  20180272.764   107761600.914    20180273.157    83814630.500    20180273.318  
                                
  26153601.862   137438132.491                                                  
  26153605.293   102632396.208  
  27576168.665   144913755.681                                                  
  27576171.578   108214837.440  
  23341344.204   122659626.963                                                  
  23341345.669    91596495.594  
  23475739.663   123365924.474                                                  
  23475742.379    92123960.856  
  25098965.712   131896039.923                                                  
  25098968.696    98493844.097  
 21  8 31  3  5 57.0000000  0 14G 3G 4G16G22G26G31R 7R 8R 9E 1E 4E19
                                E21E27
  21667324.028   113862587.568    21667325.100    88724109.920    21667324.421  
  21667325.332    85027276.979  
  21769794.887   114401069.861    21769794.315    89143701.893    21769793.958  
  21769798.175    85429397.422  
  20360761.618   106996567.533                    83373959.705    20360758.759  
                                
  22567076.419   118590812.725                    92408424.560    22567072.470  
                                
  20403647.077   107221969.814    20403648.077    83549623.529    20403647.773  
  20403647.255    80068400.844  
  22570422.769   118608430.252    22570420.607    92422172.063    22570419.856  
                                
  19309086.097   103363090.921    19309085.829    80393523.449    19309085.578  
                                
  20453267.513   109526343.485    20453266.512    85187166.659    20453266.423  
                                
  20180681.714   107763784.612    20180682.090    83816328.936    20180682.251  
                                
  26153148.329   137435748.968                                                  
  26153151.777   102630616.300  
  27575664.437   144911105.930                                                  
  27575667.349   108212858.727  
  23341190.584   122658819.711                                                  
  23341192.049    91595892.776  
  23475676.443   123365592.089                                                  
  23475679.194    92123712.644  
  25099367.658   131898152.024                                                  
  25099370.660    98495421.320  
 21  8 31  3  5 58.0000000  0 14G 3G 4G16G22G26G31R 7R 8R 9E 1E 4E19
                                E21E27
  21667607.734   113864078.471    21667608.789    88725271.658    21667608.110  
  21667609.021    85028390.328  
  21769323.502   114398592.638    21769322.913    89141771.584    21769322.555  
  21769326.772    85427547.552  
  20360456.022   106994961.600                    83372708.326    20360453.163  
                                
  22567530.793   118593200.359                    92410285.047    22567526.844  
                                
  20403877.355   107223179.922    20403878.355    83550566.468    20403878.052  
  20403877.533    80069304.503  
  22570876.445   118610814.295    22570874.301    92424029.756    22570873.533  
                                
  19309308.298   103364280.355    19309308.030    80394448.555    19309307.780  
                                
  20452763.070   109523642.224    20452762.070    85185065.676    20452761.980  
                                
  20181090.701   107765968.585    20181091.076    83818027.577    20181091.237  
                                
  26152694.813   137433365.632                                                  
  26152698.262   102628836.532  
  27575160.191   144908456.140                                                  
  27575163.103   108210879.997  
  23341037.036   122658012.735                                                  
  23341038.501    91595290.162  
  23475613.258   123365260.027                                                  
  23475615.992    92123464.677  
  25099769.604   131900264.270                                                  
  25099772.606    98496998.640  
 21  8 31  3  5 59.0000000  0 14G 3G 4G16G22G26G31R 7R 8R 9E 1E 4E19
                                E21E27
  21667891.584   113865570.045    21667892.638    88726433.937    21667891.959  
  21667892.870    85029504.171  
  21768852.135   114396115.717    21768851.564    89139841.519    21768851.224  
  21768855.423    85425697.899  
  20360150.533   106993356.363                    83371457.492    20360147.692  
                                
  22567985.220   118595588.387                    92412145.853    22567981.271  
                                
  20404107.758   107224390.658    20404108.759    83551509.903    20404108.437  
  20404107.919    80070208.615  
  22571330.140   118613198.493    22571327.978    92425887.578    22571327.227  
                                
  19309530.660   103365470.680    19309530.392    80395374.368    19309530.142  
                                
  20452258.753   109520941.609    20452257.752    85182965.202    20452257.663  
                                
  20181499.758   107768152.945    20181500.151    83819726.523    20181500.294  
                                
  26152241.315   137430982.561                                                  
  26152244.764   102627056.976  
  27574655.963   144905806.454                                                  
  27574658.858   108208901.329  
  23340883.541   122657206.146                                                  
  23340885.006    91594687.834  
  23475550.144   123364928.390                                                  
  23475552.878    92123217.027  
  25100171.603   131902376.750                                                  
  25100174.605    98498576.146  
 21  8 31  3  6  0.0000000  0 14G 3G 4G16G22G26G31R 7R 8R 9E 1E 4E19
                                E21E27
  21668175.558   113867062.347    21668176.613    88727596.768    21668175.934  
  21668176.845    85030618.554  
  21768380.893   114393639.201    21768380.304    89137911.766    21768379.964  
  21768384.164    85423848.550  
  20359845.241   106991751.947                    83370207.296    20359842.382  
                                
  22568439.736   118597976.937                    92414007.056    22568435.787  
                                
  20404338.286   107225602.095    20404339.287    83552453.878    20404338.983  
  20404338.465    80071113.262  
  22571783.888   118615582.911    22571781.726    92427745.568    22571780.975  
                                
  19309753.201   103366662.015    19309752.933    80396300.955    19309752.683  
                                
  20451754.578   109518241.772    20451753.578    85180865.326    20451753.488  
                                
  20181908.905   107770337.773    20181909.298    83821425.832    20181909.441  
                                
  26151787.853   137428599.897                                                  
  26151791.266   102625277.721  
  27574151.788   144903156.970                                                  
  27574154.701   108206922.805  
  23340730.135   122656400.035                                                  
  23340731.600    91594085.873  
  23475487.102   123364597.311                                                  
  23475489.818    92122969.792  
  25100573.620   131904489.570                                                  
  25100576.587    98500153.910  
 21  8 31  3  6  1.0000000  0 14G 3G 4G16G22G26G31R 7R 8R 9E 1E 4E19
                                E21E27
  21668459.658   113868555.283    21668460.712    88728760.097    21668460.033  
  21668460.944    85031733.402  
  21767909.669   114391162.952    21767909.080    89135982.221    21767908.740  
  21767912.940    85421999.408  
  20359540.056   106990148.230                    83368957.646    20359537.197  
                                
  22568894.342   118600365.862                    92415868.557    22568890.393  
                                
  20404568.939   107226814.136    20404569.940    83553398.330    20404569.618  
  20404569.100    80072018.360  
  22572237.636   118617967.432    22572235.474    92429603.636    22572234.724  
                                
  19309975.920   103367854.211    19309975.652    80397228.221    19309975.402  
                                
  20451250.511   109515542.577    20451249.510    85178765.957    20451249.421  
                                
  20182318.124   107772522.959    20182318.517    83823125.419    20182318.660  
                                
  26151334.516   137426217.504                                                  
  26151337.929   102623498.666  
  27573647.614   144900507.538                                                  
  27573650.509   108204944.346  
  23340576.819   122655594.297                                                  
  23340578.284    91593484.181  
  23475424.168   123364266.619                                                  
  23475426.884    92122722.849  
  25100975.727   131906602.620                                                  
  25100978.693    98501731.832  
 21  8 31  3  6  2.0000000  0 14G 3G 4G16G22G26G31R 7R 8R 9E 1E 4E19
                                E21E27
  21668743.847   113870048.750    21668744.919    88729923.851    21668744.240  
  21668745.133    85032848.660  
  21767438.481   114388686.899    21767437.909    89134052.846    21767437.552  
  21767441.769    85420150.414  
  20359234.996   106988545.124                    83367708.488    20359232.137  
                                
  22569348.984   118602755.093                    92417730.304    22569345.034  
                                
  20404799.664   107228026.712    20404800.665    83554343.206    20404800.361  
  20404799.825    80072923.857  
  22572691.384   118620351.983    22572689.222    92431461.746    22572688.472  
                                
  19310198.765   103369047.209    19310198.497    80398156.117    19310198.247  
                                
  20450746.569   109512843.927    20450745.568    85176667.021    20450745.479  
                                
  20182727.360   107774708.413    20182727.753    83824825.228    20182727.914  
                                
  26150881.232   137423835.321                                                  
  26150884.681   102621719.754  
  27573143.439   144897858.092                                                  
  27573146.334   108202965.868  
  23340423.538   122654788.838                                                  
  23340425.004    91592882.698  
  23475361.358   123363936.283                                                  
  23475364.110    92122476.169  
  25101377.887   131908715.807                                                  
  25101380.889    98503309.864  
 21  8 31  3  6  3.0000000  0 14G 3G 4G16G22G26G31R 7R 8R 9E 1E 4E19
                                E21E27
  21669028.107   113871542.531    21669029.162    88731087.822    21669028.483  
  21669029.394    85033964.142  
  21766967.293   114386210.821    21766966.721    89132123.422    21766966.364  
  21766970.581    85418301.399  
  20358930.007   106986942.389                    83366459.593    20358927.148  
                                
  22569803.643   118605144.380                    92419592.084    22569799.712  
                                
  20405030.461   107229239.555    20405031.461    83555288.267    20405031.157  
  20405030.639    80073829.556  
  22573145.132   118622736.334    22573142.970    92433319.670    22573142.220  
                                
  19310421.735   103370240.756    19310421.467    80399084.423    19310421.216  
                                
  20450242.663   109510145.570    20450241.680    85174568.287    20450241.590  
                                
  20183136.650   107776893.930    20183137.043    83826525.066    20183137.204  
                                
  26150427.913   137421453.080                                                  
  26150431.362   102619940.810  
  27572639.211   144895208.420                                                  
  27572642.106   108200987.215  
  23340270.276   122653983.417                                                  
  23340271.741    91592281.258  
  23475298.513   123363606.031                                                  
  23475301.265    92122229.555  
  25101779.994   131910828.894                                                  
  25101782.978    98504887.819  
 21  8 31  3  6  4.0000000  0 14G 3G 4G16G22G26G31R 7R 8R 9E 1E 4E19
                                E21E27
  21669312.457   113873036.855    21669313.529    88732252.219    21669312.850  
  21669313.761    85035080.033  
  21766496.176   114383734.974    21766495.586    89130194.179    21766495.247  
  21766499.446    85416452.550  
  20358625.144   106985340.289                    83365211.192    20358622.285  
                                
  22570258.392   118607534.036                    92421454.135    22570254.461  
                                
  20405261.382   107230452.964    20405262.383    83556233.766    20405262.061  
  20405261.561    80074735.666  
  22573598.880   118625120.773    22573596.718    92435177.661    22573595.968  
                                
  19310644.865   103371435.155    19310644.597    80400013.388    19310644.347  
                                
  20449738.881   109507447.781    20449737.898    85172469.995    20449737.809  
                                
  20183546.012   107779079.778    20183546.405    83828225.163    20183546.548  
                                
  26149974.576   137419071.059                                                  
  26149977.971   102618162.026  
  27572135.019   144892558.737                                                  
  27572137.914   108199008.573  
  23340117.067   122653178.328                                                  
  23340118.532    91591680.042  
  23475235.685   123363276.155                                                  
  23475238.383    92121983.215  
  25102182.065   131912942.164                                                  
  25102185.013    98506465.905  
 21  8 31  3  6  5.0000000  0 14G 3G 4G16G22G26G31R 7R 8R 9E 1E 4E19
                                E21E27
  21669596.950   113874531.809    21669598.004    88733417.130    21669597.325  
  21669598.236    85036196.399  
  21766025.077   114381259.385    21766024.488    89128265.168    21766024.148  
  21766028.347    85414603.902  
  20358320.406   106983738.887                    83363963.364    20358317.529  
                                
  22570713.194   118609924.045                    92423316.489    22570709.245  
                                
  20405492.393   107231666.951    20405493.393    83557179.742    20405493.072  
  20405492.554    80075642.215  
  22574052.629   118627505.288    22574050.466    92437035.736    22574049.716  
                                
  19310868.139   103372630.412    19310867.871    80400943.042    19310867.620  
                                
  20449235.207   109504750.602    20449234.206    85170372.196    20449234.117  
                                
  20183955.409   107781265.975    20183955.802    83829925.547    20183955.963  
                                
  26149521.364   137416689.303                                                  
  26149524.777   102616383.448  
  27571630.809   144889909.135                                                  
  27571633.686   108197029.979  
  23339963.929   122652373.576                                                  
  23339965.394    91591079.097  
  23475172.983   123362946.669                                                  
  23475175.699    92121737.172  
  25102584.261   131915055.642                                                  
  25102587.227    98508044.151  
 21  8 31  3  6  6.0000000  0 14G 3G 4G16G22G26G31R 7R 8R 9E 1E 4E19
                                E21E27
  21669881.585   113876027.642    21669882.658    88734582.732    21669881.979  
  21669882.890    85037313.413  
  21765554.086   114378784.330    21765553.496    89126336.576    21765553.156  
  21765557.356    85412755.652  
  20358015.828   106982138.416                    83362716.262    20358012.951  
                                
  22571168.104   118612314.690                    92425179.352    22571164.155  
                                
  20405723.546   107232881.789    20405724.547    83558126.390    20405724.225  
  20405723.707    80076549.402  
  22574506.448   118629890.170    22574504.268    92438894.104    22574503.518  
                                
  19311091.626   103373826.778    19311091.358    80401873.562    19311091.108  
                                
  20448731.676   109502054.308    20448730.675    85168275.102    20448730.586  
                                
  20184364.895   107783452.768    20184365.288    83831626.403    20184365.431  
                                
  26149068.223   137414308.053                                                  
  26149071.618   102614605.254  
  27571126.652   144887259.853                                                  
  27571129.547   108195051.623  
  23339810.899   122651569.431                                                  
  23339812.364    91590478.602  
  23475110.423   123362617.850                                                  
  23475113.139    92121491.625  
  25102986.528   131917169.577                                                  
  25102989.494    98509622.746  
 21  8 31  3  6  7.0000000  0 14G 3G 4G16G22G26G31R 7R 8R 9E 1E 4E19
                                E21E27
  21670166.418   113877524.392    21670167.490    88735749.038    21670166.811  
  21670167.704    85038431.112  
  21765083.219   114376309.854    21765082.647    89124408.424    21765082.290  
  21765086.489    85410907.826  
  20357711.447   106980538.939                    83361469.926    20357708.588  
                                
  22571623.156   118614706.004                    92427042.720    22571619.189  
                                
  20405954.879   107234097.525    20405955.862    83559073.726    20405955.558  
  20405955.022    80077457.255  
  22574960.321   118632275.460    22574958.159    92440752.783    22574957.409  
                                
  19311315.329   103375024.313    19311315.061    80402804.997    19311314.811  
                                
  20448228.323   109499358.962    20448227.323    85166178.735    20448227.233  
                                
  20184774.543   107785640.221    20184774.918    83833327.768    20184775.079  
                                
  26148615.190   137411927.397                                                  
  26148618.603   102612827.478  
  27570622.585   144884610.933                                                  
  27570625.462   108193073.535  
  23339658.012   122650765.962                                                  
  23339659.477    91589878.602  
  23475047.989   123362289.734                                                  
  23475050.705    92121246.604  
  25103388.903   131919284.038                                                  
  25103391.869    98511201.722  
 21  8 31  3  6  8.0000000  0 14G 3G 4G16G22G26G31R 7R 8R 9E 1E 4E19
                                E21E27
  21670451.321   113879021.551    21670452.393    88736915.657    21670451.714  
  21670452.626    85039549.128  
  21764612.352   114373835.468    21764611.780    89122480.332    21764611.423  
  21764615.622    85409060.073  
  20357407.174   106978939.949                    83360223.962    20357404.297  
                                
  22572078.227   118617097.512                    92428906.233    22572074.278  
                                
  20406186.300   107235313.664    20406187.301    83560021.366    20406186.980  
  20406186.461    80078365.414  
  22575414.230   118634660.664    22575412.068    92442611.382    22575411.300  
                                
  19311539.174   103376222.538    19311538.888    80403736.948    19311538.638  
                                
  20447725.060   109496664.076    20447724.059    85164082.709    20447723.970  
                                
  20185184.208   107787827.846    20185184.583    83835029.257    20185184.744  
                                
  26148162.157   137409546.796                                                  
  26148165.552   102611049.770  
  27570118.500   144881961.915                                                  
  27570121.377   108191095.362  
  23339505.160   122649962.659                                                  
  23339506.625    91589278.733  
  23474985.590   123361961.848                                                  
  23474988.289    92121001.756  
  25103791.260   131921398.525                                                  
  25103794.208    98512780.727  
 21  8 31  3  6  9.0000000  0 14G 3G 4G16G22G26G31R 7R 8R 9E 1E 4E19
                                E21E27
  21670736.350   113880519.358    21670737.422    88738082.766    21670736.743  
  21670737.655    85040667.607  
  21764141.539   114371361.341    21764140.967    89120552.422    21764140.610  
  21764144.809    85407212.490  
  20357103.025   106977341.672                    83358978.535    20357100.166  
                                
  22572533.404   118619489.390                    92430770.018    22572529.455  
                                
  20406417.847   107236530.377    20406418.848    83560969.452    20406418.526  
  20406418.008    80079273.996  
  22575868.139   118637045.951    22575865.977    92444470.024    22575865.227  
                                
  19311763.162   103377421.615    19311762.894    80404669.559    19311762.644  
                                
  20447221.940   109493969.803    20447220.939    85161987.168    20447220.850  
                                
  20185593.962   107790015.835    20185594.338    83836731.024    20185594.499  
                                
  26147709.195   137407166.469                                                  
  26147712.590   102609272.237  
  27569614.414   144879312.906                                                  
  27569617.274   108189117.217  
  23339352.344   122649159.677                                                  
  23339353.809    91588679.119  
  23474923.281   123361634.352                                                  
  23474925.997    92120757.195  
  25104193.688   131923513.212                                                  
  25104196.636    98514359.870  
 21  8 31  3  6 10.0000000  0 14G 3G 4G16G22G26G31R 7R 8R 9E 1E 4E19
                                E21E27
  21671021.468   113882017.734    21671022.540    88739250.325    21671021.861  
  21671022.773    85041786.531  
  21763670.762   114368887.486    21763670.190    89118624.738    21763669.833  
  21763674.050    85405365.138  
  20356799.019   106975744.044                    83357733.626    20356796.160  
                                
  22572988.635   118621881.643                    92432634.105    22572984.686  
                                
  20406649.483   107237747.692    20406650.484    83561918.002    20406650.162  
  20406649.644    80080183.032  
  22576322.066   118639431.359    22576319.904    92446328.778    22576319.153  
                                
  19311987.329   103378621.535    19311987.061    80405602.818    19311986.793  
                                
  20446718.927   109491276.147    20446717.926    85159892.097    20446717.837  
                                
  20186003.771   107792204.179    20186004.146    83838433.062    20186004.307  
                                
  26147256.358   137404786.408                                                  
  26147259.807   102607494.921  
  27569110.329   144876663.989                                                  
  27569113.188   108187139.142  
  23339199.617   122648357.082                                                  
  23339201.083    91588079.778  
  23474861.097   123361307.269                                                  
  23474863.867    92120512.945  
  25104596.205   131925628.122                                                  
  25104599.225    98515939.187  
 21  8 31  3  6 11.0000000  0 14G 3G 4G16G22G26G31R 7R 8R 9E 1E 4E19
                                E21E27
  21671306.765   113883516.932    21671307.819    88740418.492    21671307.140  
  21671308.052    85042906.060  
  21763200.092   114366414.101    21763199.520    89116697.389    21763199.163  
  21763203.380    85403518.128  
  20356495.192   106974147.296                    83356489.368    20356492.333  
                                
  22573444.010   118624274.475                    92434498.612    22573440.061  
                                
  20406881.316   107238965.793    20406882.317    83562867.133    20406882.013  
  20406881.495    80081092.651  
  22576776.082   118641817.065    22576773.920    92448187.734    22576773.169  
                                
  19312211.710   103379822.502    19312211.460    80406536.868    19312211.210  
                                
  20446216.075   109488583.277    20446215.092    85157797.608    20446215.003  
                                
  20186413.704   107794393.044    20186414.097    83840135.476    20186414.258  
                                
  26146803.539   137402406.799                                                  
  26146806.988   102605717.945  
  27568606.316   144874015.344                                                  
  27568609.175   108185161.247  
  23339046.998   122647555.024                                                  
  23339048.463    91587480.843  
  23474798.966   123360980.782                                                  
  23474801.736    92120269.144  
  25104998.741   131927743.431                                                  
  25105001.743    98517518.806  
 21  8 31  3  6 12.0000000  0 14G 3G 4G16G22G26G31R 7R 8R 9E 1E 4E19
                                E21E27
  21671592.151   113885016.749    21671593.223    88741587.165    21671592.544  
  21671593.456    85044026.062  
  21762729.475   114363940.989    21762728.886    89114770.270    21762728.528  
  21762732.745    85401671.334  
  20356191.490   106972551.241                    83355245.677    20356188.631  
                                
  22573899.420   118626667.696                    92436363.442    22573895.488  
                                
  20407113.256   107240184.478    20407114.257    83563816.739    20407113.935  
  20407113.435    80082002.719  
  22577230.098   118644202.892    22577227.936    92450046.799    22577227.186  
                                
  19312436.235   103381024.353    19312435.985    80407471.623    19312435.734  
                                
  20445713.348   109485891.028    20445712.347    85155703.623    20445712.258  
                                
  20186823.673   107796582.283    20186824.084    83841838.201    20186824.227  
                                
  26146350.702   137400027.475                                                  
  26146354.115   102603941.172  
  27568102.302   144871366.766                                                  
  27568105.161   108183183.424  
  23338894.450   122646753.359                                                  
  23338895.916    91586882.186  
  23474736.854   123360654.721                                                  
  23474739.570    92120025.661  
  25105401.258   131929858.977                                                  
  25105404.207    98519098.595  
 21  8 31  3  6 13.0000000  0 14G 3G 4G16G22G26G31R 7R 8R 9E 1E 4E19
                                E21E27
  21671877.609   113886516.833    21671878.681    88742756.087    21671878.002  
  21671878.913    85045146.251  
  21762258.859   114361467.804    21762258.269    89112843.140    21762257.930  
  21762262.129    85399824.471  
  20355887.806   106970955.520                    83354002.281    20355884.947  
                                
  22574354.829   118629060.906                    92438228.304    22574350.898  
                                
  20407345.178   107241403.422    20407346.179    83564766.591    20407345.857  
  20407345.357    80082912.965  
  22577684.061   118646588.449    22577681.899    92451905.700    22577681.148  
                                
  19312660.830   103382226.709    19312660.562    80408406.812    19312660.312  
                                
  20445210.603   109483199.040    20445209.602    85153609.882    20445209.513  
                                
  20187233.624   107798771.506    20187234.017    83843540.956    20187234.178  
                                
  26145897.901   137397648.036                                                  
  26145901.296   102602164.321  
  27567598.253   144868717.890                                                  
  27567601.112   108181205.356  
  23338741.885   122645951.662                                                  
  23338743.350    91586283.518  
  23474674.812   123360328.695                                                  
  23474677.528    92119782.196  
  25105803.794   131931974.359                                                  
  25105806.742    98520678.268  
 21  8 31  3  6 14.0000000  0 14G 3G 4G16G22G26G31R 7R 8R 9E 1E 4E19
                                E21E27
  21672163.156   113888017.364    21672164.228    88743925.359    21672163.549  
  21672164.460    85046266.781  
  21761788.243   114358994.736    21761787.671    89110916.102    21761787.313  
  21761791.530    85397977.703  
  20355584.229   106969360.337                    83352759.310    20355581.370  
                                
  22574810.275   118631454.369                    92440093.369    22574806.326  
                                
  20407577.207   107242622.799    20407578.190    83565716.783    20407577.886  
  20407577.368    80083823.537  
  22578137.988   118648973.976    22578135.825    92453764.582    22578135.057  
                                
  19312885.551   103383429.804    19312885.283    80409342.576    19312885.033  
                                
  20444707.965   109480507.528    20444706.964    85151516.497    20444706.857  
                                
  20187643.629   107800960.927    20187644.022    83845243.861    20187644.165  
                                
  26145445.136   137395268.712                                                  
  26145448.531   102600387.562  
  27567094.150   144866068.907                                                  
  27567097.009   108179227.220  
  23338589.372   122645150.184                                                  
  23338590.838    91585685.010  
  23474612.807   123360002.933                                                  
  23474615.523    92119538.932  
  25106206.347   131934089.806                                                  
  25106209.314    98522257.982  
 21  8 31  3  6 15.0000000  0 14G 3G 4G16G22G26G31R 7R 8R 9E 1E 4E19
                                E21E27
  21672448.828   113889518.522    21672449.900    88745095.095    21672449.221  
  21672450.132    85047387.776  
  21761317.698   114356521.949    21761317.108    89108989.260    21761316.768  
  21761320.968    85396131.144  
  20355280.813   106967765.848                    83351516.850    20355277.937  
                                
  22575265.792   118633848.186                    92441958.681    22575261.843  
                                
  20407809.344   107243842.764    20407810.345    83566667.404    20407810.023  
  20407809.505    80084734.554  
  22578591.950   118651359.610    22578589.788    92455623.517    22578589.037  
                                
  19313110.487   103384633.792    19313110.219    80410279.016    19313109.968  
                                
  20444205.452   109477816.619    20444204.452    85149423.573    20444204.362  
                                
  20188053.705   107803150.702    20188054.080    83846947.022    20188054.241  
                                
  26144992.496   137392889.673                                                  
  26144995.944   102598611.006  
  27566590.082   144863420.004                                                  
  27566592.924   108177249.160  
  23338436.914   122644349.065                                                  
  23338438.379    91585086.779  
  23474550.980   123359677.582                                                  
  23474553.750    92119295.973  
  25106609.008   131936205.482                                                  
  25106612.010    98523837.870  
 21  8 31  3  6 16.0000000  0 14G 3G 4G16G22G26G31R 7R 8R 9E 1E 4E19
                                E21E27
  21672734.625   113891020.384    21672735.697    88746265.343    21672735.018  
  21672735.930    85048509.290  
  21760847.206   114354049.515    21760846.617    89107062.658    21760846.259  
  21760850.476    85394284.848  
  20354977.558   106966172.123                    83350274.958    20354974.699  
                                
  22575721.435   118636242.461                    92443824.320    22575717.503  
                                
  20408041.659   107245063.407    20408042.660    83567618.525    20408042.338  
  20408041.838    80085646.071  
  22579045.984   118653745.428    22579043.822    92457482.564    22579043.071  
                                
  19313335.583   103385838.714    19313335.332    80411216.144    19313335.064  
                                
  20443703.083   109475126.398    20443702.100    85147331.149    20443701.993  
                                
  20188463.871   107805340.897    20188464.264    83848650.477    20188464.424  
                                
  26144539.855   137390510.991                                                  
  26144543.322   102596834.709  
  27566086.051   144860771.265                                                  
  27566088.892   108175271.202  
  23338284.563   122643548.389                                                  
  23338286.028    91584488.865  
  23474489.171   123359352.721                                                  
  23474491.941    92119053.384  
  25107011.668   131938321.451                                                  
  25107014.670    98525417.981  
 21  8 31  3  6 17.0000000  0 14G 3G 4G16G22G26G31R 7R 8R 9E 1E 4E19
                                E21E27
  21673020.476   113892522.613    21673021.548    88747435.890    21673020.869  
  21673021.780    85049631.089  
  21760376.715   114351577.131    21760376.125    89105136.104    21760375.786  
  21760380.003    85392438.585  
  20354674.392   106964578.852                    83349033.426    20354671.533  
                                
  22576177.095   118638636.892                    92445690.092    22576173.163  
                                
  20408274.010   107246284.419    20408275.028    83568569.938    20408274.707  
  20408274.206    80086557.861  
  22579499.982   118656131.134    22579497.838    92459341.533    22579497.088  
                                
  19313560.804   103387044.247    19313560.554    80412153.758    19313560.286  
                                
  20443200.820   109472436.587    20443199.819    85145239.053    20443199.730  
                                
  20188874.072   107807531.233    20188874.465    83850354.049    20188874.626  
                                
  26144087.197   137388132.319                                                  
  26144090.664   102595058.435  
  27565581.984   144858122.365                                                  
  27565584.825   108173293.125  
  23338132.211   122642747.831                                                  
  23338133.659    91583891.052  
  23474427.362   123359028.033                                                  
  23474430.132    92118810.925  
  25107414.329   131940437.400                                                  
  25107417.331    98526998.068  
 21  8 31  3  6 18.0000000  0 14G 3G 4G16G22G26G31R 7R 8R 9E 1E 4E19
                                E21E27
  21673306.523   113894025.846    21673307.577    88748607.227    21673306.898  
  21673307.828    85050753.643  
  21759906.349   114349105.392    21759905.759    89103210.060    21759905.401  
  21759909.619    85390592.811  
  20354371.405   106962986.662                    83347792.749    20354368.546  
                                
  22576632.898   118641032.074                    92447556.456    22576628.966  
                                
  20408506.575   107247506.394    20408507.576    83569522.114    20408507.272  
  20408506.772    80087470.379  
  22579954.070   118658517.313    22579951.926    92461200.878    22579951.175  
                                
  19313786.257   103388250.992    19313785.989    80413092.326    19313785.739  
                                
  20442698.701   109469747.820    20442697.718    85143147.777    20442697.628  
                                
  20189284.398   107809722.311    20189284.791    83852058.207    20189284.952  
                                
  26143634.682   137385754.306                                                  
  26143638.131   102593282.650  
  27565077.970   144855473.885                                                  
  27565080.811   108171315.370  
  23337980.003   122641948.018                                                  
  23337981.468    91583293.786  
  23474365.732   123358704.140                                                  
  23474368.502    92118569.057  
  25107817.097   131942553.950                                                  
  25107820.099    98528578.611  
 21  8 31  3  6 19.0000000  0 14G 3G 4G16G22G26G31R 7R 8R 9E 1E 4E19
                                E21E27
  21673592.624   113895529.375    21673593.678    88749778.813    21673593.017  
  21673593.929    85051876.418  
  21759435.982   114346633.612    21759435.393    89101284.000    21759435.053  
  21759439.270    85388746.994  
  20354068.490   106961394.814                    83346552.346    20354065.631  
                                
  22577088.683   118643427.314                    92449422.882    22577084.752  
                                
  20408739.141   107248728.644    20408740.159    83570474.517    20408739.837  
  20408739.355    80088383.099  
  22580408.104   118660903.258    22580405.960    92463060.060    22580405.209  
                                
  19314011.782   103389458.239    19314011.514    80414031.298    19314011.264  
                                
  20442196.670   109467059.357    20442195.670    85141056.749    20442195.580  
                                
  20189694.725   107811913.416    20189695.118    83853762.402    20189695.278  
                                
  26143182.113   137383376.232                                                  
  26143185.544   102591506.814  
  27564573.938   144852825.143                                                  
  27564576.762   108169337.422  
  23337827.813   122641148.239                                                  
  23337829.278    91582696.543  
  23474304.102   123358380.318                                                  
  23474306.836    92118327.244  
  25108219.793   131944670.377                                                  
  25108222.777    98530159.066  
 21  8 31  3  6 20.0000000  0 14G 3G 4G16G22G26G31R 7R 8R 9E 1E 4E19
                                E21E27
  21673878.832   113897033.230    21673879.887    88750950.666    21673879.225  
  21673880.137    85052999.415  
  21758965.616   114344161.794    21758965.026    89099357.924    21758964.669  
  21758968.886    85386901.167  
  20353765.645   106959803.369                    83345312.275    20353762.786  
                                
  22577544.486   118645822.631                    92451289.374    22577540.555  
                                
  20408971.795   107249951.182    20408972.796    83571427.158    20408972.474  
  20408971.974    80089296.035  
  22580862.102   118663289.049    22580859.940    92464919.132    22580859.190  
                                
  19314237.397   103390666.068    19314237.128    80414970.737    19314236.878  
                                
  20441694.658   109464371.223    20441693.657    85138965.994    20441693.568  
                                
  20190105.033   107814104.560    20190105.426    83855466.641    20190105.587  
                                
  26142729.563   137380998.126                                                  
  26142732.993   102589730.959  
  27564069.853   144850176.181                                                  
  27564072.694   108167359.299  
  23337675.640   122640348.520                                                  
  23337677.105    91582099.354  
  23474242.489   123358056.613                                                  
  23474245.241    92118085.516  
  25108622.525   131946786.733                                                  
  25108625.509    98531739.458  
 21  8 31  3  6 21.0000000  0 14G 3G 4G16G22G26G31R 7R 8R 9E 1E 4E19
                                E21E27
  21674165.076   113898537.514    21674166.148    88752122.851    21674165.469  
  21674166.381    85054122.741  
  21758495.268   114341690.085    21758494.678    89097431.935    21758494.338  
  21758498.538    85385055.410  
  20353462.891   106958212.446                    83344072.611    20353460.031  
                                
  22578000.307   118648218.136                    92453156.024    22577996.376  
                                
  20409204.486   107251174.140    20409205.486    83572380.131    20409205.183  
  20409204.664    80090209.287  
  22581316.065   118665674.750    22581313.903    92466778.138    22581313.152  
                                
  19314463.154   103391874.615    19314462.886    80415910.734    19314462.636  
                                
  20441192.717   109461683.511    20441191.716    85136875.573    20441191.627  
                                
  20190515.395   107816295.898    20190515.788    83857171.035    20190515.931  
                                
  26142277.065   137378620.107                                                  
  26142280.514   102587955.167  
  27563565.750   144847527.114                                                  
  27563568.574   108165381.104  
  23337523.485   122639548.986                                                  
  23337524.951    91581502.295  
  23474180.966   123357733.140                                                  
  23474183.736    92117843.961  
  25109025.311   131948903.125                                                  
  25109028.313    98533319.885  
 21  8 31  3  6 22.0000000  0 14G 3G 4G16G22G26G31R 7R 8R 9E 1E 4E19
                                E21E27
  21674451.481   113900042.604    21674452.553    88753295.644    21674451.874  
  21674452.785    85055246.675  
  21758025.008   114339218.857    21758024.437    89095506.299    21758024.079  
  21758028.296    85383210.008  
  20353160.314   106956622.404                    83342833.614    20353157.455  
                                
  22578456.288   118650614.236                    92455023.106    22578452.357  
                                
  20409437.355   107252397.890    20409438.355    83573333.702    20409438.052  
  20409437.533    80091123.120  
  22581770.117   118668060.753    22581767.954    92468637.354    22581767.204  
                                
  19314689.125   103393084.256    19314688.857    80416851.559    19314688.607  
                                
  20440690.973   109458996.607    20440689.972    85134785.756    20440689.883  
                                
  20190925.864   107818487.808    20190926.258    83858875.850    20190926.418  
                                
  26141824.550   137376242.556                                                  
  26141827.927   102586179.729  
  27563061.701   144844878.307                                                  
  27563064.524   108163403.108  
  23337371.456   122638749.997                                                  
  23337372.921    91580905.650  
  23474119.443   123357410.269                                                  
  23474122.141    92117602.854  
  25109428.007   131951019.924                                                  
  25109430.938    98534900.612  
 21  8 31  3  6 23.0000000  0 14G 3G 4G16G22G26G31R 7R 8R 9E 1E 4E19
                                E21E27
  21674737.975   113901548.243    21674739.065    88754468.892    21674738.386  
  21674739.297    85056371.020  
  21757554.785   114336747.831    21757554.195    89093580.847    21757553.838  
  21757558.055    85381364.768  
  20352857.845   106955032.977                    83341595.123    20352854.968  
                                
  22578912.306   118653010.627                    92456890.447    22578908.357  
                                
  20409670.313   107253622.163    20409671.314    83574287.704    20409671.010  
  20409670.492    80092037.356  
  22582224.151   118670446.812    22582221.989    92470496.645    22582221.238  
                                
  19314915.222   103394294.704    19314914.954    80417793.042    19314914.704  
                                
  20440189.300   109456310.249    20440188.281    85132696.387    20440188.192  
                                
  20191336.370   107820679.953    20191336.763    83860580.871    20191336.906  
                                
  26141372.160   137373865.215                                                  
  26141375.537   102584404.442  
  27562557.634   144842229.495                                                  
  27562560.457   108161425.116  
  23337219.462   122637951.299                                                  
  23337220.927    91580309.230  
  23474058.063   123357087.744                                                  
  23474060.761    92117362.012  
  25109830.846   131953136.874                                                  
  25109833.777    98536481.453  
 21  8 31  3  6 24.0000000  0 14G 3G 4G16G22G26G31R 7R 8R 9E 1E 4E19
                                E21E27
  21675024.630   113903054.498    21675025.720    88755642.620    21675025.041  
  21675025.952    85057495.812  
  21757084.615   114334277.070    21757084.026    89091655.603    21757083.686  
  21757087.885    85379519.721  
  20352555.502   106953444.249                    83340357.180    20352552.625  
                                
  22579368.359   118655407.411                    92458758.089    22579364.410  
                                
  20409903.379   107254847.043    20409904.380    83575242.178    20409904.058  
  20409903.540    80092952.035  
  22582678.185   118672832.947    22582676.023    92472356.003    22582675.272  
                                
  19315141.498   103395505.989    19315141.230    80418735.171    19315140.962  
                                
  20439687.734   109453624.544    20439686.716    85130607.519    20439686.627  
                                
  20191746.946   107822872.478    20191747.339    83862286.188    20191747.482  
                                
  26140919.877   137371488.136                                                  
  26140923.290   102582629.350  
  27562053.602   144839580.765                                                  
  27562056.425   108159447.140  
  23337067.539   122637152.982                                                  
  23337069.005    91579713.078  
  23473996.808   123356765.626                                                  
  23473999.560    92117121.467  
  25110233.811   131955254.040                                                  
  25110236.777    98538062.449  
 21  8 31  3  6 25.0000000  0 14G 3G 4G16G22G26G31R 7R 8R 9E 1E 4E19
                                E21E27
  21675311.392   113904561.426    21675312.464    88756816.847    21675311.803  
  21675312.696    85058621.115  
  21756614.517   114331806.652    21756613.927    89089730.604    21756613.588  
  21756617.787    85377674.933  
  20352253.318   106951856.258                    83339119.780    20352250.442  
                                
  22579824.537   118657804.606                    92460626.033    22579820.588  
                                
  20410136.588   107256072.556    20410137.588    83576197.117    20410137.267  
  20410136.748    80093867.191  
  22583132.290   118675219.264    22583130.128    92474215.469    22583129.377  
                                
  19315367.934   103396718.162    19315367.666    80419677.970    19315367.416  
                                
  20439186.312   109450939.496    20439185.311    85128519.149    20439185.222  
                                
  20192157.594   107825065.396    20192157.987    83863991.787    20192158.130  
                                
  26140467.559   137369111.377                                                  
  26140470.936   102580854.502  
  27561549.588   144836932.150                                                  
  27561552.412   108157469.280  
  23336915.706   122636355.070                                                  
  23336917.171    91579117.233  
  23473935.571   123356443.970                                                  
  23473938.287    92116881.271  
  25110636.704   131957371.476                                                  
  25110639.634    98539643.649  
 21  8 31  3  6 26.0000000  0 14G 3G 4G16G22G26G31R 7R 8R 9E 1E 4E19
                                E21E27
  21675598.190   113906068.661    21675599.280    88757991.321    21675598.618  
  21675599.512    85059746.648  
  21756144.401   114329336.225    21756143.829    89087805.601    21756143.472  
  21756147.689    85375830.120  
  20351951.207   106950268.657                    83337882.697    20351948.330  
                                
  22580280.716   118660201.901                    92462494.059    22580276.767  
                                
  20410369.850   107257298.366    20410370.850    83577152.301    20410370.529  
  20410370.011    80094782.569  
  22583586.342   118677605.387    22583584.180    92476074.795    22583583.429  
                                
  19315594.495   103397930.909    19315594.209    80420621.225    19315593.959  
                                
  20438684.978   109448254.771    20438683.960    85126431.039    20438683.871  
                                
  20192568.278   107827258.379    20192568.653    83865697.450    20192568.814  
                                
  26140015.276   137366734.597                                                  
  26140018.671   102579079.627  
  27561045.521   144834283.311                                                  
  27561048.344   108155491.251  
  23336763.873   122635557.214                                                  
  23336765.338    91578521.433  
  23473874.405   123356122.424                                                  
  23473877.121    92116641.156  
  25111039.632   131959488.831                                                  
  25111042.563    98541224.791  
 21  8 31  3  6 27.0000000  0 14G 3G 4G16G22G26G31R 7R 8R 9E 1E 4E19
                                E21E27
  21675885.113   113907576.343    21675886.203    88759166.145    21675885.524  
  21675886.435    85060872.512  
  21755674.303   114326865.871    21755673.731    89085880.659    21755673.391  
  21755677.591    85373985.387  
  20351649.185   106948681.581                    83336646.019    20351646.308  
                                
  22580736.948   118662599.392                    92464362.244    22580732.999  
                                
  20410603.183   107258524.587    20410604.184    83578107.804    20410603.862  
  20410603.344    80095698.258  
  22584040.394   118679991.428    22584038.232    92477934.055    22584037.481  
                                
  19315821.164   103399144.346    19315820.878    80421565.023    19315820.628  
                                
  20438183.699   109445570.492    20438182.680    85124343.278    20438182.573  
                                
  20192978.979   107829451.560    20192979.373    83867403.268    20192979.516  
                                
  26139562.993   137364357.902                                                  
  26139566.388   102577304.822  
  27560541.454   144831634.341                                                  
  27560544.259   108153513.128  
  23336612.094   122634759.540                                                  
  23336613.559    91577925.765  
  23473813.240   123355801.111                                                  
  23473815.956    92116401.212  
  25111442.543   131961606.220                                                  
  25111445.491    98542805.960  
 21  8 31  3  6 28.0000000  0 14G 3G 4G16G22G26G31R 7R 8R 9E 1E 4E19
                                E21E27
  21676172.161   113909084.843    21676173.251    88760341.601    21676172.589  
  21676173.483    85061998.987  
  21755204.330   114324396.016    21755203.758    89083956.104    21755203.400  
  21755207.600    85372141.010  
  20351347.323   106947095.382                    83335410.027    20351344.446  
                                
  22581193.287   118664997.447                    92466230.858    22581189.338  
                                
  20410836.678   107259751.615    20410837.661    83579063.934    20410837.357  
  20410836.821    80096614.542  
  22584494.499   118682377.786    22584492.337    92479793.561    22584491.587  
                                
  19316048.029   103400358.890    19316047.743    80422509.670    19316047.493  
                                
  20437682.580   109442887.059    20437681.561    85122256.168    20437681.454  
                                
  20193389.788   107831645.310    20193390.181    83869109.521    20193390.324  
                                
  26139110.817   137361981.659                                                  
  26139114.213   102575530.368  
  27560037.422   144828985.658                                                  
  27560040.228   108151535.218  
  23336460.403   122633962.438                                                  
  23336461.869    91577330.527  
  23473752.217   123355480.414                                                  
  23473754.933    92116161.731  
  25111845.561   131963724.029                                                  
  25111848.509    98544387.441  
 21  8 31  3  6 29.0000000  0 14G 3G 4G16G22G26G31R 7R 8R 9E 1E 4E19
                                E21E27
  21676459.351   113910594.012    21676460.441    88761517.577    21676459.762  
  21676460.656    85063125.968  
  21754734.374   114321926.490    21754733.802    89082031.795    21754733.445  
  21754737.644    85370296.886  
  20351045.641   106945509.947                    83334174.621    20351042.764  
                                
  22581649.715   118667395.957                    92468099.822    22581645.748  
                                
  20411070.298   107260979.294    20411071.280    83580020.572    20411070.977  
  20411070.441    80097531.316  
  22584948.641   118684764.335    22584946.461    92481653.198    22584945.710  
                                
  19316275.108   103401574.380    19316274.823    80423455.054    19316274.572  
                                
  20437181.586   109440204.338    20437180.568    85120169.612    20437180.478  
                                
  20193800.687   107833839.477    20193801.080    83870816.100    20193801.223  
                                
  26138658.695   137359605.777                                                  
  26138662.073   102573756.164  
  27559533.409   144826337.083                                                  
  27559536.214   108149557.410  
  23336308.803   122633165.739                                                  
  23336310.250    91576735.602  
  23473691.283   123355160.181                                                  
  23473694.000    92115922.600  
  25112248.597   131965842.111                                                  
  25112251.545    98545969.130  
 21  8 31  3  6 30.0000000  0 14G 3G 4G16G22G26G31R 7R 8R 9E 1E 4E19
                                E21E27
  21676746.632   113912103.703    21676747.722    88762693.956    21676747.061  
  21676747.954    85064253.333  
  21754264.490   114319457.157    21754263.919    89080107.638    21754263.561  
  21754267.760    85368452.897  
  20350744.065   106943925.101                    83332939.674    20350741.188  
                                
  22582106.161   118669794.742                    92469969.003    22582102.212  
                                
  20411304.024   107262207.473    20411305.025    83580977.590    20411304.703  
  20411304.185    80098448.462  
  22585402.782   118687150.880    22585400.620    92483512.846    22585399.869  
                                
  19316502.313   103402790.634    19316502.027    80424401.027    19316501.777  
                                
  20436680.717   109437522.167    20436679.699    85118083.476    20436679.609  
                                
  20194211.620   107836033.895    20194212.014    83872522.867    20194212.157  
                                
  26138206.591   137357230.044                                                  
  26138209.968   102571982.085  
  27559029.395   144823688.485                                                  
  27559032.183   108147579.563  
  23336157.256   122632369.324                                                  
  23336158.721    91576140.868  
  23473630.404   123354840.261                                                  
  23473633.120    92115683.695  
  25112651.668   131967960.322                                                  
  25112654.617    98547550.906  
 21  8 31  3  6 31.0000000  0 14G 3G 4G16G22G26G31R 7R 8R 9E 1E 4E19
                                E21E27
  21677034.055   113913614.120    21677035.145    88763870.904    21677034.484  
  21677035.377    85065381.242  
  21753794.642   114316988.183    21753794.071    89078183.762    21753793.713  
  21753797.912    85366609.193  
  20350442.615   106942341.039                    83331705.344    20350439.738  
                                
  22582562.733   118672193.982                    92471838.545    22582558.784  
                                
  20411537.876   107263436.340    20411538.859    83581935.149    20411538.537  
  20411538.019    80099366.119  
  22585856.977   118689537.646    22585854.797    92485372.660    22585854.064  
                                
  19316729.696   103404007.831    19316729.410    80425347.734    19316729.160  
                                
  20436179.974   109434840.692    20436178.955    85115997.885    20436178.848  
                                
  20194622.662   107838228.722    20194623.037    83874229.957    20194623.198  
                                
  26137754.612   137354854.679                                                  
  26137758.007   102570208.277  
  27558525.399   144821040.063                                                  
  27558528.205   108145601.855  
  23336005.780   122631573.354                                                  
  23336007.245    91575546.477  
  23473569.649   123354520.844                                                  
  23473572.383    92115445.175  
  25113054.847   131970078.829                                                  
  25113057.813    98549132.913  
 21  8 31  3  6 32.0000000  0 14G 3G 4G16G22G26G31R 7R 8R 9E 1E 4E19
                                E21E27
  21677321.621   113915125.279    21677322.711    88765048.409    21677322.050  
  21677322.943    85066509.704  
  21753324.884   114314519.640    21753324.312    89076260.203    21753323.954  
  21753328.171    85364765.801  
  20350141.343   106940757.804                    83330471.632    20350138.466  
                                
  22583019.412   118674593.759                    92473708.479    22583015.462  
                                
  20411771.871   107264665.936    20411772.854    83582893.255    20411772.550  
  20411772.032    80100284.327  
  22586311.225   118691924.626    22586309.063    92487232.626    22586308.312  
                                
  19316957.276   103405226.030    19316956.990    80426295.199    19316956.740  
                                
  20435679.391   109432159.981    20435678.372    85113912.871    20435678.265  
                                
  20195033.774   107840424.058    20195034.167    83875937.417    20195034.310  
                                
  26137302.687   137352479.739                                                  
  26137306.100   102568434.788  
  27558021.475   144818391.853                                                  
  27558024.262   108143624.297  
  23335854.411   122630777.887                                                  
  23335855.877    91574952.466  
  23473508.966   123354201.989                                                  
  23473511.718    92115207.065  
  25113458.079   131972197.713                                                  
  25113461.046    98550715.194  
 21  8 31  3  6 33.0000000  0 14G 3G 4G16G22G26G31R 7R 8R 9E 1E 4E19
                                E21E27
  21677609.277   113916636.895    21677610.349    88766226.274    21677609.688  
  21677610.581    85067638.513  
  21752855.178   114312051.214    21752854.589    89074336.739    21752854.231  
  21752858.448    85362922.494  
  20349840.178   106939175.112                    83329238.343    20349837.319  
                                
  22583476.126   118676993.736                    92475578.574    22583472.195  
                                
  20412005.955   107265895.974    20412006.938    83583851.706    20412006.634  
  20412006.116    80101202.865  
  22586765.456   118694311.577    22586763.293    92489092.567    22586762.543  
                                
  19317184.999   103406444.920    19317184.713    80427243.205    19317184.463  
                                
  20435178.880   109429479.711    20435177.861    85111828.196    20435177.772  
                                
  20195444.958   107842619.585    20195445.351    83877645.033    20195445.494  
                                
  26136850.725   137350104.904                                                  
  26136854.103   102566661.363  
  27557517.515   144815743.551                                                  
  27557520.302   108141646.671  
  23335703.079   122629982.628                                                  
  23335704.544    91574358.599  
  23473448.300   123353883.376                                                  
  23473451.017    92114969.144  
  25113861.258   131974316.640                                                  
  25113864.189    98552297.514  
 21  8 31  3  6 34.0000000  0 14G 3G 4G16G22G26G31R 7R 8R 9E 1E 4E19
                                E21E27
  21677897.004   113918148.937    21677898.094    88767404.436    21677897.415  
  21677898.326    85068767.566  
  21752385.473   114309582.859    21752384.901    89072413.295    21752384.544  
  21752388.761    85361079.167  
  20349539.121   106937592.893                    83328005.399    20349536.244  
                                
  22583932.858   118679393.886                    92477448.766    22583928.909  
                                
  20412240.093   107267126.403    20412241.094    83584810.434    20412240.790  
  20412240.272    80102121.615  
  22587219.668   118696698.434    22587217.506    92490952.398    22587216.756  
                                
  19317412.829   103407664.578    19317412.543    80428191.837    19317412.293  
                                
  20434678.440   109426799.977    20434677.421    85109743.963    20434677.332  
                                
  20195856.142   107844815.375    20195856.535    83879352.874    20195856.678  
                                
  26136398.836   137347730.217                                                  
  26136402.213   102564888.071  
  27557013.555   144813095.203                                                  
  27557016.342   108139669.011  
  23335551.782   122629187.624                                                  
  23335553.247    91573764.923  
  23473387.742   123353565.067                                                  
  23473390.458    92114731.444  
  25114264.490   131976435.672                                                  
  25114267.403    98553879.911  
 21  8 31  3  6 35.0000000  0 14G 3G 4G16G22G26G31R 7R 8R 9E 1E 4E19
                                E21E27
  21678184.856   113919661.516    21678185.946    88768583.088    21678185.285  
  21678186.178    85069897.076  
  21751915.786   114307114.697    21751915.214    89070490.070    21751914.857  
  21751919.074    85359236.068  
  20349238.135   106936011.290                    83326772.999    20349235.258  
                                
  22584389.644   118681794.338                    92479319.264    22584385.695  
                                
  20412474.320   107268357.340    20412475.321    83585769.621    20412474.999  
  20412474.481    80103040.825  
  22587673.863   118699085.317    22587671.683    92492812.323    22587670.950  
                                
  19317640.784   103408884.917    19317640.516    80429141.006    19317640.266  
                                
  20434178.089   109424120.704    20434177.071    85107660.100    20434176.981  
                                
  20196267.362   107847011.340    20196267.737    83881060.859    20196267.898  
                                
  26135946.946   137345355.629                                                  
  26135950.323   102563114.848  
  27556509.559   144810446.754                                                  
  27556512.347   108137691.278  
  23335400.538   122628392.803                                                  
  23335402.003    91573171.390  
  23473327.202   123353246.997                                                  
  23473329.918    92114493.923  
  25114667.723   131978554.749                                                  
  25114670.653    98555462.342  
 21  8 31  3  6 36.0000000  0 14G 3G 4G16G22G26G31R 7R 8R 9E 1E 4E19
                                E21E27
  21678472.779   113921174.629    21678473.869    88769762.146    21678473.208  
  21678474.102    85071027.004  
  21751446.188   114304646.779    21751445.616    89068567.029    21751445.259  
  21751449.458    85357393.133  
  20348937.275   106934430.318                    83325541.082    20348934.398  
                                
  22584846.483   118684195.099                    92481189.996    22584842.534  
                                
  20412708.655   107269588.822    20412709.655    83586729.229    20412709.334  
  20412708.816    80103960.436  
  22588128.076   118701472.253    22588125.896    92494672.283    22588125.163  
                                
  19317868.918   103410106.079    19317868.632    80430090.808    19317868.382  
                                
  20433677.846   109421441.989    20433676.827    85105576.669    20433676.738  
                                
  20196678.636   107849207.628    20196679.029    83882769.094    20196679.172  
                                
  26135495.128   137342981.249                                                  
  26135498.487   102561341.770  
  27556005.581   144807798.327                                                  
  27556008.351   108135713.558  
  23335249.330   122627598.286                                                  
  23335250.796    91572578.084  
  23473266.751   123352929.275                                                  
  23473269.485    92114256.659  
  25115071.009   131980673.990                                                  
  25115073.939    98557044.886  
 21  8 31  3  6 37.0000000  0 14G 3G 4G16G22G26G31R 7R 8R 9E 1E 4E19
                                E21E27
  21678760.846   113922688.335    21678761.936    88770941.648    21678761.275  
  21678762.168    85072157.363  
  21750976.590   114302179.069    21750976.001    89066644.131    21750975.661  
  21750979.860    85355550.367  
  20348636.557   106932849.991                    83324309.654    20348633.680  
                                
  22585303.412   118686596.185                    92483060.965    22585299.463  
                                
  20412943.114   107270820.848    20412944.115    83587689.237    20412943.793  
  20412943.275    80104880.453  
  22588582.324   118703859.239    22588580.144    92496532.260    22588579.394  
                                
  19318097.177   103411328.056    19318096.909    80431041.228    19318096.659  
                                
  20433177.728   109418763.846    20433176.709    85103493.662    20433176.620  
                                
  20197089.998   107851404.201    20197090.392    83884477.536    20197090.552  
                                
  26135043.381   137340607.107                                                  
  26135046.794   102559568.870  
  27555501.585   144805149.905                                                  
  27555504.373   108133735.845  
  23335098.212   122626804.069                                                  
  23335099.677    91571985.000  
  23473206.390   123352611.903                                                  
  23473209.141    92114019.665  
  25115474.366   131982793.387                                                  
  25115477.332    98558627.557  
 21  8 31  3  6 38.0000000  0 14G 3G 4G16G22G26G31R 7R 8R 9E 1E 4E19
                                E21E27
  21679048.984   113924202.540    21679050.074    88772121.522    21679049.395  
  21679050.288    85073288.102  
  21750507.028   114299711.539    21750506.438    89064721.355    21750506.081  
  21750510.298    85353707.740  
  20348335.964   106931270.248                    83323078.656    20348333.087  
                                
  22585760.395   118688997.576                    92484932.156    22585756.446  
                                
  20413177.681   107272053.354    20413178.664    83588649.607    20413178.360  
  20413177.842    80105800.831  
  22589036.555   118706246.228    22589034.393    92498392.229    22589033.642  
                                
  19318325.632   103412550.808    19318325.346    80431992.236    19318325.096  
                                
  20432677.717   109416086.244    20432676.698    85101411.059    20432676.609  
                                
  20197501.415   107853601.029    20197501.808    83886186.156    20197501.951  
                                
  26134591.616   137338233.115                                                  
  26134595.012   102557796.090  
  27554997.607   144802501.439                                                  
  27555000.377   108131758.105  
  23334947.130   122626010.124                                                  
  23334948.595    91571392.122  
  23473146.064   123352294.850                                                  
  23473148.798    92113782.909  
  25115877.688   131984912.901                                                  
  25115880.636    98560210.315  
 21  8 31  3  6 39.0000000  0 14G 3G 4G16G22G26G31R 7R 8R 9E 1E 4E19
                                E21E27
  21679337.193   113925717.109    21679338.283    88773301.678    21679337.622  
  21679338.516    85074419.107  
  21750037.466   114297244.052    21750036.876    89062798.613    21750036.519  
  21750040.736    85351865.129  
  20348035.443   106929690.960                    83321848.026    20348032.584  
                                
  22586217.395   118691399.076                    92486803.429    22586213.464  
                                
  20413412.301   107273286.210    20413413.302    83589610.251    20413412.980  
  20413412.480    80106721.468  
  22589490.785   118708633.079    22589488.623    92500252.099    22589487.891  
                                
  19318554.159   103413774.157    19318553.891    80432943.711    19318553.641  
                                
  20432177.777   109413409.034    20432176.777    85099328.766    20432176.669  
                                
  20197912.831   107855797.969    20197913.242    83887894.867    20197913.385  
                                
  26134139.905   137335859.170                                                  
  26134143.336   102556023.324  
  27554493.594   144799852.823                                                  
  27554496.363   108129780.234  
  23334796.065   122625216.303                                                  
  23334797.530    91570799.329  
  23473085.792   123351977.959                                                  
  23473088.561    92113546.268  
  25116281.045   131987032.391                                                  
  25116284.030    98561793.049  
 21  8 31  3  6 40.0000000  0 14G 3G 4G16G22G26G31R 7R 8R 9E 1E 4E19
                                E21E27
  21679625.510   113927232.223    21679626.582    88774482.266    21679625.921  
  21679626.832    85075550.528  
  21749567.957   114294776.771    21749567.368    89060876.037    21749567.010  
  21749571.227    85350022.681  
  20347735.047   106928112.298                    83320617.876    20347732.188  
                                
  22586674.467   118693800.886                    92488674.945    22586670.535  
                                
  20413647.011   107274519.594    20413648.029    83590571.308    20413647.708  
  20413647.207    80107642.504  
  22589945.016   118711019.983    22589942.854    92502112.001    22589942.103  
                                
  19318782.865   103414998.290    19318782.597    80433895.789    19318782.347  
                                
  20431677.963   109410732.395    20431676.962    85097246.910    20431676.855  
                                
  20198324.319   107857995.199    20198324.730    83889603.797    20198324.873  
                                
  26133688.176   137333485.409                                                  
  26133691.607   102554250.715  
  27553989.562   144797204.193                                                  
  27553992.332   108127802.374  
  23334645.054   122624422.764                                                  
  23334646.519    91570206.755  
  23473025.555   123351661.414                                                  
  23473028.325    92113309.885  
  25116684.385   131989152.028                                                  
  25116687.369    98563375.893  
 21  8 31  3  6 41.0000000  0 14G 3G 4G16G22G26G31R 7R 8R 9E 1E 4E19
                                E21E27
  21679913.934   113928747.907    21679915.024    88775663.305    21679914.345  
  21679915.256    85076682.365  
  21749098.484   114292309.706    21749097.895    89058953.641    21749097.537  
  21749101.772    85348180.395  
  20347434.776   106926534.254                    83319388.220    20347431.917  
                                
  22587131.592   118696203.023                    92490546.726    22587127.661  
                                
  20413881.828   107275753.523    20413882.846    83591532.801    20413882.524  
  20413882.042    80108563.936  
  22590399.229   118713406.931    22590397.084    92503971.951    22590396.334  
                                
  19319011.714   103416223.215    19319011.445    80434848.494    19319011.195  
                                
  20431178.220   109408056.303    20431177.219    85095165.494    20431177.130  
                                
  20198735.860   107860192.691    20198736.271    83891312.949    20198736.414  
                                
  26133236.519   137331111.860                                                  
  26133239.950   102552478.257  
  27553485.548   144794555.575                                                  
  27553488.318   108125824.507  
  23334494.114   122623629.527                                                  
  23334495.579    91569614.400  
  23472965.390   123351345.210                                                  
  23472968.160    92113073.760  
  25117087.760   131991271.818                                                  
  25117090.744    98564958.851  
 21  8 31  3  6 42.0000000  0 14G 3G 4G16G22G26G31R 7R 8R 9E 1E 4E19
                                E21E27
  21680202.501   113930264.345    21680203.591    88776844.954    21680202.930  
  21680203.823    85077814.759  
  21748629.101   114289843.053    21748628.511    89057031.580    21748628.154  
  21748632.371    85346338.414  
  20347134.630   106924957.038                    83318159.228    20347131.771  
                                
  22587588.789   118698605.661                    92492418.917    22587584.858  
                                
  20414116.787   107276988.166    20414117.788    83592494.865    20414117.466  
  20414116.984    80109485.912  
  22590853.513   118715794.117    22590851.351    92505832.100    22590850.618  
                                
  19319240.705   103417449.159    19319240.437    80435802.011    19319240.187  
                                
  20430678.620   109405380.967    20430677.619    85093084.680    20430677.530  
                                
  20199147.473   107862390.684    20199147.884    83893022.504    20199148.027  
                                
  26132784.879   137328738.701                                                  
  26132788.275   102550706.099  
  27552981.588   144791907.159                                                  
  27552984.340   108123846.796  
  23334343.246   122622836.785                                                  
  23334344.711    91569022.414  
  23472905.279   123351029.554                                                  
  23472908.031    92112838.039  
  25117491.189   131993391.957                                                  
  25117494.156    98566542.073  
 21  8 31  3  6 43.0000000  0 14G 3G 4G16G22G26G31R 7R 8R 9E 1E 4E19
                                E21E27
  21680491.193   113931781.407    21680492.283    88778027.095    21680491.622  
  21680492.515    85078947.635  
  21748159.771   114287376.708    21748159.181    89055109.771    21748158.824  
  21748163.041    85344496.663  
  20346834.609   106923380.546                    83316930.809    20346831.750  
                                
  22588046.057   118701008.699                    92494291.429    22588042.126  
                                
  20414351.836   107278223.431    20414352.837    83593457.425    20414352.515  
  20414352.015    80110408.352  
  22591307.779   118718181.431    22591305.617    92507692.359    22591304.884  
                                
  19319469.893   103418676.011    19319469.607    80436756.251    19319469.357  
                                
  20430179.127   109402706.290    20430178.108    85091004.398    20430178.019  
                                
  20199559.140   107864589.062    20199559.551    83894732.369    20199559.694  
                                
  26132333.347   137326365.847                                                  
  26132336.742   102548934.165  
  27552477.610   144789258.837                                                  
  27552480.380   108121869.160  
  23334192.467   122622044.429                                                  
  23334193.932    91568430.728  
  23472845.292   123350714.327                                                  
  23472848.044    92112602.649  
  25117894.690   131995512.331                                                  
  25117897.656    98568125.472  
 21  8 31  3  6 44.0000000  0 14G 3G 4G16G22G26G31R 7R 8R 9E 1E 4E19
                                E21E27
  21680780.028   113933299.213    21680781.118    88779209.814    21680780.456  
  21680781.368    85080081.054  
  21747690.513   114284910.747    21747689.923    89053188.250    21747689.566  
  21747693.783    85342655.194  
  20346534.767   106921804.836                    83315702.994    20346531.907  
                                
  22588503.433   118703412.211                    92496164.312    22588499.483  
                                
  20414587.011   107279459.394    20414588.011    83594420.527    20414587.690  
  20414587.171    80111331.314  
  22591762.117   118720568.981    22591759.955    92509552.794    22591759.204  
                                
  19319699.260   103419903.851    19319698.974    80437711.251    19319698.724  
                                
  20429679.795   109400032.378    20429678.776    85088924.700    20429678.687  
                                
  20199970.896   107866787.896    20199971.289    83896442.585    20199971.432  
                                
  26131881.886   137323993.369                                                  
  26131885.281   102547162.514  
  27551973.686   144786610.679                                                  
  27551976.438   108119891.646  
  23334041.778   122621252.541                                                  
  23334043.243    91567839.383  
  23472785.413   123350399.616                                                  
  23472788.165    92112367.637  
  25118298.262   131997633.033                                                  
  25118301.210    98569709.115  
 21  8 31  3  6 45.0000000  0 14G 3G 4G16G22G26G31R 7R 8R 9E 1E 4E19
                                E21E27
  21681068.988   113934817.731    21681070.078    88780393.070    21681069.416  
  21681070.310    85081215.017  
  21747221.326   114282445.183    21747220.736    89051267.028    21747220.379  
  21747224.596    85340814.025  
  20346235.067   106920229.926                    83314475.791    20346232.208  
                                
  22588960.897   118705816.232                    92498037.575    22588956.948  
                                
  20414822.328   107280696.068    20414823.328    83595384.168    20414823.025  
  20414822.506    80112254.806  
  22592216.490   118722956.735    22592214.328    92511413.382    22592213.578  
                                
  19319928.805   103421132.670    19319928.519    80438667.002    19319928.269  
                                
  20429180.606   109397359.237    20429179.587    85086845.593    20429179.480  
                                
  20200382.741   107868987.192    20200383.152    83898153.149    20200383.295  
                                
  26131430.497   137321621.282                                                  
  26131433.892   102545391.143  
  27551469.780   144783962.700                                                  
  27551472.532   108117914.268  
  23333891.177   122620461.126                                                  
  23333892.643    91567248.387  
  23472725.624   123350085.431                                                  
  23472728.375    92112133.020  
  25118701.869   131999754.058                                                  
  25118704.818    98571292.998  
 21  8 31  3  6 46.0000000  0 14G 3G 4G16G22G26G31R 7R 8R 9E 1E 4E19
                                E21E27
  21681358.073   113936336.877    21681359.163    88781576.821    21681358.501  
  21681359.395    85082349.443  
  21746752.192   114279979.900    21746751.603    89049346.031    21746751.245  
  21746755.462    85338973.070  
  20345935.511   106918655.729                    83313249.142    20345932.634  
                                
  22589418.434   118708220.634                    92499911.128    22589414.503  
                                
  20415057.788   107281933.345    20415058.789    83596348.279    20415058.467  
  20415057.967    80113178.743  
  22592670.882   118725344.625    22592668.720    92513274.071    22592667.969  
                                
  19320158.512   103422362.360    19320158.244    80439623.425    19320157.993  
                                
  20428681.542   109394686.752    20428680.523    85084766.993    20428680.434  
                                
  20200794.676   107871186.855    20200795.087    83899864.000    20200795.230  
                                
  26130979.143   137319249.467                                                  
  26130982.538   102543619.994  
  27550965.927   144781314.836                                                  
  27550968.679   108115936.962  
  23333740.649   122619670.087                                                  
  23333742.114    91566657.683  
  23472665.905   123349771.668                                                  
  23472668.657    92111898.717  
  25119105.530   132001875.312                                                  
  25119108.479    98572877.053  
 21  8 31  3  6 47.0000000  0 14G 3G 4G16G22G26G31R 7R 8R 9E 1E 4E19
                                E21E27
  21681647.265   113937856.617    21681648.337    88782761.033    21681647.676  
  21681648.587    85083484.321  
  21746283.130   114277514.887    21746282.523    89047425.248    21746282.166  
  21746286.401    85337132.318  
  20345636.080   106917082.208                    83312023.021    20345633.221  
                                
  22589876.042   118710625.362                    92501784.940    22589872.092  
                                
  20415293.355   107283171.190    20415294.338    83597312.835    20415294.034  
  20415293.516    80114103.111  
  22593125.309   118727732.594    22593123.147    92515134.826    22593122.396  
                                
  19320388.397   103423592.872    19320388.111    80440580.492    19320387.861  
                                
  20428182.567   109392014.861    20428181.567    85082688.859    20428181.460  
                                
  20201206.664   107873386.855    20201207.075    83901575.111    20201207.218  
                                
  26130527.807   137316877.910                                                  
  26130531.149   102541849.017  
  27550462.038   144778666.992                                                  
  27550464.790   108113959.694  
  23333590.192   122618879.397                                                  
  23333591.657    91566067.232  
  23472606.223   123349458.301                                                  
  23472608.939    92111664.709  
  25119509.156   132003996.769                                                  
  25119512.069    98574461.258  
 21  8 31  3  6 48.0000000  0 14G 3G 4G16G22G26G31R 7R 8R 9E 1E 4E19
                                E21E27
  21681936.600   113939377.028    21681937.690    88783945.792    21681937.011  
  21681937.905    85084619.691  
  21745814.104   114275050.196    21745813.515    89045504.731    21745813.157  
  21745817.374    85335291.811  
  20345336.774   106915509.428                    83310797.497    20345333.897  
                                
  22590333.721   118713030.550                    92503659.135    22590329.772  
                                
  20415528.994   107284409.680    20415529.995    83598277.912    20415529.673  
  20415529.155    80115027.960  
  22593579.736   118730120.728    22593577.574    92516995.730    22593576.823  
                                
  19320618.407   103424824.307    19320618.139    80441538.291    19320617.871  
                                
  20427683.718   109389343.622    20427682.699    85080611.247    20427682.610  
                                
  20201618.706   107875587.234    20201619.117    83903286.535    20201619.260  
                                
  26130076.615   137314506.667                                                  
  26130080.010   102540078.286  
  27549958.203   144776019.289                                                  
  27549960.937   108111982.513  
  23333439.806   122618089.115                                                  
  23333441.271    91565477.084  
  23472546.719   123349145.392                                                  
  23472549.471    92111431.043  
  25119912.978   132006118.490                                                  
  25119915.926    98576045.659  
 21  8 31  3  6 49.0000000  0 14G 3G 4G16G22G26G31R 7R 8R 9E 1E 4E19
                                E21E27
  21682226.060   113940898.122    21682227.150    88785131.056    21682226.489  
  21682227.383    85085755.558  
  21745345.168   114272585.870    21745344.578    89043584.470    21745344.221  
  21745348.438    85333451.543  
  20345037.628   106913937.380                    83309572.529    20345034.751  
                                
  22590791.489   118715436.152                    92505533.630    22590787.540  
                                
  20415764.794   107285648.833    20415765.794    83599243.488    20415765.473  
  20415764.955    80115953.295  
  22594034.199   118732509.008    22594032.037    92518856.734    22594031.286  
                                
  19320848.631   103426056.666    19320848.345    80442496.797    19320848.095  
                                
  20427185.011   109386673.017    20427183.993    85078534.112    20427183.903  
                                
  20202030.855   107877788.018    20202031.248    83904998.256    20202031.391  
                                
  26129625.404   137312135.742                                                  
  26129628.745   102538307.792  
  27549454.386   144773371.695                                                  
  27549457.120   108110005.414  
  23333289.492   122617299.252                                                  
  23333290.957    91564887.254  
  23472487.233   123348832.938                                                  
  23472489.967    92111197.717  
  25120316.729   132008240.468                                                  
  25120319.659    98577630.254  
 21  8 31  3  6 50.0000000  0 14G 3G 4G16G22G26G31R 7R 8R 9E 1E 4E19
                                E21E27
  21682515.610   113942419.825    21682516.700    88786316.811    21682516.039  
  21682516.932    85086891.901  
  21744876.267   114270121.820    21744875.677    89041664.447    21744875.320  
  21744879.537    85331611.506  
  20344738.590   106912366.050                    83308348.135    20344735.713  
                                
  22591249.330   118717842.141                    92507408.441    22591245.381  
                                
  20416000.701   107286888.578    20416001.701    83600209.540    20416001.380  
  20416000.861    80116879.081  
  22594488.698   118734897.426    22594486.517    92520717.853    22594485.767  
                                
  19321079.017   103427289.939    19321078.731    80443456.021    19321078.463  
                                
  20426686.412   109384003.050    20426685.376    85076457.485    20426685.286  
                                
  20202443.057   107879989.193    20202443.450    83906710.297    20202443.593  
                                
  26129174.283   137309765.106                                                  
  26129177.642   102536537.521  
  27548950.569   144770724.183                                                  
  27548953.303   108108028.386  
  23333139.249   122616509.765                                                  
  23333140.714    91564297.704  
  23472427.854   123348520.918                                                  
  23472430.588    92110964.715  
  25120720.586   132010362.691                                                  
  25120723.499    98579215.033  
 21  8 31  3  6 51.0000000  0 14G 3G 4G16G22G26G31R 7R 8R 9E 1E 4E19
                                E21E27
  21682805.267   113943941.914    21682806.375    88787502.864    21682805.714  
  21682806.589    85088028.513  
  21744407.366   114267657.799    21744406.794    89039744.442    21744406.418  
  21744410.636    85329771.498  
  20344439.677   106910795.170                    83307124.081    20344436.782  
                                
  22591707.188   118720248.286                    92509283.368    22591703.238  
                                
  20416236.679   107288128.682    20416237.662    83601175.866    20416237.340  
  20416236.822    80117805.133  
  22594943.160   118737285.715    22594940.980    92522578.864    22594940.230  
                                
  19321309.509   103428523.841    19321309.223    80444415.734    19321308.973  
                                
  20426187.866   109381333.485    20426186.848    85074381.168    20426186.741  
                                
  20202855.278   107882190.487    20202855.671    83908422.424    20202855.814  
                                
  26128723.215   137307394.512                                                  
  26128726.610   102534767.270  
  27548446.734   144768076.524                                                  
  27548449.468   108106051.238  
  23332989.042   122615720.405                                                  
  23332990.507    91563708.242  
  23472368.547   123348209.062                                                  
  23472371.299    92110731.841  
  25121124.444   132012484.887                                                  
  25121127.375    98580799.790  
 21  8 31  3  6 52.0000000  0 14G 3G 4G16G22G26G31R 7R 8R 9E 1E 4E19
                                E21E27
  21683095.013   113945464.585    21683096.103    88788689.343    21683095.442  
  21683096.335    85089165.575  
  21743938.536   114265194.047    21743937.946    89037824.617    21743937.589  
  21743941.806    85327931.684  
  20344140.871   106909224.958                    83305900.521    20344137.994  
                                
  22592165.135   118722654.763                    92511158.529    22592161.186  
                                
  20416472.782   107289369.361    20416473.783    83602142.608    20416473.461  
  20416472.943    80118731.611  
  22595397.677   118739674.089    22595395.497    92524439.921    22595394.746  
                                
  19321540.162   103429758.585    19321539.877    80445376.072    19321539.626  
                                
  20425689.481   109378664.555    20425688.445    85072305.320    20425688.356  
                                
  20203267.588   107884392.121    20203267.981    83910134.792    20203268.124  
                                
  26128272.183   137305024.176                                                  
  26128275.596   102532997.205  
  27547942.899   144765428.885                                                  
  27547945.633   108104074.119  
  23332838.906   122614931.376                                                  
  23332840.372    91563119.036  
  23472309.311   123347897.603                                                  
  23472312.081    92110499.255  
  25121528.355   132014607.268                                                  
  25121531.322    98582384.689  
 21  8 31  3  6 53.0000000  0 14G 3G 4G16G22G26G31R 7R 8R 9E 1E 4E19
                                E21E27
  21683384.867   113946987.748    21683385.957    88789876.198    21683385.295  
  21683386.189    85090303.002  
  21743469.742   114262730.446    21743469.135    89035904.905    21743468.777  
  21743473.012    85326091.984  
  20343842.191   106907655.319                    83304677.394    20343839.332  
                                
  22592623.136   118725061.513                    92513033.886    22592619.205  
                                
  20416708.993   107290610.509    20416709.994    83603109.710    20416709.672  
  20416709.172    80119658.441  
  22595852.175   118742062.436    22595850.013    92526300.941    22595849.263  
                                
  19321770.994   103430994.047    19321770.709    80446336.959    19321770.458  
                                
  20425191.186   109375996.145    20425190.167    85070229.862    20425190.078  
                                
  20203679.933   107886593.975    20203680.344    83911847.316    20203680.487  
                                
  26127821.115   137302653.961                                                  
  26127824.492   102531227.248  
  27547439.064   144762781.223                                                  
  27547441.798   108102096.962  
  23332688.807   122614142.593                                                  
  23332690.272    91562530.010  
  23472250.075   123347586.422                                                  
  23472252.827    92110266.880  
  25121932.213   132016729.749                                                  
  25121935.162    98583969.656  
 21  8 31  3  6 54.0000000  0 14G 3G 4G16G22G26G31R 7R 8R 9E 1E 4E19
                                E21E27
  21683674.809   113948511.429    21683675.917    88791063.475    21683675.238  
  21683676.132    85091440.815  
  21743000.948   114260267.020    21743000.359    89033985.341    21743000.001  
  21743004.218    85324252.411  
  20343543.617   106906086.266                    83303454.755    20343540.758  
                                
  22593081.208   118727468.538                    92514909.479    22593077.259  
                                
  20416945.275   107291852.154    20416946.276    83604077.218    20416945.954  
  20416945.454    80120585.645  
  22596306.674   118744450.798    22596304.512    92528162.001    22596303.761  
                                
  19322001.934   103432230.274    19322001.648    80447298.464    19322001.398  
                                
  20424692.980   109373328.279    20424691.961    85068154.846    20424691.872  
                                
  20204092.315   107888796.069    20204092.726    83913560.048    20204092.868  
                                
  26127370.119   137300283.927                                                  
  26127373.496   102529457.420  
  27546935.211   144760133.506                                                  
  27546937.945   108100119.781  
  23332538.760   122613354.065                                                  
  23332540.226    91561941.171  
  23472190.911   123347275.558                                                  
  23472193.663    92110034.744  
  25122336.143   132018852.347                                                  
  25122339.073    98585554.715  
 21  8 31  3  6 55.0000000  0 14G 3G 4G16G22G26G31R 7R 8R 9E 1E 4E19
                                E21E27
  21683964.895   113950035.807    21683966.003    88792251.304    21683965.324  
  21683966.217    85092579.145  
  21742532.262   114257803.976    21742531.672    89032066.089    21742531.297  
  21742535.532    85322413.118  
  20343245.187   106904517.997                    83302232.725    20343242.310  
                                
  22593539.316   118729876.015                    92516785.437    22593535.385  
                                
  20417181.682   107293094.467    20417182.683    83605045.252    20417182.361  
  20417181.861    80121513.340  
  22596761.208   118746839.357    22596759.028    92530023.218    22596758.278  
                                
  19322233.052   103433467.433    19322232.766    80448260.704    19322232.516  
                                
  20424194.916   109370661.164    20424193.898    85066080.423    20424193.808  
                                
  20204504.803   107890998.633    20204505.196    83915273.151    20204505.357  
                                
  26126919.176   137297914.248                                                  
  26126922.536   102527687.855  
  27546431.412   144757485.961                                                  
  27546434.146   108098142.717  
  23332388.786   122612565.981                                                  
  23332390.251    91561352.675  
  23472131.854   123346965.188                                                  
  23472134.606    92109802.967  
  25122740.108   132020975.235                                                  
  25122743.056    98587139.991  
 21  8 31  3  6 56.0000000  0 14G 3G 4G16G22G26G31R 7R 8R 9E 1E 4E19
                                E21E27
  21684255.106   113951560.884    21684256.196    88793439.674    21684255.535  
  21684256.428    85093717.999  
  21742063.611   114255341.267    21742063.003    89030147.099    21742062.646  
  21742066.863    85320574.093  
  20342946.899   106902950.488                    83301011.292    20342944.040  
                                
  22593997.532   118732283.947                    92518661.753    22593993.583  
                                
  20417418.197   107294337.453    20417419.197    83606013.814    20417418.876  
  20417418.375    80122441.543  
  22597215.761   118749228.092    22597213.598    92531884.569    22597212.848  
                                
  19322464.330   103434705.552    19322464.062    80449223.685    19322463.794  
                                
  20423696.996   109367994.743    20423695.960    85064006.542    20423695.870  
                                
  20204917.327   107893201.594    20204917.738    83916986.565    20204917.881  
                                
  26126468.305   137295544.913                                                  
  26126471.682   102525918.552  
  27545927.631   144754838.555                                                  
  27545930.365   108096165.755  
  23332238.900   122611778.349                                                  
  23332240.366    91560764.504  
  23472072.868   123346655.292                                                  
  23472075.620    92109571.558  
  25123144.126   132023098.426                                                  
  25123147.057    98588725.486  
 21  8 31  3  6 57.0000000  0 14G 3G 4G16G22G26G31R 7R 8R 9E 1E 4E19
                                E21E27
  21684545.424   113953086.498    21684546.514    88794628.470    21684545.853  
  21684546.746    85094857.265  
  21741595.031   114252878.789    21741594.424    89028228.292    21741594.067  
  21741598.284    85318735.232  
  20342648.737   106901383.607                    83299790.350    20342645.877  
                                
  22594455.801   118734692.167                    92520538.290    22594451.869  
                                
  20417654.836   107295580.966    20417655.837    83606982.790    20417655.515  
  20417655.015    80123370.141  
  22597670.331   118751616.880    22597668.151    92533745.965    22597667.418  
                                
  19322695.788   103435944.502    19322695.502    80450187.318    19322695.252  
                                
  20423199.147   109365328.865    20423198.129    85061933.087    20423198.039  
                                
  20205329.923   107895404.856    20205330.334    83918700.218    20205330.477  
                                
  26126017.434   137293175.789                                                  
  26126020.775   102524149.395  
  27545423.832   144752191.154                                                  
  27545426.548   108094188.811  
  23332089.069   122610991.019                                                  
  23332090.534    91560176.560  
  23472013.936   123346345.758                                                  
  23472016.670    92109340.408  
  25123548.145   132025221.761                                                  
  25123551.057    98590311.100  
 21  8 31  3  6 58.0000000  0 14G 3G 4G16G22G26G31R 7R 8R 9E 1E 4E19
                                E21E27
  21684835.903   113954612.966    21684837.011    88795817.944    21684836.349  
  21684837.225    85095997.151  
  21741126.524   114250416.811    21741125.916    89026309.885    21741125.559  
  21741129.776    85316896.741  
  20342350.717   106899817.630                    83298570.122    20342347.858  
                                
  22594914.177   118737101.003                    92522415.319    22594910.228  
                                
  20417891.601   107296825.290    20417892.601    83607952.414    20417892.280  
  20417891.761    80124299.346  
  22598124.954   118754005.985    22598122.774    92535607.623    22598122.024  
                                
  19322927.406   103437184.546    19322927.120    80451151.813    19322926.870  
                                
  20422701.459   109362663.802    20422700.441    85059860.273    20422700.333  
                                
  20205742.626   107897608.705    20205743.019    83920414.337    20205743.180  
                                
  26125566.759   137290807.146                                                  
  26125570.119   102522380.612  
  27544920.104   144749544.041                                                  
  27544922.820   108092212.071  
  23331939.344   122610204.249                                                  
  23331940.809    91559589.044  
  23471955.183   123346036.837                                                  
  23471957.935    92109109.726  
  25123952.324   132027345.532                                                  
  25123955.273    98591897.025  
 21  8 31  3  6 59.0000000  0 14G 3G 4G16G22G26G31R 7R 8R 9E 1E 4E19
                                E21E27
  21685126.471   113956139.859    21685127.579    88797007.704    21685126.918  
  21685127.793    85097137.344  
  21740658.051   114247954.929    21740657.444    89024391.515    21740657.086  
  21740661.304    85315058.312  
  20342052.840   106898252.178                    83297350.280    20342049.981  
                                
  22595372.607   118739510.026                    92524292.462    22595368.658  
                                
  20418128.490   107298070.036    20418129.491    83608922.318    20418129.169  
  20418128.651    80125228.849  
  22598579.578   118756395.033    22598577.416    92537469.192    22598576.665  
                                
  19323159.203   103438425.260    19323158.917    80452116.796    19323158.649  
                                
  20422203.878   109359999.156    20422202.842    85057787.771    20422202.752  
                                
  20206155.400   107899812.734    20206155.794    83922128.572    20206155.937  
                                
  26125115.995   137288438.586                                                  
  26125119.355   102520611.893  
  27544416.358   144746896.814                                                  
  27544419.074   108090235.245  
  23331789.673   122609417.688                                                  
  23331791.138    91559001.672  
  23471896.465   123345728.159                                                  
  23471899.217    92108879.218  
  25124356.486   132029469.319                                                  
  25124359.416    98593482.985  
 21  8 31  3  7  0.0000000  0 14G 3G 4G16G22G26G31R 7R 8R 9E 1E 4E19
                                E21E27
  21685417.111   113957667.321    21685418.218    88798197.923    21685417.557  
  21685418.451    85098277.986  
  21740189.597   114245493.285    21740188.990    89022473.344    21740188.632  
  21740192.867    85313220.074  
  20341755.071   106896687.363                    83296130.937    20341752.194  
                                
  22595831.090   118741919.370                    92526169.868    22595827.159  
                                
  20418365.451   107299315.310    20418366.452    83609892.653    20418366.130  
  20418365.630    80126158.766  
  22599034.220   118758784.123    22599032.040    92539330.816    22599031.307  
                                
  19323391.125   103439666.757    19323390.839    80453082.398    19323390.589  
                                
  20421706.387   109357335.088    20421705.368    85055715.711    20421705.261  
                                
  20206568.193   107902017.046    20206568.604    83923843.030    20206568.747  
                                
  26124665.338   137286070.272                                                  
  26124668.716   102518843.335  
  27543912.613   144744249.612                                                  
  27543915.329   108088258.446  
  23331640.056   122608631.426                                                  
  23331641.521    91558414.531  
  23471837.783   123345419.837                                                  
  23471840.535    92108648.975  
  25124760.647   132031593.302                                                  
  25124763.596    98595069.069  
 21  8 31  3  7  1.0000000  0 14G 3G 4G16G22G26G31R 7R 8R 9E 1E 4E19
                                E21E27
  21685707.893   113959195.318    21685709.001    88799388.581    21685708.340  
  21685709.215    85099419.020  
  21739721.196   114243031.843    21739720.589    89020555.346    21739720.231  
  21739724.449    85311381.986  
  20341457.409   106895123.161                    83294912.092    20341454.532  
                                
  22596289.627   118744329.019                    92528047.527    22596285.678  
                                
  20418602.520   107300561.110    20418603.520    83610863.422    20418603.199  
  20418602.680    80127089.073  
  22599488.843   118761173.275    22599486.681    92541192.502    22599485.931  
                                
  19323623.190   103440909.055    19323622.904    80454048.644    19323622.654  
                                
  20421208.985   109354671.615    20421207.966    85053644.130    20421207.877  
                                
  20206981.039   107904221.647    20206981.432    83925557.734    20206981.575  
                                
  26124214.664   137283702.142                                                  
  26124218.005   102517074.929  
  27543408.867   144741602.417                                                  
  27543411.583   108086281.640  
  23331490.492   122607845.460                                                  
  23331491.957    91557827.611  
  23471779.119   123345111.858                                                  
  23471781.853    92108418.991  
  25125164.827   132033717.417                                                  
  25125167.722    98596655.261  
 21  8 31  3  7  2.0000000  0 14G 3G 4G16G22G26G31R 7R 8R 9E 1E 4E19
                                E21E27
  21685998.729   113960723.655    21685999.837    88800579.523    21685999.176  
  21686000.052    85100560.317  
  21739252.814   114240570.430    21739252.224    89018637.390    21739251.867  
  21739256.084    85309543.912  
  20341159.800   106893559.387                    83293693.592    20341156.923  
                                
  22596748.164   118746738.779                    92529925.295    22596744.215  
                                
  20418839.624   107301807.247    20418840.624    83611834.458    20418840.303  
  20418839.785    80128019.623  
  22599943.431   118763562.248    22599941.269    92543054.066    22599940.519  
                                
  19323855.345   103442151.951    19323855.059    80455015.366    19323854.808  
                                
  20420711.654   109352008.540    20420710.618    85051572.877    20420710.528  
                                
  20207393.885   107906426.313    20207394.278    83927272.502    20207394.421  
                                
  26123764.007   137281334.010                                                  
  26123767.331   102515306.526  
  27542905.068   144738954.999                                                  
  27542907.784   108084304.689  
  23331340.946   122607059.589                                                  
  23331342.412    91557240.752  
  23471720.545   123344804.007                                                  
  23471723.279    92108189.105  
  25125569.006   132035841.474                                                  
  25125571.901    98598241.407  
 21  8 31  3  7  3.0000000  0 14G 3G 4G16G22G26G31R 7R 8R 9E 1E 4E19
                                E21E27
  21686289.637   113962252.438    21686290.763    88801770.801    21686290.084  
  21686290.959    85101701.945  
  21738784.449   114238109.112    21738783.859    89016719.500    21738783.484  
  21738787.701    85307705.916  
  20340862.317   106891996.130                    83292475.486    20340859.440  
                                
  22597206.755   118749148.739                    92531803.197    22597202.788  
                                
  20419076.817   107303053.789    20419077.800    83612805.810    20419077.478  
  20419076.960    80128950.485  
  22600398.019   118765951.164    22600395.839    92544915.576    22600395.089  
                                
  19324087.660   103443395.534    19324087.356    80455982.616    19324087.106  
                                
  20420214.431   109349345.961    20420213.394    85049501.999    20420213.305  
                                
  20207806.766   107908631.153    20207807.159    83928987.394    20207807.302  
                                
  26123313.422   137278965.996                                                  
  26123316.781   102513538.201  
  27542401.268   144736307.504                                                  
  27542403.985   108082327.662  
  23331191.436   122606273.908                                                  
  23331192.901    91556654.042  
  23471662.041   123344496.395                                                  
  23471664.793    92107959.399  
  25125973.239   132037965.580                                                  
  25125976.152    98599827.591  
 21  8 31  3  7  4.0000000  0 14G 3G 4G16G22G26G31R 7R 8R 9E 1E 4E19
                                E21E27
  21686580.670   113963781.749    21686581.778    88802962.472    21686581.117  
  21686581.992    85102843.964  
  21738316.102   114235647.978    21738315.512    89014801.729    21738315.154  
  21738319.354    85305868.066  
  20340564.958   106890433.487                    83291257.842    20340562.081  
                                
  22597665.417   118751558.980                    92533681.302    22597661.450  
                                
  20419314.136   107304300.815    20419315.118    83613777.528    20419314.815  
  20419314.279    80129881.721  
  22600852.625   118768340.090    22600850.445    92546777.077    22600849.694  
                                
  19324320.118   103444639.907    19324319.814    80456950.457    19324319.564  
                                
  20419717.314   109346683.944    20419716.296    85047431.539    20419716.189  
                                
  20208219.719   107910836.260    20208220.112    83930702.475    20208220.255  
                                
  26122862.854   137276598.148                                                  
  26122866.214   102511770.001  
  27541897.469   144733659.992                                                  
  27541900.185   108080350.625  
  23331041.980   122605488.491                                                  
  23331043.445    91556067.538  
  23471603.574   123344189.117                                                  
  23471606.326    92107729.934  
  25126377.490   132040089.821                                                  
  25126380.421    98601413.864  
 21  8 31  3  7  5.0000000  0 14G 3G 4G16G22G26G31R 7R 8R 9E 1E 4E19
                                E21E27
  21686871.774   113965311.577    21686872.882    88804154.529    21686872.221  
  21686873.096    85103986.370  
  21737847.790   114233187.027    21737847.183    89012884.093    21737846.825  
  21737851.042    85304030.344  
  20340267.707   106888871.427                    83290040.634    20340264.848  
                                
  22598124.132   118753969.515                    92535559.628    22598120.165  
                                
  20419551.543   107305548.357    20419552.526    83614749.621    20419552.222  
  20419551.686    80130813.325  
  22601307.231   118770729.028    22601305.051    92548638.572    22601304.300  
                                
  19324552.737   103445885.036    19324552.433    80457918.872    19324552.183  
                                
  20419220.305   109344022.417    20419219.269    85045361.444    20419219.180  
                                
  20208632.708   107913041.628    20208633.101    83932417.740    20208633.244  
                                
  26122412.251   137274230.468                                                  
  26122415.575   102510001.930  
  27541393.652   144731012.436                                                  
  27541396.350   108078373.556  
  23330892.559   122604703.338                                                  
  23330894.024    91555481.225  
  23471545.124   123343882.133                                                  
  23471547.858    92107500.694  
  25126781.687   132042214.165                                                  
  25126784.582    98603000.225  
 21  8 31  3  7  6.0000000  0 14G 3G 4G16G22G26G31R 7R 8R 9E 1E 4E19
                                E21E27
  21687163.039   113966842.224    21687164.165    88805347.245    21687163.504  
  21687164.379    85105129.380  
  21737379.586   114230726.559    21737378.996    89010966.853    21737378.621  
  21737382.838    85302192.986  
  20339970.635   106887310.262                    83288824.146    20339967.758  
                                
  22598582.937   118756380.590                    92537438.394    22598578.988  
                                
  20419789.094   107306796.680    20419790.077    83615722.345    20419789.755  
  20419789.237    80131745.519  
  22601761.890   118773118.267    22601759.710    92550500.325    22601758.960  
                                
  19324785.534   103447131.234    19324785.231    80458888.144    19324784.980  
                                
  20418723.439   109341361.683    20418722.403    85043291.991    20418722.314  
                                
  20209045.804   107915247.523    20209046.197    83934133.441    20209046.340  
                                
  26121961.827   137271863.266                                                  
  26121965.186   102508234.216  
  27540889.889   144728365.164                                                  
  27540892.605   108076396.704  
  23330743.263   122603918.749                                                  
  23330744.728    91554895.330  
  23471486.854   123343575.759                                                  
  23471489.623    92107271.913  
  25127186.063   132044338.920                                                  
  25127189.012    98604586.897  
 21  8 31  3  7  7.0000000  0 14G 3G 4G16G22G26G31R 7R 8R 9E 1E 4E19
                                E21E27
  21687454.465   113968373.642    21687455.591    88806540.558    21687454.930  
  21687455.805    85106272.963  
  21736911.453   114228266.529    21736910.846    89009049.941    21736910.488  
  21736914.706    85300355.955  
  20339673.723   106885749.940                    83287608.315    20339670.846  
                                
  22599041.850   118758792.193                    92539317.563    22599037.883  
                                
  20420026.788   107308045.755    20420027.771    83616695.652    20420027.467  
  20420026.931    80132678.269  
  22602216.603   118775507.780    22602214.423    92552362.280    22602213.673  
                                
  19325018.529   103448378.497    19325018.243    80459858.235    19325017.975  
                                
  20418226.698   109338701.709    20418225.662    85041223.127    20418225.573  
                                
  20209458.990   107917453.943    20209459.401    83935849.550    20209459.544  
                                
  26121511.384   137269496.478                                                  
  26121514.708   102506466.810  
  27540386.179   144725718.098                                                  
  27540388.877   108074420.003  
  23330594.057   122603134.679                                                  
  23330595.522    91554309.826  
  23471428.636   123343269.954                                                  
  23471431.352    92107043.550  
  25127590.404   132046464.042                                                  
  25127593.298    98606173.836  
 21  8 31  3  7  8.0000000  0 14G 3G 4G16G22G26G31R 7R 8R 9E 1E 4E19
                                E21E27
  21687745.945   113969905.427    21687747.070    88807734.168    21687746.409  
  21687747.285    85107416.844  
  21736443.339   114225806.581    21736442.749    89007133.112    21736442.392  
  21736446.609    85298518.970  
  20339376.865   106884190.104                    83286392.864    20339374.006  
                                
  22599500.798   118761203.975                    92541196.885    22599496.831  
                                
  20420264.553   107309295.217    20420265.536    83617669.265    20420265.214  
  20420264.678    80133611.307  
  22602671.281   118777897.166    22602669.100    92554224.146    22602668.350  
                                
  19325251.648   103449626.406    19325251.344    80460828.843    19325251.094  
                                
  20417730.047   109336042.150    20417729.010    85039154.588    20417728.903  
                                
  20209872.211   107919660.506    20209872.604    83937565.772    20209872.747  
                                
  26121061.031   137267129.751                                                  
  26121064.355   102504699.447  
  27539882.415   144723070.906                                                  
  27539885.131   108072443.202  
  23330444.886   122602350.750                                                  
  23330446.352    91553724.424  
  23471370.473   123342964.340                                                  
  23471373.207    92106815.330  
  25127994.815   132048589.158                                                  
  25127997.710    98607760.778  
 21  8 31  3  7  9.0000000  0 14G 3G 4G16G22G26G31R 7R 8R 9E 1E 4E19
                                E21E27
  21688037.496   113971437.449    21688038.621    88808927.957    21688037.960  
  21688038.818    85108560.880  
  21735975.206   114223346.498    21735974.616    89005216.174    21735974.241  
  21735978.458    85296681.906  
  20339080.096   106882630.551                    83285177.632    20339077.237  
                                
  22599959.710   118763615.737                    92543076.189    22599955.761  
                                
  20420502.336   107310544.860    20420503.319    83618643.025    20420502.997  
  20420502.479    80134544.489  
  22603125.886   118780286.271    22603123.706    92556085.798    22603122.956  
                                
  19325484.839   103450874.760    19325484.535    80461799.787    19325484.285  
                                
  20417233.413   109333382.842    20417232.377    85037086.245    20417232.287  
                                
  20210285.396   107921867.015    20210285.789    83939281.953    20210285.932  
                                
  26120610.625   137264762.881                                                  
  26120613.948   102502931.998  
  27539378.634   144720423.379                                                  
  27539381.332   108070466.146  
  23330295.698   122601566.800                                                  
  23330297.163    91553139.001  
  23471312.309   123342658.726                                                  
  23471315.043    92106587.113  
  25128399.173   132050714.097                                                  
  25128402.086    98609347.581  
 21  8 31  3  7 10.0000000  0 14G 3G 4G16G22G26G31R 7R 8R 9E 1E 4E19
                                E21E27
  21688329.100   113972969.895    21688330.226    88810122.068    21688329.565  
  21688330.440    85109705.243  
  21735507.073   114220886.511    21735506.484    89003299.301    21735506.126  
  21735510.325    85294844.910  
  20338783.435   106881071.514                    83283962.800    20338780.558  
                                
  22600418.694   118766027.695                    92544955.639    22600414.745  
                                
  20420740.209   107311794.912    20420741.191    83619617.089    20420740.870  
  20420740.352    80135477.969  
  22603580.510   118782675.302    22603578.330    92557947.383    22603577.579  
                                
  19325718.172   103452123.775    19325717.869    80462771.248    19325717.618  
                                
  20416736.904   109330724.004    20416735.868    85035018.262    20416735.779  
                                
  20210698.653   107924073.679    20210699.046    83940998.255    20210699.189  
                                
  26120160.236   137262396.116                                                  
  26120163.560   102501164.605  
  27538874.781   144717775.729                                                  
  27538877.479   108068489.024  
  23330146.545   122600783.020                                                  
  23330148.010    91552553.717  
  23471254.199   123342353.359                                                  
  23471256.933    92106359.077  
  25128803.532   132052839.064                                                  
  25128806.426    98610934.411  
 21  8 31  3  7 11.0000000  0 14G 3G 4G16G22G26G31R 7R 8R 9E 1E 4E19
                                E21E27
  21688620.830   113974502.886    21688621.956    88811316.611    21688621.294  
  21688622.152    85110850.007  
  21735039.012   114218426.751    21735038.405    89001382.607    21735038.047  
  21735042.264    85293008.071  
  20338486.862   106879513.107                    83282748.459    20338483.985  
                                
  22600877.731   118768439.932                    92546835.309    22600873.782  
                                
  20420978.206   107313045.486    20420979.171    83620591.569    20420978.867  
  20420978.331    80136411.843  
  22604035.134   118785064.374    22604032.954    92559809.002    22604032.203  
                                
  19325951.631   103453373.573    19325951.345    80463743.313    19325951.077  
                                
  20416240.485   109328065.758    20416239.449    85032950.737    20416239.359  
                                
  20211111.946   107926280.612    20211112.339    83942714.763    20211112.482  
                                
  26119709.901   137260029.545                                                  
  26119713.225   102499397.362  
  27538370.964   144715128.099                                                  
  27538373.662   108066511.892  
  23329997.464   122599999.537                                                  
  23329998.929    91551968.647  
  23471196.160   123342048.323                                                  
  23471198.894    92106131.288  
  25129207.943   132054964.179                                                  
  25129210.856    98612521.346  
 21  8 31  3  7 12.0000000  0 14G 3G 4G16G22G26G31R 7R 8R 9E 1E 4E19
                                E21E27
  21688912.702   113976036.663    21688913.828    88812511.764    21688913.167  
  21688914.025    85111995.358  
  21734571.004   114215967.437    21734570.415    88999466.261    21734570.057  
  21734574.257    85291171.573  
  20338190.469   106877955.558                    83281534.789    20338187.592  
                                
  22601336.858   118770852.729                    92548715.409    22601332.909  
                                
  20421216.311   107314296.834    20421217.294    83621566.643    20421216.972  
  20421216.454    80137346.287  
  22604489.829   118787453.723    22604487.649    92561670.830    22604486.880  
                                
  19326185.304   103454624.408    19326185.001    80464716.185    19326184.750  
                                
  20415744.244   109325408.322    20415743.208    85030883.843    20415743.119  
                                
  20211525.310   107928488.064    20211525.703    83944431.669    20211525.846  
                                
  26119259.637   137257663.432                                                  
  26119262.961   102497630.455  
  27537867.165   144712480.707                                                  
  27537869.881   108064534.941  
  23329848.472   122599216.594                                                  
  23329849.937    91551383.984  
  23471138.229   123341743.874                                                  
  23471140.963    92105903.940  
  25129612.409   132057089.686                                                  
  25129615.303    98614108.572  
 21  8 31  3  7 13.0000000  0 14G 3G 4G16G22G26G31R 7R 8R 9E 1E 4E19
                                E21E27
  21689204.700   113977571.145    21689205.826    88813707.464    21689205.165  
  21689206.022    85113141.242  
  21734103.086   114213508.495    21734102.497    88997550.205    21734102.139  
  21734106.338    85289335.352  
  20337894.236   106876398.786                    83280321.720    20337891.359  
                                
  22601796.109   118773266.002                    92550595.881    22601792.142  
                                
  20421454.559   107315548.858    20421455.541    83622542.250    20421455.220  
  20421454.702    80138281.244  
  22604944.524   118789843.273    22604942.344    92563532.820    22604941.593  
                                
  19326419.156   103455876.215    19326418.852    80465689.817    19326418.602  
                                
  20415248.111   109322751.592    20415247.074    85028817.497    20415246.985  
                                
  20211938.799   107930695.969    20211939.192    83946148.926    20211939.335  
                                
  26118809.445   137255297.665                                                  
  26118812.787   102495863.815  
  27537363.419   144709833.474                                                  
  27537366.117   108062558.124  
  23329699.569   122598434.097                                                  
  23329701.035    91550799.649  
  23471080.387   123341439.918                                                  
  23471083.121    92105676.966  
  25130016.928   132059215.485                                                  
  25130019.822    98615696.022  
 21  8 31  3  7 14.0000000  0 14G 3G 4G16G22G26G31R 7R 8R 9E 1E 4E19
                                E21E27
  21689496.787   113979106.085    21689497.913    88814903.526    21689497.252  
  21689498.109    85114287.467  
  21733635.186   114211049.677    21733634.596    88995634.244    21733634.239  
  21733638.438    85287499.235  
  20337598.111   106874842.569                    83279109.081    20337595.234  
                                
  22602255.379   118775679.486                    92552476.515    22602251.412  
                                
  20421692.896   107316801.310    20421693.878    83623518.187    20421693.557  
  20421693.039    80139216.521  
  22605399.237   118792232.759    22605397.057    92565394.757    22605396.307  
                                
  19326653.133   103457128.760    19326652.829    80466664.014    19326652.579  
                                
  20414752.067   109320095.328    20414751.030    85026751.521    20414750.941  
                                
  20212352.288   107932904.091    20212352.681    83947866.357    20212352.824  
                                
  26118359.289   137252932.042                                                  
  26118362.612   102494097.259  
  27536859.638   144707186.153                                                  
  27536862.336   108060581.226  
  23329550.685   122597651.817                                                  
  23329552.150    91550215.481  
  23471022.598   123341136.220                                                  
  23471025.332    92105450.175  
  25130421.482   132061341.355                                                  
  25130424.377    98617283.518  
 21  8 31  3  7 15.0000000  0 14G 3G 4G16G22G26G31R 7R 8R 9E 1E 4E19
                                E21E27
  21689789.035   113980641.819    21689790.161    88816100.195    21689789.500  
  21689790.357    85115434.276  
  21733167.393   114208591.331    21733166.785    88993718.646    21733166.428  
  21733170.645    85285663.457  
  20337302.110   106873287.217                    83277897.117    20337299.251  
                                
  22602714.738   118778093.507                    92554357.569    22602710.771  
                                
  20421931.394   107318054.545    20421932.358    83624494.734    20421932.055  
  20421931.519    80140152.381  
  22605854.004   118794622.551    22605851.806    92567256.930    22605851.055  
                                
  19326887.325   103458382.372    19326887.021    80467639.041    19326886.771  
                                
  20414256.184   109317439.899    20414255.147    85024686.183    20414255.058  
                                
  20212765.903   107935112.744    20212766.296    83949584.199    20212766.439  
                                
  26117909.204   137250566.838                                                  
  26117912.527   102492331.042  
  27536355.928   144704539.086                                                  
  27536358.626   108058604.523  
  23329401.943   122596870.080                                                  
  23329403.408    91549631.714  
  23470964.917   123340833.112                                                  
  23470967.651    92105223.828  
  25130826.091   132063467.612                                                  
  25130828.985    98618871.310  
 21  8 31  3  7 16.0000000  0 14G 3G 4G16G22G26G31R 7R 8R 9E 1E 4E19
                                E21E27
  21690081.390   113982178.150    21690082.516    88817297.322    21690081.855  
  21690082.712    85116581.535  
  21732699.635   114206133.249    21732699.028    88991803.244    21732698.670  
  21732702.870    85283827.879  
  20337006.289   106871732.540                    83276685.669    20337003.412  
                                
  22603174.204   118780507.901                    92556238.905    22603170.237  
                                
  20422169.981   107319308.350    20422170.963    83625471.711    20422170.642  
  20422170.124    80141088.659  
  22606308.806   118797012.433    22606306.608    92569119.160    22606305.858  
                                
  19327121.659   103459636.827    19327121.373    80468614.718    19327121.123  
                                
  20413760.443   109314785.107    20413759.407    85022621.337    20413759.317  
                                
  20213179.588   107937321.729    20213179.981    83951302.286    20213180.124  
                                
  26117459.208   137248201.904                                                  
  26117462.585   102490565.020  
  27535852.218   144701892.091                                                  
  27535854.916   108056627.868  
  23329253.255   122596088.692                                                  
  23329254.720    91549048.208  
  23470907.361   123340530.394                                                  
  23470910.131    92104997.772  
  25131230.788   132065594.069                                                  
  25131233.719    98620459.253  
 21  8 31  3  7 17.0000000  0 14G 3G 4G16G22G26G31R 7R 8R 9E 1E 4E19
                                E21E27
  21690373.852   113983715.149    21690374.978    88818494.964    21690374.317  
  21690375.175    85117729.308  
  21732231.931   114203675.531    21732231.324    88989888.113    21732230.967  
  21732235.184    85281992.559  
  20336710.610   106870178.615                    83275474.793    20336707.733  
                                
  22603633.742   118782922.741                    92558120.580    22603629.793  
                                
  20422408.729   107320562.824    20422409.712    83626449.196    20422409.390  
  20422408.872    80142025.442  
  22606763.626   118799402.488    22606761.446    92570981.513    22606760.696  
                                
  19327356.208   103460892.190    19327355.922    80469591.087    19327355.672  
                                
  20413264.828   109312131.029    20413263.809    85020557.026    20413263.702  
                                
  20213593.346   107939531.136    20213593.757    83953020.693    20213593.899  
                                
  26117009.195   137245837.297                                                  
  26117012.500   102488799.250  
  27535348.526   144699245.224                                                  
  27535351.224   108054651.312  
  23329104.638   122595307.727                                                  
  23329106.103    91548465.022  
  23470849.787   123340228.161                                                  
  23470852.521    92104772.076  
  25131635.432   132067720.814                                                  
  25131638.327    98622047.404  
 21  8 31  3  7 18.0000000  0 14G 3G 4G16G22G26G31R 7R 8R 9E 1E 4E19
                                E21E27
  21690666.458   113985252.780    21690667.583    88819693.126    21690666.922  
  21690667.780    85118877.536  
  21731764.299   114201218.083    21731763.709    88987973.230    21731763.352  
  21731767.551    85280157.447  
  20336415.038   106868625.388                    83274264.500    20336412.162  
                                
  22604093.333   118785337.935                    92560002.562    22604089.366  
                                
  20422647.548   107321817.878    20422648.531    83627427.174    20422648.209  
  20422647.691    80142962.656  
  22607218.464   118801792.655    22607216.284    92572843.992    22607215.516  
                                
  19327590.864   103462148.376    19327590.578    80470568.134    19327590.328  
                                
  20412769.302   109309477.573    20412768.266    85018493.241    20412768.176  
                                
  20214007.156   107941740.869    20214007.549    83954739.386    20214007.692  
                                
  26116559.288   137243472.970                                                  
  26116562.612   102487033.682  
  27534844.870   144696598.416                                                  
  27534847.550   108052674.806  
  23328956.093   122594527.134                                                  
  23328957.558    91547882.108  
  23470792.356   123339926.323                                                  
  23470795.090    92104546.683  
  25132040.183   132069847.761                                                  
  25132043.078    98623635.710  
 21  8 31  3  7 19.0000000  0 14G 3G 4G16G22G26G31R 7R 8R 9E 1E 4E19
                                E21E27
  21690959.188   113986791.112    21690960.314    88820891.826    21690959.653  
  21690960.510    85120026.273  
  21731296.738   114198760.967    21731296.131    88986058.613    21731295.773  
  21731299.973    85278322.596  
  20336119.574   106867072.924                    83273054.803    20336116.715  
                                
  22604553.014   118787753.579                    92561884.879    22604549.047  
                                
  20422886.493   107323073.599    20422887.476    83628405.667    20422887.154  
  20422886.618    80143900.370  
  22607673.303   118804182.993    22607671.122    92574706.609    22607670.354  
                                
  19327825.698   103463405.498    19327825.395    80471545.909    19327825.145  
                                
  20412273.901   109306824.802    20412272.865    85016429.991    20412272.776  
                                
  20214421.039   107943951.046    20214421.432    83956458.427    20214421.575  
                                
  26116109.418   137241108.958                                                  
  26116112.742   102485268.368  
  27534341.213   144693951.737                                                  
  27534343.894   108050698.408  
  23328807.637   122593746.959                                                  
  23328809.084    91547299.524  
  23470735.014   123339624.970                                                  
  23470737.748    92104321.646  
  25132444.988   132071974.998                                                  
  25132447.883    98625224.236  
 21  8 31  3  7 20.0000000  0 14G 3G 4G16G22G26G31R 7R 8R 9E 1E 4E19
                                E21E27
  21691252.026   113988329.957    21691253.151    88822090.934    21691252.490  
  21691253.348    85121175.413  
  21730829.195   114196304.079    21730828.588    88984144.162    21730828.230  
  21730832.430    85276487.910  
  20335824.271   106865521.079                    83271845.583    20335821.394  
                                
  22605012.730   118790169.525                    92563767.439    22605008.763  
                                
  20423125.545   107324329.840    20423126.527    83629384.565    20423126.206  
  20423125.670    80144838.473  
  22608128.176   118806573.365    22608125.996    92576569.241    22608125.246  
                                
  19328060.676   103464663.426    19328060.372    80472524.307    19328060.122  
                                
  20411778.608   109304172.560    20411777.571    85014367.146    20411777.482  
                                
  20214834.992   107946161.518    20214835.386    83958177.690    20214835.529  
                                
  26115659.637   137238745.181                                                  
  26115662.978   102483503.201  
  27533837.575   144691305.082                                                  
  27533840.273   108048722.011  
  23328659.235   122592967.091                                                  
  23328660.700    91546717.151  
  23470677.762   123339323.957                                                  
  23470680.514    92104096.866  
  25132849.847   132074102.373                                                  
  25132852.759    98626812.858  
 21  8 31  3  7 21.0000000  0 14G 3G 4G16G22G26G31R 7R 8R 9E 1E 4E19
                                E21E27
  21691544.952   113989869.275    21691546.078    88823290.391    21691545.417  
  21691546.275    85122324.897  
  21730361.688   114193847.321    21730361.081    88982229.793    21730360.723  
  21730364.940    85274653.320  
  20335529.074   106863969.783                    83270636.764    20335526.215  
                                
  22605472.518   118792585.709                    92565650.166    22605468.551  
                                
  20423364.686   107325586.517    20423365.669    83630363.780    20423365.347  
  20423364.829    80145776.903  
  22608583.050   118808963.702    22608580.870    92578431.828    22608580.102  
                                
  19328295.815   103465922.105    19328295.511    80473503.264    19328295.261  
                                
  20411283.421   109301520.803    20411282.385    85012304.659    20411282.296  
                                
  20215248.982   107948372.176    20215249.375    83959897.080    20215249.518  
                                
  26115209.873   137236381.500                                                  
  26115213.251   102481738.125  
  27533333.919   144688658.339                                                  
  27533336.599   108046745.549  
  23328510.850   122592187.431                                                  
  23328512.316    91546134.935  
  23470620.563   123339023.206                                                  
  23470623.351    92103872.277  
  25133254.723   132076229.816                                                  
  25133257.671    98628401.536  
 21  8 31  3  7 22.0000000  0 14G 3G 4G16G22G26G31R 7R 8R 9E 1E 4E19
                                E21E27
  21691838.004   113991409.358    21691839.130    88824490.421    21691838.469  
  21691839.345    85123474.961  
  21729894.270   114191391.000    21729893.645    88980315.740    21729893.287  
  21729897.504    85272819.061  
  20335234.057   106862419.329                    83269428.589    20335231.198  
                                
  22605932.431   118795002.380                    92567533.254    22605928.464  
                                
  20423604.006   107326843.943    20423604.988    83631343.561    20423604.667  
  20423604.166    80146715.890  
  22609037.996   118811354.297    22609035.816    92580294.595    22609035.065  
                                
  19328531.167   103467181.815    19328530.864    80474483.008    19328530.614  
                                
  20410788.396   109298869.853    20410787.377    85010242.776    20410787.270  
                                
  20215663.079   107950583.328    20215663.472    83961616.833    20215663.615  
                                
  26114760.182   137234018.260                                                  
  26114763.559   102479973.366  
  27532830.298   144686011.836                                                  
  27532832.978   108044769.269  
  23328362.591   122591408.288                                                  
  23328364.056    91545553.112  
  23470563.454   123338723.015                                                  
  23470566.259    92103648.110  
  25133659.635   132078357.629                                                  
  25133662.601    98629990.486  
 21  8 31  3  7 23.0000000  0 14G 3G 4G16G22G26G31R 7R 8R 9E 1E 4E19
                                E21E27
  21692131.164   113992949.950    21692132.289    88825690.866    21692131.610  
  21692132.486    85124625.407  
  21729426.870   114188934.864    21729426.245    88978401.854    21729425.887  
  21729430.104    85270984.939  
  20334939.147   106860869.462                    83268220.882    20334936.287  
                                
  22606392.379   118797419.379                    92569416.614    22606388.430  
                                
  20423843.379   107328101.859    20423844.380    83632323.737    20423844.058  
  20423843.558    80147655.245  
  22609492.923   118813744.887    22609490.743    92582157.378    22609489.992  
                                
  19328766.645   103468442.281    19328766.360    80475463.354    19328766.109  
                                
  20410293.478   109296219.465    20410292.441    85008181.350    20410292.352  
                                
  20216077.211   107952794.742    20216077.622    83963336.808    20216077.765  
                                
  26114310.490   137231655.192                                                  
  26114313.867   102478208.744  
  27532326.678   144683365.292                                                  
  27532329.358   108042792.954  
  23328214.368   122590629.406                                                  
  23328215.833    91544971.484  
  23470506.380   123338423.135                                                  
  23470509.168    92103424.174  
  25134064.565   132080485.553                                                  
  25134067.496    98631579.521  
 21  8 31  3  7 24.0000000  0 14G 3G 4G16G22G26G31R 7R 8R 9E 1E 4E19
                                E21E27
  21692424.466   113994491.271    21692425.591    88826891.896    21692424.912  
  21692425.788    85125776.403  
  21728959.577   114186479.144    21728958.952    88976488.302    21728958.595  
  21728962.812    85269151.114  
  20334644.379   106859320.411                    83267013.822    20334641.520  
                                
  22606852.417   118799836.825                    92571300.334    22606848.468  
                                
  20424082.877   107329360.485    20424083.878    83633304.482    20424083.557  
  20424083.056    80148595.128  
  22609947.868   118816135.696    22609945.706    92584020.344    22609944.956  
                                
  19329002.302   103469703.722    19329002.016    80476444.466    19329001.766  
                                
  20409798.684   109293569.861    20409797.666    85006120.539    20409797.559  
                                
  20216491.433   107955006.646    20216491.844    83965057.168    20216491.987  
                                
  26113860.852   137229292.501                                                  
  26113864.193   102476444.388  
  27531823.093   144680718.939                                                  
  27531825.791   108040816.784  
  23328066.251   122589851.023                                                  
  23328067.717    91544390.213  
  23470449.378   123338123.768                                                  
  23470452.130    92103200.621  
  25134469.531   132082613.803                                                  
  25134472.443    98633168.796  
 21  8 31  3  7 25.0000000  0 14G 3G 4G16G22G26G31R 7R 8R 9E 1E 4E19
                                E21E27
  21692717.839   113996032.975    21692718.965    88828093.230    21692718.304  
  21692719.180    85126927.669  
  21728492.267   114184023.457    21728491.641    88974574.790    21728491.284  
  21728495.501    85267317.322  
  20334349.683   106857771.820                    83265807.139    20334346.824  
                                
  22607312.455   118802254.417                    92573184.186    22607308.506  
                                
  20424322.447   107330619.457    20424323.448    83634285.506    20424323.126  
  20424322.626    80149535.268  
  22610402.814   118818526.394    22610400.634    92585883.235    22610399.883  
                                
  19329238.066   103470965.797    19329237.780    80477426.088    19329237.512  
                                
  20409303.963   109290920.660    20409302.944    85004060.061    20409302.837  
                                
  20216905.655   107957218.624    20216906.066    83966777.605    20216906.209  
                                
  26113411.267   137226929.853                                                  
  26113414.608   102474680.073  
  27531319.490   144678072.425                                                  
  27531322.170   108038840.490  
  23327918.153   122589072.749                                                  
  23327919.618    91543809.036  
  23470392.429   123337824.583                                                  
  23470395.199    92102977.208  
  25134874.514   132084742.035                                                  
  25134877.427    98634758.056  
 21  8 31  3  7 26.0000000  0 14G 3G 4G16G22G26G31R 7R 8R 9E 1E 4E19
                                E21E27
  21693011.320   113997575.230    21693012.446    88829294.997    21693011.785  
  21693012.643    85128079.359  
  21728025.010   114181568.001    21728024.402    88972661.455    21728024.027  
  21728028.244    85265483.705  
  20334055.112   106856223.866                    83264600.951    20334052.253  
                                
  22607772.565   118804672.329                    92575068.284    22607768.598  
                                
  20424562.125   107331878.978    20424563.125    83635266.962    20424562.804  
  20424562.285    80150475.826  
  22610857.741   118820917.145    22610855.579    92587746.165    22610854.811  
                                
  19329473.973   103472228.696    19329473.687    80478408.353    19329473.419  
                                
  20408809.330   109288272.028    20408808.294    85002000.023    20408808.204  
                                
  20217319.948   107959430.900    20217320.359    83968498.273    20217320.502  
                                
  26112961.700   137224567.417                                                  
  26112965.024   102472915.929  
  27530815.870   144675425.931                                                  
  27530818.550   108036864.210  
  23327770.108   122588294.800                                                  
  23327771.573    91543228.101  
  23470335.588   123337525.760                                                  
  23470338.340    92102754.061  
  25135279.534   132086870.428                                                  
  25135282.428    98636347.445  
 21  8 31  3  7 27.0000000  0 14G 3G 4G16G22G26G31R 7R 8R 9E 1E 4E19
                                E21E27
  21693304.873   113999117.826    21693305.980    88830497.033    21693305.319  
  21693306.195    85129231.295  
  21727557.735   114179112.534    21727557.127    88970748.116    21727556.770  
  21727560.987    85263650.085  
  20333760.595   106854676.320                    83263395.087    20333757.736  
                                
  22608232.692   118807090.350                    92576952.465    22608228.725  
                                
  20424801.855   107333138.804    20424802.856    83636248.659    20424802.535  
  20424802.016    80151416.601  
  22611312.651   118823307.729    22611310.471    92589608.969    22611309.720  
                                
  19329710.005   103473492.167    19329709.701    80479391.066    19329709.451  
                                
  20408314.769   109285623.709    20408313.733    84999940.234    20408313.643  
                                
  20217734.224   107961643.239    20217734.617    83970218.995    20217734.760  
                                
  26112512.151   137222204.986                                                  
  26112515.493   102471151.772  
  27530312.213   144672779.231                                                  
  27530314.894   108034887.781  
  23327622.099   122587516.925                                                  
  23327623.546    91542647.220  
  23470278.747   123337227.062                                                  
  23470281.516    92102531.005  
  25135684.535   132088998.749                                                  
  25135687.465    98637936.777  
 21  8 31  3  7 28.0000000  0 14G 3G 4G16G22G26G31R 7R 8R 9E 1E 4E19
                                E21E27
  21693598.514   114000661.005    21693599.640    88831699.520    21693598.979  
  21693599.854    85130383.667  
  21727090.549   114176657.343    21727089.941    88968834.989    21727089.566  
  21727093.783    85261816.656  
  20333466.239   106853129.443                    83262189.731    20333463.380  
                                
  22608692.891   118809508.702                    92578836.900    22608688.924  
                                
  20425041.711   107334399.200    20425042.694    83637230.790    20425042.373  
  20425041.854    80152357.803  
  22611767.578   118825698.377    22611765.398    92591471.818    22611764.648  
                                
  19329946.162   103474756.459    19329945.876    80480374.407    19329945.626  
                                
  20407820.333   109282975.983    20407819.279    84997880.898    20407819.190  
                                
  20218148.588   107963855.921    20218148.981    83971939.975    20218149.124  
                                
  26112062.620   137219842.770                                                  
  26112065.944   102469387.784  
  27529808.557   144670132.547                                                  
  27529811.237   108032911.376  
  23327474.125   122586739.375                                                  
  23327475.573    91542066.586  
  23470221.977   123336928.743                                                  
  23470224.747    92102308.230  
  25136089.590   132091127.262                                                  
  25136092.503    98639526.248  
 21  8 31  3  7 29.0000000  0 14G 3G 4G16G22G26G31R 7R 8R 9E 1E 4E19
                                E21E27
  21693892.317   114002204.795    21693893.442    88832902.459    21693892.763  
  21693893.639    85131536.493  
  21726623.381   114174202.424    21726622.756    88966922.052    21726622.398  
  21726626.616    85259983.445  
  20333172.025   106851583.271                    83260984.912    20333169.166  
                                
  22609153.161   118811927.424                    92580721.603    22609149.194  
                                
  20425281.657   107335660.182    20425282.639    83638213.364    20425282.336  
  20425281.817    80153299.452  
  22612222.541   118828089.152    22612220.361    92593334.743    22612219.611  
                                
  19330182.515   103476021.625    19330182.229    80481358.415    19330181.979  
                                
  20407326.023   109280328.896    20407324.986    84995822.046    20407324.879  
                                
  20218563.042   107966068.978    20218563.436    83973661.223    20218563.579  
                                
  26111613.196   137217480.882                                                  
  26111616.574   102467624.025  
  27529304.919   144667485.988                                                  
  27529307.599   108030935.048  
  23327326.241   122585962.225                                                  
  23327327.707    91541486.249  
  23470165.314   123336630.850                                                  
  23470168.102    92102085.782  
  25136494.699   132093255.999                                                  
  25136497.629    98641115.893  
 21  8 31  3  7 30.0000000  0 14G 3G 4G16G22G26G31R 7R 8R 9E 1E 4E19
                                E21E27
  21694186.208   114003749.222    21694187.316    88834105.888    21694186.655  
  21694187.531    85132689.799  
  21726156.285   114171747.814    21726155.660    88965009.357    21726155.284  
  21726159.519    85258150.461  
  20332877.937   106850037.814                    83259780.646    20332875.078  
                                
  22609613.521   118814346.546                    92582606.614    22609609.554  
                                
  20425521.745   107336921.790    20425522.745    83639196.417    20425522.424  
  20425521.924    80154241.559  
  22612677.522   118830480.049    22612675.342    92595197.762    22612674.592  
                                
  19330419.048   103477287.684    19330418.762    80482343.109    19330418.512  
                                
  20406831.819   109277682.489    20406830.783    84993763.720    20406830.693  
                                
  20218977.550   107968282.379    20218977.961    83975382.741    20218978.104  
                                
  26111163.737   137215119.241                                                  
  26111167.061   102465860.475  
  27528801.334   144664839.485                                                  
  27528803.996   108028958.770  
  23327178.411   122585185.447                                                  
  23327179.876    91540906.185  
  23470108.669   123336333.379                                                  
  23470111.421    92101863.644  
  25136899.771   132095384.959                                                  
  25136902.666    98642705.703  
 21  8 31  3  7 31.0000000  0 14G 3G 4G16G22G26G31R 7R 8R 9E 1E 4E19
                                E21E27
  21694480.207   114005294.244    21694481.333    88835309.813    21694480.672  
  21694481.530    85133843.549  
  21725689.242   114169293.482    21725688.635    88963096.902    21725688.260  
  21725692.477    85256317.679  
  20332583.974   106848493.035                    83258576.931    20332581.115  
                                
  22610073.916   118816766.034                    92584491.936    22610069.967  
                                
  20425761.940   107338183.960    20425762.923    83640179.938    20425762.601  
  20425762.083    80155184.090  
  22613132.503   118832871.047    22613130.323    92597060.888    22613129.573  
                                
  19330655.705   103478554.625    19330655.419    80483328.519    19330655.169  
                                
  20406337.740   109275036.736    20406336.704    84991705.919    20406336.615  
                                
  20219392.094   107970496.122    20219392.505    83977104.550    20219392.648  
                                
  26110714.367   137212757.870                                                  
  26110717.673   102464097.112  
  27528297.731   144662193.062                                                  
  27528300.411   108026982.540  
  23327030.670   122584409.013                                                  
  23327032.135    91540326.383  
  23470052.114   123336036.301                                                  
  23470054.848    92101641.800  
  25137304.934   132097514.128                                                  
  25137307.811    98644295.664  
 21  8 31  3  7 32.0000000  0 14G 3G 4G16G22G26G31R 7R 8R 9E 1E 4E19
                                E21E27
  21694774.314   114006839.803    21694775.439    88836514.181    21694774.778  
  21694775.636    85134997.705  
  21725222.235   114166839.350    21725221.628    88961184.626    21725221.270  
  21725225.470    85254485.045  
  20332290.100   106846948.849                    83257373.706    20332287.223  
                                
  22610534.365   118819185.794                    92586377.503    22610530.398  
                                
  20426002.171   107339446.642    20426003.154    83641163.880    20426002.833  
  20426002.314    80156127.008  
  22613587.467   118835262.044    22613585.269    92598924.040    22613584.518  
                                
  19330892.505   103479822.325    19330892.201    80484314.541    19330891.951  
                                
  20405843.733   109272391.542    20405842.679    84989648.581    20405842.590  
                                
  20219806.691   107972710.122    20219807.084    83978826.585    20219807.227  
                                
  26110265.050   137210396.689                                                  
  26110268.356   102462333.899  
  27527794.111   144659546.621                                                  
  27527796.791   108025006.315  
  23326882.965   122583632.874                                                  
  23326884.430    91539746.794  
  23469995.630   123335739.552                                                  
  23469998.364    92101420.204  
  25137710.132   132099643.422                                                  
  25137712.991    98645885.722  
 21  8 31  3  7 33.0000000  0 14G 3G 4G16G22G26G31R 7R 8R 9E 1E 4E19
                                E21E27
  21695068.545   114008386.058    21695069.689    88837719.073    21695069.028  
  21695069.867    85136152.378  
  21724755.300   114164385.582    21724754.692    88959272.617    21724754.335  
  21724758.534    85252652.690  
  20331996.386   106845405.453                    83256171.080    20331993.510  
                                
  22610994.922   118821606.028                    92588263.410    22610990.937  
                                
  20426242.581   107340710.007    20426243.546    83642148.341    20426243.242  
  20426242.706    80157070.425  
  22614042.483   118837653.250    22614040.286    92600787.333    22614039.535  
                                
  19331129.484   103481090.961    19331129.198    80485301.276    19331128.930  
                                
  20405349.887   109269747.069    20405348.833    84987591.785    20405348.744  
                                
  20220221.359   107974924.554    20220221.752    83980548.939    20220221.895  
                                
  26109815.841   137208035.861                                                  
  26109819.182   102460570.947  
  27527290.544   144656900.326                                                  
  27527293.224   108023030.186  
  23326735.366   122582857.173                                                  
  23326736.832    91539167.542  
  23469939.289   123335443.293                                                  
  23469942.059    92101198.972  
  25138115.419   132101773.016                                                  
  25138118.314    98647476.001  
 21  8 31  3  7 34.0000000  0 14G 3G 4G16G22G26G31R 7R 8R 9E 1E 4E19
                                E21E27
  21695362.937   114009933.017    21695364.063    88838924.487    21695363.402  
  21695364.260    85137307.570  
  21724288.418   114161932.187    21724287.811    88957360.885    21724287.453  
  21724291.652    85250820.625  
  20331702.834   106843862.840                    83254969.039    20331699.957  
                                
  22611455.549   118824026.698                    92590149.656    22611451.582  
                                
  20426483.116   107341974.038    20426484.099    83643133.298    20426483.777  
  20426483.259    80158014.351  
  22614497.572   118840044.655    22614495.374    92602650.766    22614494.623  
                                
  19331366.660   103482360.547    19331366.356    80486288.728    19331366.106  
                                
  20404856.184   109267103.305    20404855.130    84985535.521    20404855.040  
                                
  20220636.135   107977139.421    20220636.528    83982271.614    20220636.671  
                                
  26109366.596   137205675.394                                                  
  26109369.901   102458808.258  
  27526786.995   144654254.202                                                  
  27526789.675   108021054.190  
  23326587.840   122582081.922                                                  
  23326589.305    91538588.622  
  23469882.966   123335147.533                                                  
  23469885.700    92100978.112  
  25138520.671   132103902.903                                                  
  25138523.530    98649066.503  
 21  8 31  3  7 35.0000000  0 14G 3G 4G16G22G26G31R 7R 8R 9E 1E 4E19
                                E21E27
  21695657.383   114011480.337    21695658.509    88840130.204    21695657.848  
  21695658.705    85138463.034  
  21723821.572   114159478.829    21723820.965    88955449.194    21723820.589  
  21723824.788    85248988.570  
  20331409.353   106842320.675                    83253767.367    20331406.476  
                                
  22611916.213   118826447.518                    92592036.026    22611912.228  
                                
  20426723.705   107343238.422    20426724.687    83644118.548    20426724.366  
  20426723.830    80158958.536  
  22614952.589   118842435.922    22614950.409    92604514.107    22614949.640  
                                
  19331603.925   103483630.755    19331603.621    80487276.677    19331603.371  
                                
  20404362.552   109264459.917    20404361.498    84983479.567    20404361.391  
                                
  20221050.929   107979354.414    20221051.304    83983994.403    20221051.447  
                                
  26108917.440   137203314.964                                                  
  26108920.746   102457045.591  
  27526283.428   144651607.902                                                  
  27526286.090   108019078.064  
  23326440.331   122581306.790                                                  
  23326441.796    91538009.790  
  23469826.714   123334851.934                                                  
  23469829.448    92100757.377  
  25138925.958   132106032.758                                                  
  25138928.817    98650656.981  
 21  8 31  3  7 36.0000000  0 14G 3G 4G16G22G26G31R 7R 8R 9E 1E 4E19
                                E21E27
  21695951.954   114013028.332    21695953.080    88841336.437    21695952.418  
  21695953.276    85139619.007  
  21723354.780   114157025.833    21723354.172    88953537.768    21723353.815  
  21723358.014    85247156.778  
  20331116.033   106840779.263                    83252566.263    20331113.174  
                                
  22612376.948   118828868.758                    92593922.706    22612372.981  
                                
  20426964.436   107344503.462    20426965.419    83645104.291    20426965.097  
  20426964.561    80159903.202  
  22615407.677   118844827.357    22615405.479    92606377.565    22615404.728  
                                
  19331841.404   103484901.908    19331841.100    80488265.349    19331840.850  
                                
  20403869.028   109261817.223    20403867.973    84981424.138    20403867.884  
                                
  20221465.812   107981569.812    20221466.205    83985717.485    20221466.348  
                                
  26108468.320   137200954.852                                                  
  26108471.626   102455283.179  
  27525779.861   144648961.731                                                  
  27525782.523   108017102.040  
  23326292.912   122580532.087                                                  
  23326294.377    91537431.280  
  23469770.570   123334556.808                                                  
  23469773.286    92100536.991  
  25139331.317   132108162.898                                                  
  25139334.176    98652247.668  
 21  8 31  3  7 37.0000000  0 14G 3G 4G16G22G26G31R 7R 8R 9E 1E 4E19
                                E21E27
  21696246.685   114014577.175    21696247.811    88842543.318    21696247.150  
  21696248.008    85140775.604  
  21722888.076   114154573.335    21722887.469    88951626.724    21722887.112  
  21722891.311    85245325.379  
  20330822.892   106839238.780                    83251365.883    20330820.033  
                                
  22612837.808   118831290.602                    92595809.853    22612833.841  
                                
  20427205.328   107345769.322    20427206.293    83646090.669    20427205.990  
  20427205.454    80160848.489  
  22615862.819   118847219.120    22615860.621    92608241.267    22615859.870  
                                
  19332079.080   103486174.181    19332078.776    80489254.888    19332078.526  
                                
  20403375.700   109259175.387    20403374.645    84979369.373    20403374.556  
                                
  20221880.784   107983785.795    20221881.177    83987441.023    20221881.320  
                                
  26108019.343   137198595.259                                                  
  26108022.684   102453521.145  
  27525276.383   144646315.877                                                  
  27525279.046   108015126.235  
  23326145.599   122579757.985                                                  
  23326147.065    91536853.217  
  23469714.568   123334262.330                                                  
  23469717.338    92100317.086  
  25139736.801   132110293.477                                                  
  25139739.695    98653838.687  
 21  8 31  3  7 38.0000000  0 14G 3G 4G16G22G26G31R 7R 8R 9E 1E 4E19
                                E21E27
  21696541.507   114016126.484    21696542.650    88843750.549    21696541.971  
  21696542.829    85141932.564  
  21722421.409   114152120.990    21722420.784    88949715.785    21722420.426  
  21722424.625    85243494.086  
  20330529.876   106837698.852                    83250165.914    20330527.017  
                                
  22613298.757   118833712.693                    92597697.169    22613294.790  
                                
  20427446.328   107347035.633    20427447.311    83647077.380    20427446.989  
  20427446.453    80161794.114  
  22616317.961   118849610.863    22616315.781    92610104.938    22616315.030  
                                
  19332316.899   103487447.187    19332316.613    80490244.985    19332316.363  
                                
  20402882.461   109256534.054    20402881.407    84977314.981    20402881.317  
                                
  20222295.810   107986001.983    20222296.221    83989164.704    20222296.364  
                                
  26107570.348   137196235.801                                                  
  26107573.689   102451759.214  
  27524772.870   144643669.958                                                  
  27524775.532   108013150.393  
  23325998.359   122578984.121                                                  
  23325999.806    91536275.334  
  23469658.567   123333968.125                                                  
  23469661.336    92100097.392  
  25140142.231   132112424.142                                                  
  25140145.126    98655429.770  
 21  8 31  3  7 39.0000000  0 14G 3G 4G16G22G26G31R 7R 8R 9E 1E 4E19
                                E21E27
  21696836.453   114017676.428    21696837.578    88844958.300    21696836.917  
  21696837.775    85143089.992  
  21721954.795   114149668.942    21721954.188    88947805.096    21721953.812  
  21721958.030    85241663.011  
  20330236.967   106836159.637                    83248966.527    20330234.108  
                                
  22613759.742   118836135.160                    92599584.798    22613755.775  
                                
  20427687.399   107348302.549    20427688.382    83648064.591    20427688.060  
  20427687.542    80162740.192  
  22616773.120   118852002.714    22616770.940    92611968.720    22616770.190  
                                
  19332554.860   103488721.057    19332554.575    80491235.768    19332554.324  
                                
  20402389.330   109253893.376    20402388.275    84975261.120    20402388.186  
                                
  20222710.925   107988218.551    20222711.318    83990888.692    20222711.461  
                                
  26107121.371   137193876.625                                                  
  26107124.677   102449997.494  
  27524269.374   144641024.133                                                  
  27524272.037   108011174.609  
  23325851.154   122578210.624                                                  
  23325852.619    91535697.725  
  23469602.619   123333674.343                                                  
  23469605.353    92099878.003  
  25140547.697   132114555.039                                                  
  25140550.556    98657021.016  
 21  8 31  3  7 40.0000000  0 14G 3G 4G16G22G26G31R 7R 8R 9E 1E 4E19
                                E21E27
  21697131.488   114019226.888    21697132.632    88846166.466    21697131.953  
  21697132.810    85144247.803  
  21721488.235   114147217.102    21721487.610    88945894.587    21721487.252  
  21721491.451    85239832.087  
  20329944.165   106834621.026                    83247767.626    20329941.306  
                                
  22614220.745   118838557.922                    92601472.681    22614216.778  
                                
  20427928.577   107349569.975    20427929.560    83649052.210    20427929.238  
  20427928.720    80163686.644  
  22617228.280   118854394.604    22617226.082    92613832.544    22617225.332  
                                
  19332792.983   103489995.677    19332792.679    80492227.151    19332792.429  
                                
  20401896.305   109251253.271    20401895.251    84973207.717    20401895.144  
                                
  20223126.040   107990435.353    20223126.434    83992612.890    20223126.577  
                                
  26106672.483   137191517.628                                                  
  26106675.771   102448235.907  
  27523765.879   144638378.279                                                  
  27523768.541   108009198.826  
  23325704.020   122577437.412                                                  
  23325705.467    91535120.321  
  23469546.796   123333380.881                                                  
  23469549.530    92099658.861  
  25140953.234   132116686.053                                                  
  25140956.093    98658612.362  
 21  8 31  3  7 41.0000000  0 14G 3G 4G16G22G26G31R 7R 8R 9E 1E 4E19
                                E21E27
  21697426.631   114020777.852    21697427.756    88847375.006    21697427.095  
  21697427.953    85145406.004  
  21721021.693   114144765.437    21721021.085    88943984.195    21721020.710  
  21721024.909    85238001.301  
  20329651.524   106833083.008                    83246569.168    20329648.647  
                                
  22614681.837   118840980.961                    92603360.754    22614677.870  
                                
  20428169.845   107350837.880    20428170.827    83650040.183    20428170.506  
  20428169.988    80164633.458  
  22617683.440   118856786.499    22617681.260    92615696.354    22617680.491  
                                
  19333031.213   103491271.048    19333030.927    80493219.103    19333030.677  
                                
  20401403.406   109248613.720    20401402.352    84971154.729    20401402.263  
                                
  20223541.227   107992652.398    20223541.620    83994337.246    20223541.763  
                                
  26106223.631   137189158.807                                                  
  26106226.973   102446474.459  
  27523262.383   144635732.395                                                  
  27523265.046   108007223.002  
  23325556.940   122576664.463                                                  
  23325558.405    91534543.122  
  23469491.045   123333087.726                                                  
  23469493.814    92099439.951  
  25141358.790   132118817.176                                                  
  25141361.684    98660203.782  
 21  8 31  3  7 42.0000000  0 14G 3G 4G16G22G26G31R 7R 8R 9E 1E 4E19
                                E21E27
  21697721.934   114022329.659    21697723.060    88848584.176    21697722.399  
  21697723.256    85146564.803  
  21720555.240   114142314.254    21720554.632    88942074.159    21720554.257  
  21720558.474    85236170.879  
  20329359.026   106831545.883                    83245371.381    20329356.167  
                                
  22615143.072   118843404.554                    92605249.239    22615139.105  
                                
  20428411.309   107352106.574    20428412.292    83651028.751    20428411.970  
  20428411.452    80165580.862  
  22618138.689   118859178.699    22618136.509    92617560.381    22618135.741  
                                
  19333269.711   103492547.515    19333269.407    80494211.884    19333269.157  
                                
  20400910.668   109245975.024    20400909.614    84969102.382    20400909.524  
                                
  20223956.539   107994869.991    20223956.932    83996062.013    20223957.075  
                                
  26105774.851   137186800.455                                                  
  26105778.174   102444713.350  
  27522758.941   144633086.796                                                  
  27522761.604   108005247.401  
  23325409.950   122575892.075                                                  
  23325411.415    91533966.336  
  23469435.365   123332795.185                                                  
  23469438.116    92099221.493  
  25141764.399   132120948.709                                                  
  25141767.275    98661795.514  
 21  8 31  3  7 43.0000000  0 14G 3G 4G16G22G26G31R 7R 8R 9E 1E 4E19
                                E21E27
  21698017.309   114023881.944    21698018.435    88849793.744    21698017.774  
  21698018.631    85147723.983  
  21720088.840   114139863.256    21720088.215    88940164.284    21720087.858  
  21720092.057    85234340.588  
  20329066.635   106830009.356                    83244174.080    20329063.776  
                                
  22615604.325   118845828.412                    92607137.947    22615600.358  
                                
  20428652.826   107353375.758    20428653.809    83652017.719    20428653.488  
  20428652.987    80166528.625  
  22618593.902   118861570.909    22618591.722    92619424.431    22618590.954  
                                
  19333508.298   103493824.763    19333508.012    80495205.294    19333507.762  
                                
  20400418.001   109243336.834    20400416.965    84967050.449    20400416.858  
                                
  20224371.869   107997087.843    20224372.280    83997786.998    20224372.423  
                                
  26105326.070   137184442.274                                                  
  26105329.376   102442952.375  
  27522255.500   144630441.150                                                  
  27522258.162   108003271.758  
  23325263.013   122575119.943                                                  
  23325264.478    91533389.753  
  23469379.720   123332502.943                                                  
  23469382.454    92099003.263  
  25142170.008   132123080.357                                                  
  25142172.867    98663387.329  
 21  8 31  3  7 44.0000000  0 14G 3G 4G16G22G26G31R 7R 8R 9E 1E 4E19
                                E21E27
  21698312.827   114025434.795    21698313.953    88851003.770    21698313.292  
  21698314.149    85148883.574  
  21719622.477   114137412.473    21719621.851    88938254.600    21719621.494  
  21719625.693    85232510.457  
  20328774.351   106828473.436                    83242977.278    20328771.475  
                                
  22616065.632   118848252.574                    92609026.933    22616061.665  
                                
  20428894.416   107354645.465    20428895.398    83653007.116    20428895.095  
  20428894.559    80167476.785  
  22619049.116   118863963.141    22619046.936    92621288.525    22619046.167  
                                
  19333747.046   103495102.812    19333746.760    80496199.350    19333746.492  
                                
  20399925.424   109240699.190    20399924.387    84964998.974    20399924.280  
                                
  20224787.234   107999305.958    20224787.645    83999512.216    20224787.788  
                                
  26104877.361   137182084.298                                                  
  26104880.667   102441191.544  
  27521752.040   144627795.525                                                  
  27521754.702   108001296.146  
  23325116.129   122574348.121                                                  
  23325117.594    91532813.388  
  23469324.166   123332211.042                                                  
  23469326.900    92098785.282  
  25142575.688   132125212.151                                                  
  25142578.529    98664979.256  
 21  8 31  3  7 45.0000000  0 14G 3G 4G16G22G26G31R 7R 8R 9E 1E 4E19
                                E21E27
  21698608.399   114026988.107    21698609.542    88852214.161    21698608.881  
  21698609.721    85150043.519  
  21719156.131   114134961.844    21719155.523    88936345.038    21719155.166  
  21719159.365    85230680.447  
  20328482.157   106826938.080                    83241780.917    20328479.298  
                                
  22616526.957   118850676.966                    92610916.082    22616522.972  
                                
  20429136.130   107355915.626    20429137.113    83653996.871    20429136.791  
  20429136.255    80168425.284  
  22619504.329   118866355.365    22619502.131    92623152.616    22619501.381  
                                
  19333985.919   103496381.590    19333985.615    80497193.972    19333985.365  
                                
  20399432.953   109238062.046    20399431.899    84962947.880    20399431.792  
                                
  20225202.653   108001524.290    20225203.046    84001237.602    20225203.189  
                                
  26104428.688   137179726.462                                                  
  26104431.994   102439430.827  
  27521248.562   144625149.829                                                  
  27521251.225   107999320.473  
  23324969.317   122573576.523                                                  
  23324970.783    91532237.199  
  23469268.665   123331919.417                                                  
  23469271.398    92098567.517  
  25142981.351   132127344.019                                                  
  25142984.192    98666571.237  
 21  8 31  3  7 46.0000000  0 14G 3G 4G16G22G26G31R 7R 8R 9E 1E 4E19
                                E21E27
  21698904.095   114028542.074    21698905.239    88853425.051    21698904.578  
  21698905.417    85151203.953  
  21718689.857   114132511.542    21718689.231    88934435.723    21718688.874  
  21718693.073    85228850.678  
  20328190.124   106825403.472                    83240585.123    20328187.265  
                                
  22616988.353   118853101.771                    92612805.550    22616984.386  
                                
  20429377.934   107357186.424    20429378.916    83654987.110    20429378.595  
  20429378.059    80169374.254  
  22619959.578   118868747.739    22619957.380    92625016.810    22619956.630  
                                
  19334224.971   103497661.277    19334224.667    80498189.288    19334224.417  
                                
  20398940.608   109235425.605    20398939.554    84960897.322    20398939.447  
                                
  20225618.144   108003743.022    20225618.537    84002963.290    20225618.680  
                                
  26103980.104   137177368.935                                                  
  26103983.445   102437670.338  
  27520745.138   144622504.254                                                  
  27520747.801   107997344.877  
  23324822.559   122572805.338                                                  
  23324824.024    91531661.310  
  23469213.306   123331628.246                                                  
  23469216.076    92098350.080  
  25143387.138   132129476.146                                                  
  25143390.015    98668163.414  
 21  8 31  3  7 47.0000000  0 14G 3G 4G16G22G26G31R 7R 8R 9E 1E 4E19
                                E21E27
  21699199.917   114030096.557    21699201.060    88854636.318    21699200.399  
  21699201.239    85152364.764  
  21718223.618   114130061.436    21718223.011    88932526.533    21718222.635  
  21718226.835    85227021.045  
  20327898.215   106823869.448                    83239389.761    20327895.356  
                                
  22617449.856   118855526.858                    92614695.210    22617445.889  
                                
  20429619.862   107358457.715    20429620.845    83655977.710    20429620.523  
  20429620.005    80170323.599  
  22620414.845   118871140.119    22620412.665    92626880.988    22620411.915  
                                
  19334464.183   103498941.735    19334463.880    80499185.184    19334463.630  
                                
  20398448.388   109232789.720    20398447.334    84958847.173    20398447.227  
                                
  20226033.706   108005962.016    20226034.099    84004689.158    20226034.242  
                                
  26103531.538   137175011.599                                                  
  26103534.861   102435909.977  
  27520241.696   144619858.655                                                  
  27520244.359   107995369.272  
  23324675.854   122572034.414                                                  
  23324677.320    91531085.624  
  23469157.948   123331337.389                                                  
  23469160.718    92098132.882  
  25143792.872   132131608.383                                                  
  25143795.749    98669755.671  
 21  8 31  3  7 48.0000000  0 14G 3G 4G16G22G26G31R 7R 8R 9E 1E 4E19
                                E21E27
  21699495.828   114031651.586    21699496.954    88855848.020    21699496.292  
  21699497.150    85153525.982  
  21717757.415   114127611.521    21717756.790    88930617.499    21717756.433  
  21717760.632    85225191.571  
  20327606.450   106822336.043                    83238194.894    20327603.591  
                                
  22617911.395   118857952.232                    92616585.105    22617907.428  
                                
  20429861.880   107359729.514    20429862.863    83656968.709    20429862.541  
  20429862.023    80171273.319  
  22620870.112   118873532.530    22620867.914    92628745.191    22620867.164  
                                
  19334703.539   103500222.958    19334703.235    80500181.677    19334702.985  
                                
  20397956.257   109230154.412    20397955.221    84956797.475    20397955.114  
                                
  20226449.303   108008181.270    20226449.714    84006415.237    20226449.857  
                                
  26103082.918   137172654.436                                                  
  26103086.224   102434149.768  
  27519738.255   144617213.041                                                  
  27519740.899   107993393.666  
  23324529.203   122571263.787                                                  
  23324530.669    91530510.151  
  23469102.643   123331046.858                                                  
  23469105.377    92097915.929  
  25144198.624   132133740.765                                                  
  25144201.465    98671348.032  
 21  8 31  3  7 49.0000000  0 14G 3G 4G16G22G26G31R 7R 8R 9E 1E 4E19
                                E21E27
  21699791.846   114033207.137    21699792.990    88857060.149    21699792.329  
  21699793.186    85154687.595  
  21717291.248   114125161.834    21717290.623    88928708.667    21717290.265  
  21717294.465    85223362.260  
  20327314.756   106820803.272                    83237000.534    20327311.897  
                                
  22618372.988   118860377.903                    92618475.248    22618369.021  
                                
  20430104.006   107361001.838    20430104.988    83657960.144    20430104.667  
  20430104.149    80172223.434  
  22621325.379   118875924.974    22621323.181    92630609.438    22621322.431  
                                
  19334943.038   103501504.971    19334942.734    80501178.803    19334942.484  
                                
  20397464.252   109227519.675    20397463.197    84954748.242    20397463.108  
                                
  20226864.955   108010400.831    20226865.366    84008141.572    20226865.509  
                                
  26102634.459   137170297.481                                                  
  26102637.801   102432389.707  
  27519234.795   144614567.466                                                  
  27519237.440   107991418.068  
  23324382.606   122570493.453                                                  
  23324384.071    91529934.904  
  23469047.464   123330756.671                                                  
  23469050.234    92097699.230  
  25144604.465   132135873.290                                                  
  25144607.342    98672940.498  
 21  8 31  3  7 50.0000000  0 14G 3G 4G16G22G26G31R 7R 8R 9E 1E 4E19
                                E21E27
  21700088.007   114034763.527    21700089.151    88858272.914    21700088.490  
  21700089.330    85155849.845  
  21716825.188   114122712.658    21716824.563    88926800.211    21716824.206  
  21716828.405    85221533.334  
  20327023.259   106819271.419                    83235806.878    20327020.400  
                                
  22618834.687   118862804.193                    92620365.854    22618830.720  
                                
  20430346.274   107362274.978    20430347.257    83658952.196    20430346.935  
  20430346.417    80173174.153  
  22621780.717   118878317.756    22621778.537    92632473.934    22621777.787  
                                
  19335182.715   103502788.080    19335182.429    80502176.772    19335182.179  
                                
  20396972.389   109224885.793    20396971.335    84952699.661    20396971.245  
                                
  20227280.713   108012620.947    20227281.106    84009868.321    20227281.249  
                                
  26102186.036   137167941.034                                                  
  26102189.378   102430630.020  
  27518731.425   144611922.169                                                  
  27518734.069   107989442.675  
  23324236.151   122569723.709                                                  
  23324237.599    91529360.100  
  23468992.356   123330467.120                                                  
  23468995.126    92097483.010  
  25145010.342   132138006.250                                                  
  25145013.219    98674533.295  
 21  8 31  3  7 51.0000000  0 14G 3G 4G16G22G26G31R 7R 8R 9E 1E 4E19
                                E21E27
  21700384.276   114036320.381    21700385.419    88859486.040    21700384.740  
  21700385.598    85157012.429  
  21716359.146   114120263.600    21716358.521    88924891.847    21716358.164  
  21716362.363    85219704.499  
  20326731.869   106817740.101                    83234613.631    20326728.992  
                                
  22619296.459   118865230.662                    92622256.602    22619292.492  
                                
  20430588.631   107363548.534    20430589.614    83659944.566    20430589.293  
  20430588.774    80174125.189  
  22622236.056   118880710.473    22622233.876    92634338.379    22622233.108  
                                
  19335422.553   103504071.910    19335422.267    80503175.297    19335422.017  
                                
  20396480.633   109222252.372    20396479.579    84950651.435    20396479.490  
                                
  20227696.508   108014841.235    20227696.901    84011595.208    20227697.044  
                                
  26101737.631   137165584.681                                                  
  26101740.954   102428870.417  
  27518228.018   144609276.779                                                  
  27518230.663   107987467.234  
  23324089.715   122568954.176                                                  
  23324091.162    91528785.449  
  23468937.301   123330177.816                                                  
  23468940.053    92097266.968  
  25145416.237   132140139.256                                                  
  25145419.114    98676126.128  
 21  8 31  3  7 52.0000000  0 14G 3G 4G16G22G26G31R 7R 8R 9E 1E 4E19
                                E21E27
  21700680.598   114037877.661    21700681.741    88860699.493    21700681.062  
  21700681.920    85158175.343  
  21715893.122   114117814.665    21715892.497    88922983.574    21715892.140  
  21715896.339    85217875.744  
  20326440.568   106816209.314                    83233420.801    20326437.709  
                                
  22619758.230   118867657.339                    92624147.506    22619754.263  
                                
  20430831.060   107364822.528    20430832.061    83660937.277    20430831.739  
  20430831.221    80175076.546  
  22622691.359   118883103.146    22622689.179    92636202.784    22622688.428  
                                
  19335662.516   103505356.463    19335662.230    80504174.385    19335661.980  
                                
  20395988.949   109219619.424    20395987.895    84948603.574    20395987.806  
                                
  20228112.356   108017061.727    20228112.749    84013322.240    20228112.892  
                                
  26101289.297   137163228.456                                                  
  26101292.656   102427110.894  
  27517724.594   144606631.309                                                  
  27517727.239   107985491.717  
  23323943.314   122568184.829                                                  
  23323944.761    91528210.936  
  23468882.318   123329888.749                                                  
  23468885.124    92097051.111  
  25145822.186   132142272.322                                                  
  25145825.080    98677718.991  
 21  8 31  3  7 53.0000000  0 14G 3G 4G16G22G26G31R 7R 8R 9E 1E 4E19
                                E21E27
  21700977.080   114039435.603    21700978.224    88861913.458    21700977.545  
  21700978.421    85159338.729  
  21715427.170   114115366.047    21715426.544    88921075.546    21715426.187  
  21715430.386    85216047.235  
  20326149.428   106814679.245                    83232228.526    20326146.569  
                                
  22620220.108   118870084.424                    92626038.725    22620216.142  
                                
  20431073.632   107366097.135    20431074.615    83661930.464    20431074.294  
  20431073.793    80176028.363  
  22623146.715   118885495.951    22623144.535    92638067.294    22623143.784  
                                
  19335902.676   103506641.898    19335902.390    80505174.154    19335902.122  
                                
  20395497.390   109216987.151    20395496.354    84946556.242    20395496.247  
                                
  20228528.239   108019282.591    20228528.650    84015049.568    20228528.793  
                                
  26100840.945   137160872.526                                                  
  26100844.269   102425351.593  
  27517221.188   144603985.918                                                  
  27517223.833   107983516.274  
  23323796.984   122567415.883                                                  
  23323798.432    91527636.723  
  23468827.371   123329600.125                                                  
  23468830.141    92096835.579  
  25146228.098   132144405.616                                                  
  25146230.957    98679312.042  
 21  8 31  3  7 54.0000000  0 14G 3G 4G16G22G26G31R 7R 8R 9E 1E 4E19
                                E21E27
  21701273.599   114040993.866    21701274.743    88863127.691    21701274.082  
  21701274.939    85160502.360  
  21714961.217   114112917.423    21714960.592    88919167.532    21714960.216  
  21714964.416    85214218.708  
  20325858.341   106813149.588                    83231036.592    20325855.482  
                                
  22620681.987   118872511.574                    92627930.013    22620678.020  
                                
  20431316.222   107367372.041    20431317.223    83662923.899    20431316.901  
  20431316.383    80176980.397  
  22623602.000   118887888.553    22623599.820    92639931.668    22623599.069  
                                
  19336142.907   103507927.875    19336142.621    80506174.360    19336142.353  
                                
  20395005.903   109214355.201    20395004.849    84944509.172    20395004.759  
                                
  20228944.159   108021503.496    20228944.570    84016776.950    20228944.713  
                                
  26100392.665   137158516.580                                                  
  26100396.025   102423592.274  
  27516717.729   144601340.307                                                  
  27516720.373   107981540.680  
  23323650.673   122566647.022                                                  
  23323652.120    91527062.567  
  23468772.495   123329311.619                                                  
  23468775.283    92096620.133  
  25146634.083   132146538.831                                                  
  25146636.977    98680905.029  
 21  8 31  3  7 55.0000000  0 14G 3G 4G16G22G26G31R 7R 8R 9E 1E 4E19
                                E21E27
  21701570.207   114042552.501    21701571.333    88864342.219    21701570.672  
  21701571.529    85161666.285  
  21714495.264   114110468.863    21714494.621    88917259.571    21714494.264  
  21714498.463    85212390.247  
  20325567.326   106811620.394                    83229845.021    20325564.467  
                                
  22621143.865   118874938.888                    92629821.426    22621139.899  
                                
  20431558.901   107368647.315    20431559.884    83663917.628    20431559.563  
  20431559.062    80177932.714  
  22624057.285   118890281.071    22624055.105    92641795.970    22624054.354  
                                
  19336383.227   103509214.475    19336382.941    80507175.058    19336382.691  
                                
  20394514.487   109211723.667    20394513.433    84942462.432    20394513.343  
                                
  20229360.078   108023724.533    20229360.471    84018504.426    20229360.614  
                                
  26099944.331   137156160.691                                                  
  26099947.655   102421833.008  
  27516214.269   144598694.574                                                  
  27516216.896   107979564.971  
  23323504.379   122565878.299                                                  
  23323505.844    91526488.530  
  23468717.602   123329023.310                                                  
  23468720.371    92096404.840  
  25147039.977   132148672.051                                                  
  25147042.854    98682498.021  
 21  8 31  3  7 56.0000000  0 14G 3G 4G16G22G26G31R 7R 8R 9E 1E 4E19
                                E21E27
  21701866.940   114044111.870    21701868.084    88865557.330    21701867.422  
  21701868.262    85162830.740  
  21714029.401   114108020.697    21714028.776    88915351.929    21714028.400  
  21714032.600    85210562.069  
  20325276.472   106810092.010                    83228654.096    20325273.595  
                                
  22621605.851   118877366.672                    92631713.231    22621601.884  
                                
  20431801.706   107369923.286    20431802.689    83664911.905    20431802.385  
  20431801.849    80178885.552  
  22624512.605   118892673.779    22624510.407    92643660.434    22624509.657  
                                
  19336623.762   103510502.063    19336623.458    80508176.531    19336623.208  
                                
  20394023.178   109209092.871    20394022.124    84940416.276    20394022.017  
                                
  20229776.087   108025946.024    20229776.480    84020232.272    20229776.623  
                                
  26099496.087   137153805.162                                                  
  26099499.428   102420074.008  
  27515710.827   144596049.022                                                  
  27515713.472   107977589.390  
  23323358.193   122565110.046                                                  
  23323359.640    91525914.834  
  23468662.833   123328735.505                                                  
  23468665.603    92096189.918  
  25147445.962   132150805.568                                                  
  25147448.839    98684091.236  
 21  8 31  3  7 57.0000000  0 14G 3G 4G16G22G26G31R 7R 8R 9E 1E 4E19
                                E21E27
  21702163.798   114045671.834    21702164.942    88866772.886    21702164.280  
  21702165.120    85163995.648  
  21713563.574   114105572.809    21713562.948    88913444.489    21713562.573  
  21713566.772    85208734.103  
  20324985.761   106808564.318                    83227463.684    20324982.902  
                                
  22622067.908   118879794.825                    92633605.301    22622063.924  
                                
  20432044.635   107371199.839    20432045.618    83665906.624    20432045.296  
  20432044.778    80179838.819  
  22624967.926   118895066.604    22624965.746    92645524.980    22624964.977  
                                
  19336864.458   103511790.547    19336864.172    80509178.683    19336863.922  
                                
  20393532.012   109206462.709    20393530.958    84938370.595    20393530.869  
                                
  20230192.149   108028167.854    20230192.542    84021960.369    20230192.685  
                                
  26099047.914   137151449.918                                                  
  26099051.273   102418315.226  
  27515207.421   144593403.522                                                  
  27515210.048   107975613.862  
  23323212.060   122564342.157                                                  
  23323213.525    91525341.408  
  23468608.172   123328448.108                                                  
  23468610.959    92095975.308  
  25147852.035   132152939.317                                                  
  25147854.930    98685684.616  
 21  8 31  3  7 58.0000000  0 14G 3G 4G16G22G26G31R 7R 8R 9E 1E 4E19
                                E21E27
  21702460.763   114047232.424    21702461.889    88867988.910    21702461.228  
  21702462.086    85165161.024  
  21713097.817   114103125.230    21713097.192    88911537.268    21713096.835  
  21713101.034    85206906.363  
  20324695.193   106807037.322                    83226273.799    20324692.334  
                                
  22622530.055   118882223.363                    92635497.650    22622526.088  
                                
  20432287.672   107372476.999    20432288.672    83666901.795    20432288.351  
  20432287.832    80180792.543  
  22625423.318   118897459.553    22625421.138    92647389.595    22625420.369  
                                
  19337105.350   103513079.901    19337105.046    80510181.498    19337104.796  
                                
  20393040.972   109203833.208    20393039.935    84936325.409    20393039.828  
                                
  20230608.319   108030390.089    20230608.730    84023688.752    20230608.872  
                                
  26098599.777   137149094.947                                                  
  26098603.136   102416556.648  
  27514703.997   144590758.123                                                  
  27514706.642   107973638.403  
  23323066.016   122563574.640                                                  
  23323067.464    91524768.263  
  23468553.546   123328161.125                                                  
  23468556.334    92095761.004  
  25148258.127   132155073.278                                                  
  25148261.004    98687278.157  
 21  8 31  3  7 59.0000000  0 14G 3G 4G16G22G26G31R 7R 8R 9E 1E 4E19
                                E21E27
  21702757.925   114048794.011    21702759.051    88869205.726    21702758.390  
  21702759.247    85166327.155  
  21712632.186   114100678.325    21712631.543    88909630.580    21712631.186  
  21712635.385    85205079.133  
  20324404.821   106805511.418                    83225084.780    20324401.962  
                                
  22622992.344   118884652.690                    92637390.620    22622988.377  
                                
  20432530.905   107373755.150    20432531.888    83667897.748    20432531.566  
  20432531.066    80181747.011  
  22625878.763   118899852.995    22625876.583    92649254.610    22625875.833  
                                
  19337346.439   103514370.501    19337346.135    80511185.296    19337345.885  
                                
  20392550.145   109201204.793    20392549.109    84934281.081    20392549.002  
                                
  20231024.613   108032613.038    20231025.006    84025417.707    20231025.149  
                                
  26098151.747   137146740.636                                                  
  26098155.070   102414798.569  
  27514200.698   144588113.190                                                  
  27514203.325   107971663.298  
  23322920.098   122562807.892                                                  
  23322921.563    91524195.691  
  23468499.064   123327874.957                                                  
  23468501.833    92095547.308  
  25148664.289   132157207.845                                                  
  25148667.149    98688872.150  
 21  8 31  3  8  0.0000000  0 14G 3G 4G16G22G26G31R 7R 8R 9E 1E 4E19
                                E21E27
  21703055.158   114050355.977    21703056.284    88870422.849    21703055.623  
  21703056.481    85167493.545  
  21712166.555   114098231.456    21712165.930    88907723.938    21712165.555  
  21712169.754    85203251.921  
  20324114.539   106803985.960                    83223896.118    20324111.680  
                                
  22623454.652   118887082.097                    92639283.671    22623450.685  
                                
  20432774.192   107375033.628    20432775.174    83668893.976    20432774.853  
  20432774.335    80182701.712  
  22626334.191   118902246.299    22626332.011    92651119.531    22626331.261  
                                
  19337587.635   103515661.702    19337587.349    80512189.571    19337587.099  
                                
  20392059.373   109198576.784    20392058.318    84932237.086    20392058.229  
                                
  20231440.908   108034836.064    20231441.301    84027146.734    20231441.444  
                                
  26097703.752   137144386.346                                                  
  26097707.076   102413040.500  
  27513697.328   144585468.058                                                  
  27513699.954   107969688.048  
  23322774.215   122562041.256                                                  
  23322775.680    91523623.201  
  23468444.652   123327588.940                                                  
  23468447.422    92095333.723  
  25149070.488   132159342.372                                                  
  25149073.347    98690466.122  
