     2.11           OBSERVATION DATA    M (MIXED)           RINEX VERSION / TYPE
CONVBIN 2.4.3                           20210901 005110 UTC PGM / RUN BY / DATE 
log: logs/21_08_31_21_19_45_mego_SW.rtcm                    COMMENT             
format: RTCM 3, station ID: 4013                            COMMENT             
4013                                                        MARKER NAME         
                                                            MARKER NUMBER       
                                                            OBSERVER / AGENCY   
                    SWFT                                    REC # / TYPE / VERS 
                    NULL                                    ANT # / TYPE        
  1568794.5498 -4418135.9711  4309843.3785                  APPROX POSITION XYZ 
        0.0000        0.0000        0.0000                  ANTENNA: DELTA H/E/N
     1     1                                                WAVELENGTH FACT L1/2
     5    C1    L1    P2    L2    C2                        # / TYPES OF OBSERV 
  2021     8    31    21    19   50.0000000     GPS         TIME OF FIRST OBS   
  2021     8    31    21    53   59.0000000     GPS         TIME OF LAST OBS    
                                                            END OF HEADER       
 21  8 31 21 19 50.0000000  0 13G10G15G18G23G24G32E 3E 5E 9E15E24E31
                                E36
  21171540.552   111257151.582    21171543.465    86693872.782                  
  23029831.436   121022573.493    23029832.705    94303301.875                  
  22291167.215   117140862.048    22291168.984    91278592.667                  
  20173678.558   106013399.517    20173679.363    82607846.386                  
  20426691.469   107342945.825    20426694.507    83643843.298                  
  22979391.544   120757472.503    22979394.993    94096720.444                  
  25389509.342   133422744.646                                                  
  23497432.300   123479829.095                                                  
  24270035.585   127539872.866                                                  
  25285546.723   132876401.192                                                  
  26491790.151   139215313.899                                                  
  26729667.267   140465305.394                                                  
  27718017.025   145659060.386                                                  
 21  8 31 21 19 51.0000000  0 13G10G15G18G23G24G32E 3E 5E 9E15E24E31
                                E36
  21171155.439   111255127.725    21171158.316    86692295.753                  
  23030408.605   121025606.404    23030409.838    94305665.180                  
  22291787.073   117144119.485    22291788.842    91281130.934                  
  20173718.192   106013607.833    20173718.996    82608008.710                  
  20426875.323   107343912.095    20426878.361    83644596.233                  
  22978914.602   120754966.176    22978918.069    94094767.465                  
  25389184.037   133421035.262                                                  
  23497487.211   123480117.698                                                  
  24270414.283   127541862.976                                                  
  25285422.838   132875750.188                                                  
  26491371.927   139213116.015                                                  
  26729664.336   140465290.050                                                  
  27718636.187   145662314.070                                                  
 21  8 31 21 19 52.0000000  0 17G10G15G18G23G24G32C19C21C22C34E 3E 5
                                E 9E15E24E31E36
  21170770.362   111253104.188    21170773.256    86690718.969                  
  23030985.757   121028639.403    23030987.008    94308028.558                  
  22292407.021   117147377.254    22292408.772    91283669.453                  
  20173757.933   106013816.634    20173758.719    82608171.415                  
  20427059.339   107344879.028    20427062.358    83645349.692                  
  22978437.696   120752460.048    22978441.162    94092814.636                  
                 122739385.375                   122739385.375    23570809.977  
                 126493719.026                   126493719.026    24291787.779  
                 114429424.118                   114429424.118    21974962.291  
                 132922880.000                   132922880.000    25526445.008  
  25388858.785   133419325.984                                                  
  23497542.158   123480406.457                                                  
  24270792.999   127543853.137                                                  
  25285299.059   132875099.673                                                  
  26490953.720   139210918.392                                                  
  26729661.513   140465275.190                                                  
  27719255.349   145665567.731                                                  
 21  8 31 21 19 53.0000000  0 17G10G15G18G23G24G32C19C21C22C34E 3E 5
                                E 9E15E24E31E36
  21170385.356   111251080.957    21170388.268    86689142.427                  
  23031562.944   121031672.516    23031564.177    94310392.023                  
  22293027.023   117150635.352    22293028.774    91286208.226                  
  20173797.763   106014025.930    20173798.567    82608334.500                  
  20427243.461   107345846.618    20427246.499    83646103.656                  
  22977960.843   120749954.097    22977964.274    94090861.949                  
                 122741490.137                   122741490.137    23571214.174  
                 126491412.032                   126491412.032    24291344.735  
                 114429253.606                   114429253.606    21974929.555  
                 132923420.779                   132923420.779    25526548.845  
  25388533.533   133417616.841                                                  
  23497597.159   123480695.394                                                  
  24271171.715   127545843.339                                                  
  25285175.352   132874449.640                                                  
  26490535.585   139208721.065                                                  
  26729658.779   140465260.817                                                  
  27719874.475   145668821.368                                                  
 21  8 31 21 19 54.0000000  0 17G10G15G18G23G24G32C19C21C22C34E 3E 5
                                E 9E15E24E31E36
  21170000.403   111249058.042    21170003.298    86687566.134                  
  23032140.132   121034705.717    23032141.382    94312755.555                  
  22293647.078   117153893.775    22293648.847    91288747.257                  
  20173837.682   106014235.714    20173838.486    82608497.968                  
  20427427.726   107346814.875    20427430.746    83646858.144                  
  22977484.008   120747448.327    22977487.457    94088909.405                  
                 122743595.070                   122743595.070    23571618.408  
                 126489105.125                   126489105.125    24290901.744  
                 114429083.359                   114429083.359    21974896.855  
                 132923962.075                   132923962.075    25526652.807  
  25388208.317   133415907.812                                                  
  23497652.178   123480984.522                                                  
  24271550.467   127547833.611                                                  
  25285051.752   132873800.114                                                  
  26490117.503   139206524.032                                                  
  26729656.134   140465246.928                                                  
  27720493.636   145672075.011                                                  
 21  8 31 21 19 55.0000000  0 17G10G15G18G23G24G32C19C21C22C34E 3E 5
                                E 9E15E24E31E36
  21169615.522   111247035.447    21169618.417    86685990.079                  
  23032717.355   121037739.030    23032718.623    94315119.173                  
  22294267.204   117157152.521    22294268.955    91291286.540                  
  20173877.709   106014445.991    20173878.495    82608661.820                  
  20427612.081   107347783.788    20427615.119    83647613.140                  
  22977007.191   120744942.757    22977010.658    94086957.011                  
                 122745700.183                   122745700.183    23572022.676  
                 126486798.309                   126486798.309    24290458.735  
                 114428913.382                   114428913.382    21974864.226  
                 132924503.883                   132924503.883    25526756.841  
  25387883.136   133414198.910                                                  
  23497707.215   123481273.824                                                  
  24271929.201   127549823.921                                                  
  25284928.259   132873151.085                                                  
  26489699.475   139204327.268                                                  
  26729653.579   140465233.524                                                  
  27721112.780   145675328.622                                                  
 21  8 31 21 19 56.0000000  0 17G10G15G18G23G24G32C19C21C22C34E 3E 5
                                E 9E15E24E31E36
  21169230.695   111245013.157    21169233.572    86684414.269                  
  23033294.596   121040772.449    23033295.864    94317482.876                  
  22294887.384   117160411.599    22294889.136    91293826.079                  
  20173917.807   106014656.749    20173918.593    82608826.052                  
  20427796.597   107348753.368    20427799.634    83648368.661                  
  22976530.446   120742437.366    22976533.894    94085004.763                  
                 122747805.474                   122747805.474    23572426.981  
                 126484491.579                   126484491.579    24290015.744  
                 114428743.676                   114428743.676    21974831.633  
                 132925046.211                   132925046.211    25526860.999  
  25387557.956   133412490.134                                                  
  23497762.305   123481563.287                                                  
  24272307.953   127551814.293                                                  
  25284804.837   132872502.540                                                  
  26489281.501   139202130.807                                                  
  26729651.113   140465220.595                                                  
  27721731.924   145678582.227                                                  
 21  8 31 21 19 57.0000000  0 17G10G15G18G23G24G32C19C21C22C34E 3E 5
                                E 9E15E24E31E36
  21168845.921   111242991.175    21168848.816    86682838.703                  
  23033871.854   121043805.964    23033873.123    94319846.652                  
  22295507.618   117163670.999    22295509.387    91296365.871                  
  20173957.994   106014868.011    20173958.798    82608990.668                  
  20427981.219   107349723.614    20427984.257    83649124.695                  
  22976053.718   120739932.151    22976057.185    94083052.650                  
                 122749910.939                   122749910.939    23572831.303  
                 126482184.934                   126482184.934    24289572.789  
                 114428574.234                   114428574.234    21974799.094  
                 132925589.055                   132925589.055    25526965.247  
  25387232.829   133410781.469                                                  
  23497817.413   123481852.925                                                  
  24272686.723   127553804.714                                                  
  25284681.523   132871854.493                                                  
  26488863.580   139199934.628                                                  
  26729648.754   140465208.161                                                  
  27722351.068   145681835.800                                                  
 21  8 31 21 19 58.0000000  0 17G10G15G18G23G24G32C19C21C22C34E 3E 5
                                E 9E15E24E31E36
  21168461.219   111240969.522    21168464.096    86681263.391                  
  23034449.149   121046839.579    23034450.382    94322210.503                  
  22296127.941   117166930.734    22296129.675    91298905.927                  
  20173998.307   106015079.758    20173999.093    82609155.665                  
  20428165.985   107350694.503    20428169.023    83649881.231                  
  22975577.026   120737427.133    22975580.475    94081100.683                  
                 122752016.581                   122752016.581    23573235.679  
                 126479878.379                   126479878.379    24289129.833  
                 114428405.063                   114428405.063    21974766.608  
                 132926132.415                   132926132.415    25527069.584  
  25386907.702   133409072.942                                                  
  23497872.575   123482142.737                                                  
  24273065.492   127555795.192                                                  
  25284558.298   132871206.925                                                  
  26488445.713   139197738.730                                                  
  26729646.485   140465196.204                                                  
  27722970.176   145685089.378                                                  
 21  8 31 21 19 59.0000000  0 17G10G15G18G23G24G32C19C21C22C34E 3E 5
                                E 9E15E24E31E36
  21168076.553   111238948.174    21168079.465    86679688.313                  
  23035026.443   121049873.309    23035027.694    94324574.448                  
  22296748.300   117170190.789    22296750.051    91301446.227                  
  20174038.673   106015291.995    20174039.477    82609321.047                  
  20428350.858   107351666.064    20428353.896    83650638.289                  
  22975100.388   120734922.305    22975103.819    94079148.871                  
                 122754122.401                   122754122.401    23573640.073  
                 126477571.915                   126477571.915    24288686.896  
                 114428236.156                   114428236.156    21974734.158  
                 132926676.288                   132926676.288    25527174.046  
  25386582.593   133407364.524                                                  
  23497927.754   123482432.723                                                  
  24273444.280   127557785.719                                                  
  25284435.163   132870559.870                                                  
  26488027.900   139195543.132                                                  
  26729644.305   140465184.730                                                  
  27723589.319   145688342.927                                                  
 21  8 31 21 20  0.0000000  0 17G10G15G18G23G24G32C19C21C22C34E 3E 5
                                E 9E15E24E31E36
  21167691.976   111236927.149    21167694.888    86678113.488                  
  23035603.756   121052907.130    23035605.007    94326938.464                  
  22297368.748   117173451.172    22297370.482    91303986.781                  
  20174079.164   106015504.722    20174079.968    82609486.808                  
  20428535.874   107352638.293    20428538.894    83651395.871                  
  22974623.767   120732417.666    22974627.198    94077197.204                  
                 122756228.398                   122756228.398    23574044.521  
                 126475265.531                   126475265.531    24288243.977  
                 114428067.520                   114428067.520    21974701.779  
                 132927220.675                   132927220.675    25527278.580  
  25386257.520   133405656.232                                                  
  23497982.951   123482722.863                                                  
  24273823.085   127559776.302                                                  
  25284312.117   132869913.308                                                  
  26487610.140   139193347.821                                                  
  26729642.214   140465173.743                                                  
  27724208.445   145691596.465                                                  
 21  8 31 21 20  1.0000000  0 17G10G15G18G23G24G32C19C21C22C34E 3E 5
                                E 9E15E24E31E36
  21167307.434   111234906.426    21167310.347    86676538.899                  
  23036181.104   121055941.056    23036182.337    94329302.563                  
  22297989.215   117176711.881    22297990.984    91306527.593                  
  20174119.745   106015717.942    20174120.549    82609652.949                  
  20428720.997   107353611.186    20428724.035    83652153.974                  
  22974147.183   120729913.202    22974150.613    94075245.676                  
                 122758334.570                   122758334.570    23574448.986  
                 126472959.241                   126472959.241    24287801.075  
                 114427899.151                   114427899.151    21974669.454  
                 132927765.583                   132927765.583    25527383.221  
  25385932.464   133403948.060                                                  
  23498038.220   123483013.192                                                  
  24274201.873   127561766.929                                                  
  25284189.178   132869267.234                                                  
  26487192.434   139191152.792                                                  
  26729640.213   140465163.241                                                  
  27724827.571   145694849.987                                                  
 21  8 31 21 20  2.0000000  0 17G10G15G18G23G24G32C19C21C22C34E 3E 5
                                E 9E15E24E31E36
  21166922.982   111232886.024    21166925.859    86674964.559                  
  23036758.434   121058975.085    23036759.703    94331666.743                  
  22298609.788   117179972.919    22298611.539    91309068.659                  
  20174160.397   106015931.652    20174161.201    82609819.476                  
  20428906.281   107354584.751    20428909.301    83652912.589                  
  22973670.616   120727408.929    22973674.082    94073294.297                  
                 122760440.922                   122760440.922    23574853.487  
                 126470653.035                   126470653.035    24287358.191  
                 114427731.050                   114427731.050    21974637.165  
                 132928311.005                   132928311.005    25527487.952  
  25385607.427   133402240.014                                                  
  23498093.507   123483303.699                                                  
  24274580.696   127563757.624                                                  
  25284066.346   132868621.661                                                  
  26486774.799   139188958.051                                                  
  26729638.301   140465153.223                                                  
  27725446.697   145698103.495                                                  
 21  8 31 21 20  3.0000000  0 17G10G15G18G23G24G32C19C21C22C34E 3E 5
                                E 9E15E24E31E36
  21166538.566   111230865.938    21166541.461    86673390.466                  
  23037335.818   121062009.202    23037337.087    94334030.988                  
  22299230.397   117183234.286    22299232.166    91311609.979                  
  20174201.174   106016145.852    20174201.960    82609986.388                  
  20429091.654   107355558.964    20429094.692    83653671.719                  
  22973194.120   120724904.841    22973197.551    94071343.062                  
                 122762547.445                   122762547.445    23575258.024  
                 126468346.922                   126468346.922    24286915.343  
                 114427563.219                   114427563.219    21974604.947  
                 132928856.942                   132928856.942    25527592.807  
  25385282.425   133400532.086                                                  
  23498148.794   123483594.359                                                  
  24274959.537   127565748.362                                                  
  25283943.586   132867976.570                                                  
  26486357.218   139186763.603                                                  
  26729636.496   140465143.683                                                  
  27726065.823   145701356.989                                                  
 21  8 31 21 20  4.0000000  0 17G10G15G18G23G24G32C19C21C22C34E 3E 5
                                E 9E15E24E31E36
  21166154.221   111228846.168    21166157.116    86671816.622                  
  23037913.220   121065043.433    23037914.489    94336395.320                  
  22299851.077   117186495.972    22299852.846    91314151.555                  
  20174242.022   106016360.548    20174242.826    82610153.683                  
  20429277.188   107356533.847    20429280.208    83654431.367                  
  22972717.643   120722400.946    22972721.074    94069391.973                  
                 122764654.149                   122764654.149    23575662.596  
                 126466040.890                   126466040.890    24286472.477  
                 114427395.653                   114427395.653    21974572.765  
                 132929403.394                   132929403.394    25527697.734  
  25384957.441   133398824.284                                                  
  23498204.152   123483885.219                                                  
  24275338.361   127567739.157                                                  
  25283820.915   132867331.977                                                  
  26485939.672   139184569.436                                                  
  26729634.763   140465134.633                                                  
  27726684.931   145704610.462                                                  
 21  8 31 21 20  5.0000000  0 17G10G15G18G23G24G32C19C21C22C34E 3E 5
                                E 9E15E24E31E36
  21165769.912   111226826.707    21165772.825    86670243.012                  
  23038490.639   121068077.770    23038491.908    94338759.738                  
  22300471.812   117189757.984    22300473.581    91316693.383                  
  20174282.978   106016575.731    20174283.764    82610321.356                  
  20429462.811   107357509.395    20429465.831    83655191.535                  
  22972241.201   120719897.228    22972244.632    94067441.023                  
                 122766761.030                   122766761.030    23576067.205  
                 126463734.952                   126463734.952    24286029.665  
                 114427228.355                   114427228.355    21974540.636  
                 132929950.363                   132929950.363    25527802.786  
  25384632.475   133397116.596                                                  
  23498259.546   123484176.231                                                  
  24275717.220   127569730.001                                                  
  25283698.334   132866687.874                                                  
  26485522.198   139182375.555                                                  
  26729633.137   140465126.070                                                  
  27727304.039   145707863.911                                                  
 21  8 31 21 20  6.0000000  0 17G10G15G18G23G24G32C19C21C22C34E 3E 5
                                E 9E15E24E31E36
  21165385.692   111224807.563    21165388.587    86668669.657                  
  23039068.059   121071112.210    23039069.328    94341124.239                  
  22301092.617   117193020.328    22301094.386    91319235.464                  
  20174324.023   106016791.410    20174324.827    82610489.422                  
  20429648.578   107358485.610    20429651.616    83655952.219                  
  22971764.777   120717393.700    22971768.244    94065490.227                  
                 122768868.086                   122768868.086    23576471.849  
                 126461429.098                   126461429.098    24285586.835  
                 114427061.329                   114427061.329    21974508.561  
                 132930497.847                   132930497.847    25527907.927  
  25384307.545   133395409.014                                                  
  23498314.940   123484467.446                                                  
  24276096.079   127571720.910                                                  
  25283575.877   132866044.276                                                  
  26485104.760   139180181.964                                                  
  26729631.600   140465117.998                                                  
  27727923.165   145711117.355                                                  
 21  8 31 21 20  7.0000000  0 17G10G15G18G23G24G32C19C21C22C34E 3E 5
                                E 9E15E24E31E36
  21165001.526   111222788.745    21165004.421    86667096.554                  
  23039645.514   121074146.744    23039646.783    94343488.804                  
  22301713.476   117196283.000    22301715.263    91321777.804                  
  20174365.158   106017007.591    20174365.944    82610657.870                  
  20429834.487   107359462.485    20429837.525    83656713.423                  
  22971288.425   120714890.340    22971291.856    94063539.559                  
                 122770975.319                   122770975.319    23576876.493  
                 126459123.337                   126459123.337    24285144.041  
                 114426894.566                   114426894.566    21974476.540  
                 132931045.849                   132931045.849    25528013.158  
  25383982.597   133393701.547                                                  
  23498370.405   123484758.828                                                  
  24276474.938   127573711.871                                                  
  25283453.493   132865401.171                                                  
  26484687.393   139177988.675                                                  
  26729630.153   140465110.406                                                  
  27728542.255   145714370.786                                                  
 21  8 31 21 20  8.0000000  0 17G10G15G18G23G24G32C19C21C22C34E 3E 5
                                E 9E15E24E31E36
  21164617.414   111220770.223    21164620.308    86665523.680                  
  23040223.005   121077181.362    23040224.238    94345853.446                  
  22302334.425   117199545.984    22302336.176    91324320.391                  
  20174406.382   106017224.218    20174407.186    82610826.673                  
  20430020.486   107360439.985    20430023.524    83657475.109                  
  22970812.072   120712387.206    22970815.539    94061589.067                  
                 122773082.729                   122773082.729    23577281.226  
                 126456817.657                   126456817.657    24284701.264  
                 114426728.075                   114426728.075    21974444.554  
                 132931594.362                   132931594.362    25528118.496  
  25383657.738   133391994.308                                                  
  23498425.853   123485050.324                                                  
  24276853.815   127575702.851                                                  
  25283331.197   132864758.554                                                  
  26484270.080   139175795.662                                                  
  26729628.795   140465103.270                                                  
  27729161.381   145717624.203                                                  
 21  8 31 21 20  9.0000000  0 17G10G15G18G23G24G32C19C21C22C34E 3E 5
                                E 9E15E24E31E36
  21164233.355   111218752.033    21164236.267    86663951.060                  
  23040800.479   121080216.098    23040801.747    94348218.171                  
  22302955.391   117202809.305    22302957.160    91326863.234                  
  20174447.695   106017441.376    20174448.499    82610995.887                  
  20430206.645   107361418.186    20430209.665    83658237.348                  
  22970335.774   120709884.239    22970339.240    94059638.699                  
                 122775190.317                   122775190.317    23577685.959  
                 126454512.070                   126454512.070    24284258.505  
                 114426561.847                   114426561.847    21974412.640  
                 132932143.396                   132932143.396    25528223.941  
  25383332.861   133390287.111                                                  
  23498481.372   123485342.043                                                  
  24277232.691   127577693.909                                                  
  25283209.026   132864116.441                                                  
  26483852.821   139173602.936                                                  
  26729627.544   140465096.652                                                  
  27729780.471   145720877.597                                                  
 21  8 31 21 20 10.0000000  0 17G10G15G18G23G24G32C19C21C22C34E 3E 5
                                E 9E15E24E31E36
  21163849.385   111216734.136    21163852.262    86662378.675                  
  23041378.006   121083250.946    23041379.256    94350582.987                  
  22303576.465   117206072.948    22303578.216    91329406.335                  
  20174489.115   106017659.003    20174489.901    82611165.464                  
  20430392.894   107362397.048    20430395.932    83659000.093                  
  22969859.528   120707381.450    22969862.959    94057688.476                  
                 122777298.082                   122777298.082    23578090.728  
                 126452206.565                   126452206.565    24283815.747  
                 114426395.892                   114426395.892    21974380.762  
                 132932692.941                   132932692.941    25528329.475  
  25383008.020   133388580.036                                                  
  23498536.927   123485633.918                                                  
  24277611.604   127579685.015                                                  
  25283086.927   132863474.800                                                  
  26483435.615   139171410.507                                                  
  26729626.382   140465090.499                                                  
  27730399.579   145724130.970                                                  
 21  8 31 21 20 11.0000000  0 17G10G15G18G23G24G32C19C21C22C34E 3E 5
                                E 9E15E24E31E36
  21163465.433   111214716.567    21163468.346    86660806.544                  
  23041955.514   121086285.888    23041956.783    94352947.875                  
  22304197.574   117209336.915    22304199.343    91331949.679                  
  20174530.625   106017877.133    20174531.411    82611335.437                  
  20430579.304   107363376.570    20430582.341    83659763.359                  
  22969383.283   120704878.850    22969386.732    94055738.403                  
                 122779406.025                   122779406.025    23578495.533  
                 126449901.156                   126449901.156    24283373.024  
                 114426230.204                   114426230.204    21974348.937  
                 132933242.999                   132933242.999    25528435.099  
  25382683.197   133386873.088                                                  
  23498592.500   123485925.978                                                  
  24277990.499   127581676.185                                                  
  25282964.918   132862833.676                                                  
  26483018.462   139169218.360                                                  
  26729625.292   140465084.847                                                  
  27731018.652   145727384.337                                                  
 21  8 31 21 20 12.0000000  0 17G10G15G18G23G24G32C19C21C22C34E 3E 5
                                E 9E15E24E31E36
  21163081.553   111212699.307    21163084.466    86659234.657                  
  23042533.077   121089320.935    23042534.346    94355312.849                  
  22304818.737   117212601.210    22304820.506    91334493.290                  
  20174572.224   106018095.749    20174573.028    82611505.790                  
  20430765.821   107364356.743    20430768.858    83660527.128                  
  22968907.092   120702376.452    22968910.540    94053788.480                  
                 122781514.142                   122781514.142    23578900.374  
                 126447595.831                   126447595.831    24282930.301  
                 114426064.781                   114426064.781    21974317.184  
                 132933793.579                   132933793.579    25528540.848  
  25382358.392   133385166.261                                                  
  23498648.108   123486218.199                                                  
  24278369.412   127583667.396                                                  
  25282842.997   132862193.036                                                  
  26482601.364   139167026.488                                                  
  26729624.292   140465079.671                                                  
  27731637.760   145730637.675                                                  
 21  8 31 21 20 13.0000000  0 17G10G15G18G23G24G32C19C21C22C34E 3E 5
                                E 9E15E24E31E36
  21162697.762   111210682.379    21162700.657    86657663.020                  
  23043110.640   121092356.073    23043111.908    94357677.891                  
  22305439.972   117215865.833    22305441.741    91337037.148                  
  20174613.912   106018314.859    20174614.717    82611676.522                  
  20430952.463   107365337.591    20430955.500    83661291.425                  
  22968430.936   120699874.222    22968434.384    94051838.695                  
                 122783622.433                   122783622.433    23579305.268  
                 126445290.593                   126445290.593    24282487.596  
                 114425899.628                   114425899.628    21974285.466  
                 132934344.669                   132934344.669    25528646.668  
  25382033.622   133383459.562                                                  
  23498703.752   123486510.608                                                  
  24278748.342   127585658.665                                                  
  25282721.184   132861552.892                                                  
  26482184.318   139164834.922                                                  
  26729623.416   140465074.976                                                  
  27732256.868   145733891.007                                                  
 21  8 31 21 20 14.0000000  0 17G10G15G18G23G24G32C19C21C22C34E 3E 5
                                E 9E15E24E31E36
  21162314.007   111208665.749    21162316.902    86656091.620                  
  23043688.238   121095391.326    23043689.507    94360043.019                  
  22306061.278   117219130.768    22306063.047    91339581.253                  
  20174655.726   106018534.470    20174656.494    82611847.643                  
  20431139.247   107366319.106    20431142.285    83662056.242                  
  22967954.816   120697372.191    22967958.264    94049889.058                  
                 122785730.902                   122785730.902    23579710.162  
                 126442985.445                   126442985.445    24282044.927  
                 114425734.746                   114425734.746    21974253.803  
                 132934896.276                   132934896.276    25528752.596  
  25381708.888   133381752.984                                                  
  23498759.414   123486803.184                                                  
  24279127.273   127587649.985                                                  
  25282599.460   132860913.244                                                  
  26481767.327   139162643.646                                                  
  26729622.612   140465070.759                                                  
  27732875.940   145737144.324                                                  
 21  8 31 21 20 15.0000000  0 17G10G15G18G23G24G32C19C21C22C34E 3E 5
                                E 9E15E24E31E36
  21161930.324   111206649.449    21161933.218    86654520.479                  
  23044265.836   121098426.669    23044267.105    94362408.222                  
  22306682.637   117222396.043    22306684.406    91342125.621                  
  20174697.593   106018754.562    20174698.379    82612019.149                  
  20431326.140   107367301.274    20431329.177    83662821.566                  
  22967478.713   120694870.345    22967482.180    94047939.567                  
                 122787839.551                   122787839.551    23580115.092  
                 126440680.388                   126440680.388    24281602.257  
                 114425570.128                   114425570.128    21974222.174  
                 132935448.398                   132935448.398    25528858.613  
  25381384.137   133380046.523                                                  
  23498815.148   123487095.925                                                  
  24279506.221   127589641.352                                                  
  25282477.844   132860274.086                                                  
  26481350.407   139160452.657                                                  
  26729621.897   140465067.038                                                  
  27733495.012   145740397.612                                                  
 21  8 31 21 20 16.0000000  0 17G10G15G18G23G24G32C19C21C22C34E 3E 5
                                E 9E15E24E31E36
  21161546.676   111204633.427    21161549.588    86652949.540                  
  23044843.488   121101462.083    23044844.739    94364773.465                  
  22307304.068   117225661.688    22307305.837    91344670.305                  
  20174739.567   106018975.133    20174740.354    82612191.020                  
  20431513.175   107368284.083    20431516.212    83663587.384                  
  22967002.683   120692368.710    22967006.113    94045990.269                  
                 122789948.375                   122789948.375    23580520.076  
                 126438375.415                   126438375.415    24281159.624  
                 114425405.787                   114425405.787    21974190.618  
                 132936001.040                   132936001.040    25528964.755  
  25381059.439   133378340.279                                                  
  23498870.881   123487388.786                                                  
  24279885.187   127591632.824                                                  
  25282356.299   132859635.391                                                  
  26480933.523   139158262.027                                                  
  26729621.272   140465063.699                                                  
  27734114.103   145743650.903                                                  
 21  8 31 21 20 17.0000000  0 17G10G15G18G23G24G32C19C21C22C34E 3E 5
                                E 9E15E24E31E36
  21161163.117   111202617.740    21161166.012    86651378.874                  
  23045421.122   121104497.629    23045422.373    94367138.824                  
  22307925.553   117228927.600    22307927.322    91347215.176                  
  20174781.631   106019196.211    20174782.435    82612363.289                  
  20431700.317   107369267.569    20431703.355    83664353.739                  
  22966526.652   120689867.227    22966530.100    94044041.059                  
                 122792057.376                   122792057.376    23580925.095  
                 126436070.532                   126436070.532    24280716.972  
                 114425241.704                   114425241.704    21974159.115  
                 132936554.192                   132936554.192    25529070.986  
  25380734.759   133376634.067                                                  
  23498926.632   123487681.879                                                  
  24280264.135   127593624.305                                                  
  25282234.861   132858997.222                                                  
  26480516.692   139156071.614                                                  
  26729620.754   140465060.946                                                  
  27734733.175   145746904.168                                                  
 21  8 31 21 20 18.0000000  0 17G10G15G18G23G24G32C19C21C22C34E 3E 5
                                E 9E15E24E31E36
  21160779.594   111200602.372    21160782.507    86649808.458                  
  23045998.774   121107533.266    23046000.043    94369504.257                  
  22308547.109   117232193.844    22308548.860    91349760.296                  
  20174823.802   106019417.774    20174824.606    82612535.937                  
  20431887.602   107370251.718    20431890.640    83665120.606                  
  22966050.675   120687365.939    22966054.123    94042092.003                  
                 122794166.554                   122794166.554    23581330.132  
                 126433765.733                   126433765.733    24280274.374  
                 114425077.895                   114425077.895    21974127.665  
                 132937107.860                   132937107.860    25529177.325  
  25380410.096   133374927.994                                                  
  23498982.455   123487975.144                                                  
  24280643.120   127595615.836                                                  
  25282113.512   132858359.593                                                  
  26480099.915   139153881.491                                                  
  26729620.343   140465058.684                                                  
  27735352.247   145750157.403                                                  
 21  8 31 21 20 19.0000000  0 17G10G15G18G23G24G32C19C21C22C34E 3E 5
                                E 9E15E24E31E36
  21160396.161   111198587.316    21160399.038    86648238.284                  
  23046576.462   121110569.015    23046577.713    94371869.774                  
  22309168.701   117235460.402    22309170.488    91352305.663                  
  20174866.062   106019639.830    20174866.866    82612708.965                  
  20432074.995   107371236.516    20432078.032    83665887.981                  
  22965574.733   120684864.823    22965578.182    94040143.087                  
                 122796275.907                   122796275.907    23581735.223  
                 126431461.028                   126431461.028    24279831.777  
                 114424914.353                   114424914.353    21974096.251  
                 132937662.044                   132937662.044    25529283.735  
  25380085.452   133373222.023                                                  
  23499038.278   123488268.586                                                  
  24281022.104   127597607.428                                                  
  25281992.289   132857722.409                                                  
  26479683.227   139151691.668                                                  
  26729620.003   140465056.902                                                  
  27735971.319   145753410.644                                                  
 21  8 31 21 20 20.0000000  0 17G10G15G18G23G24G32C19C21C22C34E 3E 5
                                E 9E15E24E31E36
  21160012.763   111196572.585    21160015.658    86646668.364                  
  23047154.185   121113604.866    23047155.436    94374235.367                  
  22309790.382   117238727.288    22309792.133    91354851.289                  
  20174908.394   106019862.375    20174909.198    82612882.375                  
  20432262.548   107372221.992    20432265.586    83666655.882                  
  22965098.827   120682363.907    22965102.276    94038194.317                  
                 122798385.437                   122798385.437    23582140.332  
                 126429156.406                   126429156.406    24279389.197  
                 114424751.076                   114424751.076    21974064.891  
                 132938216.739                   132938216.739    25529390.252  
  25379760.861   133371516.181                                                  
  23499094.155   123488562.207                                                  
  24281401.106   127599599.068                                                  
  25281871.119   132857085.731                                                  
  26479266.557   139149502.118                                                  
  26729619.735   140465055.596                                                  
  27736590.374   145756663.856                                                  
 21  8 31 21 20 21.0000000  0 17G10G15G18G23G24G32C19C21C22C34E 3E 5
                                E 9E15E24E31E36
  21159629.437   111194558.174    21159632.314    86645098.691                  
  23047731.908   121116640.820    23047733.159    94376601.043                  
  22310412.099   117241994.511    22310413.886    91357397.173                  
  20174950.869   106020085.414    20174951.637    82613056.169                  
  20432450.208   107373208.116    20432453.228    83667424.288                  
  22964622.940   120679863.176    22964626.406    94036245.695                  
                 122800495.144                   122800495.144    23582545.476  
                 126426851.875                   126426851.875    24278946.635  
                 114424588.069                   114424588.069    21974033.603  
                 132938771.952                   132938771.952    25529496.877  
  25379436.253   133369810.450                                                  
  23499150.067   123488855.972                                                  
  24281780.108   127601590.742                                                  
  25281750.056   132856449.540                                                  
  26478849.959   139147312.852                                                  
  26729619.574   140465054.781                                                  
  27737209.464   145759917.047                                                  
 21  8 31 21 20 22.0000000  0 17G10G15G18G23G24G32C19C21C22C34E 3E 5
                                E 9E15E24E31E36
  21159246.164   111192544.072    21159249.059    86643529.254                  
  23048309.632   121119676.871    23048310.901    94378966.793                  
  22311033.905   117245262.052    22311035.656    91359943.301                  
  20174993.379   106020308.942    20174994.183    82613230.343                  
  20432637.976   107374194.919    20432641.014    83668193.218                  
  22964147.123   120677362.630    22964150.554    94034297.215                  
                 122802605.032                   122802605.032    23582950.656  
                 126424547.434                   126424547.434    24278504.108  
                 114424425.333                   114424425.333    21974002.332  
                 132939327.679                   132939327.679    25529603.608  
  25379111.697   133368104.843                                                  
  23499205.997   123489149.924                                                  
  24282159.128   127603582.493                                                  
  25281629.083   132855813.833                                                  
  26478433.396   139145123.879                                                  
  26729619.521   140465054.434                                                  
  27737828.501   145763170.212                                                  
 21  8 31 21 20 23.0000000  0 17G10G15G18G23G24G32C19C21C22C34E 3E 5
                                E 9E15E24E31E36
  21158862.963   111190530.286    21158865.840    86641960.065                  
  23048887.409   121122713.030    23048888.660    94381332.624                  
  22311655.765   117248529.918    22311657.516    91362489.684                  
  20175036.015   106020532.970    20175036.819    82613404.907                  
  20432825.887   107375182.372    20432828.924    83668962.660                  
  22963671.307   120674862.275    22963674.756    94032348.884                  
                 122804715.089                   122804715.089    23583355.872  
                 126422243.078                   126422243.078    24278061.564  
                 114424262.864                   114424262.864    21973971.132  
                 132939883.925                   132939883.925    25529710.411  
  25378787.160   133366399.371                                                  
  23499261.980   123489444.059                                                  
  24282538.165   127605574.283                                                  
  25281508.199   132855178.633                                                  
  26478016.923   139142935.203                                                  
  26729619.556   140465054.593                                                  
  27738447.555   145766423.379                                                  
 21  8 31 21 20 24.0000000  0 17G10G15G18G23G24G32C19C21C22C34E 3E 5
                                E 9E15E24E31E36
  21158479.797   111188516.820    21158482.692    86640391.133                  
  23049465.186   121125749.286    23049466.437    94383698.536                  
  22312277.678   117251798.105    22312279.447    91365036.320                  
  20175078.739   106020757.482    20175079.543    82613579.851                  
  20433013.922   107376170.495    20433016.960    83669732.624                  
  22963195.544   120672362.110    22963198.975    94030400.704                  
                 122806825.328                   122806825.328    23583761.141  
                 126419938.811                   126419938.811    24277619.056  
                 114424100.659                   114424100.659    21973940.005  
                 132940440.684                   132940440.684    25529817.340  
  25378462.641   133364694.008                                                  
  23499317.982   123489738.352                                                  
  24282917.185   127607566.128                                                  
  25281387.422   132854543.932                                                  
  26477600.485   139140746.812                                                  
  26729619.681   140465055.218                                                  
  27739066.627   145769676.521                                                  
 21  8 31 21 20 25.0000000  0 17G10G15G18G23G24G32C19C21C22C34E 3E 5
                                E 9E15E24E31E36
  21158096.721   111186503.671    21158099.598    86638822.446                  
  23050042.981   121128785.645    23050044.231    94386064.532                  
  22312899.663   117255066.616    22312901.415    91367583.210                  
  20175121.554   106020982.489    20175122.358    82613755.180                  
  20433202.083   107377159.290    20433205.121    83670503.113                  
  22962719.799   120669862.112    22962723.266    94028452.651                  
                 122808935.742                   122808935.742    23584166.429  
                 126417634.638                   126417634.638    24277176.565  
                 114423938.731                   114423938.731    21973908.895  
                 132940997.956                   132940997.956    25529924.357  
  25378138.139   133362988.782                                                  
  23499374.019   123490032.818                                                  
  24283296.241   127609558.028                                                  
  25281266.735   132853909.719                                                  
  26477184.101   139138558.723                                                  
  26729619.878   140465056.339                                                  
  27739685.682   145772929.659                                                  
 21  8 31 21 20 26.0000000  0 17G10G15G18G23G24G32C19C21C22C34E 3E 5
                                E 9E15E24E31E36
  21157713.681   111184490.836    21157716.576    86637254.005                  
  23050620.793   121131822.095    23050622.062    94388430.595                  
  22313521.702   117258335.448    22313523.453    91370130.352                  
  20175164.457   106021207.981    20175165.261    82613930.890                  
  20433390.351   107378148.724    20433393.407    83671274.101                  
  22962244.126   120667362.317    22962247.557    94026504.761                  
                 122811046.331                   122811046.331    23584571.734  
                 126415330.546                   126415330.546    24276734.074  
                 114423777.065                   114423777.065    21973877.838  
                 132941555.742                   132941555.742    25530031.482  
  25377813.656   133361283.659                                                  
  23499430.074   123490327.457                                                  
  24283675.278   127611549.973                                                  
  25281146.137   132853275.984                                                  
  26476767.753   139136370.889                                                  
  26729620.182   140465057.921                                                  
  27740304.718   145776182.750                                                  
 21  8 31 21 20 27.0000000  0 17G10G15G18G23G24G32C19C21C22C34E 3E 5
                                E 9E15E24E31E36
  21157330.712   111182478.315    21157333.607    86635685.809                  
  23051198.642   121134858.656    23051199.893    94390796.746                  
  22314143.794   117261604.609    22314145.563    91372677.750                  
  20175207.486   106021433.972    20175208.254    82614106.989                  
  20433578.762   107379138.822    20433581.800    83672045.606                  
  22961768.453   120664862.710    22961771.901    94024557.016                  
                 122813157.103                   122813157.103    23584977.075  
                 126413026.544                   126413026.544    24276291.637  
                 114423615.669                   114423615.669    21973846.853  
                 132942114.046                   132942114.046    25530138.696  
  25377489.226   133359578.671                                                  
  23499486.183   123490622.290                                                  
  24284054.352   127613541.985                                                  
  25281025.646   132852642.771                                                  
  26476351.494   139134183.372                                                  
  26729620.575   140465060.025                                                  
  27740923.755   145779435.850                                                  
 21  8 31 21 20 28.0000000  0 17G10G15G18G23G24G32C19C21C22C34E 3E 5
                                E 9E15E24E31E36
  21156947.797   111180466.120    21156950.691    86634117.860                  
  23051776.508   121137895.320    23051777.759    94393162.973                  
  22314765.958   117264874.095    22314767.727    91375225.399                  
  20175250.586   106021660.453    20175251.354    82614283.465                  
  20433767.298   107380129.594    20433770.336    83672817.636                  
  22961292.815   120662363.285    22961296.282    94022609.414                  
                 122815268.046                   122815268.046    23585382.487  
                 126410722.632                   126410722.632    24275849.182  
                 114423454.544                   114423454.544    21973815.922  
                 132942672.864                   132942672.864    25530246.017  
  25377164.778   133357873.801                                                  
  23499542.327   123490917.266                                                  
  24284433.443   127615534.035                                                  
  25280905.245   132852010.039                                                  
  26475935.289   139131996.140                                                  
  26729621.075   140465062.578                                                  
  27741542.791   145782688.915                                                  
 21  8 31 21 20 29.0000000  0 17G10G15G18G23G24G32C19C21C22C34E 3E 5
                                E 9E15E24E31E36
  21156564.953   111178454.236    21156567.848    86632550.160                  
  23052354.375   121140932.078    23052355.643    94395529.281                  
  22315388.175   117268143.895    22315389.944    91377773.293                  
  20175293.757   106021887.426    20175294.561    82614460.328                  
  20433955.959   107381121.021    20433958.997    83673590.177                  
  22960817.249   120659864.042    22960820.680    94020661.954                  
                 122817379.167                   122817379.167    23585787.899  
                 126408418.807                   126408418.807    24275406.763  
                 114423293.683                   114423293.683    21973785.027  
                 132943232.194                   132943232.194    25530353.428  
  25376840.384   133356169.054                                                  
  23499598.472   123491212.422                                                  
  24284812.517   127617526.147                                                  
  25280784.915   132851377.797                                                  
  26475519.119   139129809.196                                                  
  26729621.665   140465065.632                                                  
  27742161.846   145785941.972                                                  
 21  8 31 21 20 30.0000000  0 17G10G15G18G23G24G32C19C21C22C34E 3E 5
                                E 9E15E24E31E36
  21156182.163   111176442.671    21156185.057    86630982.708                  
  23052932.277   121143968.951    23052933.545    94397895.672                  
  22316010.464   117271414.035    22316012.233    91380321.454                  
  20175337.036   106022114.899    20175337.840    82614637.579                  
  20434144.763   107382113.117    20434147.801    83674363.238                  
  22960341.683   120657364.995    22960345.113    94018714.649                  
                 122819490.465                   122819490.465    23586193.348  
                 126406115.070                   126406115.070    24274964.362  
                 114423133.093                   114423133.093    21973754.185  
                 132943792.042                   132943792.042    25530460.946  
  25376516.007   133354464.441                                                  
  23499654.688   123491507.777                                                  
  24285191.626   127619518.315                                                  
  25280664.728   132850746.058                                                  
  26475103.003   139127622.536                                                  
  26729622.326   140465069.180                                                  
  27742780.882   145789195.016                                                  
 21  8 31 21 20 31.0000000  0 17G10G15G18G23G24G32C19C21C22C34E 3E 5
                                E 9E15E24E31E36
  21155799.444   111174431.409    21155802.321    86629415.493                  
  23053510.197   121147005.914    23053511.465    94400262.137                  
  22316632.824   117274684.475    22316634.575    91382869.847                  
  20175380.422   106022342.847    20175381.226    82614815.199                  
  20434333.657   107383105.858    20434336.695    83675136.801                  
  22959866.152   120654866.136    22959869.601    94016767.484                  
                 122821601.937                   122821601.937    23586598.831  
                 126403811.426                   126403811.426    24274521.961  
                 114422972.770                   114422972.770    21973723.396  
                 132944352.402                   132944352.402    25530568.553  
  25376191.649   133352759.923                                                  
  23499710.922   123491803.259                                                  
  24285570.717   127621510.524                                                  
  25280544.576   132850114.802                                                  
  26474686.959   139125436.181                                                  
  26729623.094   140465073.194                                                  
  27743399.901   145792448.031                                                  
 21  8 31 21 20 32.0000000  0 17G10G15G18G23G24G32C19C21C22C34E 3E 5
                                E 9E15E24E31E36
  21155416.761   111172420.475    21155419.656    86627848.532                  
  23054088.116   121150042.983    23054089.385    94402628.685                  
  22317255.220   117277955.258    22317257.007    91385418.509                  
  20175423.897   106022571.294    20175424.702    82614993.211                  
  20434522.711   107384099.278    20434525.749    83675910.894                  
  22959390.675   120652367.456    22959394.124    94014820.461                  
                 122823713.590                   122823713.590    23587004.369  
                 126401507.866                   126401507.866    24274079.577  
                 114422812.720                   114422812.720    21973692.662  
                 132944913.282                   132944913.282    25530676.268  
  25375867.326   133351055.551                                                  
  23499767.173   123492098.945                                                  
  24285949.844   127623502.797                                                  
  25280424.568   132849484.060                                                  
  26474270.968   139123250.102                                                  
  26729623.934   140465077.696                                                  
  27744018.938   145795701.034                                                  
 21  8 31 21 20 33.0000000  0 17G10G15G18G23G24G32C19C21C22C34E 3E 5
                                E 9E15E24E31E36
  21155034.167   111170409.862    21155037.062    86626281.817                  
  23054666.072   121153080.175    23054667.341    94404995.323                  
  22317877.705   117281226.353    22317879.456    91387967.411                  
  20175467.462   106022800.233    20175468.266    82615171.606                  
  20434711.873   107385093.352    20434714.928    83676685.497                  
  22958915.234   120649868.964    22958918.683    94012873.586                  
                 122825825.417                   122825825.417    23587409.906  
                 126399204.399                   126399204.399    24273637.248  
                 114422652.932                   114422652.932    21973661.980  
                 132945474.671                   132945474.671    25530784.072  
  25375543.003   133349351.294                                                  
  23499823.479   123492394.791                                                  
  24286328.953   127625495.114                                                  
  25280304.613   132848853.793                                                  
  26473855.013   139121064.316                                                  
  26729624.899   140465082.679                                                  
  27744637.956   145798954.014                                                  
 21  8 31 21 20 34.0000000  0 17G10G15G18G23G24G32C19C21C22C34E 3E 5
                                E 9E15E24E31E36
  21154651.627   111168399.562    21154654.504    86624715.352                  
  23055244.064   121156117.473    23055245.314    94407362.047                  
  22318500.226   117284497.772    22318501.995    91390516.567                  
  20175511.116   106023029.663    20175511.920    82615350.383                  
  20434901.159   107386088.077    20434904.197    83677460.610                  
  22958439.829   120647370.663    22958443.260    94010926.860                  
                 122827937.422                   122827937.422    23587815.497  
                 126396901.016                   126396901.016    24273194.882  
                 114422493.418                   114422493.418    21973631.335  
                 132946036.574                   132946036.574    25530891.983  
  25375218.716   133347647.157                                                  
  23499879.820   123492690.821                                                  
  24286708.098   127627487.485                                                  
  25280184.784   132848224.040                                                  
  26473439.111   139118878.821                                                  
  26729625.936   140465088.157                                                  
  27745256.975   145802206.985                                                  
 21  8 31 21 20 35.0000000  0 17G10G15G18G23G24G32C19C21C22C34E 3E 5
                                E 9E15E24E31E36
  21154269.123   111166389.574    21154272.018    86623149.125                  
  23055822.055   121159154.862    23055823.324    94409728.848                  
  22319122.819   117287769.518    22319124.588    91393065.979                  
  20175554.877   106023259.586    20175555.681    82615529.543                  
  20435090.589   107387083.474    20435093.626    83678236.242                  
  22957964.441   120644872.543    22957967.872    94008980.269                  
                 122830049.601                   122830049.601    23588221.124  
                 126394597.724                   126394597.724    24272752.552  
                 114422334.171                   114422334.171    21973600.761  
                 132946598.996                   132946598.996    25530999.983  
  25374894.465   133345943.144                                                  
  23499936.179   123492987.015                                                  
  24287087.243   127629479.913                                                  
  25280065.043   132847594.762                                                  
  26473023.299   139116693.617                                                  
  26729627.079   140465094.105                                                  
  27745875.994   145805459.933                                                  
 21  8 31 21 20 36.0000000  0 17G10G15G18G23G24G32C19C21C22C34E 3E 5
                                E 9E15E24E31E36
  21153886.708   111164379.899    21153889.585    86621583.150                  
  23056400.082   121162192.357    23056401.333    94412095.722                  
  22319745.483   117291041.578    22319747.234    91395615.636                  
  20175598.728   106023489.999    20175599.514    82615709.086                  
  20435280.125   107388079.528    20435283.163    83679012.386                  
  22957489.108   120642374.609    22957492.538    94007033.831                  
                 122832161.961                   122832161.961    23588626.787  
                 126392294.519                   126392294.519    24272310.258  
                 114422175.191                   114422175.191    21973570.223  
                 132947161.929                   132947161.929    25531108.108  
  25374570.214   133344239.247                                                  
  23499992.573   123493283.386                                                  
  24287466.406   127631472.395                                                  
  25279945.392   132846965.992                                                  
  26472607.523   139114508.700                                                  
  26729628.294   140465100.552                                                  
  27746494.995   145808712.863                                                  
 21  8 31 21 20 37.0000000  0 17G10G15G18G23G24G32C19C21C22C34E 3E 5
                                E 9E15E24E31E36
  21153504.329   111162370.547    21153507.224    86620017.419                  
  23056978.127   121165229.942    23056979.378    94414462.672                  
  22320368.182   117294313.969    22320369.951    91398165.547                  
  20175642.668   106023720.911    20175643.454    82615889.015                  
  20435469.805   107389076.246    20435472.843    83679789.051                  
  22957013.791   120639876.868    22957017.240    94005087.539                  
                 122834274.492                   122834274.492    23589032.467  
                 126389991.404                   126389991.404    24271867.982  
                 114422016.479                   114422016.479    21973539.738  
                 132947725.379                   132947725.379    25531216.305  
  25374245.998   133342535.480                                                  
  23500049.004   123493579.926                                                  
  24287845.587   127633464.921                                                  
  25279825.849   132846337.712                                                  
  26472191.800   139112324.079                                                  
  26729629.617   140465107.483                                                  
  27747114.013   145811965.778                                                  
 21  8 31 21 20 38.0000000  0 17G10G15G18G23G24G32C19C21C22C34E 3E 5
                                E 9E15E24E31E36
  21153122.021   111160361.515    21153124.916    86618451.937                  
  23057556.154   121168267.636    23057557.441    94416829.704                  
  22320990.954   117297586.680    22320992.740    91400715.711                  
  20175686.697   106023952.310    20175687.501    82616069.323                  
  20435659.592   107390073.612    20435662.612    83680566.222                  
  22956538.511   120637379.312    22956541.960    94003141.394                  
                 122836387.203                   122836387.203    23589438.201  
                 126387688.376                   126387688.376    24271425.706  
                 114421858.038                   114421858.038    21973509.325  
                 132948289.339                   132948289.339    25531324.592  
  25373921.801   133340831.833                                                  
  23500105.452   123493876.640                                                  
  24288224.732   127635457.505                                                  
  25279706.358   132845709.922                                                  
  26471776.149   139110139.749                                                  
  26729631.028   140465114.890                                                  
  27747733.014   145815218.673                                                  
 21  8 31 21 20 39.0000000  0 17G10G15G18G23G24G32C19C21C22C34E 3E 5
                                E 9E15E24E31E36
  21152739.785   111158352.800    21152742.662    86616886.707                  
  23058134.235   121171305.427    23058135.504    94419196.811                  
  22321613.796   117300859.720    22321615.583    91403266.130                  
  20175730.816   106024184.198    20175731.620    82616250.020                  
  20435849.522   107391071.648    20435852.542    83681343.909                  
  22956063.302   120634881.938    22956066.733    94001195.386                  
                 122838500.094                   122838500.094    23589843.935  
                 126385385.438                   126385385.438    24270983.447  
                 114421699.867                   114421699.867    21973478.948  
                 132948853.816                   132948853.816    25531433.003  
  25373597.639   133339128.316                                                  
  23500161.954   123494173.515                                                  
  24288603.948   127637450.145                                                  
  25279586.993   132845082.640                                                  
  26471360.515   139107955.704                                                  
  26729632.547   140465122.792                                                  
  27748352.015   145818471.544                                                  
 21  8 31 21 20 40.0000000  0 17G10G15G18G23G24G32C19C21C22C34E 3E 5
                                E 9E15E24E31E36
  21152357.602   111156344.402    21152360.479    86615321.719                  
  23058712.334   121174343.321    23058713.602    94421563.999                  
  22322236.692   117304133.068    22322238.479    91405816.788                  
  20175775.042   106024416.577    20175775.846    82616431.093                  
  20436039.559   107392070.352    20436042.597    83682122.121                  
  22955588.094   120632384.757    22955591.542    93999249.536                  
                 122840613.158                   122840613.158    23590249.741  
                 126383082.591                   126383082.591    24270541.207  
                 114421541.966                   114421541.966    21973448.624  
                 132949418.807                   132949418.807    25531541.504  
  25373273.477   133337424.906                                                  
  23500218.491   123494470.581                                                  
  24288983.147   127639442.829                                                  
  25279467.718   132844455.827                                                  
  26470944.953   139105771.949                                                  
  26729634.120   140465131.173                                                  
  27748971.016   145821724.404                                                  
 21  8 31 21 20 41.0000000  0 17G10G15G18G23G24G32C19C21C22C34E 3E 5
                                E 9E15E24E31E36
  21151975.455   111154336.315    21151978.368    86613756.980                  
  23059290.432   121177381.308    23059291.701    94423931.267                  
  22322859.660   117307406.747    22322861.447    91408367.707                  
  20175819.357   106024649.449    20175820.161    82616612.551                  
  20436229.721   107393069.699    20436232.759    83682900.832                  
  22955112.921   120629887.753    22955116.387    93997303.821                  
                 122842726.398                   122842726.398    23590655.564  
                 126380779.827                   126380779.827    24270098.984  
                 114421384.327                   114421384.327    21973418.336  
                 132949984.316                   132949984.316    25531650.094  
  25372949.368   133335721.632                                                  
  23500275.047   123494767.797                                                  
  24289362.345   127641435.563                                                  
  25279348.531   132843829.528                                                  
  26470529.480   139103588.485                                                  
  26729635.817   140465140.035                                                  
  27749590.017   145824977.237                                                  
 21  8 31 21 20 42.0000000  0 17G10G15G18G23G24G32C19C21C22C34E 3E 5
                                E 9E15E24E31E36
  21151593.398   111152328.548    21151596.292    86612192.484                  
  23059868.585   121180419.401    23059869.835    94426298.610                  
  22323482.682   117310680.747    22323484.468    91410918.871                  
  20175863.761   106024882.811    20175864.565    82616794.390                  
  20436420.026   107394069.718    20436423.064    83683680.070                  
  22954637.801   120627390.945    22954641.232    93995358.254                  
                 122844839.813                   122844839.813    23591061.423  
                 126378477.157                   126378477.157    24269656.780  
                 114421226.961                   114421226.961    21973388.120  
                 132950550.335                   132950550.335    25531758.809  
  25372625.260   133334018.470                                                  
  23500331.638   123495065.206                                                  
  24289741.562   127643428.359                                                  
  25279229.452   132843203.718                                                  
  26470114.026   139101405.317                                                  
  26729637.586   140465149.379                                                  
  27750209.017   145828230.067                                                  
 21  8 31 21 20 43.0000000  0 17G10G15G18G23G24G32C19C21C22C34E 3E 5
                                E 9E15E24E31E36
  21151211.394   111150321.100    21151214.288    86610628.242                  
  23060446.719   121183457.591    23060447.988    94428666.028                  
  22324105.774   117313955.066    22324107.543    91413470.288                  
  20175908.255   106025116.672    20175909.059    82616976.621                  
  20436610.438   107395070.406    20436613.476    83684459.825                  
  22954162.700   120624894.325    22954166.166    93993412.836                  
                 122846953.405                   122846953.405    23591467.318  
                 126376174.571                   126376174.571    24269214.593  
                 114421069.863                   114421069.863    21973357.957  
                 132951116.870                   132951116.870    25531867.596  
  25372301.187   133332315.430                                                  
  23500388.283   123495362.786                                                  
  24290120.778   127645421.202                                                  
  25279110.462   132842578.411                                                  
  26469698.642   139099222.442                                                  
  26729639.462   140465159.206                                                  
  27750828.000   145831482.862                                                  
 21  8 31 21 20 44.0000000  0 17G10G15G18G23G24G32C19C21C22C34E 3E 5
                                E 9E15E24E31E36
  21150829.443   111148313.973    21150832.338    86609064.246                  
  23061024.907   121186495.878    23061026.158    94431033.524                  
  22324728.921   117317229.711    22324730.672    91416021.960                  
  20175952.856   106025351.020    20175953.660    82617159.230                  
  20436800.994   107396071.742    20436804.031    83685240.087                  
  22953687.652   120622397.890    22953691.100    93991467.566                  
                 122849067.181                   122849067.181    23591873.267  
                 126373872.079                   126373872.079    24268772.424  
                 114420913.035                   114420913.035    21973327.848  
                 132951683.918                   132951683.918    25531976.507  
  25371977.133   133330612.520                                                  
  23500444.945   123495660.526                                                  
  24290500.012   127647414.100                                                  
  25278991.562   132841953.596                                                  
  26469283.295   139097039.852                                                  
  26729641.428   140465169.521                                                  
  27751446.983   145834735.637                                                  
 21  8 31 21 20 45.0000000  0 17G10G15G18G23G24G32C19C21C22C34E 3E 5
                                E 9E15E24E31E36
  21150447.564   111146307.156    21150450.459    86607500.493                  
  23061603.077   121189534.262    23061604.346    94433401.094                  
  22325352.121   117320504.672    22325353.908    91418573.878                  
  20175997.565   106025585.864    20175998.333    82617342.223                  
  20436991.674   107397073.742    20436994.712    83686020.864                  
  22953212.639   120619901.643    22953216.088    93989522.438                  
                 122851181.125                   122851181.125    23592279.215  
                 126371569.673                   126371569.673    24268330.255  
                 114420756.478                   114420756.478    21973297.774  
                 132952251.486                   132952251.486    25532085.508  
  25371653.096   133328909.727                                                  
  23500501.626   123495958.449                                                  
  24290879.264   127649407.045                                                  
  25278872.768   132841329.269                                                  
  26468868.019   139094857.544                                                  
  26729643.483   140465180.313                                                  
  27752065.966   145837988.405                                                  
 21  8 31 21 20 46.0000000  0 17G10G15G18G23G24G32C19C21C22C34E 3E 5
                                E 9E15E24E31E36
  21150065.739   111144300.651    21150068.634    86605936.980                  
  23062181.283   121192572.695    23062182.552    94435768.688                  
  22325975.428   117323779.837    22325977.197    91421125.895                  
  20176042.326   106025821.286    20176043.095    82617525.719                  
  20437182.444   107398076.519    20437185.482    83686802.317                  
  22952737.627   120617405.698    22952741.040    93987577.617                  
                 122853295.217                   122853295.217    23592685.217  
                 126369267.375                   126369267.375    24267888.122  
                 114420600.188                   114420600.188    21973267.754  
                 132952819.577                   132952819.577    25532194.581  
  25371329.077   133327207.175                                                  
  23500558.378   123496256.366                                                  
  24291258.516   127651400.073                                                  
  25278754.047   132840705.429                                                  
  26468452.778   139092675.641                                                  
  26729645.645   140465191.520                                                  
  27752685.021   145841240.695                                                  
 21  8 31 21 20 47.0000000  0 17G10G15G18G23G24G32C19C21C22C34E 3E 5
                                E 9E15E24E31E36
  21149683.985   111142294.460    21149686.880    86604373.719                  
  23062759.524   121195611.284    23062760.775    94438136.418                  
  22326598.735   117327055.441    22326600.522    91423678.312                  
  20176087.196   106026057.104    20176087.982    82617709.476                  
  20437373.374   107399079.836    20437376.394    83687584.116                  
  22952262.686   120614909.821    22952266.099    93985632.778                  
                 122855409.522                   122855409.522    23593091.237  
                 126366965.153                   126366965.153    24267446.006  
                 114420444.169                   114420444.169    21973237.806  
                 132953388.177                   132953388.177    25532303.761  
  25371005.076   133325504.622                                                  
  23500615.148   123496554.615                                                  
  24291637.786   127653393.130                                                  
  25278635.432   132840082.099                                                  
  26468037.627   139090493.922                                                  
  26729647.879   140465203.284                                                  
  27753304.004   145844493.423                                                  
 21  8 31 21 20 48.0000000  0 17G10G15G18G23G24G32C19C21C22C34E 3E 5
                                E 9E15E24E31E36
  21149302.285   111140288.597    21149305.162    86602810.706                  
  23063337.766   121198649.988    23063339.035    94440504.239                  
  22327222.132   117330331.363    22327223.919    91426230.978                  
  20176132.154   106026293.421    20176132.940    82617893.616                  
  20437564.412   107400083.808    20437567.432    83688366.438                  
  22951787.763   120612414.125    22951791.176    93983688.077                  
                 122857524.007                   122857524.007    23593497.293  
                 126364663.021                   126364663.021    24267003.909  
                 114420288.423                   114420288.423    21973207.875  
                 132953957.286                   132953957.286    25532413.065  
  25370681.128   133323802.190                                                  
  23500671.918   123496853.051                                                  
  24292017.056   127655386.222                                                  
  25278516.925   132839459.251                                                  
  26467622.494   139088312.491                                                  
  26729650.202   140465215.527                                                  
  27753922.987   145847746.112                                                  
 21  8 31 21 20 49.0000000  0 17G10G15G18G23G24G32C19C21C22C34E 3E 5
                                E 9E15E24E31E36
  21148920.638   111138283.048    21148923.515    86601247.936                  
  23063916.025   121201688.770    23063917.294    94442872.117                  
  22327845.582   117333607.607    22327847.387    91428783.895                  
  20176177.220   106026530.223    20176178.024    82618078.141                  
  20437755.593   107401088.449    20437758.613    83689149.273                  
  22951312.876   120609918.617    22951316.307    93981743.528                  
                 122859638.664                   122859638.664    23593903.402  
                 126362360.976                   126362360.976    24266561.811  
                 114420132.941                   114420132.941    21973178.016  
                 132954526.910                   132954526.910    25532522.442  
  25370357.198   133322099.882                                                  
  23500728.759   123497151.646                                                  
  24292396.344   127657379.378                                                  
  25278398.489   132838836.895                                                  
  26467207.433   139086131.351                                                  
  26729652.632   140465228.262                                                  
  27754541.934   145850998.802                                                  
 21  8 31 21 20 50.0000000  0 17G10G15G18G23G24G32C19C21C22C34E 3E 5
                                E 9E15E24E31E36
  21148539.063   111136277.813    21148541.940    86599685.418                  
  23064494.321   121204727.659    23064495.572    94445240.086                  
  22328469.104   117336884.171    22328470.873    91431337.060                  
  20176222.375   106026767.528    20176223.179    82618263.050                  
  20437946.898   107402093.735    20437949.936    83689932.613                  
  22950838.043   120607423.297    22950841.456    93979799.121                  
                 122861753.500                   122861753.500    23594309.547  
                 126360059.021                   126360059.021    24266119.732  
                 114419977.730                   114419977.730    21973148.228  
                 132955097.048                   132955097.048    25532631.943  
  25370033.287   133320397.696                                                  
  23500785.618   123497450.428                                                  
  24292775.632   127659372.585                                                  
  25278280.142   132838215.042                                                  
  26466792.442   139083950.504                                                  
  26729655.134   140465241.464                                                  
  27755160.899   145854251.456                                                  
 21  8 31 21 20 51.0000000  0 17G10G15G18G23G24G32C19C21C22C34E 3E 5
                                E 9E15E24E31E36
  21148157.542   111134272.898    21148160.419    86598123.149                  
  23065072.616   121207766.644    23065073.885    94447608.124                  
  22329092.661   117340161.058    22329094.466    91433890.476                  
  20176267.637   106027005.316    20176268.423    82618448.339                  
  20438138.347   107403099.690    20438141.367    83690716.472                  
  22950363.227   120604928.156    22950366.658    93977854.860                  
                 122863868.509                   122863868.509    23594715.692  
                 126357757.156                   126357757.156    24265677.706  
                 114419822.778                   114419822.778    21973118.458  
                 132955667.719                   132955667.719    25532741.516  
  25369709.375   133318695.637                                                  
  23500842.495   123497749.367                                                  
  24293154.938   127661365.847                                                  
  25278161.921   132837593.687                                                  
  26466377.506   139081769.948                                                  
  26729657.760   140465255.180                                                  
  27755779.864   145857504.104                                                  
 21  8 31 21 20 52.0000000  0 17G10G15G18G23G24G32C19C21C22C34E 3E 5
                                E 9E15E24E31E36
  21147776.074   111132268.303    21147778.969    86596561.129                  
  23065650.947   121210805.723    23065652.198    94449976.233                  
  22329716.308   117343438.264    22329718.095    91436444.145                  
  20176312.989   106027243.593    20176313.757    82618634.012                  
  20438329.903   107404106.306    20438332.923    83691500.848                  
  22949888.465   120602433.212    22949891.878    93975910.747                  
                 122865983.692                   122865983.692    23595121.909  
                 126355455.376                   126355455.376    24265235.662  
                 114419668.102                   114419668.102    21973088.760  
                 132956238.884                   132956238.884    25532851.196  
  25369385.517   133316993.689                                                  
  23500899.426   123498048.490                                                  
  24293534.262   127663359.153                                                  
  25278043.753   132836972.825                                                  
  26465962.623   139079589.679                                                  
  26729660.458   140465269.356                                                  
  27756398.811   145860756.735                                                  
 21  8 31 21 20 53.0000000  0 17G10G15G18G23G24G32C19C21C22C34E 3E 5
                                E 9E15E24E31E36
  21147394.678   111130264.028    21147397.554    86594999.356                  
  23066229.278   121213844.911    23066230.546    94452344.429                  
  22330340.008   117346715.800    22330341.795    91438998.062                  
  20176358.412   106027482.366    20176359.198    82618820.071                  
  20438521.584   107405113.582    20438524.604    83692285.738                  
  22949413.721   120599938.453    22949417.134    93973966.781                  
                 122868099.052                   122868099.052    23595528.125  
                 126353153.683                   126353153.683    24264793.636  
                 114419513.696                   114419513.696    21973059.098  
                 132956810.557                   132956810.557    25532961.001  
  25369061.676   133315291.870                                                  
  23500956.375   123498347.780                                                  
  24293913.603   127665352.518                                                  
  25277925.728   132836352.462                                                  
  26465547.776   139077409.710                                                  
  26729663.264   140465284.032                                                  
  27757017.776   145864009.339                                                  
 21  8 31 21 20 54.0000000  0 17G10G15G18G23G24G32C19C21C22C34E 3E 5
                                E 9E15E24E31E36
  21147013.335   111128260.067    21147016.212    86593437.828                  
  23066807.644   121216884.184    23066808.895    94454712.696                  
  22330963.762   117349993.640    22330965.532    91441552.224                  
  20176403.960   106027721.629    20176404.746    82619006.508                  
  20438713.372   107406121.512    20438716.392    83693071.141                  
  22948939.012   120597443.878    22948942.443    93972022.957                  
                 122870214.590                   122870214.590    23595934.395  
                 126350852.080                   126350852.080    24264351.645  
                 114419359.555                   114419359.555    21973029.506  
                 132957382.746                   132957382.746    25533070.878  
  25368737.854   133313590.175                                                  
  23501013.359   123498647.246                                                  
  24294292.927   127667345.945                                                  
  25277807.757   132835732.589                                                  
  26465133.000   139075230.031                                                  
  26729666.141   140465299.194                                                  
  27757636.741   145867261.937                                                  
 21  8 31 21 20 55.0000000  0 17G10G15G18G23G24G32C19C21C22C34E 3E 5
                                E 9E15E24E31E36
  21146632.063   111126256.423    21146634.940    86591876.547                  
  23067385.993   121219923.562    23067387.280    94457081.043                  
  22331587.588   117353271.812    22331589.357    91444106.641                  
  20176449.579   106027961.385    20176450.366    82619193.329                  
  20438905.304   107407130.108    20438908.341    83693857.057                  
  22948464.357   120594949.497    22948467.788    93970079.286                  
                 122872330.302                   122872330.302    23596340.701  
                 126348550.564                   126348550.564    24263909.655  
                 114419205.685                   114419205.685    21972999.933  
                 132957955.449                   132957955.449    25533180.862  
  25368414.067   133311888.614                                                  
  23501070.379   123498946.886                                                  
  24294672.286   127669339.421                                                  
  25277689.893   132835113.218                                                  
  26464718.278   139073050.639                                                  
  26729669.125   140465314.840                                                  
  27758255.689   145870514.506                                                  
 21  8 31 21 20 56.0000000  0 17G10G15G18G23G24G32C19C21C22C34E 3E 5
                                E 9E15E24E31E36
  21146250.846   111124253.110    21146253.740    86590315.524                  
  23067964.396   121222963.043    23067965.682    94459449.470                  
  22332211.467   117356550.301    22332213.236    91446661.308                  
  20176495.306   106028201.637    20176496.075    82619380.536                  
  20439097.360   107408139.356    20439100.380    83694643.484                  
  22947989.720   120592455.298    22947993.151    93968135.754                  
                 122874446.191                   122874446.191    23596747.025  
                 126346249.132                   126346249.132    24263467.701  
                 114419052.082                   114419052.082    21972970.467  
                 132958528.664                   132958528.664    25533290.935  
  25368090.281   133310187.160                                                  
  23501127.435   123499246.698                                                  
  24295051.628   127671332.945                                                  
  25277572.118   132834494.340                                                  
  26464303.591   139070871.539                                                  
  26729672.181   140465330.965                                                  
  27758874.618   145873767.058                                                  
 21  8 31 21 20 57.0000000  0 17G10G15G18G23G24G32C19C21C22C34E 3E 5
                                E 9E15E24E31E36
  21145869.681   111122250.105    21145872.576    86588754.739                  
  23068542.816   121226002.621    23068544.102    94461817.965                  
  22332835.400   117359829.113    22332837.187    91449216.222                  
  20176541.122   106028442.371    20176541.909    82619568.120                  
  20439289.541   107409149.264    20439292.561    83695430.426                  
  22947515.137   120589961.281    22947518.568    93966192.366                  
                 122876562.258                   122876562.258    23597153.402  
                 126343947.797                   126343947.797    24263025.764  
                 114418898.746                   114418898.746    21972941.001  
                 132959102.393                   132959102.393    25533401.115  
  25367766.512   133308485.840                                                  
  23501184.526   123499546.675                                                  
  24295431.005   127673326.524                                                  
  25277454.468   132833875.961                                                  
  26463888.976   139068692.743                                                  
  26729675.343   140465347.565                                                  
  27759493.565   145877019.589                                                  
 21  8 31 21 20 58.0000000  0 17G10G15G18G23G24G32C19C21C22C34E 3E 5
                                E 9E15E24E31E36
  21145488.589   111120247.418    21145491.484    86587194.207                  
  23069121.254   121229042.293    23069122.523    94464186.543                  
  22333459.404   117363108.245    22333461.173    91451771.391                  
  20176587.028   106028683.609    20176587.796    82619756.102                  
  20439481.865   107410159.841    20439484.885    83696217.886                  
  22947040.572   120587467.458    22947044.002    93964249.129                  
                 122878678.499                   122878678.499    23597559.797  
                 126341646.546                   126341646.546    24262583.827  
                 114418745.684                   114418745.684    21972911.624  
                 132959676.637                   132959676.637    25533511.403  
  25367442.797   133306784.631                                                  
  23501241.636   123499846.843                                                  
  24295810.382   127675320.156                                                  
  25277336.872   132833258.074                                                  
  26463474.433   139066514.226                                                  
  26729678.596   140465364.664                                                  
  27760112.477   145880272.114                                                  
 21  8 31 21 20 59.0000000  0 17G10G15G18G23G24G32C19C21C22C34E 3E 5
                                E 9E15E24E31E36
  21145107.532   111118245.047    21145110.445    86585633.914                  
  23069699.692   121232082.074    23069700.979    94466555.203                  
  22334083.462   117366387.696    22334085.248    91454326.804                  
  20176633.023   106028925.340    20176633.791    82619944.462                  
  20439674.279   107411171.079    20439677.317    83697005.863                  
  22946566.060   120584973.816    22946569.473    93962306.032                  
                 122880794.918                   122880794.918    23597966.246  
                 126339345.390                   126339345.390    24262141.908  
                 114418592.889                   114418592.889    21972882.266  
                 132960251.393                   132960251.393    25533621.780  
  25367119.099   133305083.552                                                  
  23501298.781   123500147.172                                                  
  24296189.759   127677313.841                                                  
  25277219.384   132832640.664                                                  
  26463059.943   139064336.011                                                  
  26729681.937   140465382.248                                                  
  27760731.424   145883524.606                                                  
 21  8 31 21 21  0.0000000  0 17G10G15G18G23G24G32C19C21C22C34E 3E 5
                                E 9E15E24E31E36
  21144726.582   111116243.005    21144729.459    86584073.883                  
  23070278.184   121235121.957    23070279.453    94468923.939                  
  22334707.573   117369667.468    22334709.378    91456882.470                  
  20176679.125   106029167.558    20176679.893    82620133.203                  
  20439866.836   107412182.962    20439869.855    83697794.339                  
  22946091.566   120582480.380    22946094.996    93960363.091                  
                 122882911.517                   122882911.517    23598372.695  
                 126337044.320                   126337044.320    24261700.025  
                 114418440.362                   114418440.362    21972852.978  
                 132960826.664                   132960826.664    25533732.246  
  25366795.420   133303382.593                                                  
  23501355.980   123500447.668                                                  
  24296569.154   127679307.575                                                  
  25277102.002   132832023.760                                                  
  26462645.489   139062158.078                                                  
  26729685.386   140465400.306                                                  
  27761350.335   145886777.082                                                  
 21  8 31 21 21  1.0000000  0 17G10G15G18G23G24G32C19C21C22C34E 3E 5
                                E 9E15E24E31E36
  21144345.668   111114241.282    21144348.545    86582514.091                  
  23070856.658   121238161.937    23070857.944    94471292.745                  
  22335331.756   117372947.562    22335333.561    91459438.378                  
  20176725.298   106029410.278    20176726.102    82620322.329                  
  20440059.517   107413195.519    20440062.555    83698583.345                  
  22945617.125   120579987.114    22945620.538    93958420.286                  
                 122885028.284                   122885028.284    23598779.215  
                 126334743.339                   126334743.339    24261258.142  
                 114418288.105                   114418288.105    21972823.745  
                 132961402.449                   132961402.449    25533842.819  
  25366471.758   133301681.749                                                  
  23501413.178   123500748.346                                                  
  24296948.567   127681301.372                                                  
  25276984.692   132831407.356                                                  
  26462231.106   139059980.445                                                  
  26729688.906   140465418.855                                                  
  27761969.283   145890029.542                                                  
 21  8 31 21 21  2.0000000  0 17G10G15G18G23G24G32C19C21C22C34E 3E 5
                                E 9E15E24E31E36
  21143964.808   111112239.868    21143967.703    86580954.547                  
  23071435.185   121241202.019    23071436.454    94473661.636                  
  22335955.992   117376227.976    22335957.797    91461994.540                  
  20176771.579   106029653.488    20176772.383    82620511.839                  
  20440252.342   107414208.726    20440255.362    83699372.852                  
  22945142.703   120577494.048    22945146.116    93956477.630                  
                 122887145.235                   122887145.235    23599185.753  
                 126332442.445                   126332442.445    24260816.259  
                 114418136.122                   114418136.122    21972794.564  
                 132961978.746                   132961978.746    25533953.500  
  25366148.114   133299981.048                                                  
  23501470.449   123501049.186                                                  
  24297327.980   127683295.206                                                  
  25276867.507   132830791.453                                                  
  26461816.759   139057803.102                                                  
  26729692.516   140465437.888                                                  
  27762588.194   145893281.976                                                  
 21  8 31 21 21  3.0000000  0 17G10G15G18G23G24G32C19C21C22C34E 3E 5
                                E 9E15E24E31E36
  21143584.001   111110238.774    21143586.896    86579395.251                  
  23072013.695   121244242.202    23072014.981    94476030.605                  
  22336580.300   117379508.707    22336582.105    91464550.949                  
  20176817.967   106029897.191    20176818.753    82620701.735                  
  20440445.256   107415222.601    20440448.294    83700162.880                  
  22944668.316   120575001.155    22944671.747    93954535.118                  
                 122889262.360                   122889262.360    23599592.327  
                 126330141.645                   126330141.645    24260374.412  
                 114417984.403                   114417984.403    21972765.420  
                 132962555.558                   132962555.558    25534064.252  
  25365824.506   133298280.444                                                  
  23501527.719   123501350.202                                                  
  24297707.393   127685289.102                                                  
  25276750.375   132830176.038                                                  
  26461402.484   139055626.052                                                  
  26729696.232   140465457.411                                                  
  27763207.106   145896534.396                                                  
 21  8 31 21 21  4.0000000  0 17G10G15G18G23G24G32C19C21C22C34E 3E 5
                                E 9E15E24E31E36
  21143203.284   111108238.014    21143206.161    86577836.210                  
  23072592.258   121247282.481    23072593.545    94478399.649                  
  22337204.680   117382789.769    22337206.484    91467107.612                  
  20176864.444   106030141.390    20176865.213    82620892.015                  
  20440638.313   107416237.134    20440641.368    83700953.418                  
  22944193.983   120572508.458    22944197.396    93952592.750                  
                 122891379.663                   122891379.663    23599998.919  
                 126327840.935                   126327840.935    24259932.600  
                 114417832.952                   114417832.952    21972736.347  
                 132963132.882                   132963132.882    25534175.148  
  25365500.916   133296579.981                                                  
  23501585.043   123501651.394                                                  
  24298086.842   127687283.048                                                  
  25276633.369   132829561.124                                                  
  26460988.262   139053449.290                                                  
  26729700.056   140465477.415                                                  
  27763826.017   145899786.786                                                  
 21  8 31 21 21  5.0000000  0 17G10G15G18G23G24G32C19C21C22C34E 3E 5
                                E 9E15E24E31E36
  21142822.602   111106237.560    21142825.497    86576277.410                  
  23073170.821   121250322.863    23073172.108    94480768.773                  
  22337829.095   117386071.146    22337830.899    91469664.525                  
  20176910.993   106030386.073    20176911.779    82621082.673                  
  20440831.513   107417252.327    20440834.533    83701744.478                  
  22943719.667   120570015.952    22943723.080    93950650.536                  
                 122893497.140                   122893497.140    23600405.564  
                 126325540.309                   126325540.309    24259490.789  
                 114417681.774                   114417681.774    21972707.292  
                 132963710.723                   132963710.723    25534286.096  
  25365177.344   133294879.624                                                  
  23501642.384   123501952.753                                                  
  24298466.273   127689277.047                                                  
  25276516.434   132828946.704                                                  
  26460574.076   139051272.809                                                  
  26729703.934   140465497.894                                                  
  27764444.928   145903039.164                                                  
 21  8 31 21 21  6.0000000  0 17G10G15G18G23G24G32C19C21C22C34E 3E 5
                                E 9E15E24E31E36
  21142441.974   111104237.425    21142444.887    86574718.863                  
  23073749.402   121253363.345    23073750.671    94483137.978                  
  22338453.581   117389352.851    22338455.386    91472221.695                  
  20176957.667   106030631.261    20176958.435    82621273.724                  
  20441024.820   107418268.177    20441027.858    83702536.040                  
  22943245.388   120567523.626    22943248.819    93948708.456                  
                 122895614.798                   122895614.798    23600812.245  
                 126323239.773                   126323239.773    24259048.995  
                 114417530.864                   114417530.864    21972678.326  
                 132964289.076                   132964289.076    25534397.152  
  25364853.807   133293179.387                                                  
  23501699.762   123502254.288                                                  
  24298845.739   127691271.099                                                  
  25276399.624   132828332.782                                                  
  26460159.979   139049096.646                                                  
  26729707.936   140465518.855                                                  
  27765063.840   145906291.525                                                  
 21  8 31 21 21  7.0000000  0 17G10G15G18G23G24G32C19C21C22C34E 3E 5
                                E 9E15E24E31E36
  21142061.435   111102237.616    21142064.348    86573160.566                  
  23074328.001   121256403.921    23074329.306    94485507.251                  
  22339078.139   117392634.870    22339079.944    91474779.106                  
  20177004.395   106030876.939    20177005.199    82621465.156                  
  20441218.252   107419284.685    20441221.272    83703328.122                  
  22942771.144   120565031.490    22942774.575    93946766.532                  
                 122897732.629                   122897732.629    23601218.962  
                 126320939.327                   126320939.327    24258607.219  
                 114417380.224                   114417380.224    21972649.379  
                 132964867.937                   132964867.937    25534508.333  
  25364530.289   133291479.250                                                  
  23501757.175   123502555.999                                                  
  24299225.206   127693265.203                                                  
  25276282.904   132827719.365                                                  
  26459745.900   139046920.744                                                  
  26729712.028   140465540.312                                                  
  27765682.734   145909543.865                                                  
 21  8 31 21 21  8.0000000  0 17G10G15G18G23G24G32C19C21C22C34E 3E 5
                                E 9E15E24E31E36
  21141680.932   111100238.130    21141683.845    86571602.516                  
  23074906.618   121259444.590    23074907.923    94487876.597                  
  22339702.733   117395917.189    22339704.538    91477336.750                  
  20177051.247   106031123.089    20177052.033    82621656.957                  
  20441411.827   107420301.867    20441414.865    83704120.727                  
  22942296.936   120562539.538    22942300.384    93944824.749                  
                 122899850.636                   122899850.636    23601625.697  
                 126318638.971                   126318638.971    24258165.461  
                 114417229.848                   114417229.848    21972620.520  
                 132965447.317                   132965447.317    25534619.604  
  25364206.806   133289779.321                                                  
  23501814.624   123502857.874                                                  
  24299604.673   127695259.343                                                  
  25276166.237   132827106.399                                                  
  26459331.929   139044745.179                                                  
  26729716.192   140465562.261                                                  
  27766301.627   145912796.167                                                  
 21  8 31 21 21  9.0000000  0 17G10G15G18G23G24G32C19C21C22C34E 3E 5
                                E 9E15E24E31E36
  21141300.519   111098238.949    21141303.414    86570044.715                  
  23075485.289   121262485.371    23075486.557    94490246.034                  
  22340327.416   117399199.845    22340329.221    91479894.661                  
  20177098.171   106031369.750    20177098.975    82621849.161                  
  20441605.492   107421319.695    20441608.547    83704913.835                  
  22941822.781   120560047.772    22941826.194    93942883.113                  
                 122901968.819                   122901968.819    23602032.467  
                 126316338.706                   126316338.706    24257723.721  
                 114417079.746                   114417079.746    21972591.680  
                 132966027.208                   132966027.208    25534730.964  
  25363883.323   133288079.457                                                  
  23501872.109   123503159.917                                                  
  24299984.157   127697253.556                                                  
  25276049.695   132826493.965                                                  
  26458917.957   139042569.875                                                  
  26729720.463   140465584.692                                                  
  27766920.521   145916048.472                                                  
 21  8 31 21 21 10.0000000  0 17G10G15G18G23G24G32C19C21C22C34E 3E 5
                                E 9E15E24E31E36
  21140920.141   111096240.096    21140923.036    86568487.167                  
  23076063.941   121265526.237    23076065.228    94492615.543                  
  22340952.135   117402482.817    22340953.940    91482452.819                  
  20177145.220   106031616.901    20177146.007    82622041.746                  
  20441799.317   107422338.184    20441802.355    83705707.465                  
  22941348.644   120557556.199    22941352.075    93940941.626                  
                 122904087.180                   122904087.180    23602439.274  
                 126314038.531                   126314038.531    24257281.981  
                 114416929.914                   114416929.914    21972562.928  
                 132966607.613                   132966607.613    25534842.413  
  25363559.858   133286379.718                                                  
  23501929.593   123503462.142                                                  
  24300363.659   127699247.813                                                  
  25275933.261   132825882.027                                                  
  26458504.075   139040394.871                                                  
  26729724.823   140465607.590                                                  
  27767539.397   145919300.741                                                  
 21  8 31 21 21 11.0000000  0 17G10G15G18G23G24G32C19C21C22C34E 3E 5
                                E 9E15E24E31E36
  21140539.834   111094241.567    21140542.747    86566929.872                  
  23076642.594   121268567.215    23076643.898    94494985.129                  
  22341576.944   117405766.104    22341578.748    91485011.227                  
  20177192.341   106031864.539    20177193.145    82622234.706                  
  20441993.267   107423357.341    20441996.305    83706501.609                  
  22940874.544   120555064.806    22940877.974    93939000.285                  
                 122906205.719                   122906205.719    23602846.116  
                 126311738.445                   126311738.445    24256840.277  
                 114416780.347                   114416780.347    21972534.177  
                 132967188.531                   132967188.531    25534953.987  
  25363236.446   133284680.098                                                  
  23501987.167   123503764.534                                                  
  24300743.162   127701242.125                                                  
  25275816.898   132825270.567                                                  
  26458090.246   139038220.160                                                  
  26729729.272   140465630.989                                                  
  27768158.308   145922552.996                                                  
 21  8 31 21 21 12.0000000  0 17G10G15G18G23G24G32C19C21C22C34E 3E 5
                                E 9E15E24E31E36
  21140159.582   111092243.360    21140162.476    86565372.827                  
  23077221.300   121271608.281    23077222.604    94497354.793                  
  22342201.788   117409049.714    22342203.574    91487569.884                  
  20177239.569   106032112.676    20177240.337    82622428.062                  
  20442187.325   107424377.132    20442190.363    83707296.258                  
  22940400.478   120552573.606    22940403.927    93937059.090                  
                 122908324.435                   122908324.435    23603252.993  
                 126309438.445                   126309438.445    24256398.572  
                 114416631.054                   114416631.054    21972505.515  
                 132967769.960                   132967769.960    25535065.632  
  25362913.035   133282980.609                                                  
  23502044.723   123504067.102                                                  
  24301122.682   127703236.488                                                  
  25275700.642   132824659.609                                                  
  26457676.453   139036045.745                                                  
  26729733.829   140465654.867                                                  
  27768777.184   145925805.228                                                  
 21  8 31 21 21 13.0000000  0 17G10G15G18G23G24G32C19C21C22C34E 3E 5
                                E 9E15E24E31E36
  21139779.400   111090245.461    21139782.295    86563816.023                  
  23077800.024   121274649.452    23077801.293    94499724.534                  
  22342826.703   117412333.640    22342828.508    91490128.785                  
  20177286.868   106032361.309    20177287.654    82622621.802                  
  20442381.507   107425397.601    20442384.545    83708091.429                  
  22939926.467   120550082.596    22939929.898    93935118.044                  
                 122910443.325                   122910443.325    23603659.924  
                 126307138.540                   126307138.540    24255956.921  
                 114416482.027                   114416482.027    21972476.907  
                 132968351.907                   132968351.907    25535177.403  
  25362589.659   133281281.243                                                  
  23502102.333   123504369.837                                                  
  24301502.202   127705230.906                                                  
  25275584.475   132824049.165                                                  
  26457262.732   139033871.612                                                  
  26729738.457   140465679.225                                                  
  27769396.042   145929057.436                                                  
 21  8 31 21 21 14.0000000  0 17G10G15G18G23G24G32C19C21C22C34E 3E 5
                                E 9E15E24E31E36
  21139399.273   111088247.874    21139402.185    86562259.464                  
  23078378.766   121277690.723    23078380.035    94502094.356                  
  22343451.654   117415617.890    22343453.477    91492687.939                  
  20177334.275   106032610.429    20177335.061    82622815.921                  
  20442575.815   107426418.719    20442578.853    83708887.103                  
  22939452.473   120547591.772    22939455.904    93933177.144                  
                 122912562.390                   122912562.390    23604066.856  
                 126304838.719                   126304838.719    24255515.253  
                 114416333.275                   114416333.275    21972448.334  
                 132968934.363                   132968934.363    25535289.245  
  25362266.301   133279581.989                                                  
  23502159.979   123504672.746                                                  
  24301881.740   127707225.375                                                  
  25275468.398   132823439.199                                                  
  26456849.082   139031697.785                                                  
  26729743.174   140465704.071                                                  
  27770014.917   145932309.644                                                  
 21  8 31 21 21 15.0000000  0 17G10G15G18G23G24G32C19C21C22C34E 3E 5
                                E 9E15E24E31E36
  21139019.198   111086250.632    21139022.093    86560703.172                  
  23078957.526   121280732.100    23078958.794    94504464.262                  
  22344076.695   117418902.438    22344078.500    91495247.316                  
  20177381.788   106032860.121    20177382.557    82623010.519                  
  20442770.266   107427440.444    20442773.286    83709683.227                  
  22938978.515   120545101.136    22938981.946    93931236.386                  
                 122914681.632                   122914681.632    23604473.841  
                 126302538.992                   126302538.992    24255073.620  
                 114416184.786                   114416184.786    21972419.815  
                 132969517.333                   132969517.333    25535401.195  
  25361942.961   133277882.911                                                  
  23502217.660   123504975.860                                                  
  24302261.278   127709219.887                                                  
  25275352.428   132822829.720                                                  
  26456435.467   139029524.362                                                  
  26729747.999   140465729.375                                                  
  27770633.793   145935561.788                                                  
 21  8 31 21 21 16.0000000  0 17G10G15G18G23G24G32C19C21C22C34E 3E 5
                                E 9E15E24E31E36
  21138639.196   111084253.696    21138642.108    86559147.113                  
  23079536.286   121283773.577    23079537.572    94506834.246                  
  22344701.807   117422187.327    22344703.594    91497806.969                  
  20177429.356   106033110.230    20177430.160    82623205.413                  
  20442964.824   107428462.900    20442967.862    83710479.946                  
  22938504.593   120542610.693    22938508.042    93929295.781                  
                 122916801.054                   122916801.054    23604880.843  
                 126300239.352                   126300239.352    24254632.005  
                 114416036.571                   114416036.571    21972391.368  
                 132970100.815                   132970100.815    25535513.251  
  25361619.657   133276183.901                                                  
  23502275.359   123505279.114                                                  
  24302640.834   127711214.449                                                  
  25275236.547   132822220.742                                                  
  26456021.907   139027351.098                                                  
  26729752.913   140465755.192                                                  
  27771252.669   145938813.928                                                  
 21  8 31 21 21 17.0000000  0 17G10G15G18G23G24G32C19C21C22C34E 3E 5
                                E 9E15E24E31E36
  21138259.265   111082257.086    21138262.159    86557591.317                  
  23080115.081   121286815.153    23080116.368    94509204.301                  
  22345326.937   117425472.536    22345328.759    91500366.868                  
  20177477.066   106033360.841    20177477.852    82623400.694                  
  20443159.507   107429485.989    20443162.545    83711277.156                  
  22938030.724   120540120.440    22938034.155    93927355.327                  
                 122918920.651                   122918920.651    23605287.900  
                 126297939.801                   126297939.801    24254190.408  
                 114415888.621                   114415888.621    21972362.938  
                 132970684.812                   132970684.812    25535625.397  
  25361296.389   133274485.008                                                  
  23502333.094   123505582.527                                                  
  24303020.408   127713209.070                                                  
  25275120.756   132821612.261                                                  
  26455608.400   139025178.136                                                  
  26729757.916   140465781.476                                                  
  27771871.527   145942066.045                                                  
 21  8 31 21 21 18.0000000  0 17G10G15G18G23G24G32C19C21C22C34E 3E 5
                                E 9E15E24E31E36
  21137879.387   111080260.792    21137882.282    86556035.766                  
  23080693.877   121289856.829    23080695.181    94511574.434                  
  22345952.156   117428758.053    22345953.961    91502927.011                  
  20177524.848   106033611.939    20177525.634    82623596.353                  
  20443354.315   107430509.763    20443357.353    83712074.901                  
  22937556.874   120537630.367    22937560.304    93925415.013                  
                 122921040.422                   122921040.422    23605694.974  
                 126295640.338                   126295640.338    24253748.793  
                 114415740.944                   114415740.944    21972334.580  
                 132971269.321                   132971269.321    25535737.669  
  25360973.102   133272786.259                                                  
  23502390.882   123505886.128                                                  
  24303399.982   127715203.747                                                  
  25275005.054   132821004.281                                                  
  26455194.964   139023005.479                                                  
  26729763.027   140465808.271                                                  
  27772490.385   145945318.171                                                  
 21  8 31 21 21 19.0000000  0 17G10G15G18G23G24G32C19C21C22C34E 3E 5
                                E 9E15E24E31E36
  21137499.563   111078264.821    21137502.458    86554480.462                  
  23081272.726   121292898.614    23081273.994    94513944.656                  
  22346577.447   117432043.893    22346579.234    91505487.406                  
  20177572.719   106033863.526    20177573.505    82623792.397                  
  20443549.266   107431534.185    20443552.304    83712873.152                  
  22937083.059   120535140.473    22937086.507    93923474.835                  
                 122923160.374                   122923160.374    23606102.102  
                 126293340.969                   126293340.969    24253307.231  
                 114415593.535                   114415593.535    21972306.276  
                 132971854.344                   132971854.344    25535849.993  
  25360649.852   133271087.606                                                  
  23502448.688   123506189.888                                                  
  24303779.555   127717198.485                                                  
  25274889.460   132820396.789                                                  
  26454781.582   139020833.119                                                  
  26729768.209   140465835.535                                                  
  27773109.225   145948570.236                                                  
 21  8 31 21 21 20.0000000  0 17G10G15G18G23G24G32C19C21C22C34E 3E 5
                                E 9E15E24E31E36
  21137119.793   111076269.168    21137122.705    86552925.407                  
  23081851.575   121295940.490    23081852.861    94516314.948                  
  22347202.773   117435330.056    22347204.578    91508048.047                  
  20177620.679   106034115.613    20177621.483    82623988.829                  
  20443744.324   107432559.258    20443747.362    83713671.911                  
  22936609.279   120532650.781    22936612.728    93921534.816                  
                 122925280.500                   122925280.500    23606509.247  
                 126291041.692                   126291041.692    24252865.688  
                 114415446.395                   114415446.395    21972278.025  
                 132972439.876                   132972439.876    25535962.443  
  25360326.637   133269389.095                                                  
  23502506.512   123506493.835                                                  
  24304159.165   127719193.261                                                  
  25274773.936   132819789.801                                                  
  26454368.236   139018661.031                                                  
  26729773.480   140465863.289                                                  
  27773728.082   145951822.312                                                  
 21  8 31 21 21 21.0000000  0 17G10G15G18G23G24G32C19C21C22C34E 3E 5
                                E 9E15E24E31E36
  21136740.094   111074273.831    21136743.007    86551370.601                  
  23082430.442   121298982.456    23082431.728    94518685.316                  
  22347828.153   117438616.532    22347829.976    91510608.940                  
  20177668.747   106034368.187    20177669.533    82624185.642                  
  20443939.525   107433584.988    20443942.563    83714471.183                  
  22936135.554   120530161.278    22936138.984    93919594.950                  
                 122927400.801                   122927400.801    23606916.429  
                 126288742.499                   126288742.499    24252424.144  
                 114415299.527                   114415299.527    21972249.827  
                 132973025.926                   132973025.926    25536075.000  
  25360003.458   133267690.701                                                  
  23502564.372   123506797.953                                                  
  24304538.756   127721188.091                                                  
  25274658.538   132819183.312                                                  
  26453954.961   139016489.249                                                  
  26729778.859   140465891.527                                                  
  27774346.922   145955074.356                                                  
 21  8 31 21 21 22.0000000  0 17G10G15G18G23G24G32C19C21C22C34E 3E 5
                                E 9E15E24E31E36
  21136360.467   111072278.814    21136363.361    86549816.047                  
  23083009.327   121302024.523    23083010.613    94521055.762                  
  22348453.623   117441903.317    22348455.445    91513170.074                  
  20177716.904   106034621.251    20177717.708    82624382.837                  
  20444134.834   107434611.379    20444137.854    83715270.973                  
  22935661.846   120527671.941    22935665.277    93917655.211                  
                 122929521.281                   122929521.281    23607323.646  
                 126286443.397                   126286443.397    24251982.618  
                 114415152.926                   114415152.926    21972221.666  
                 132973612.485                   132973612.485    25536187.646  
  25359680.279   133265992.427                                                  
  23502622.286   123507102.231                                                  
  24304918.384   127723182.976                                                  
  25274543.211   132818577.308                                                  
  26453541.740   139014317.763                                                  
  26729784.327   140465920.238                                                  
  27774965.762   145958326.382                                                  
 21  8 31 21 21 23.0000000  0 17G10G15G18G23G24G32C19C21C22C34E 3E 5
                                E 9E15E24E31E36
  21135980.875   111070284.122    21135983.787    86548261.747                  
  23083588.247   121305066.695    23083589.516    94523426.286                  
  22349079.146   117445190.422    22349080.933    91515731.456                  
  20177765.168   106034874.808    20177765.937    82624580.422                  
  20444330.285   107435638.424    20444333.305    83716071.273                  
  22935188.174   120525182.801    22935191.605    93915715.624                  
                 122931641.937                   122931641.937    23607730.881  
                 126284144.388                   126284144.388    24251541.128  
                 114415006.598                   114415006.598    21972193.558  
                 132974199.558                   132974199.558    25536300.382  
  25359357.135   133264294.273                                                  
  23502680.217   123507406.680                                                  
  24305297.993   127725177.913                                                  
  25274427.992   132817971.805                                                  
  26453128.572   139012146.561                                                  
  26729789.884   140465949.450                                                  
  27775584.602   145961578.387                                                  
 21  8 31 21 21 24.0000000  0 17G10G15G18G23G24G32C19C21C22C34E 3E 5
                                E 9E15E24E31E36
  21135601.355   111068289.745    21135604.267    86546707.696                  
  23084167.168   121308108.958    23084168.437    94525796.883                  
  22349704.722   117448477.849    22349706.527    91518293.090                  
  20177813.504   106035128.861    20177814.308    82624778.383                  
  20444525.844   107436666.133    20444528.882    83716872.087                  
  22934714.537   120522693.843    22934717.968    93913776.183                  
                 122933762.769                   122933762.769    23608138.187  
                 126281845.466                   126281845.466    24251099.639  
                 114414860.535                   114414860.535    21972165.503  
                 132974787.146                   132974787.146    25536413.225  
  25359034.027   133262596.246                                                  
  23502738.202   123507711.300                                                  
  24305677.639   127727172.907                                                  
  25274312.862   132817366.798                                                  
  26452715.458   139009975.654                                                  
  26729795.548   140465979.138                                                  
  27776203.442   145964830.364                                                  
 21  8 31 21 21 25.0000000  0 17G10G15G18G23G24G32C19C21C22C34E 3E 5
                                E 9E15E24E31E36
  21135221.906   111066295.685    21135224.801    86545153.882                  
  23084746.106   121311151.329    23084747.393    94528167.562                  
  22350330.353   117451765.593    22350332.157    91520854.973                  
  20177861.947   106035383.398    20177862.715    82624976.731                  
  20444721.545   107437694.493    20444724.565    83717673.406                  
  22934240.937   120520205.087    22934244.386    93911836.895                  
                 122935883.776                   122935883.776    23608545.494  
                 126279546.634                   126279546.634    24250658.184  
                 114414714.742                   114414714.742    21972137.521  
                 132975375.243                   132975375.243    25536526.157  
  25358710.920   133260898.339                                                  
  23502796.205   123508016.112                                                  
  24306057.284   127729167.942                                                  
  25274197.839   132816762.281                                                  
  26452302.398   139007805.051                                                  
  26729801.284   140466009.310                                                  
  27776822.265   145968082.337                                                  
 21  8 31 21 21 26.0000000  0 17G10G15G18G23G24G32C19C21C22C34E 3E 5
                                E 9E15E24E31E36
  21134842.493   111064301.944    21134845.406    86543600.316                  
  23085325.063   121314193.792    23085326.367    94530538.317                  
  22350956.054   117455053.649    22350957.859    91523417.090                  
  20177910.461   106035638.436    20177911.265    82625175.460                  
  20444917.336   107438723.516    20444920.374    83718475.242                  
  22933767.372   120517716.508    22933770.821    93909897.742                  
                 122938004.961                   122938004.961    23608952.836  
                 126277247.889                   126277247.889    24250216.712  
                 114414569.223                   114414569.223    21972109.555  
                 132975963.851                   132975963.851    25536639.196  
  25358387.848   133259200.552                                                  
  23502854.226   123508321.081                                                  
  24306436.947   127731163.038                                                  
  25274082.888   132816158.263                                                  
  26451889.427   139005634.736                                                  
  26729807.092   140466039.972                                                  
  27777441.087   145971334.269                                                  
 21  8 31 21 21 27.0000000  0 17G10G15G18G23G24G32C19C21C22C34E 3E 5
                                E 9E15E24E31E36
  21134463.187   111062308.532    21134466.082    86542047.013                  
  23085904.037   121317236.363    23085905.341    94532909.144                  
  22351581.827   117458342.024    22351583.614    91525979.460                  
  20177959.101   106035893.965    20177959.887    82625374.573                  
  20445113.288   107439753.187    20445116.326    83719277.586                  
  22933293.861   120515228.104    22933297.274    93907958.731                  
                 122940126.323                   122940126.323    23609360.214  
                 126274949.238                   126274949.238    24249775.294  
                 114414423.968                   114414423.968    21972081.680  
                 132976552.978                   132976552.978    25536752.325  
  25358064.776   133257502.891                                                  
  23502912.300   123508626.225                                                  
  24306816.592   127733158.190                                                  
  25273968.043   132815554.735                                                  
  26451476.456   139003464.711                                                  
  26729813.042   140466071.112                                                  
  27778059.909   145974586.187                                                  
 21  8 31 21 21 28.0000000  0 17G10G15G18G23G24G32C19C21C22C34E 3E 5
                                E 9E15E24E31E36
  21134083.899   111060315.440    21134086.794    86540493.954                  
  23086483.047   121320279.025    23086484.333    94535280.050                  
  22352207.618   117461630.716    22352209.441    91528542.075                  
  20178007.812   106036149.993    20178008.598    82625574.073                  
  20445309.365   107440783.519    20445312.385    83720080.442                  
  22932820.367   120512739.903    22932823.798    93906019.871                  
                 122942247.859                   122942247.859    23609767.646  
                 126272650.676                   126272650.676    24249333.875  
                 114414278.989                   114414278.989    21972053.822  
                 132977142.613                   132977142.613    25536865.561  
  25357741.740   133255805.348                                                  
  23502970.392   123508931.531                                                  
  24307196.273   127735153.383                                                  
  25273853.288   132814951.712                                                  
  26451063.574   139001294.992                                                  
  26729819.064   140466102.740                                                  
  27778678.713   145977838.078                                                  
 21  8 31 21 21 29.0000000  0 17G10G15G18G23G24G32C19C21C22C34E 3E 5
                                E 9E15E24E31E36
  21133704.683   111058322.659    21133707.578    86538941.138                  
  23087062.057   121323321.790    23087063.361    94537651.035                  
  22352833.499   117464919.731    22352835.321    91531104.942                  
  20178056.612   106036406.508    20178057.416    82625773.957                  
  20445505.549   107441814.511    20445508.587    83720883.812                  
  22932346.928   120510251.890    22932350.341    93904081.159                  
                 122944369.573                   122944369.573    23610175.095  
                 126270352.202                   126270352.202    24248892.475  
                 114414134.272                   114414134.272    21972026.036  
                 132977732.762                   132977732.762    25536978.904  
  25357418.739   133254107.934                                                  
  23503028.520   123509237.028                                                  
  24307575.954   127737148.638                                                  
  25273738.641   132814349.175                                                  
  26450650.764   138999125.560                                                  
  26729825.157   140466134.851                                                  
  27779297.535   145981089.966                                                  
 21  8 31 21 21 30.0000000  0 17G10G15G18G23G24G32C19C21C22C34E 3E 5
                                E 9E15E24E31E36
  21133325.538   111056330.216    21133328.433    86537388.582                  
  23087641.103   121326364.651    23087642.407    94540022.094                  
  22353459.433   117468209.063    22353461.255    91533668.060                  
  20178105.537   106036663.518    20178106.324    82625974.228                  
  20445701.858   107442846.160    20445704.896    83721687.693                  
  22931873.506   120507764.068    22931876.919    93902142.599                  
                 122946491.464                   122946491.464    23610582.580  
                 126268053.821                   126268053.821    24248451.092  
                 114413989.832                   114413989.832    21971998.303  
                 132978323.421                   132978323.421    25537092.319  
  25357095.757   133252410.640                                                  
  23503086.702   123509542.680                                                  
  24307955.653   127739143.948                                                  
  25273624.083   132813747.153                                                  
  26450237.972   138996956.422                                                  
  26729831.358   140466167.450                                                  
  27779916.340   145984341.813                                                  
 21  8 31 21 21 31.0000000  0 17G10G15G18G23G24G32C19C21C22C34E 3E 5
                                E 9E15E24E31E36
  21132946.447   111054338.083    21132949.341    86535836.269                  
  23088220.166   121329407.618    23088221.453    94542393.235                  
  22354085.438   117471498.703    22354087.261    91536231.411                  
  20178154.534   106036921.022    20178155.321    82626174.880                  
  20445898.292   107443878.488    20445901.348    83722492.106                  
  22931400.120   120505276.421    22931403.533    93900204.175                  
                 122948613.532                   122948613.532    23610990.119  
                 126265755.527                   126265755.527    24248009.745  
                 114413845.661                   114413845.661    21971970.624  
                 132978914.597                   132978914.597    25537205.859  
  25356772.792   133250713.470                                                  
  23503144.883   123509848.511                                                  
  24308335.352   127741139.306                                                  
  25273509.596   132813145.617                                                  
  26449825.251   138994787.585                                                  
  26729837.666   140466200.527                                                  
  27780535.162   145987593.640                                                  
 21  8 31 21 21 32.0000000  0 17G10G15G18G23G24G32C19C21C22C34E 3E 5
                                E 9E15E24E31E36
  21132567.427   111052346.271    21132570.322    86534284.207                  
  23088799.248   121332450.680    23088800.534    94544764.454                  
  22354711.497   117474788.671    22354713.320    91538795.020                  
  20178203.638   106037179.019    20178204.425    82626375.914                  
  20446094.887   107444911.458    20446097.925    83723297.015                  
  22930926.751   120502788.966    22930930.182    93898265.898                  
                 122950735.778                   122950735.778    23611397.658  
                 126263457.323                   126263457.323    24247568.398  
                 114413701.753                   114413701.753    21971942.980  
                 132979506.282                   132979506.282    25537319.488  
  25356449.863   133249016.417                                                  
  23503203.118   123510154.515                                                  
  24308715.087   127743134.719                                                  
  25273395.216   132812544.563                                                  
  26449412.602   138992619.034                                                  
  26729844.045   140466234.100                                                  
  27781153.966   145990845.449                                                  
 21  8 31 21 21 33.0000000  0 17G10G15G18G23G24G32C19C21C22C34E 3E 5
                                E 9E15E24E31E36
  21132188.443   111050354.778    21132191.338    86532732.399                  
  23089378.347   121335493.841    23089379.616    94547135.746                  
  22355337.628   117478078.945    22355339.433    91541358.870                  
  20178252.814   106037437.514    20178253.618    82626577.337                  
  20446291.553   107445945.085    20446294.591    83724102.441                  
  22930453.454   120500301.695    22930456.885    93896327.765                  
                 122952858.196                   122952858.196    23611805.268  
                 126261159.212                   126261159.212    24247127.069  
                 114413558.121                   114413558.121    21971915.409  
                 132980098.482                   132980098.482    25537433.207  
  25356126.934   133247319.484                                                  
  23503261.371   123510460.687                                                  
  24309094.803   127745130.185                                                  
  25273280.944   132811944.028                                                  
  26449000.006   138990450.779                                                  
  26729850.513   140466268.146                                                  
  27781772.734   145994097.238                                                  
 21  8 31 21 21 34.0000000  0 17G10G15G18G23G24G32C19C21C22C34E 3E 5
                                E 9E15E24E31E36
  21131809.548   111048363.611    21131812.443    86531180.836                  
  23089957.446   121338537.101    23089958.733    94549507.118                  
  22355963.794   117481369.536    22355965.617    91543922.964                  
  20178302.097   106037696.491    20178302.901    82626779.141                  
  20446488.381   107446979.363    20446491.419    83724908.370                  
  22929980.176   120497814.618    22929983.606    93894389.785                  
                 122954980.793                   122954980.793    23612212.879  
                 126258861.189                   126258861.189    24246685.758  
                 114413414.759                   114413414.759    21971887.855  
                 132980691.190                   132980691.190    25537547.014  
  25355804.041   133245622.680                                                  
  23503319.678   123510767.040                                                  
  24309474.538   127747125.695                                                  
  25273166.761   132811343.972                                                  
  26448587.446   138988282.811                                                  
  26729857.107   140466302.684                                                  
  27782391.539   145997349.000                                                  
 21  8 31 21 21 35.0000000  0 17G10G15G18G23G24G32C19C21C22C34E 3E 5
                                E 9E15E24E31E36
  21131430.707   111046372.755    21131433.584    86529629.519                  
  23090536.581   121341580.462    23090537.886    94551878.563                  
  22356590.032   117484660.449    22356591.855    91546487.313                  
  20178351.487   106037955.973    20178352.273    82626981.333                  
  20446685.315   107448014.308    20446688.353    83725714.825                  
  22929506.932   120495327.723    22929510.363    93892451.945                  
                 122957103.566                   122957103.566    23612620.543  
                 126256563.255                   126256563.255    24246244.464  
                 114413271.664                   114413271.664    21971860.372  
                 132981284.413                   132981284.413    25537660.965  
  25355481.183   133243925.991                                                  
  23503378.020   123511073.567                                                  
  24309854.273   127749121.258                                                  
  25273052.667   132810744.417                                                  
  26448174.957   138986115.137                                                  
  26729863.754   140466337.704                                                  
  27783010.325   146000600.747                                                  
 21  8 31 21 21 36.0000000  0 17G10G15G18G23G24G32C19C21C22C34E 3E 5
                                E 9E15E24E31E36
  21131051.901   111044382.233    21131054.796    86528078.468                  
  23091115.734   121344623.919    23091117.021    94554250.090                  
  22357216.341   117487951.668    22357218.164    91549051.898                  
  20178400.966   106038215.944    20178401.734    82627183.906                  
  20446882.393   107449049.898    20446885.448    83726521.776                  
  22929033.743   120492841.018    22929037.156    93890514.258                  
                 122959226.515                   122959226.515    23613028.224  
                 126254265.415                   126254265.415    24245803.189  
                 114413128.840                   114413128.840    21971832.961  
                 132981878.148                   132981878.148    25537774.987  
  25355158.344   133242229.436                                                  
  23503436.381   123511380.249                                                  
  24310234.043   127751116.871                                                  
  25272938.680   132810145.364                                                  
  26447762.523   138983947.777                                                  
  26729870.527   140466373.211                                                  
  27783629.094   146003852.462                                                  
 21  8 31 21 21 37.0000000  0 17G10G15G18G23G24G32C19C21C22C34E 3E 5
                                E 9E15E24E31E36
  21130673.185   111042392.023    21130676.080    86526527.657                  
  23091694.905   121347667.467    23091696.191    94556621.686                  
  22357842.704   117491243.212    22357844.527    91551616.734                  
  20178450.517   106038476.406    20178451.303    82627386.863                  
  20447079.577   107450086.155    20447082.615    83727329.247                  
  22928560.553   120490354.499    22928563.984    93888576.710                  
                 122961349.642                   122961349.642    23613435.942  
                 126251967.659                   126251967.659    24245361.913  
                 114412986.284                   114412986.284    21971805.586  
                 132982472.395                   132982472.395    25537889.099  
  25354835.522   133240532.997                                                  
  23503494.759   123511687.110                                                  
  24310613.795   127753112.542                                                  
  25272824.765   132809546.792                                                  
  26447350.141   138981780.687                                                  
  26729877.388   140466409.202                                                  
  27784247.880   146007104.171                                                  
 21  8 31 21 21 38.0000000  0 17G10G15G18G23G24G32C19C21C22C34E 3E 5
                                E 9E15E24E31E36
  21130294.523   111040402.135    21130297.418    86524977.093                  
  23092274.076   121350711.118    23092275.380    94558993.360                  
  22358469.121   117494535.062    22358470.943    91554181.814                  
  20178500.175   106038737.364    20178500.961    82627590.206                  
  20447276.905   107451123.063    20447279.943    83728137.227                  
  22928087.417   120487868.173    22928090.848    93886639.313                  
                 122963472.940                   122963472.940    23613843.695  
                 126249669.999                   126249669.999    24244920.673  
                 114412844.001                   114412844.001    21971778.264  
                 132983067.156                   132983067.156    25538003.300  
  25354512.718   133238836.677                                                  
  23503553.208   123511994.145                                                  
  24310993.566   127755108.260                                                  
  25272710.958   132808948.725                                                  
  26446937.796   138979613.914                                                  
  26729884.304   140466445.668                                                  
  27784866.666   146010355.851                                                  
 21  8 31 21 21 39.0000000  0 17G10G15G18G23G24G32C19C21C22C34E 3E 5
                                E 9E15E24E31E36
  21129915.914   111038412.573    21129918.827    86523426.785                  
  23092853.300   121353754.872    23092854.604    94561365.114                  
  22359095.609   117497827.237    22359097.413    91556747.140                  
  20178549.922   106038998.817    20178550.726    82627793.938                  
  20447474.340   107452160.634    20447477.378    83728945.724                  
  22927614.317   120485382.023    22927617.766    93884702.054                  
                 122965596.422                   122965596.422    23614251.502  
                 126247372.426                   126247372.426    24244479.451  
                 114412701.985                   114412701.985    21971750.978  
                 132983662.427                   132983662.427    25538117.626  
  25354189.932   133237140.469                                                  
  23503611.658   123512301.358                                                  
  24311373.354   127757104.034                                                  
  25272597.239   132808351.145                                                  
  26446525.539   138977447.422                                                  
  26729891.344   140466482.622                                                  
  27785485.435   146013607.487                                                  
 21  8 31 21 21 40.0000000  0 17G10G15G18G23G24G32C19C21C22C34E 3E 5
                                E 9E15E24E31E36
  21129537.377   111036423.331    21129540.271    86521876.726                  
  23093432.524   121356798.714    23093433.829    94563736.941                  
  22359722.168   117501119.726    22359723.955    91559312.719                  
  20178599.777   106039260.758    20178600.563    82627998.046                  
  20447671.918   107453198.856    20447674.955    83729754.726                  
  22927141.252   120482896.073    22927144.683    93882764.954                  
                 122967720.075                   122967720.075    23614659.327  
                 126245074.946                   126245074.946    24244038.247  
                 114412560.243                   114412560.243    21971723.763  
                 132984258.212                   132984258.212    25538232.041  
  25353867.182   133235444.399                                                  
  23503670.143   123512608.738                                                  
  24311753.142   127759099.856                                                  
  25272483.628   132807754.079                                                  
  26446113.319   138975281.224                                                  
  26729898.456   140466520.065                                                  
  27786104.204   146016859.120                                                  
 21  8 31 21 21 41.0000000  0 17G10G15G18G23G24G32C19C21C22C34E 3E 5
                                E 9E15E24E31E36
  21129158.893   111034434.409    21129161.806    86520326.919                  
  23094011.767   121359842.652    23094013.053    94566108.839                  
  22360348.763   117504412.535    22360350.568    91561878.539                  
  20178649.721   106039523.194    20178650.507    82628202.544                  
  20447869.603   107454237.733    20447872.640    83730564.245                  
  22926668.241   120480410.296    22926671.654    93880827.985                  
                 122969843.906                   122969843.906    23615067.187  
                 126242777.551                   126242777.551    24243597.061  
                 114412418.766                   114412418.766    21971696.602  
                 132984854.508                   132984854.508    25538346.564  
  25353544.467   133233748.446                                                  
  23503728.664   123512916.275                                                  
  24312132.948   127761095.735                                                  
  25272370.106   132807157.497                                                  
  26445701.152   138973115.325                                                  
  26729905.675   140466557.996                                                  
  27786722.954   146020110.724                                                  
 21  8 31 21 21 42.0000000  0 17G10G15G18G23G24G32C19C21C22C34E 3E 5
                                E 9E15E24E31E36
  21128780.481   111032445.804    21128783.375    86518777.352                  
  23094591.027   121362886.702    23094592.313    94568480.828                  
  22360975.412   117507705.638    22360977.235    91564444.587                  
  20178699.736   106039786.133    20178700.540    82628407.429                  
  20448067.413   107455277.288    20448070.468    83731374.292                  
  22926195.266   120477924.689    22926198.679    93878891.137                  
                 122971967.922                   122971967.922    23615475.083  
                 126240480.266                   126240480.266    24243155.875  
                 114412277.561                   114412277.561    21971669.477  
                 132985451.329                   132985451.329    25538461.158  
  25353221.735   133232052.596                                                  
  23503787.221   123513224.007                                                  
  24312512.754   127763091.680                                                  
  25272256.656   132806561.419                                                  
  26445289.057   138970949.746                                                  
  26729913.001   140466596.425                                                  
  27787341.741   146023362.169                                                  
 21  8 31 21 21 43.0000000  0 17G10G15G18G23G24G32C19C21C22C34E 3E 5
                                E 9E15E24E31E36
  21128402.122   111030457.527    21128405.017    86517228.048                  
  23095170.305   121365930.840    23095171.591    94570852.879                  
  22361602.132   117510999.075    22361603.955    91567010.899                  
  20178749.877   106040049.558    20178750.663    82628612.695                  
  20448265.366   107456317.491    20448268.404    83732184.840                  
  22925722.291   120475439.296    22925725.722    93876954.470                  
                 122974092.105                   122974092.105    23615882.997  
                 126238183.053                   126238183.053    24242714.725  
                 114412136.630                   114412136.630    21971642.423  
                 132986048.649                   132986048.649    25538575.859  
  25352899.056   133230356.899                                                  
  23503845.814   123513531.895                                                  
  24312892.578   127765087.665                                                  
  25272143.348   132805965.835                                                  
  26444877.015   138968784.434                                                  
  26729920.399   140466635.322                                                  
  27787960.491   146026613.731                                                  
 21  8 31 21 21 44.0000000  0 17G10G15G18G23G24G32C19C21C22C34E 3E 5
                                E 9E15E24E31E36
  21128023.817   111028469.571    21128026.712    86515678.988                  
  23095749.601   121368975.078    23095750.905    94573225.011                  
  22362228.924   117514292.823    22362230.747    91569577.456                  
  20178800.106   106040313.485    20178800.893    82628818.351                  
  20448463.444   107457358.343    20448466.482    83732995.894                  
  22925249.387   120472954.097    22925252.800    93875017.953                  
                 122976216.465                   122976216.465    23616290.965  
                 126235885.934                   126235885.934    24242273.574  
                 114411995.964                   114411995.964    21971615.406  
                 132986646.481                   132986646.481    25538690.685  
  25352576.395   133228661.310                                                  
  23503904.442   123513839.954                                                  
  24313272.420   127767083.700                                                  
  25272030.076   132805370.743                                                  
  26444465.027   138966619.422                                                  
  26729927.886   140466674.708                                                  
  27788579.242   146029865.270                                                  
 21  8 31 21 21 45.0000000  0 17G10G15G18G23G24G32C19C21C22C34E 3E 5
                                E 9E15E24E31E36
  21127645.601   111026481.937    21127648.496    86514130.183                  
  23096328.914   121372019.407    23096330.219    94575597.215                  
  22362855.751   117517586.885    22362857.574    91572144.258                  
  20178850.426   106040577.894    20178851.194    82629024.388                  
  20448661.647   107458399.858    20448664.667    83733807.461                  
  22924776.502   120470469.077    22924779.915    93873081.574                  
                 122978341.005                   122978341.005    23616698.968  
                 126233588.902                   126233588.902    24241832.459  
                 114411855.571                   114411855.571    21971588.441  
                 132987244.825                   132987244.825    25538805.583  
  25352253.752   133226965.847                                                  
  23503963.106   123514148.191                                                  
  24313652.262   127769079.788                                                  
  25271916.948   132804776.145                                                  
  26444053.092   138964454.708                                                  
  26729935.481   140466714.566                                                  
  27789197.993   146033116.780                                                  
 21  8 31 21 21 46.0000000  0 17G10G15G18G23G24G32C19C21C22C34E 3E 5
                                E 9E15E24E31E36
  21127267.421   111024494.625    21127270.316    86512581.633                  
  23096908.264   121375063.839    23096909.568    94577969.499                  
  22363482.668   117520881.270    22363484.473    91574711.308                  
  20178900.816   106040842.798    20178901.620    82629230.804                  
  20448859.940   107459442.027    20448862.977    83734619.544                  
  22924303.634   120467984.251    22924307.064    93871145.343                  
                 122980465.713                   122980465.713    23617107.007  
                 126231291.960                   126231291.960    24241391.363  
                 114411715.445                   114411715.445    21971561.513  
                 132987843.680                   132987843.680    25538920.588  
  25351931.162   133225270.505                                                  
  23504021.788   123514456.599                                                  
  24314032.122   127771075.926                                                  
  25271803.872   132804182.048                                                  
  26443641.211   138962290.280                                                  
  26729943.146   140466754.915                                                  
  27789816.743   146036368.278                                                  
 21  8 31 21 21 47.0000000  0 17G10G15G18G23G24G32C19C21C22C34E 3E 5
                                E 9E15E24E31E36
  21126889.295   111022507.628    21126892.207    86511033.324                  
  23097487.613   121378108.370    23097488.918    94580341.864                  
  22364109.621   117524175.969    22364111.443    91577278.606                  
  20178951.314   106041108.195    20178952.118    82629437.610                  
  20449058.393   107460484.851    20449061.413    83735432.134                  
  22923830.837   120465499.612    22923834.268    93869209.261                  
                 122982590.605                   122982590.605    23617515.064  
                 126228995.114                   126228995.114    24240950.284  
                 114411575.590                   114411575.590    21971534.655  
                 132988443.048                   132988443.048    25539035.683  
  25351608.555   133223575.289                                                  
  23504080.505   123514765.171                                                  
  24314411.981   127773072.114                                                  
  25271690.922   132803588.445                                                  
  26443229.402   138960126.156                                                  
  26729950.919   140466795.751                                                  
  27790435.458   146039619.758                                                  
 21  8 31 21 21 48.0000000  0 17G10G15G18G23G24G32C19C21C22C34E 3E 5
                                E 9E15E24E31E36
  21126511.258   111020520.968    21126514.152    86509485.272                  
  23098066.998   121381152.995    23098068.285    94582714.292                  
  22364736.645   117527470.979    22364738.467    91579846.140                  
  20179001.919   106041374.095    20179002.723    82629644.804                  
  20449256.954   107461528.341    20449259.991    83736245.238                  
  22923358.059   120463015.161    22923361.472    93867273.328                  
                 122984715.672                   122984715.672    23617923.157  
                 126226698.353                   126226698.353    24240509.205  
                 114411436.003                   114411436.003    21971507.852  
                 132989042.927                   132989042.927    25539150.884  
  25351286.001   133221880.187                                                  
  23504139.259   123515073.930                                                  
  24314791.859   127775068.358                                                  
  25271578.062   132802995.337                                                  
  26442817.628   138957962.318                                                  
  26729958.782   140466837.068                                                  
  27791054.209   146042871.198                                                  
 21  8 31 21 21 49.0000000  0 17G10G15G18G23G24G32C19C21C22C34E 3E 5
                                E 9E15E24E31E36
  21126133.256   111018534.617    21126136.151    86507937.468                  
  23098646.384   121384197.706    23098647.688    94585086.796                  
  22365363.722   117530766.309    22365365.545    91582413.929                  
  20179052.613   106041640.484    20179053.418    82629852.378                  
  20449455.657   107462572.473    20449458.677    83737058.848                  
  22922885.316   120460530.898    22922888.747    93865337.539                  
                 122986840.916                   122986840.916    23618331.286  
                 126224401.684                   126224401.684    24240068.161  
                 114411296.691                   114411296.691    21971481.102  
                 132989643.318                   132989643.318    25539266.175  
  25350963.465   133220185.200                                                  
  23504198.048   123515382.852                                                  
  24315171.736   127777064.651                                                  
  25271465.308   132802402.731                                                  
  26442405.926   138955798.784                                                  
  26729966.734   140466878.866                                                  
  27791672.924   146046122.622                                                  
 21  8 31 21 21 50.0000000  0 17G10G15G18G23G24G32C19C21C22C34E 3E 5
                                E 9E15E24E31E36
  21125755.344   111016548.594    21125758.239    86506389.918                  
  23099225.805   121387242.536    23099227.091    94587459.387                  
  22365990.854   117534061.950    22365992.676    91584981.961                  
  20179103.397   106041907.366    20179104.201    82630060.340                  
  20449654.468   107463617.257    20449657.506    83737872.970                  
  22922412.626   120458046.812    22922416.039    93863401.891                  
                 122988966.331                   122988966.331    23618739.468  
                 126222105.106                   126222105.106    24239627.118  
                 114411157.645                   114411157.645    21971454.406  
                 132990244.220                   132990244.220    25539381.573  
  25350640.947   133218490.356                                                  
  23504256.855   123515691.952                                                  
  24315551.614   127779061.004                                                  
  25271352.626   132801810.609                                                  
  26441994.259   138953635.538                                                  
  26729974.775   140466921.169                                                  
  27792291.656   146049374.044                                                  
 21  8 31 21 21 51.0000000  0 17G10G15G18G23G24G32C19C21C22C34E 3E 5
                                E 9E15E24E31E36
  21125377.486   111014562.888    21125380.381    86504842.612                  
  23099805.225   121390287.452    23099806.512    94589832.050                  
  22366618.056   117537357.902    22366619.879    91587550.235                  
  20179154.288   106042174.741    20179155.074    82630268.685                  
  20449853.422   107464662.705    20449856.441    83738687.602                  
  22921939.937   120455562.927    22921943.368    93861466.394                  
                 122991091.938                   122991091.938    23619147.668  
                 126219808.621                   126219808.621    24239186.093  
                 114411018.851                   114411018.851    21971427.763  
                 132990845.652                   132990845.652    25539497.079  
  25350318.447   133216795.612                                                  
  23504315.697   123516001.210                                                  
  24315931.527   127781057.403                                                  
  25271240.033   132801218.992                                                  
  26441582.682   138951472.603                                                  
  26729982.923   140466963.945                                                  
  27792910.354   146052625.413                                                  
 21  8 31 21 21 52.0000000  0 17G10G15G18G23G24G32C19C21C22C34E 3E 5
                                E 9E15E24E31E36
  21124999.663   111012577.511    21125002.558    86503295.569                  
  23100384.682   121393332.467    23100385.969    94592204.790                  
  22367245.313   117540654.165    22367247.135    91590118.750                  
  20179205.269   106042442.607    20179206.055    82630477.411                  
  20450052.482   107465708.818    20450055.520    83739502.755                  
  22921467.301   120453079.216    22921470.714    93859531.035                  
                 122993217.708                   122993217.708    23619555.886  
                 126217512.223                   126217512.223    24238745.103  
                 114410880.348                   114410880.348    21971401.156  
                 132991447.578                   132991447.578    25539612.673  
  25349995.965   133215101.018                                                  
  23504374.594   123516310.654                                                  
  24316311.441   127783053.852                                                  
  25271127.548   132800627.871                                                  
  26441171.140   138949309.950                                                  
  26729991.160   140467007.195                                                  
  27793529.086   146055876.770                                                  
 21  8 31 21 21 53.0000000  0 17G10G15G18G23G24G32C19C21C22C34E 3E 5
                                E 9E15E24E31E36
  21124621.912   111010592.456    21124624.825    86501748.774                  
  23100964.139   121396377.565    23100965.443    94594577.593                  
  22367872.640   117543950.751    22367874.463    91592687.515                  
  20179256.320   106042710.965    20179257.124    82630686.519                  
  20450251.686   107466755.577    20450254.706    83740318.411                  
  22920994.719   120450595.704    22920998.132    93857595.831                  
                 122995343.656                   122995343.656    23619964.157  
                 126215215.915                   126215215.915    24238304.114  
                 114410742.112                   114410742.112    21971374.603  
                 132992050.016                   132992050.016    25539728.375  
  25349673.519   133213406.515                                                  
  23504433.508   123516620.253                                                  
  24316691.354   127785050.348                                                  
  25271015.152   132800037.243                                                  
  26440759.652   138947147.590                                                  
  26729999.487   140467050.925                                                  
  27794147.801   146059128.098                                                  
 21  8 31 21 21 54.0000000  0 17G10G15G18G23G24G32C19C21C22C34E 3E 5
                                E 9E15E24E31E36
  21124244.233   111008607.724    21124247.145    86500202.227                  
  23101543.613   121399422.777    23101544.918    94596950.483                  
  22368500.022   117547247.656    22368501.844    91595256.530                  
  20179307.479   106042979.825    20179308.283    82630896.020                  
  20450450.980   107467802.996    20450454.017    83741134.582                  
  22920522.137   120448112.374    22920525.568    93855660.773                  
                 122997469.780                   122997469.780    23620372.464  
                 126212919.700                   126212919.700    24237863.160  
                 114410604.147                   114410604.147    21971348.121  
                 132992652.966                   132992652.966    25539844.167  
  25349351.072   133211712.156                                                  
  23504492.458   123516930.037                                                  
  24317071.303   127787046.911                                                  
  25270902.863   132799447.113                                                  
  26440348.218   138944985.535                                                  
  26730007.904   140467095.153                                                  
  27794766.498   146062379.426                                                  
 21  8 31 21 21 55.0000000  0 17G10G15G18G23G24G32C19C21C22C34E 3E 5
                                E 9E15E24E31E36
  21123866.624   111006623.309    21123869.519    86498655.934                  
  23102123.124   121402468.083    23102124.428    94599323.445                  
  22369127.457   117550544.864    22369129.279    91597825.781                  
  20179358.746   106043249.175    20179359.532    82631105.906                  
  20450650.434   107468851.069    20450653.453    83741951.262                  
  22920049.627   120445629.229    22920053.040    93853725.860                  
                 122999596.083                   122999596.083    23620780.771  
                 126210623.569                   126210623.569    24237422.224  
                 114410466.453                   114410466.453    21971321.675  
                 132993256.424                   132993256.424    25539960.047  
  25349028.679   133210017.911                                                  
  23504551.443   123517239.988                                                  
  24317451.234   127789043.519                                                  
  25270790.663   132798857.489                                                  
  26439936.855   138942823.768                                                  
  26730016.392   140467139.868                                                  
  27795385.195   146065630.703                                                  
 21  8 31 21 21 56.0000000  0 17G10G15G18G23G24G32C19C21C22C34E 3E 5
                                E 9E15E24E31E36
  21123489.052   111004639.223    21123491.965    86497109.891                  
  23102702.634   121405513.483    23102703.938    94601696.483                  
  22369754.963   117553842.392    22369756.786    91600395.281                  
  20179410.101   106043519.024    20179410.887    82631316.175                  
  20450849.995   107469899.812    20450853.033    83742768.462                  
  22919577.116   120443146.278    22919580.547    93851791.090                  
                 123001722.559                   123001722.559    23621189.168  
                 126208327.534                   126208327.534    24236981.288  
                 114410329.031                   114410329.031    21971295.282  
                 132993860.395                   132993860.395    25540076.035  
  25348706.304   133208323.786                                                  
  23504610.465   123517550.109                                                  
  24317831.201   127791040.176                                                  
  25270678.535   132798268.351                                                  
  26439525.546   138940662.309                                                  
  26730025.004   140467185.070                                                  
  27796003.892   146068881.975                                                  
 21  8 31 21 21 57.0000000  0 17G10G15G18G23G24G32C19C21C22C34E 3E 5
                                E 9E15E24E31E36
  21123111.569   111002655.457    21123114.464    86495564.097                  
  23103282.180   121408558.986    23103283.484    94604069.602                  
  22370382.523   117557140.231    22370384.346    91602965.028                  
  20179461.546   106043789.360    20179462.314    82631526.824                  
  20451049.699   107470949.194    20451052.719    83743586.165                  
  22919104.677   120440663.515    22919108.108    93849856.472                  
                 123003849.210                   123003849.210    23621597.564  
                 126206031.590                   126206031.590    24236540.387  
                 114410191.878                   114410191.878    21971268.943  
                 132994464.880                   132994464.880    25540192.112  
  25348383.947   133206629.788                                                  
  23504669.504   123517860.406                                                  
  24318211.168   127793036.887                                                  
  25270566.532   132797679.704                                                  
  26439114.273   138938501.138                                                  
  26730033.707   140467230.745                                                  
  27796622.572   146072133.218                                                  
 21  8 31 21 21 58.0000000  0 17G10G15G18G23G24G32C19C21C22C34E 3E 5
                                E 9E15E24E31E36
  21122734.121   111000672.013    21122737.016    86494018.559                  
  23103861.744   121411604.579    23103863.048    94606442.792                  
  22371010.137   117560438.386    22371011.960    91605535.019                  
  20179513.080   106044060.183    20179513.867    82631737.860                  
  20451249.493   107471999.239    20451252.548    83744404.380                  
  22918632.256   120438180.936    22918635.687    93847921.995                  
                 123005976.039                   123005976.039    23622005.997  
                 126203735.736                   126203735.736    24236099.487  
                 114410054.997                   114410054.997    21971242.658  
                 132995069.874                   132995069.874    25540308.297  
  25348061.608   133204935.907                                                  
  23504728.579   123518170.868                                                  
  24318591.117   127795033.644                                                  
  25270454.618   132797091.558                                                  
  26438703.089   138936340.254                                                  
  26730042.480   140467276.904                                                  
  27797241.287   146075384.423                                                  
 21  8 31 21 21 59.0000000  0 17G10G15G18G23G24G32C19C21C22C34E 3E 5
                                E 9E15E24E31E36
  21122356.763   110998688.889    21122359.640    86492473.270                  
  23104441.326   121414650.282    23104442.612    94608816.062                  
  22371637.822   117563736.847    22371639.645    91608105.246                  
  20179564.704   106044331.511    20179565.508    82631949.284                  
  20451449.465   107473049.948    20451452.485    83745223.118                  
  22918159.888   120435698.551    22918163.301    93845987.669                  
                 123008103.048                   123008103.048    23622414.465  
                 126201439.971                   126201439.971    24235658.605  
                 114409918.381                   114409918.381    21971216.426  
                 132995675.382                   132995675.382    25540424.588  
  25347739.304   133203242.155                                                  
  23504787.708   123518481.512                                                  
  24318971.102   127797030.460                                                  
  25270342.776   132796503.911                                                  
  26438291.940   138934179.673                                                  
  26730051.361   140467323.558                                                  
  27797859.966   146078635.612                                                  
 21  8 31 21 22  0.0000000  0 17G10G15G18G23G24G32C19C21C22C34E 3E 5
                                E 9E15E24E31E36
  21121979.441   110996706.094    21121982.336    86490928.234                  
  23105020.925   121417696.072    23105022.212    94611189.407                  
  22372265.561   117567035.637    22372267.384    91610675.731                  
  20179616.435   106044603.335    20179617.221    82632161.093                  
  20451649.526   107474101.296    20451652.564    83746042.348                  
  22917687.521   120433216.351    22917690.934    93844053.487                  
                 123010230.228                   123010230.228    23622822.968  
                 126199144.297                   126199144.297    24235217.740  
                 114409782.039                   114409782.039    21971190.248  
                 132996281.400                   132996281.400    25540540.951  
  25347417.000   133201548.515                                                  
  23504846.836   123518792.317                                                  
  24319351.104   127799027.331                                                  
  25270231.059   132795916.766                                                  
  26437880.846   138932019.402                                                  
  26730060.314   140467370.691                                                  
  27798478.645   146081886.794                                                  
 21  8 31 21 22  1.0000000  0 17G10G15G18G23G24G32C19C21C22C34E 3E 5
                                E 9E15E24E31E36
  21121602.172   110994723.613    21121605.085    86489383.446                  
  23105600.543   121420741.965    23105601.847    94613562.828                  
  22372893.353   117570334.725    22372895.176    91613246.450                  
  20179668.255   106044875.649    20179669.041    82632373.285                  
  20451849.713   107475153.320    20451852.733    83746862.104                  
  22917215.225   120430734.336    22917218.638    93842119.454                  
                 123012357.586                   123012357.586    23623231.508  
                 126196848.713                   126196848.713    24234776.894  
                 114409645.970                   114409645.970    21971164.105  
                 132996887.929                   132996887.929    25540657.439  
  25347094.733   133199855.004                                                  
  23504906.018   123519103.301                                                  
  24319731.107   127801024.253                                                  
  25270119.413   132795330.108                                                  
  26437469.822   138929859.413                                                  
  26730069.391   140467418.318                                                  
  27799097.324   146085137.942                                                  
 21  8 31 21 22  2.0000000  0 17G10G15G18G23G24G32C19C21C22C34E 3E 5
                                E 9E15E24E31E36
  21121224.993   110992741.464    21121227.888    86487838.910                  
  23106180.160   121423787.954    23106181.465    94615936.324                  
  22373521.217   117573634.137    22373523.040    91615817.413                  
  20179720.164   106045148.458    20179720.969    82632585.862                  
  20452050.025   107476205.980    20452053.063    83747682.359                  
  22916742.946   120428252.503    22916746.359    93840185.558                  
                 123014485.121                   123014485.121    23623640.083  
                 126194553.223                   126194553.223    24234336.065  
                 114409510.168                   114409510.168    21971138.017  
                 132997494.970                   132997494.970    25540774.017  
  25346772.500   133198161.618                                                  
  23504965.219   123519414.440                                                  
  24320111.128   127803021.224                                                  
  25270007.875   132794743.949                                                  
  26437058.835   138927699.724                                                  
  26730078.540   140467466.422                                                  
  27799715.985   146088389.073                                                  
 21  8 31 21 22  3.0000000  0 17G10G15G18G23G24G32C19C21C22C34E 3E 5
                                E 9E15E24E31E36
  21120847.867   110990759.637    21120850.762    86486294.634                  
  23106759.813   121426834.038    23106761.118    94618309.894                  
  22374149.117   117576933.860    22374150.957    91618388.626                  
  20179772.181   106045421.761    20179772.967    82632798.828                  
  20452250.462   107477259.317    20452253.499    83748503.140                  
  22916270.704   120425770.866    22916274.117    93838251.817                  
                 123016612.833                   123016612.833    23624048.676  
                 126192257.825                   126192257.825    24233895.254  
                 114409374.637                   114409374.637    21971111.999  
                 132998102.519                   132998102.519    25540890.702  
  25346450.286   133196468.345                                                  
  23505024.454   123519725.765                                                  
  24320491.148   127805018.242                                                  
  25269896.426   132794158.289                                                  
  26436647.919   138925540.337                                                  
  26730087.778   140467514.999                                                  
  27800334.647   146091640.152                                                  
 21  8 31 21 22  4.0000000  0 17G10G15G18G23G24G32C19C21C22C34E 3E 5
                                E 9E15E24E31E36
  21120470.795   110988778.130    21120473.708    86484750.598                  
  23107339.485   121429880.219    23107340.771    94620683.543                  
  22374777.106   117580233.891    22374778.928    91620960.078                  
  20179824.287   106045695.554    20179825.056    82633012.175                  
  20452451.041   107478313.280    20452454.061    83749324.414                  
  22915798.479   120423289.414    22915801.892    93836318.214                  
                 123018740.723                   123018740.723    23624457.323  
                 126189962.511                   126189962.511    24233454.479  
                 114409239.376                   114409239.376    21971086.018  
                 132998710.581                   132998710.581    25541007.458  
  25346128.072   133194775.206                                                  
  23505083.744   123520037.262                                                  
  24320871.169   127807015.319                                                  
  25269785.084   132793573.116                                                  
  26436237.056   138923381.225                                                  
  26730097.124   140467564.077                                                  
  27800953.308   146094891.221                                                  
 21  8 31 21 22  5.0000000  0 17G10G15G18G23G24G32C19C21C22C34E 3E 5
                                E 9E15E24E31E36
  21120093.777   110986796.946    21120096.671    86483206.820                  
  23107919.174   121432926.496    23107920.478    94623057.266                  
  22375405.148   117583534.238    22375406.953    91623531.773                  
  20179876.483   106045969.843    20179877.269    82633225.907                  
  20452651.728   107479367.921    20452654.766    83750146.207                  
  22915326.326   120420808.145    22915329.739    93834384.762                  
                 123020868.784                   123020868.784    23624866.005  
                 126187667.294                   126187667.294    24233013.703  
                 114409104.383                   114409104.383    21971060.108  
                 132999319.157                   132999319.157    25541124.339  
  25345805.911   133193082.170                                                  
  23505143.051   123520348.933                                                  
  24321251.207   127809012.440                                                  
  25269673.813   132792988.454                                                  
  26435826.248   138921222.425                                                  
  26730106.559   140467613.626                                                  
  27801571.951   146098142.282                                                  
 21  8 31 21 22  6.0000000  0 17G10G15G18G23G24G32C19C21C22C34E 3E 5
                                E 9E15E24E31E36
  21119716.848   110984816.097    21119719.742    86481663.301                  
  23108498.880   121435972.879    23108500.185    94625431.066                  
  22376033.244   117586834.897    22376035.067    91626103.715                  
  20179928.767   106046244.639    20179929.554    82633440.031                  
  20452852.541   107480423.228    20452855.578    83750968.524                  
  22914854.173   120418327.063    22914857.603    93832451.449                  
                 123022997.023                   123022997.023    23625274.706  
                 126185372.163                   126185372.163    24232572.946  
                 114408969.663                   114408969.663    21971034.216  
                 132999928.242                   132999928.242    25541241.292  
  25345483.769   133191389.270                                                  
  23505202.394   123520660.774                                                  
  24321631.263   127811009.614                                                  
  25269562.668   132792404.302                                                  
  26435415.492   138919063.918                                                  
  26730116.083   140467663.661                                                  
  27802190.613   146101393.316                                                  
 21  8 31 21 22  7.0000000  0 17G10G15G18G23G24G32C19C21C22C34E 3E 5
                                E 9E15E24E31E36
  21119339.954   110982835.573    21119342.867    86480120.038                  
  23109078.605   121439019.344    23109079.892    94627804.933                  
  22376661.394   117590135.879    22376663.217    91628675.911                  
  20179981.142   106046519.929    20179981.946    82633654.543                  
  20453053.478   107481479.163    20453056.515    83751791.333                  
  22914382.073   120415846.171    22914385.504    93830518.289                  
                 123025125.442                   123025125.442    23625683.442  
                 126183077.126                   126183077.126    24232132.207  
                 114408835.216                   114408835.216    21971008.395  
                 133000537.836                   133000537.836    25541358.388  
  25345161.644   133189696.471                                                  
  23505261.755   123520972.788                                                  
  24322011.319   127813006.847                                                  
  25269451.594   132791820.649                                                  
  26435004.809   138916905.716                                                  
  26730125.678   140467714.172                                                  
  27802809.256   146104644.321                                                  
 21  8 31 21 22  8.0000000  0 17G10G15G18G23G24G32C19C21C22C34E 3E 5
                                E 9E15E24E31E36
  21118963.132   110980855.343    21118966.045    86478576.999                  
  23109658.366   121442065.926    23109659.652    94630178.895                  
  22377289.598   117593437.154    22377291.438    91631248.328                  
  20180033.623   106046795.679    20180034.427    82633869.415                  
  20453254.540   107482535.749    20453257.578    83752614.649                  
  22913910.027   120413365.491    22913913.440    93828585.294                  
                 123027254.036                   123027254.036    23626092.213  
                 126180782.179                   126180782.179    24231691.485  
                 114408701.034                   114408701.034    21970982.646  
                 133001147.945                   133001147.945    25541475.537  
  25344839.537   133188003.840                                                  
  23505321.187   123521284.952                                                  
  24322391.376   127815004.132                                                  
  25269340.592   132791237.407                                                  
  26434594.161   138914747.805                                                  
  26730135.399   140467765.216                                                  
  27803427.900   146107895.282                                                  
 21  8 31 21 22  9.0000000  0 17G10G15G18G23G24G32C19C21C22C34E 3E 5
                                E 9E15E24E31E36
  21118586.382   110978875.458    21118589.276    86477034.235                  
  23110238.126   121445112.603    23110239.413    94632552.927                  
  22377917.872   117596738.746    22377919.695    91633820.995                  
  20180086.194   106047071.948    20180086.980    82634084.688                  
  20453455.745   107483593.016    20453458.765    83753438.489                  
  22913437.999   120410884.973    22913441.412    93826652.422                  
                 123029382.804                   123029382.804    23626501.021  
                 126178487.319                   126178487.319    24231250.781  
                 114408567.128                   114408567.128    21970956.914  
                 133001758.563                   133001758.563    25541592.793  
  25344517.466   133186311.298                                                  
  23505380.620   123521597.306                                                  
  24322771.468   127817001.464                                                  
  25269229.715   132790654.737                                                  
  26434183.584   138912590.190                                                  
  26730145.191   140467816.707                                                  
  27804046.543   146111146.237                                                  
 21  8 31 21 22 10.0000000  0 17G10G15G18G23G24G32C19C21C22C34E 3E 5
                                E 9E15E24E31E36
  21118209.685   110976895.880    21118212.580    86475491.708                  
  23110817.904   121448159.376    23110819.209    94634927.036                  
  22378546.219   117600040.657    22378548.041    91636393.914                  
  20180138.854   106047348.708    20180139.658    82634300.345                  
  20453657.040   107484650.941    20453660.077    83754262.848                  
  22912966.007   120408404.642    22912969.420    93824719.699                  
                 123031511.749                   123031511.749    23626909.864  
                 126176192.558                   126176192.558    24230810.096  
                 114408433.487                   114408433.487    21970931.254  
                 133002369.692                   133002369.692    25541710.157  
  25344195.394   133184618.872                                                  
  23505440.088   123521909.828                                                  
  24323151.560   127818998.847                                                  
  25269118.944   132790072.548                                                  
  26433773.061   138910432.863                                                  
  26730155.109   140467868.679                                                  
  27804665.169   146114397.160                                                  
 21  8 31 21 22 11.0000000  0 17G10G15G18G23G24G32C19C21C22C34E 3E 5
                                E 9E15E24E31E36
  21117833.042   110974916.641    21117835.936    86473949.442                  
  23111397.701   121451206.243    23111399.005    94637301.216                  
  22379174.601   117603342.883    22379176.441    91638967.074                  
  20180191.621   106047625.960    20180192.425    82634516.383                  
  20453858.477   107485709.505    20453861.515    83755087.699                  
  22912494.068   120405924.505    22912497.463    93822787.125                  
                 123033640.872                   123033640.872    23627318.743  
                 126173897.881                   126173897.881    24230369.428  
                 114408300.122                   114408300.122    21970905.666  
                 133002981.333                   133002981.333    25541827.628  
  25343873.359   133182926.590                                                  
  23505499.574   123522222.523                                                  
  24323531.652   127820996.285                                                  
  25269008.246   132789490.853                                                  
  26433362.592   138908275.835                                                  
  26730165.080   140467921.147                                                  
  27805283.794   146117648.065                                                  
 21  8 31 21 22 12.0000000  0 17G10G15G18G23G24G32C19C21C22C34E 3E 5
                                E 9E15E24E31E36
  21117456.452   110972937.722    21117459.365    86472407.430                  
  23111977.515   121454253.210    23111978.819    94639675.473                  
  22379803.054   117606645.417    22379804.877    91641540.477                  
  20180244.477   106047903.712    20180245.264    82634732.813                  
  20454060.058   107486768.735    20454063.077    83755913.075                  
  22912022.147   120403444.556    22912025.542    93820854.699                  
                 123035770.169                   123035770.169    23627727.658  
                 126171603.298                   126171603.298    24229928.777  
                 114408167.025                   114408167.025    21970880.095  
                 133003593.480                   133003593.480    25541945.188  
  25343551.359   133181234.414                                                  
  23505559.113   123522535.388                                                  
  24323911.761   127822993.773                                                  
  25268897.637   132788909.662                                                  
  26432952.176   138906119.118                                                  
  26730175.140   140467974.090                                                  
  27805902.420   146120898.941                                                  
 21  8 31 21 22 13.0000000  0 17G10G15G18G23G24G32C19C21C22C34E 3E 5
                                E 9E15E24E31E36
  21117079.952   110970959.132    21117082.846    86470865.669                  
  23112557.364   121457300.277    23112558.669    94642049.813                  
  22380431.579   117609948.262    22380433.402    91644114.120                  
  20180297.423   106048181.956    20180298.227    82634949.629                  
  20454261.745   107487828.611    20454264.783    83756738.950                  
  22911550.244   120400964.797    22911553.657    93818922.422                  
                 123037899.643                   123037899.643    23628136.608  
                 126169308.804                   126169308.804    24229488.145  
                 114408034.198                   114408034.198    21970854.578  
                 133004206.144                   133004206.144    25542062.838  
  25343229.377   133179542.367                                                  
  23505618.707   123522848.426                                                  
  24324291.871   127824991.316                                                  
  25268787.135   132788328.964                                                  
  26432541.814   138903962.692                                                  
  26730185.325   140468027.544                                                  
  27806521.045   146124149.797                                                  
 21  8 31 21 22 14.0000000  0 17G10G15G18G23G24G32C19C21C22C34E 3E 5
                                E 9E15E24E31E36
  21116703.505   110968980.862    21116706.400    86469324.164                  
  23113137.214   121460347.440    23113138.519    94644424.226                  
  22381060.140   117613251.421    22381061.981    91646688.008                  
  20180350.459   106048460.697    20180351.263    82635166.827                  
  20454463.558   107488889.138    20454466.578    83757565.335                  
  22911078.394   120398485.211    22911081.825    93816990.278                  
                 123040029.292                   123040029.292    23628545.577  
                 126167014.407                   126167014.407    24229047.513  
                 114407901.641                   114407901.641    21970829.115  
                 133004819.318                   133004819.318    25542180.577  
  25342907.395   133177850.435                                                  
  23505678.300   123523161.637                                                  
  24324672.017   127826988.904                                                  
  25268676.740   132787748.764                                                  
  26432131.523   138901806.562                                                  
  26730195.582   140468081.450                                                  
  27807139.635   146127400.620                                                  
 21  8 31 21 22 15.0000000  0 17G10G15G18G23G24G32C19C21C22C34E 3E 5
                                E 9E15E24E31E36
  21116327.094   110967002.897    21116330.007    86467782.884                  
  23113717.100   121463394.768    23113718.404    94646798.793                  
  22381688.772   117616554.865    22381690.595    91649262.106                  
  20180403.601   106048739.942    20180404.405    82635384.434                  
  20454665.478   107489950.317    20454668.516    83758392.230                  
  22910606.581   120396005.820    22910609.994    93815058.282                  
                 123042159.122                   123042159.122    23628954.581  
                 126164720.094                   126164720.094    24228606.917  
                 114407769.355                   114407769.355    21970803.723  
                 133005433.000                   133005433.000    25542298.441  
  25342585.467   133176158.708                                                  
  23505737.929   123523475.024                                                  
  24325052.163   127828986.503                                                  
  25268566.416   132787169.026                                                  
  26431721.286   138899650.749                                                  
  26730205.946   140468135.720                                                  
  27807758.261   146130651.478                                                  
 21  8 31 21 22 16.0000000  0 17G10G15G18G23G24G32C19C21C22C34E 3E 5
                                E 9E15E24E31E36
  21115950.772   110965025.267    21115953.685    86466241.875                  
  23114297.003   121466442.146    23114298.308    94649173.370                  
  22382317.458   117619858.640    22382319.299    91651836.477                  
  20180456.833   106049019.665    20180457.619    82635602.398                  
  20454867.559   107491012.165    20454870.579    83759219.644                  
  22910134.821   120393526.613    22910138.216    93813126.434                  
                 123044289.125                   123044289.125    23629363.621  
                 126162425.876                   126162425.876    24228166.338  
                 114407637.345                   114407637.345    21970778.385  
                 133006047.191                   133006047.191    25542416.377  
  25342263.538   133174467.016                                                  
  23505797.593   123523788.591                                                  
  24325432.308   127830984.220                                                  
  25268456.200   132786589.801                                                  
  26431311.103   138897495.214                                                  
  26730216.382   140468190.617                                                  
  27808376.868   146133902.245                                                  
 21  8 31 21 22 17.0000000  0 17G10G15G18G23G24G32C19C21C22C34E 3E 5
                                E 9E15E24E31E36
  21115574.522   110963047.965    21115577.399    86464701.121                  
  23114876.907   121469489.618    23114878.229    94651548.024                  
  22382946.216   117623162.726    22382948.038    91654411.089                  
  20180510.154   106049299.878    20180510.940    82635820.746                  
  20455069.747   107492074.649    20455072.784    83760047.552                  
  22909663.079   120391047.603    22909666.474    93811194.734                  
                 123046419.304                   123046419.304    23629772.696  
                 126160131.746                   126160131.746    24227725.777  
                 114407505.597                   114407505.597    21970753.082  
                 133006661.897                   133006661.897    25542534.437  
  25341941.664   133172775.465                                                  
  23505857.294   123524102.321                                                  
  24325812.454   127832981.966                                                  
  25268346.073   132786011.093                                                  
  26430900.955   138895339.973                                                  
  26730226.924   140468245.985                                                  
  27808995.458   146137153.004                                                  
 21  8 31 21 22 18.0000000  0 17G10G15G18G23G24G32C19C21C22C34E 3E 5
                                E 9E15E24E31E36
  21115198.308   110961070.989    21115201.202    86463160.620                  
  23115456.846   121472537.183    23115458.132    94653922.750                  
  22383575.026   117626467.126    22383576.831    91656985.944                  
  20180563.582   106049580.591    20180564.369    82636039.486                  
  20455272.042   107493137.794    20455275.080    83760875.976                  
  22909191.354   120388568.768    22909194.785    93809263.179                  
                 123048549.659                   123048549.659    23630181.825  
                 126157837.712                   126157837.712    24227285.234  
                 114407374.125                   114407374.125    21970727.815  
                 133007277.115                   133007277.115    25542652.587  
  25341619.771   133171084.034                                                  
  23505917.012   123524416.214                                                  
  24326192.635   127834979.777                                                  
  25268236.036   132785432.883                                                  
  26430490.897   138893185.035                                                  
  26730237.539   140468301.856                                                  
  27809614.066   146140403.748                                                  
 21  8 31 21 22 19.0000000  0 17G10G15G18G23G24G32C19C21C22C34E 3E 5
                                E 9E15E24E31E36
  21114822.165   110959094.333    21114825.060    86461620.366                  
  23116036.803   121475584.848    23116038.107    94656297.552                  
  22384203.873   117629771.843    22384205.714    91659561.046                  
  20180617.082   106049861.796    20180617.886    82636258.606                  
  20455474.480   107494201.593    20455477.518    83761704.915                  
  22908719.701   120386090.134    22908723.114    93807331.773                  
                 123050680.192                   123050680.192    23630590.954  
                 126155543.762                   126155543.762    24226844.691  
                 114407242.923                   114407242.923    21970702.620  
                 133007892.841                   133007892.841    25542770.827  
  25341297.932   133169392.726                                                  
  23505976.802   123524730.291                                                  
  24326572.816   127836977.634                                                  
  25268126.124   132784855.175                                                  
  26430080.874   138891030.401                                                  
  26730248.260   140468358.192                                                  
  27810232.638   146143654.465                                                  
 21  8 31 21 22 20.0000000  0 17G10G15G18G23G24G32C19C21C22C34E 3E 5
                                E 9E15E24E31E36
  21114446.075   110957117.994    21114448.988    86460080.364                  
  23116616.760   121478632.605    23116618.064    94658672.429                  
  22384832.827   117633076.868    22384834.632    91662136.386                  
  20180670.707   106050143.491    20180671.476    82636478.109                  
  20455677.043   107495266.055    20455680.081    83762534.364                  
  22908248.066   120383611.681    22908251.479    93805400.516                  
                 123052810.900                   123052810.900    23631000.137  
                 126153249.906                   126153249.906    24226404.202  
                 114407111.992                   114407111.992    21970677.478  
                 133008509.074                   133008509.074    25542889.155  
  25340976.111   133167701.530                                                  
  23506036.574   123525044.532                                                  
  24326952.998   127838975.539                                                  
  25268016.265   132784277.957                                                  
  26429670.923   138888876.059                                                  
  26730259.089   140468415.023                                                  
  27810851.228   146146905.135                                                  
 21  8 31 21 22 21.0000000  0 17G10G15G18G23G24G32C19C21C22C34E 3E 5
                                E 9E15E24E31E36
  21114070.058   110955141.989    21114072.952    86458540.622                  
  23117196.752   121481680.461    23117198.057    94661047.380                  
  22385461.799   117636382.199    22385463.639    91664711.973                  
  20180724.404   106050425.682    20180725.172    82636697.996                  
  20455879.714   107496331.157    20455882.752    83763364.309                  
  22907776.467   120381133.419    22907779.880    93803469.402                  
                 123054941.785                   123054941.785    23631409.356  
                 126150956.145                   126150956.145    24225963.695  
                 114406981.331                   114406981.331    21970652.408  
                 133009125.821                   133009125.821    25543007.591  
  25340654.326   133166010.452                                                  
  23506096.417   123525358.946                                                  
  24327333.197   127840973.505                                                  
  25267906.513   132783701.230                                                  
  26429261.026   138886722.015                                                  
  26730269.989   140468472.348                                                  
  27811469.818   146150155.800                                                  
 21  8 31 21 22 22.0000000  0 17G10G15G18G23G24G32C19C21C22C34E 3E 5
                                E 9E15E24E31E36
  21113694.093   110953166.310    21113697.006    86457001.130                  
  23117776.763   121484728.414    23117778.067    94663422.406                  
  22386090.842   117639687.843    22386092.682    91667287.797                  
  20180778.171   106050708.376    20180778.976    82636918.277                  
  20456082.545   107497396.917    20456085.583    83764194.773                  
  22907304.904   120378655.345    22907308.317    93801538.438                  
                 123057072.844                   123057072.844    23631818.628  
                 126148662.471                   126148662.471    24225523.223  
                 114406850.941                   114406850.941    21970627.356  
                 133009743.079                   133009743.079    25543126.134  
  25340332.540   133164319.520                                                  
  23506156.278   123525673.531                                                  
  24327713.414   127842971.515                                                  
  25267796.851   132783125.016                                                  
  26428851.182   138884568.277                                                  
  26730280.978   140468530.148                                                  
  27812088.372   146153406.429                                                  
 21  8 31 21 22 23.0000000  0 17G10G15G18G23G24G32C19C21C22C34E 3E 5
                                E 9E15E24E31E36
  21113318.201   110951190.951    21113321.095    86455461.886                  
  23118356.774   121487776.457    23118358.096    94665797.500                  
  22386719.957   117642993.805    22386721.779    91669863.866                  
  20180832.082   106050991.562    20180832.886    82637138.941                  
  20456285.484   107498463.342    20456288.503    83765025.754                  
  22906833.376   120376177.458    22906836.807    93799607.613                  
                 123059204.083                   123059204.083    23632227.900  
                 126146368.891                   126146368.891    24225082.752  
                 114406720.821                   114406720.821    21970602.357  
                 133010360.847                   133010360.847    25543244.785  
  25340010.773   133162628.699                                                  
  23506216.175   123525988.286                                                  
  24328093.631   127844969.590                                                  
  25267687.314   132782549.289                                                  
  26428441.373   138882414.829                                                  
  26730292.075   140468588.438                                                  
  27812706.962   146156657.038                                                  
 21  8 31 21 22 24.0000000  0 17G10G15G18G23G24G32C19C21C22C34E 3E 5
                                E 9E15E24E31E36
  21112942.361   110949215.914    21112945.256    86453922.895                  
  23118936.820   121490824.595    23118938.142    94668172.668                  
  22387349.125   117646300.074    22387350.948    91672440.176                  
  20180886.065   106051275.243    20180886.869    82637359.985                  
  20456488.547   107499530.425    20456491.567    83765857.243                  
  22906361.884   120373699.757    22906365.297    93797676.938                  
                 123061335.492                   123061335.492    23632637.226  
                 126144075.398                   126144075.398    24224642.316  
                 114406590.972                   114406590.972    21970577.412  
                 133010979.124                   133010979.124    25543363.524  
  25339689.059   133160938.005                                                  
  23506276.108   123526303.214                                                  
  24328473.866   127846967.700                                                  
  25267577.848   132781974.055                                                  
  26428031.655   138880261.677                                                  
  26730303.261   140468647.203                                                  
  27813325.516   146159907.626                                                  
 21  8 31 21 22 25.0000000  0 17G10G15G18G23G24G32C19C21C22C34E 3E 5
                                E 9E15E24E31E36
  21112566.576   110947241.212    21112569.489    86452384.164                  
  23119516.902   121493872.833    23119518.207    94670547.913                  
  22387978.347   117649606.660    22387980.187    91675016.730                  
  20180940.136   106051559.418    20180940.940    82637581.418                  
  20456691.718   107500598.159    20456694.756    83766689.239                  
  22905890.445   120371222.255    22905893.840    93795746.411                  
                 123063467.083                   123063467.083    23633046.551  
                 126141782.000                   126141782.000    24224201.899  
                 114406461.396                   114406461.396    21970552.538  
                 133011597.915                   133011597.915    25543482.335  
  25339367.345   133159247.414                                                  
  23506336.059   123526618.312                                                  
  24328854.101   127848965.868                                                  
  25267468.472   132781399.331                                                  
  26427621.972   138878108.828                                                  
  26730314.536   140468706.461                                                  
  27813944.088   146163158.182                                                  
 21  8 31 21 22 26.0000000  0 17G10G15G18G23G24G32C19C21C22C34E 3E 5
                                E 9E15E24E31E36
  21112190.880   110945266.836    21112193.774    86450845.684                  
  23120096.966   121496921.164    23120098.289    94672923.230                  
  22388607.622   117652913.555    22388609.463    91677593.528                  
  20180994.297   106051844.095    20180995.101    82637803.239                  
  20456895.014   107501666.551    20456898.052    83767521.747                  
  22905419.025   120368744.938    22905422.420    93793816.031                  
                 123065598.849                   123065598.849    23633455.948  
                 126139488.696                   126139488.696    24223761.499  
                 114406332.087                   114406332.087    21970527.718  
                 133012217.212                   133012217.212    25543601.272  
  25339045.667   133157556.966                                                  
  23506396.063   123526933.586                                                  
  24329234.336   127850964.087                                                  
  25267359.203   132780825.098                                                  
  26427212.360   138875956.266                                                  
  26730325.901   140468766.204                                                  
  27814562.642   146166408.712                                                  
 21  8 31 21 22 27.0000000  0 17G10G15G18G23G24G32C19C21C22C34E 3E 5
                                E 9E15E24E31E36
  21111815.219   110943292.786    21111818.114    86449307.461                  
  23120677.066   121499969.592    23120678.389    94675298.626                  
  22389236.951   117656220.758    22389238.792    91680170.562                  
  20181048.583   106052129.265    20181049.352    82638025.445                  
  20457098.453   107502735.606    20457101.508    83768354.770                  
  22904947.622   120366267.805    22904951.035    93791885.794                  
                 123067730.792                   123067730.792    23633865.363  
                 126137195.476                   126137195.476    24223321.099  
                 114406203.052                   114406203.052    21970502.934  
                 133012837.024                   133012837.024    25543720.297  
  25338724.007   133155866.621                                                  
  23506456.085   123527249.019                                                  
  24329614.607   127852962.358                                                  
  25267250.023   132780251.354                                                  
  26426802.802   138873804.015                                                  
  26730337.355   140468826.421                                                  
  27815181.178   146169659.212                                                  
 21  8 31 21 22 28.0000000  0 17G10G15G18G23G24G32C19C21C22C34E 3E 5
                                E 9E15E24E31E36
  21111439.648   110941319.055    21111442.543    86447769.484                  
  23121257.184   121503018.115    23121258.489    94677674.091                  
  22389866.352   117659528.274    22389868.193    91682747.843                  
  20181102.941   106052414.925    20181103.727    82638248.034                  
  20457302.017   107503805.309    20457305.054    83769188.300                  
  22904476.273   120363790.864    22904479.704    93789955.707                  
                 123069862.910                   123069862.910    23634274.814  
                 126134902.352                   126134902.352    24222880.735  
                 114406074.284                   114406074.284    21970478.203  
                 133013457.339                   133013457.339    25543839.448  
  25338402.364   133154176.399                                                  
  23506516.143   123527564.633                                                  
  24329994.877   127854960.671                                                  
  25267140.933   132779678.113                                                  
  26426393.297   138871652.049                                                  
  26730348.898   140468887.115                                                  
  27815799.732   146172909.695                                                  
                               3  6
station ID: 1963                                            COMMENT             
1963                                                        MARKER NAME         
                    SWFT                                    REC # / TYPE / VERS 
                    NULL                                    ANT # / TYPE        
  1568794.5498 -4418135.9711  4309843.3785                  APPROX POSITION XYZ 
        0.0000        0.0000        0.0000                  ANTENNA: DELTA H/E/N
 21  8 31 21 26 57.0000000  0 12G10G15G18G23G24G32E 3E 5E 9E15E24E31
  21012696.696   110422420.626    21012699.662    86043432.824                  
  23277952.505   122326454.910    23277953.952    95319312.461                  
  22561253.619   118560171.496    22561255.621    92384547.038                  
  20199160.518   106147306.843    20199161.393    82712189.442                  
  20516542.384   107815114.642    20516545.494    84011766.805                  
  22778990.738   119704359.969    22778994.133    93276113.485                  
  25252723.508   132703929.687                                                  
  23523849.113   123618648.633                                                  
  24432641.139   128394369.054                                                  
  25241243.161   132643582.867                                                  
  26318340.674   138303831.332                                                  
  26736807.853   140502828.292                                                  
 21  8 31 21 26 58.0000000  0 12G10G15G18G23G24G32E 3E 5E 9E15E24E31
  21012338.315   110420537.253    21012341.263    86041965.261                  
  23278537.322   122329528.157    23278538.788    95321707.195                  
  22561898.226   118563558.894    22561900.246    92387186.569                  
  20199240.482   106147726.995    20199241.339    82712516.828                  
  20516779.149   107816358.742    20516782.240    84012736.234                  
  22778529.127   119701934.221    22778532.522    93274223.293                  
  25252408.120   132702272.331                                                  
  23523917.908   123619010.122                                                  
  24433024.018   128396381.132                                                  
  25241159.713   132643144.472                                                  
  26317946.983   138301762.447                                                  
  26736844.324   140503019.964                                                  
 21  8 31 21 26 59.0000000  0 12G10G15G18G23G24G32E 3E 5E 9E15E24E31
  21011979.987   110418654.235    21011982.936    86040497.972                  
  23279122.158   122332601.487    23279123.623    95324102.000                  
  22562542.887   118566946.565    22562544.888    92389826.313                  
  20199320.517   106148147.642    20199321.393    82712844.605                  
  20517016.003   107817603.480    20517019.094    84013706.161                  
  22778067.552   119699508.659    22778070.965    93272333.247                  
  25252092.768   132700615.093                                                  
  23523986.722   123619371.775                                                  
  24433406.916   128398393.257                                                  
  25241076.408   132642706.570                                                  
  26317553.347   138299693.863                                                  
  26736880.902   140503212.109                                                  
 21  8 31 21 27  0.0000000  0 12G10G15G18G23G24G32E 3E 5E 9E15E24E31
  21011621.713   110416771.552    21011624.662    86039030.948                  
  23279706.993   122335674.906    23279708.458    95326496.871                  
  22563187.584   118570334.521    22563189.603    92392466.274                  
  20199400.660   106148568.794    20199401.535    82713172.778                  
  20517253.000   107818848.868    20517256.109    84014676.589                  
  22777606.013   119697083.294    22777609.426    93270443.351                  
  25251777.415   132698957.978                                                  
  23524055.571   123619733.598                                                  
  24433789.813   128400405.435                                                  
  25240993.156   132642269.179                                                  
  26317159.764   138297625.593                                                  
  26736917.533   140503404.735                                                  
 21  8 31 21 27  1.0000000  0 12G10G15G18G23G24G32E 3E 5E 9E15E24E31
  21011263.529   110414889.218    21011266.477    86037564.194                  
  23280291.882   122338748.417    23280293.347    95328891.814                  
  22563832.334   118573722.755    22563834.353    92395106.457                  
  20199480.892   106148990.448    20199481.785    82713501.339                  
  20517490.104   107820094.882    20517493.195    84015647.511                  
  22777144.528   119694658.119    22777147.923    93268553.602                  
  25251462.098   132697300.986                                                  
  23524124.456   123620095.589                                                  
  24434172.746   128402417.657                                                  
  25240910.011   132641832.284                                                  
  26316766.234   138295557.649                                                  
  26736954.308   140503597.857                                                  
 21  8 31 21 27  2.0000000  0 16G10G15G18G23G24G32C19C21C22C34E 3E 5
                                E 9E15E24E31
  21010905.398   110413007.230    21010908.346    86036097.710                  
  23280876.753   122341822.009    23280878.218    95331286.813                  
  22564477.155   118577111.263    22564479.157    92397746.852                  
  20199561.249   106149412.598    20199562.106    82713830.285                  
  20517727.315   107821341.527    20517730.442    84016618.923                  
  22776683.060   119692233.126    22776686.456    93266664.000                  
                 123660688.692                   123660688.692    23747737.142  
                 125510114.763                   125510114.763    24102896.857  
                 114381067.227                   114381067.227    21965675.992  
                 133202508.530                   133202508.530    25580144.925  
  25251146.799   132695644.111                                                  
  23524193.377   123620457.741                                                  
  24434555.662   128404429.934                                                  
  25240826.974   132641395.875                                                  
  26316372.776   138293490.016                                                  
  26736991.136   140503791.457                                                  
 21  8 31 21 27  3.0000000  0 16G10G15G18G23G24G32C19C21C22C34E 3E 5
                                E 9E15E24E31
  21010547.338   110411125.585    21010550.287    86034631.496                  
  23281461.659   122344895.697    23281463.125    95333681.894                  
  22565122.013   118580500.063    22565124.032    92400387.474                  
  20199641.659   106149835.255    20199642.535    82714159.628                  
  20517964.687   107822588.820    20517967.778    84017590.839                  
  22776221.647   119689808.321    22776225.042    93264774.543                  
                 123662869.120                   123662869.120    23748155.867  
                 125507847.719                   125507847.719    24102461.496  
                 114381013.718                   114381013.718    21965665.718  
                 133203267.624                   133203267.624    25580290.700  
  25250831.536   132693987.348                                                  
  23524262.316   123620820.075                                                  
  24434938.595   128406442.253                                                  
  25240744.044   132640960.001                                                  
  26315979.372   138291422.700                                                  
  26737028.071   140503985.547                                                  
 21  8 31 21 27  4.0000000  0 16G10G15G18G23G24G32C19C21C22C34E 3E 5
                                E 9E15E24E31
  21010189.332   110409244.287    21010192.281    86033165.547                  
  23282046.584   122347969.464    23282048.031    95336077.040                  
  22565766.941   118583889.140    22565768.961    92403028.313                  
  20199722.177   106150258.406    20199723.053    82714489.360                  
  20518202.166   107823836.738    20518205.258    84018563.243                  
  22775760.268   119687383.727    22775763.663    93262885.250                  
                 123665049.730                   123665049.730    23748574.645  
                 125505580.774                   125505580.774    24102026.153  
                 114380960.486                   114380960.486    21965655.497  
                 133204027.210                   133204027.210    25580436.583  
  25250516.309   132692330.725                                                  
  23524331.308   123621182.567                                                  
  24435321.546   128408454.630                                                  
  25240661.185   132640524.591                                                  
  26315586.039   138289355.693                                                  
  26737065.096   140504180.113                                                  
 21  8 31 21 27  5.0000000  0 16G10G15G18G23G24G32C19C21C22C34E 3E 5
                                E 9E15E24E31
  21009831.398   110407363.334    21009834.346    86031699.874                  
  23282631.526   122351043.325    23282632.974    95338472.254                  
  22566411.924   118587278.495    22566413.943    92405669.364                  
  20199802.802   106150682.066    20199803.678    82714819.484                  
  20518439.735   107825085.308    20518442.862    84019536.157                  
  22775298.908   119684959.306    22775302.303    93260996.091                  
                 123667230.513                   123667230.513    23748993.441  
                 125503313.930                   125503313.930    24101590.846  
                 114380907.527                   114380907.527    21965645.311  
                 133204787.301                   133204787.301    25580582.537  
  25250201.063   132690674.217                                                  
  23524400.318   123621545.230                                                  
  24435704.497   128410467.054                                                  
  25240578.416   132640089.714                                                  
  26315192.777   138287289.019                                                  
  26737102.228   140504375.172                                                  
 21  8 31 21 27  6.0000000  0 16G10G15G18G23G24G32C19C21C22C34E 3E 5
                                E 9E15E24E31
  21009473.535   110405482.726    21009476.483    86030234.465                  
  23283216.487   122354117.277    23283217.934    95340867.544                  
  22567056.942   118590668.147    22567058.961    92408310.651                  
  20199883.516   106151106.226    20199884.392    82715149.995                  
  20518677.465   107826334.511    20518680.556    84020509.558                  
  22774837.583   119682535.079    22774840.979    93259107.087                  
                 123669411.469                   123669411.469    23749412.256  
                 125501047.183                   125501047.183    24101155.538  
                 114380854.846                   114380854.846    21965635.197  
                 133205547.887                   133205547.887    25580728.598  
  25249885.854   132689017.836                                                  
  23524469.364   123621908.065                                                  
  24436087.466   128412479.534                                                  
  25240495.754   132639655.351                                                  
  26314799.552   138285222.660                                                  
  26737139.413   140504570.723                                                  
 21  8 31 21 27  7.0000000  0 16G10G15G18G23G24G32C19C21C22C34E 3E 5
                                E 9E15E24E31
  21009115.726   110403602.466    21009118.674    86028769.323                  
  23283801.447   122357191.317    23283802.912    95343262.895                  
  22567702.014   118594058.043    22567704.033    92410952.126                  
  20199964.338   106151530.891    20199965.196    82715480.903                  
  20518915.301   107827584.352    20518918.393    84021483.461                  
  22774376.295   119680111.057    22774379.726    93257218.239                  
                 123671592.600                   123671592.600    23749831.123  
                 125498780.534                   125498780.534    24100720.231  
                 114380802.446                   114380802.446    21965625.137  
                 133206308.973                   133206308.973    25580874.767  
  25249570.698   132687361.577                                                  
  23524538.446   123622271.083                                                  
  24436470.417   128414492.052                                                  
  25240413.199   132639221.493                                                  
  26314406.397   138283156.606                                                  
  26737176.723   140504766.750                                                  
 21  8 31 21 27  8.0000000  0 16G10G15G18G23G24G32C19C21C22C34E 3E 5
                                E 9E15E24E31
  21008758.006   110401722.535    21008760.936    86027304.444                  
  23284386.443   122360265.425    23284387.908    95345658.301                  
  22568347.157   118597448.220    22568349.158    92413593.820                  
  20200045.249   106151956.057    20200046.124    82715812.204                  
  20519153.263   107828834.840    20519156.354    84022457.866                  
  22773915.059   119677687.226    22773918.455    93255329.540                  
                 123673773.909                   123673773.909    23750250.027  
                 125496513.984                   125496513.984    24100284.977  
                 114380750.315                   114380750.315    21965615.148  
                 133207070.556                   133207070.556    25581021.025  
  25249255.542   132685705.436                                                  
  23524607.563   123622634.265                                                  
  24436853.404   128416504.608                                                  
  25240330.733   132638788.151                                                  
  26314013.297   138281090.863                                                  
  26737214.123   140504963.273                                                  
 21  8 31 21 27  9.0000000  0 16G10G15G18G23G24G32C19C21C22C34E 3E 5
                                E 9E15E24E31
  21008400.322   110399842.968    21008403.252    86025839.849                  
  23284971.439   122363339.638    23284972.904    95348053.790                  
  22568992.354   118600838.746    22568994.355    92416235.789                  
  20200126.231   106152381.714    20200127.125    82716143.884                  
  20519391.332   107830085.925    20519394.441    84023432.739                  
  22773453.860   119675263.571    22773457.255    93253440.977                  
                 123675955.395                   123675955.395    23750668.966  
                 125494247.530                   125494247.530    24099849.742  
                 114380698.464                   114380698.464    21965605.178  
                 133207832.637                   133207832.637    25581167.354  
  25248940.404   132684049.407                                                  
  23524676.681   123622997.570                                                  
  24437236.408   128418517.270                                                  
  25240248.357   132638355.179                                                  
  26313620.267   138279025.483                                                  
  26737251.613   140505160.263                                                  
 21  8 31 21 27 10.0000000  0 16G10G15G18G23G24G32C19C21C22C34E 3E 5
                                E 9E15E24E31
  21008042.727   110397963.742    21008045.657    86024375.516                  
  23285556.453   122366413.925    23285557.918    95350449.340                  
  22569637.604   118604229.501    22569639.605    92418877.933                  
  20200207.339   106152807.884    20200208.197    82716475.960                  
  20519629.544   107831337.687    20519632.635    84024408.136                  
  22772992.696   119672840.116    22772996.091    93251552.571                  
                 123678137.052                   123678137.052    23751087.923  
                 125491981.181                   125491981.181    24099414.506  
                 114380646.891                   114380646.891    21965595.278  
                 133208595.220                   133208595.220    25581313.827  
  25248625.302   132682393.503                                                  
  23524745.852   123623361.090                                                  
  24437619.395   128420529.947                                                  
  25240166.088   132637922.833                                                  
  26313227.292   138276960.392                                                  
  26737289.191   140505357.742                                                  
 21  8 31 21 27 11.0000000  0 16G10G15G18G23G24G32C19C21C22C34E 3E 5
                                E 9E15E24E31
  21007685.185   110396084.852    21007688.116    86022911.445                  
  23286141.503   122369488.305    23286142.968    95352844.957                  
  22570282.872   118607620.538    22570284.891    92421520.297                  
  20200288.518   106153234.547    20200289.393    82716808.427                  
  20519867.863   107832590.054    20519870.954    84025384.009                  
  22772531.568   119670416.852    22772534.963    93249664.317                  
                 123680318.887                   123680318.887    23751506.916  
                 125489714.925                   125489714.925    24098979.306  
                 114380595.592                   114380595.592    21965585.414  
                 133209358.298                   133209358.298    25581460.353  
  25248310.217   132680737.726                                                  
  23524815.058   123623724.771                                                  
  24438002.400   128422542.664                                                  
  25240083.909   132637490.958                                                  
  26312834.388   138274895.614                                                  
  26737326.859   140505555.715                                                  
 21  8 31 21 27 12.0000000  0 16G10G15G18G23G24G32C19C21C22C34E 3E 5
                                E 9E15E24E31
  21007327.698   110394206.312    21007330.646    86021447.649                  
  23286726.535   122372562.771    23286728.000    95355240.644                  
  22570928.248   118611011.856    22570930.267    92424162.883                  
  20200369.822   106153661.720    20200370.680    82717141.289                  
  20520106.307   107833843.078    20520109.399    84026360.391                  
  22772070.458   119667993.769    22772073.853    93247776.198                  
                 123682500.893                   123682500.893    23751925.962  
                 125487448.770                   125487448.770    24098544.106  
                 114380544.576                   114380544.576    21965575.622  
                 133210121.876                   133210121.876    25581606.986  
  25247995.168   132679082.063                                                  
  23524884.301   123624088.610                                                  
  24438385.422   128424555.441                                                  
  25240001.800   132637059.562                                                  
  26312441.520   138272831.144                                                  
  26737364.616   140505754.175                                                  
 21  8 31 21 27 13.0000000  0 16G10G15G18G23G24G32C19C21C22C34E 3E 5
                                E 9E15E24E31
  21006970.299   110392328.122    21006973.248    86019984.124                  
  23287311.620   122375637.316    23287313.085    95357636.391                  
  22571573.641   118614403.454    22571575.660    92426805.684                  
  20200451.197   106154089.387    20200452.073    82717474.538                  
  20520344.859   107835096.739    20520347.968    84027337.265                  
  22771609.402   119665570.886    22771612.797    93245888.242                  
                 123684683.077                   123684683.077    23752345.027  
                 125485182.712                   125485182.712    24098108.924  
                 114380493.829                   114380493.829    21965565.884  
                 133210885.948                   133210885.948    25581753.726  
  25247680.120   132677426.527                                                  
  23524953.579   123624452.634                                                  
  24438768.463   128426568.273                                                  
  25239919.817   132636628.717                                                  
  26312048.741   138270767.015                                                  
  26737402.481   140505953.119                                                  
 21  8 31 21 27 14.0000000  0 16G10G15G18G23G24G32C19C21C22C34E 3E 5
                                E 9E15E24E31
  21006612.937   110390450.274    21006615.903    86018520.866                  
  23287896.705   122378711.943    23287898.153    95360032.202                  
  22572219.088   118617795.333    22572221.107    92429448.702                  
  20200532.680   106154517.564    20200533.556    82717808.180                  
  20520583.535   107836351.028    20520586.645    84028314.633                  
  22771148.381   119663148.199    22771151.776    93244000.435                  
                 123686865.438                   123686865.438    23752764.127  
                 125482916.753                   125482916.753    24097673.777  
                 114380443.362                   114380443.362    21965556.181  
                 133211650.523                   133211650.523    25581900.556  
  25247365.107   132675771.114                                                  
  23525022.875   123624816.814                                                  
  24439151.503   128428581.146                                                  
  25239837.924   132636198.342                                                  
  26311655.997   138268703.194                                                  
  26737440.435   140506152.535                                                  
 21  8 31 21 27 15.0000000  0 16G10G15G18G23G24G32C19C21C22C34E 3E 5
                                E 9E15E24E31
  21006255.681   110388572.773    21006258.612    86017057.883                  
  23288481.809   122381786.626    23288483.256    95362428.043                  
  22572864.607   118621187.497    22572866.626    92432091.953                  
  20200614.252   106154946.240    20200615.128    82718142.211                  
  20520822.337   107837605.965    20520825.464    84029292.509                  
  22770687.396   119660725.727    22770690.809    93242112.805                  
                 123689047.968                   123689047.968    23753183.263  
                 125480650.895                   125480650.895    24097238.649  
                 114380393.171                   114380393.171    21965546.531  
                 133212415.593                   133212415.593    25582047.475  
  25247050.094   132674115.876                                                  
  23525092.225   123625181.096                                                  
  24439534.543   128430594.066                                                  
  25239756.119   132635768.601                                                  
  26311263.325   138266639.699                                                  
  26737478.478   140506352.268                                                  
 21  8 31 21 27 16.0000000  0 16G10G15G18G23G24G32C19C21C22C34E 3E 5
                                E 9E15E24E31
  21005898.462   110386695.618    21005901.392    86015595.165                  
  23289066.912   122384861.434    23289068.377    95364824.000                  
  22573510.161   118624579.930    22573512.180    92434735.406                  
  20200695.914   106155375.406    20200696.807    82718476.629                  
  20521061.282   107838861.525    20521064.373    84030270.862                  
  22770226.446   119658303.410    22770229.841    93240225.288                  
                 123691230.681                   123691230.681    23753602.416  
                 125478385.133                   125478385.133    24096803.520  
                 114380343.259                   114380343.259    21965536.954  
                 133213181.165                   133213181.165    25582194.501  
  25246735.134   132672460.706                                                  
  23525161.575   123625545.617                                                  
  24439917.602   128432607.039                                                  
  25239674.422   132635339.236                                                  
  26310870.725   138264576.520                                                  
  26737516.628   140506552.653                                                  
 21  8 31 21 27 17.0000000  0 16G10G15G18G23G24G32C19C21C22C34E 3E 5
                                E 9E15E24E31
  21005541.314   110384818.812    21005544.262    86014132.714                  
  23289652.033   122387936.326    23289653.516    95367220.015                  
  22574155.769   118627972.646    22574157.788    92437379.078                  
  20200777.682   106155805.085    20200778.558    82718811.442                  
  20521300.315   107840117.727    20521303.425    84031249.724                  
  22769765.515   119655881.293    22769768.928    93238337.926                  
                 123693413.562                   123693413.562    23754021.624  
                 125476119.473                   125476119.473    24096368.427  
                 114380293.620                   114380293.620    21965527.447  
                 133213947.235                   133213947.235    25582341.617  
  25246420.175   132670805.657                                                  
  23525230.978   123625910.304                                                  
  24440300.660   128434620.068                                                  
  25239592.796   132634910.386                                                  
  26310478.161   138262513.653                                                  
  26737554.832   140506753.536                                                  
 21  8 31 21 27 18.0000000  0 16G10G15G18G23G24G32C19C21C22C34E 3E 5
                                E 9E15E24E31
  21005184.237   110382942.344    21005187.185    86012670.536                  
  23290237.208   122391011.302    23290238.655    95369616.098                  
  22574801.448   118631365.637    22574803.467    92440022.965                  
  20200859.540   106156235.261    20200860.416    82719146.646                  
  20521539.492   107841374.563    20521542.602    84032229.079                  
  22769304.637   119653459.367    22769308.032    93236450.711                  
                 123695596.621                   123695596.621    23754440.867  
                 125473853.909                   125473853.909    24095933.334  
                 114380244.258                   114380244.258    21965517.959  
                 133214713.800                   133214713.800    25582488.822  
  25246105.251   132669150.728                                                  
  23525300.399   123626275.156                                                  
  24440683.736   128436633.140                                                  
  25239511.278   132634482.007                                                  
  26310085.685   138260451.109                                                  
  26737593.161   140506954.889                                                  
 21  8 31 21 27 19.0000000  0 16G10G15G18G23G24G32C19C21C22C34E 3E 5
                                E 9E15E24E31
  21004827.214   110381066.222    21004830.162    86011208.620                  
  23290822.365   122394086.372    23290823.812    95372012.259                  
  22575447.163   118634758.907    22575449.182    92442667.071                  
  20200941.505   106156665.941    20200942.381    82719482.243                  
  20521778.776   107842632.030    20521781.886    84033208.923                  
  22768843.795   119651037.634    22768847.208    93234563.644                  
                 123697779.855                   123697779.855    23754860.127  
                 125471588.446                   125471588.446    24095498.277  
                 114380195.175                   114380195.175    21965508.524  
                 133215480.864                   133215480.864    25582636.117  
  25245790.363   132667495.910                                                  
  23525369.856   123626640.180                                                  
  24441066.812   128438646.266                                                  
  25239429.867   132634054.150                                                  
  26309693.246   138258388.875                                                  
  26737631.562   140507156.741                                                  
 21  8 31 21 27 20.0000000  0 16G10G15G18G23G24G32C19C21C22C34E 3E 5
                                E 9E15E24E31
  21004470.280   110379190.452    21004473.229    86009746.984                  
  23291407.540   122397161.515    23291409.023    95374408.472                  
  22576092.914   118638152.453    22576094.933    92445311.391                  
  20201023.560   106157097.129    20201024.418    82719818.231                  
  20522018.186   107843890.137    20522021.295    84034189.261                  
  22768383.006   119648616.089    22768386.402    93232676.730                  
                 123699963.263                   123699963.263    23755279.424  
                 125469323.077                   125469323.077    24095063.238  
                 114380146.368                   114380146.368    21965499.161  
                 133216248.425                   133216248.425    25582783.536  
  25245475.493   132665841.231                                                  
  23525439.366   123627005.375                                                  
  24441449.924   128440659.441                                                  
  25239348.545   132633626.794                                                  
  26309300.878   138256326.970                                                  
  26737670.051   140507359.083                                                  
 21  8 31 21 27 21.0000000  0 16G10G15G18G23G24G32C19C21C22C34E 3E 5
                                E 9E15E24E31
  21004113.400   110377315.035    21004116.348    86008285.622                  
  23291992.732   122400236.759    23291994.215    95376804.766                  
  22576738.736   118641546.286    22576740.773    92447955.938                  
  20201105.704   106157528.804    20201106.580    82720154.601                  
  20522257.720   107845148.880    20522260.811    84035170.102                  
  22767922.236   119646194.735    22767925.649    93230789.961                  
                 123702146.848                   123702146.848    23755698.756  
                 125467057.813                   125467057.813    24094628.217  
                 114380097.837                   114380097.837    21965489.833  
                 133217016.487                   133217016.487    25582931.027  
  25245160.641   132664186.668                                                  
  23525508.877   123627370.738                                                  
  24441833.018   128442672.672                                                  
  25239267.312   132633199.938                                                  
  26308908.564   138254265.371                                                  
  26737708.666   140507561.904                                                  
 21  8 31 21 27 22.0000000  0 16G10G15G18G23G24G32C19C21C22C34E 3E 5
                                E 9E15E24E31
  21003756.573   110375439.954    21003759.522    86006824.516                  
  23292577.961   122403312.087    23292579.426    95379201.121                  
  22577384.612   118644940.398    22577386.667    92450600.699                  
  20201187.937   106157960.995    20201188.813    82720491.371                  
  20522497.379   107846408.257    20522500.488    84036151.433                  
  22767461.501   119643773.565    22767464.896    93228903.340                  
                 123704330.605                   123704330.605    23756118.125  
                 125464792.644                   125464792.644    24094193.213  
                 114380049.583                   114380049.583    21965480.559  
                 133217785.046                   133217785.046    25583078.625  
  25244845.807   132662532.223                                                  
  23525578.441   123627736.261                                                  
  24442216.148   128444685.950                                                  
  25239186.187   132632773.586                                                  
  26308516.321   138252204.094                                                  
  26737747.353   140507765.202                                                  
 21  8 31 21 27 23.0000000  0 16G10G15G18G23G24G32C19C21C22C34E 3E 5
                                E 9E15E24E31
  21003399.818   110373565.217    21003402.767    86005363.684                  
  23293163.207   122406387.498    23293164.654    95381597.547                  
  22578030.559   118648334.780    22578032.578    92453245.667                  
  20201270.278   106158393.680    20201271.153    82720828.530                  
  20522737.146   107847668.277    20522740.255    84037133.269                  
  22767000.802   119641352.598    22767004.197    93227016.872                  
                 123706514.539                   123706514.539    23756537.528  
                 125462527.574                   125462527.574    24093758.245  
                 114380001.604                   114380001.604    21965471.356  
                 133218554.102                   133218554.102    25583226.312  
  25244531.008   132660877.899                                                  
  23525648.041   123628101.964                                                  
  24442599.259   128446699.281                                                  
  25239105.133   132632347.736                                                  
  26308124.131   138250143.148                                                  
  26737786.129   140507968.985                                                  
 21  8 31 21 27 24.0000000  0 16G10G15G18G23G24G32C19C21C22C34E 3E 5
                                E 9E15E24E31
  21003043.135   110371690.827    21003046.083    86003903.122                  
  23293748.435   122409462.996    23293749.901    95383994.039                  
  22578676.542   118651729.444    22578678.561    92455890.860                  
  20201352.725   106158826.866    20201353.583    82721166.078                  
  20522977.037   107848928.934    20522980.147    84038115.597                  
  22766540.138   119638931.816    22766543.534    93225130.546                  
                 123708698.648                   123708698.648    23756956.968  
                 125460262.606                   125460262.606    24093323.278  
                 114379953.905                   114379953.905    21965462.207  
                 133219323.656                   133219323.656    25583374.107  
  25244216.227   132659223.700                                                  
  23525717.659   123628467.828                                                  
  24442982.407   128448712.653                                                  
  25239024.204   132631922.387                                                  
  26307731.996   138248082.508                                                  
  26737824.994   140508173.269                                                  
 21  8 31 21 27 25.0000000  0 16G10G15G18G23G24G32C19C21C22C34E 3E 5
                                E 9E15E24E31
  21002686.523   110369816.788    21002689.453    86002442.832                  
  23294333.699   122412538.577    23294335.183    95386390.589                  
  22579322.579   118655124.390    22579324.598    92458536.270                  
  20201435.244   106159260.560    20201436.120    82721504.019                  
  20523217.054   107850190.227    20523220.163    84039098.423                  
  22766079.529   119636511.243    22766082.924    93223244.387                  
                 123710882.934                   123710882.934    23757376.443  
                 125457997.734                   125457997.734    24092888.346  
                 114379906.485                   114379906.485    21965453.076  
                 133220093.706                   133220093.706    25583521.973  
  25243901.464   132657569.622                                                  
  23525787.312   123628833.868                                                  
  24443365.537   128450726.087                                                  
  25238943.365   132631497.544                                                  
  26307339.931   138246022.191                                                  
  26737863.966   140508378.024                                                  
 21  8 31 21 27 26.0000000  0 16G10G15G18G23G24G32C19C21C22C34E 3E 5
                                E 9E15E24E31
  21002329.982   110367943.090    21002332.913    86000982.805                  
  23294918.981   122415614.243    23294920.464    95388787.214                  
  22579968.687   118658519.614    22579970.706    92461181.899                  
  20201517.853   106159694.755    20201518.746    82721842.351                  
  20523457.196   107851452.157    20523460.305    84040081.743                  
  22765618.937   119634090.848    22765622.332    93221358.368                  
                 123713067.391                   123713067.391    23757795.936  
                 125455732.961                   125455732.961    24092453.396  
                 114379859.336                   114379859.336    21965444.035  
                 133220864.257                   133220864.257    25583669.965  
  25243586.720   132655915.661                                                  
  23525857.001   123629200.073                                                  
  24443748.702   128452739.562                                                  
  25238862.614   132631073.202                                                  
  26306947.939   138243962.196                                                  
  26737903.028   140508583.271                                                  
 21  8 31 21 27 27.0000000  0 16G10G15G18G23G24G32C19C21C22C34E 3E 5
                                E 9E15E24E31
  21001973.477   110366069.735    21001976.426    85999523.051                  
  23295504.281   122418689.996    23295505.764    95391183.907                  
  22580614.813   118661915.108    22580616.832    92463827.734                  
  20201600.587   106160129.444    20201601.462    82722181.074                  
  20523697.463   107852714.710    20523700.554    84041065.554                  
  22765158.380   119631670.641    22765161.776    93219472.488                  
                 123715252.026                   123715252.026    23758215.483  
                 125453468.290                   125453468.290    24092018.499  
                 114379812.468                   114379812.468    21965435.047  
                 133221635.305                   133221635.305    25583818.027  
  25243271.992   132654261.824                                                  
  23525926.726   123629566.445                                                  
  24444131.868   128454753.095                                                  
  25238781.954   132630649.356                                                  
  26306555.999   138241902.525                                                  
  26737942.179   140508789.005                                                  
 21  8 31 21 27 28.0000000  0 16G10G15G18G23G24G32C19C21C22C34E 3E 5
                                E 9E15E24E31
  21001617.062   110364196.738    21001619.992    85998063.570                  
  23296089.599   122421765.833    23296091.064    95393580.656                  
  22581261.028   118665310.887    22581263.047    92466473.798                  
  20201683.392   106160564.643    20201684.285    82722520.190                  
  20523937.819   107853977.899    20523940.946    84042049.855                  
  22764697.878   119629250.625    22764701.255    93217586.765                  
                 123717436.836                   123717436.836    23758635.048  
                 125451203.714                   125451203.714    24091583.621  
                 114379765.874                   114379765.874    21965426.076  
                 133222406.850                   133222406.850    25583966.197  
  25242957.301   132652608.112                                                  
  23525996.469   123629932.984                                                  
  24444515.015   128456766.664                                                  
  25238701.400   132630226.033                                                  
  26306164.096   138239843.155                                                  
  26737981.419   140508995.211                                                  
 21  8 31 21 27 29.0000000  0 16G10G15G18G23G24G32C19C21C22C34E 3E 5
                                E 9E15E24E31
  21001260.718   110362324.085    21001263.666    85996604.362                  
  23296674.917   122424841.765    23296676.400    95395977.489                  
  22581907.261   118668706.948    22581909.281    92469120.074                  
  20201766.304   106161000.341    20201767.179    82722859.695                  
  20524178.318   107855241.730    20524181.445    84043034.657                  
  22764237.393   119626830.808    22764240.806    93215701.196                  
                 123719621.820                   123719621.820    23759054.648  
                 125448939.243                   125448939.243    24091148.743  
                 114379719.559                   114379719.559    21965417.178  
                 133223178.896                   133223178.896    25584114.457  
  25242642.645   132650954.524                                                  
  23526066.247   123630299.696                                                  
  24444898.216   128458780.297                                                  
  25238620.936   132629803.184                                                  
  26305772.282   138237784.117                                                  
  26738020.749   140509201.914                                                  
 21  8 31 21 27 30.0000000  0 16G10G15G18G23G24G32C19C21C22C34E 3E 5
                                E 9E15E24E31
  21000904.427   110360451.778    21000907.358    85995145.421                  
  23297260.288   122427917.789    23297261.735    95398374.386                  
  22582553.566   118672103.281    22582555.585    92471766.566                  
  20201849.323   106161436.547    20201850.199    82723199.594                  
  20524418.942   107856506.190    20524422.052    84044019.952                  
  22763776.962   119624411.177    22763780.339    93213815.769                  
                 123721806.975                   123721806.975    23759474.284  
                 125446674.863                   125446674.863    24090713.900  
                 114379673.524                   114379673.524    21965408.332  
                 133223951.432                   133223951.432    25584262.823  
  25242328.008   132649301.051                                                  
  23526136.062   123630666.569                                                  
  24445281.400   128460793.974                                                  
  25238540.561   132629380.853                                                  
  26305380.521   138235725.382                                                  
  26738060.186   140509409.095                                                  
 21  8 31 21 27 31.0000000  0 16G10G15G18G23G24G32C19C21C22C34E 3E 5
                                E 9E15E24E31
  21000548.208   110358579.817    21000551.139    85993686.751                  
  23297845.641   122430993.886    23297847.107    95400771.347                  
  22583199.924   118675499.891    22583201.944    92474413.274                  
  20201932.414   106161873.246    20201933.308    82723539.878                  
  20524659.674   107857771.281    20524662.801    84045005.739                  
  22763316.549   119621991.739    22763319.944    93211930.497                  
                 123723992.314                   123723992.314    23759893.956  
                 125444410.590                   125444410.590    24090279.057  
                 114379627.761                   114379627.761    21965399.559  
                 133224724.472                   133224724.472    25584411.261  
  25242013.388   132647647.691                                                  
  23526205.912   123631033.616                                                  
  24445664.601   128462807.698                                                  
  25238460.293   132628959.017                                                  
  26304988.815   138233666.992                                                  
  26738099.694   140509616.757                                                  
 21  8 31 21 27 32.0000000  0 16G10G15G18G23G24G32C19C21C22C34E 3E 5
                                E 9E15E24E31
  21000192.043   110356708.202    21000194.973    85992228.352                  
  23298431.013   122434070.066    23298432.478    95403168.370                  
  22583846.318   118678896.776    22583848.355    92477060.200                  
  20202015.612   106162310.449    20202016.488    82723880.559                  
  20524900.548   107859037.017    20524903.658    84045992.023                  
  22762856.171   119619572.491    22762859.584    93210045.367                  
                 123726177.821                   123726177.821    23760313.664  
                 125442146.410                   125442146.410    24089844.268  
                 114379582.278                   114379582.278    21965390.821  
                 133225498.009                   133225498.009    25584559.824  
  25241698.786   132645994.470                                                  
  23526275.780   123631400.824                                                  
  24446047.820   128464821.472                                                  
  25238380.115   132628537.683                                                  
  26304597.179   138231608.911                                                  
  26738139.292   140509824.921                                                  
 21  8 31 21 27 33.0000000  0 16G10G15G18G23G24G32C19C21C22C34E 3E 5
                                E 9E15E24E31
  20999835.967   110354836.934    20999838.897    85990770.218                  
  23299016.420   122437146.345    23299017.885    95405565.464                  
  22584492.784   118682293.943    22584494.821    92479707.336                  
  20202098.900   106162748.152    20202099.776    82724221.625                  
  20525141.512   107860303.387    20525144.639    84046978.805                  
  22762395.847   119617153.441    22762399.243    93208160.395                  
                 123728363.503                   123728363.503    23760733.407  
                 125439882.332                   125439882.332    24089409.461  
                 114379537.071                   114379537.071    21965382.136  
                 133226272.038                   133226272.038    25584708.459  
  25241384.202   132644341.354                                                  
  23526345.701   123631768.214                                                  
  24446431.039   128466835.305                                                  
  25238300.044   132628116.845                                                  
  26304205.597   138229551.138                                                  
  26738178.997   140510033.566                                                  
 21  8 31 21 27 34.0000000  0 16G10G15G18G23G24G32C19C21C22C34E 3E 5
                                E 9E15E24E31
  20999479.927   110352966.014    20999482.857    85989312.359                  
  23299601.827   122440222.703    23299603.292    95407962.626                  
  22585139.303   118685691.391    22585141.322    92482354.699                  
  20202182.295   106163186.365    20202183.188    82724563.086                  
  20525382.637   107861570.391    20525385.746    84047966.083                  
  22761935.559   119614734.575    22761938.936    93206275.562                  
                 123730549.362                   123730549.362    23761153.186  
                 125437618.352                   125437618.352    24088974.672  
                 114379492.137                   114379492.137    21965373.524  
                 133227046.569                   133227046.569    25584857.200  
  25241069.635   132642688.371                                                  
  23526415.640   123632135.763                                                  
  24446814.258   128468849.179                                                  
  25238220.062   132627696.526                                                  
  26303814.087   138227493.699                                                  
  26738218.791   140510242.684                                                  
 21  8 31 21 27 35.0000000  0 16G10G15G18G23G24G32C19C21C22C34E 3E 5
                                E 9E15E24E31
  20999123.958   110351095.439    20999126.906    85987854.770                  
  23300187.252   122443299.141    23300188.717    95410359.852                  
  22585785.858   118689089.116    22585787.895    92485002.274                  
  20202265.779   106163625.070    20202266.654    82724904.937                  
  20525623.869   107862838.028    20525626.960    84048953.848                  
  22761475.307   119612315.905    22761478.702    93204390.891                  
                 123732735.399                   123732735.399    23761572.983  
                 125435354.472                   125435354.472    24088539.937  
                 114379447.485                   114379447.485    21965364.946  
                 133227821.598                   133227821.598    25585006.031  
  25240755.123   132641035.505                                                  
  23526485.616   123632503.481                                                  
  24447197.495   128470863.108                                                  
  25238140.152   132627276.718                                                  
  26303422.613   138225436.575                                                  
  26738258.675   140510452.297                                                  
 21  8 31 21 27 36.0000000  0 16G10G15G18G23G24G32C19C21C22C34E 3E 5
                                E 9E15E24E31
  20998768.078   110349225.212    20998771.027    85986397.448                  
  23300772.695   122446375.669    23300774.178    95412757.145                  
  22586432.484   118692487.110    22586434.521    92487650.057                  
  20202349.352   106164064.284    20202350.246    82725247.179                  
  20525865.208   107864106.309    20525868.299    84049942.120                  
  22761015.072   119609897.427    22761018.467    93202506.361                  
                 123734921.607                   123734921.607    23761992.816  
                 125433090.690                   125433090.690    24088105.201  
                 114379403.109                   114379403.109    21965356.423  
                 133228597.121                   133228597.121    25585154.988  
  25240440.592   132639382.765                                                  
  23526555.626   123632871.367                                                  
  24447580.732   128472877.091                                                  
  25238060.367   132626857.383                                                  
  26303031.227   138223379.767                                                  
  26738298.666   140510662.392                                                  
 21  8 31 21 27 37.0000000  0 16G10G15G18G23G24G32C19C21C22C34E 3E 5
                                E 9E15E24E31
  20998412.235   110347355.331    20998415.183    85984940.398                  
  23301358.155   122449452.289    23301359.638    95415154.509                  
  22587079.164   118695885.378    22587081.183    92490298.063                  
  20202433.033   106164503.996    20202433.908    82725589.812                  
  20526106.654   107865375.220    20526109.781    84050930.882                  
  22760554.873   119607479.133    22760558.286    93200621.974                  
                 123737107.992                   123737107.992    23762412.684  
                 125430827.010                   125430827.010    24087670.484  
                 114379359.007                   114379359.007    21965347.935  
                 133229373.144                   133229373.144    25585303.997  
  25240126.115   132637730.142                                                  
  23526625.655   123633239.420                                                  
  24447964.005   128474891.117                                                  
  25237980.689   132626438.569                                                  
  26302639.878   138221323.276                                                  
  26738338.746   140510872.965                                                  
 21  8 31 21 27 38.0000000  0 16G10G15G18G23G24G32C19C21C22C34E 3E 5
                                E 9E15E24E31
  20998056.480   110345485.800    20998059.429    85983483.625                  
  23301943.634   122452528.985    23301945.117    95417551.934                  
  22587725.880   118699283.933    22587727.899    92492946.285                  
  20202516.803   106164944.211    20202517.678    82725932.840                  
  20526348.261   107866644.759    20526351.352    84051920.134                  
  22760094.746   119605061.031    22760098.141    93198737.742                  
                 123739294.552                   123739294.552    23762832.607  
                 125428563.429                   125428563.429    24087235.784  
                 114379315.187                   114379315.187    21965339.537  
                 133230149.664                   133230149.664    25585453.114  
  25239811.656   132636077.640                                                  
  23526695.737   123633607.638                                                  
  24448347.277   128476905.190                                                  
  25237901.064   132626020.237                                                  
  26302248.600   138219267.108                                                  
  26738378.898   140511084.031                                                  
 21  8 31 21 27 39.0000000  0 16G10G15G18G23G24G32C19C21C22C34E 3E 5
                                E 9E15E24E31
  20997700.797   110343616.612    20997703.746    85982027.113                  
  23302529.148   122455605.766    23302530.595    95419949.421                  
  22588372.667   118702682.760    22588374.686    92495594.720                  
  20202600.680   106165384.930    20202601.538    82726276.258                  
  20526589.957   107867914.938    20526593.066    84052909.884                  
  22759634.619   119602643.121    22759638.014    93196853.657                  
                 123741481.287                   123741481.287    23763252.546  
                 125426299.950                   125426299.950    24086801.102  
                 114379271.643                   114379271.643    21965331.174  
                 133230926.679                   133230926.679    25585602.339  
  25239497.215   132634425.258                                                  
  23526765.838   123633976.032                                                  
  24448730.532   128478919.320                                                  
  25237821.565   132625602.422                                                  
  26301857.393   138217211.269                                                  
  26738419.157   140511295.587                                                  
 21  8 31 21 27 40.0000000  0 16G10G15G18G23G24G32C19C21C22C34E 3E 5
                                E 9E15E24E31
  20997345.168   110341747.771    20997348.099    85980570.871                  
  23303114.644   122458682.629    23303116.128    95422346.977                  
  22589019.472   118706081.864    22589021.527    92498243.372                  
  20202684.647   106165826.156    20202685.504    82726620.066                  
  20526831.797   107869185.763    20526834.906    84053900.132                  
  22759174.545   119600225.409    22759177.940    93194969.727                  
                 123743668.193                   123743668.193    23763672.504  
                 125424036.564                   125424036.564    24086366.438  
                 114379228.376                   114379228.376    21965322.865  
                 133231704.191                   133231704.191    25585751.652  
  25239182.792   132632772.999                                                  
  23526835.956   123634344.589                                                  
  24449113.841   128480933.496                                                  
  25237742.137   132625185.105                                                  
  26301466.241   138215155.732                                                  
  26738459.505   140511507.619                                                  
