     2.11           OBSERVATION DATA    M (MIXED)           RINEX VERSION / TYPE
CONVBIN 2.4.3                           20210831 165432 UTC PGM / RUN BY / DATE 
log: logs/21_08_31_09_18_27_arlr_P1.rtcm                    COMMENT             
format: RTCM 3, station ID: 3583                            COMMENT             
3583                                                        MARKER NAME         
                                                            MARKER NUMBER       
                                                            OBSERVER / AGENCY   
                                                            REC # / TYPE / VERS 
                                                            ANT # / TYPE        
  -194284.8900 -5249181.1730  3605825.9340                  APPROX POSITION XYZ 
        0.0000        0.0000        0.0000                  ANTENNA: DELTA H/E/N
     1     1                                                WAVELENGTH FACT L1/2
     5    C1    L1    C2    L2    P2                        # / TYPES OF OBSERV 
  2021     8    31     9    18   32.0000000     GPS         TIME OF FIRST OBS   
  2021     8    31     9    48   31.0000000     GPS         TIME OF LAST OBS    
                                                            END OF HEADER       
 21  8 31  9 18 32.0000000  0 24G 1G17G19G30G21G 7G14G13R12R13R14R22
                                R23R24E 1E 9E12E24E26E31E33C23C27C28
  21021177.566   110467034.6591   21021183.642    86078234.4281   21021182.534  
  20767843.675   109135753.1211   20767846.158    85040857.8291   20767845.980  
  22395814.628   117690803.9831                   91707118.4871   22395814.021  
  20471752.338   107579781.6591   20471757.324    83828417.1251   20471756.841  
  23090265.312   121340166.0631                   94550783.5001   23090267.581  
  21733429.317   114209941.8611   21733431.157    88994768.3061   21733430.353  
  20814636.034   109381650.3091   20814637.857    85232462.1171   20814637.357  
  23173254.111   121776275.8791                   94890612.6641   23173259.097  
  19730699.618   105397853.986    19730706.998    81976144.043                  
  20358249.484   108711907.997    20358255.577    84553738.550                  
  24619705.061   131236898.977    24619710.225   102073158.082                  
  20480079.035   109324048.152                                                  
  19739869.965   105595000.232                                                  
  22724896.416   121520222.597                                                  
  25841833.103   135799751.262                                                  
  25790029.233   135527514.782                                                  
  23717076.597   124634071.722                                                  
  26218023.711   137776639.143                                                  
  25783823.643   135494904.345                                                  
  23753457.141   124825262.530                                                  
  23874267.926   125460126.039                                                  
                 130809240.922    25120539.984   130809240.922                  
                 113828698.301    21859605.669   113828698.301                  
                 116161299.357    22307555.968   116161299.357                  
 21  8 31  9 18 33.0000000  0 24G 1G17G19G30G21G 7G14G13R12R13R14R22
                                R23R24E 1E 9E12E24E26E31E33C23C27C28
  21021247.381   110467400.8671   21021253.099    86078519.7871   21021252.241  
  20767691.306   109134951.7641   20767693.235    85040233.3951   20767693.468  
  22395311.562   117688160.8461                   91705058.8951   22395311.061  
  20471945.306   107580795.8401   20471949.862    83829207.3911   20471949.862  
  23090713.020   121342519.0771                   94552617.0221   23090715.396  
  21733981.559   114212843.6811   21733983.489    88997029.4671   21733982.560  
  20814454.967   109380699.8061   20814456.987    85231721.4651   20814456.468  
  23173375.120   121776910.4391                   94891107.1521   23173379.820  
  19730844.107   105398625.575    19730851.255    81976744.187                  
  20357784.675   108709424.669    20357790.285    84551807.049                  
  24619024.841   131233275.170    24619030.451   102070339.528                  
  20480619.930   109326932.975                                                  
  19739463.480   105592825.333                                                  
  22724125.689   121516103.408                                                  
  25842109.930   135801205.595                                                  
  25790449.798   135529722.453                                                  
  23716560.539   124631359.910                                                  
  26217651.838   137774685.748                                                  
  25784227.018   135497024.008                                                  
  23753360.720   124824755.784                                                  
  23874215.087   125459848.191                                                  
                 130811959.828    25121062.439   130811959.828                  
                 113827228.029    21859323.213   113827228.029                  
                 116162898.916    22307863.118   116162898.916                  
 21  8 31  9 18 34.0000000  0 24G 1G17G19G30G21G 7G14G13R12R13R14R22
                                R23R24E 1E 9E12E24E26E31E33C23C27C28
  21021317.284   110467767.6001   21021322.752    86078805.5531   21021322.020  
  20767538.865   109134150.5861   20767540.830    85039609.1031   20767540.991  
  22394808.173   117685517.7391                   91702999.3201   22394808.084  
  20472138.148   107581810.4251   20472143.026    83829997.9751   20472142.919  
  23091160.639   121344872.2851                   94554450.6881   23091163.212  
  21734533.712   114215745.6661   21734535.928    88999290.7521   21734534.784  
  20814274.115   109379749.2761   20814276.313    85230980.7901   20814275.545  
  23173496.290   121777545.4721                   94891602.0351   23173500.668  
  19730988.614   105399397.510    19730995.636    81977344.565                  
  20357319.919   108706941.365    20357324.547    84549875.626                  
  24618345.085   131229650.849    24618350.678   102067520.711                  
  20481160.754   109329818.141                                                  
  19739057.067   105590650.941                                                  
  22723354.659   121511984.381                                                  
  25842386.596   135802659.911                                                  
  25790869.899   135531929.994                                                  
  23716044.571   124628648.080                                                  
  26217279.930   137772732.136                                                  
  25784630.232   135499143.778                                                  
  23753264.156   124824248.951                                                  
  23874162.373   125459570.618                                                  
                 130814678.713    25121584.303   130814678.713                  
                 113825757.965    21859040.829   113825757.965                  
                 116164498.635    22308170.483   116164498.635                  
 21  8 31  9 18 35.0000000  0 24G 1G17G19G30G21G 7G14G13R12R13R14R22
                                R23R24E 1E 9E12E24E26E31E33C23C27C28
  21021387.259   110468134.9871   21021392.477    86079091.8281   21021391.888  
  20767386.567   109133349.7521   20767388.497    85038985.0731   20767388.604  
  22394305.125   117682874.9011                   91700939.9681   22394305.214  
  20472331.384   107582825.5101   20472336.012    83830788.9541   20472336.065  
  23091608.508   121347225.8211                   94556284.6141   23091611.063  
  21735086.025   114218647.9851   21735088.491    89001552.2971   21735087.098  
  20814093.334   109378798.8791   20814095.264    85230240.2211   20814094.621  
  23173617.496   121778180.9321                   94892097.1901   23173621.605  
  19731133.138   105400169.956    19731140.232    81977945.353                  
  20356854.377   108704458.342    20356859.542    84547944.367                  
  24617663.989   131226026.372    24617670.923   102064701.660                  
  20481701.614   109332703.784                                                  
  19738650.940   105588477.225                                                  
  22722583.807   121507865.467                                                  
  25842663.298   135804114.288                                                  
  25791290.125   135534137.536                                                  
  23715528.514   124625936.415                                                  
  26216908.165   137770778.392                                                  
  25785033.661   135501263.738                                                  
  23753167.663   124823742.175                                                  
  23874109.624   125459293.421                                                  
                 130817397.692    25122106.025   130817397.692                  
                 113824288.252    21858758.570   113824288.252                  
                 116166098.634    22308477.938   116166098.634                  
 21  8 31  9 18 36.0000000  0 24G 1G17G19G30G21G 7G14G13R12R13R14R22
                                R23R24E 1E 9E12E24E26E31E33C23C27C28
  21021457.556   110468503.9291   21021462.810    86079379.3111   21021462.059  
  20767234.359   109132550.1291   20767236.593    85038361.9961   20767236.432  
  22393802.433   117680233.2461                   91698881.5401   22393802.523  
  20472524.816   107583842.0731   20472529.605    83831581.0881   20472529.533  
  23092056.538   121349580.6281                   94558119.5271   23092059.218  
  21735638.589   114221551.5891   21735640.912    89003814.8411   21735639.661  
  20813912.661   109377849.5201   20813914.483    85229500.4611   20813913.929  
  23173738.987   121778817.8541                   94892593.5181   23173742.811  
  19731277.895   105400943.824    19731284.972    81978547.267                  
  20356389.819   108701976.476    20356395.072    84546014.029                  
  24616984.109   131222402.661    24616990.560   102061883.213                  
  20482242.473   109335590.843                                                  
  19738244.992   105586305.110                                                  
  22721812.795   121503747.748                                                  
  25842940.196   135805569.663                                                  
  25791710.368   135536346.016                                                  
  23715012.582   124623225.851                                                  
  26216536.758   137768825.511                                                  
  25785437.269   135503384.860                                                  
  23753071.385   124823236.397                                                  
  23874057.071   125459017.571                                                  
                 130820117.747    25122628.247   130820117.747                  
                 113822819.810    21858476.507   113822819.810                  
                 116167699.859    22308785.482   116167699.859                  
 21  8 31  9 18 37.0000000  0 24G 1G17G19G30G21G 7G14G13R12R13R14R22
                                R23R24E 1E 9E12E24E26E31E33C23C27C28
  21021527.889   110468873.1881   21021532.910    86079667.0461   21021532.302  
  20767082.222   109131750.4951   20767084.616    85037738.9081   20767084.277  
  22393299.617   117677591.4061                   91696822.9591   22393299.760  
  20472718.302   107584858.7801   20472723.001    83832373.3321   20472723.019  
  23092504.800   121351935.4201                   94559954.4391   23092507.302  
  21736191.117   114224455.1291   21736193.440    89006077.3491   21736192.172  
  20813732.112   109376899.9361   20813733.792    85228760.5251   20813733.166  
  23173860.264   121779454.8231                   94893089.8481   23173864.017  
  19731422.581   105401717.749    19731430.122    81979149.204                  
  20355924.581   108699494.427    20355930.567    84544083.570                  
  24616304.246   131218778.217    24616311.715   102059064.226                  
  20482783.154   109338478.021                                                  
  19737839.115   105584133.288                                                  
  22721041.496   121499629.772                                                  
  25843217.059   135807024.750                                                  
  25792130.344   135538554.133                                                  
  23714496.435   124620515.045                                                  
  26216165.261   137766872.166                                                  
  25785840.805   135505505.814                                                  
  23752975.106   124822730.316                                                  
  23874004.465   125458741.742                                                  
                 130822837.531    25123150.541   130822837.531                  
                 113821351.347    21858194.641   113821351.347                  
                 116169300.971    22309093.133   116169300.971                  
 21  8 31  9 18 38.0000000  0 24G 1G17G19G30G21G 7G14G13R12R13R14R22
                                R23R24E 1E 9E12E24E26E31E33C23C27C28
  21021598.436   110469243.3191   21021603.385    86079955.4641   21021602.778  
  20766930.317   109130951.4241   20766932.837    85037116.2541   20766932.247  
  22392797.122   117674950.1501                   91694764.8401   22392797.158  
  20472911.734   107585876.2771   20472916.469    83833166.1961   20472916.666  
  23092953.116   121354290.7731                   94561789.7761   23092955.511  
  21736743.610   114227359.2361   21736746.040    89008340.2821   21736744.771  
  20813551.492   109375950.6861   20813553.261    85228020.8471   20813552.492  
  23173981.041   121780092.5491                   94893586.7571   23173985.419  
  19731567.356   105402492.378    19731575.182    81979751.684                  
  20355459.539   108697012.850    20355466.062    84542153.480                  
  24615623.776   131215153.910    24615631.567   102056245.293                  
  20483324.103   109341365.938                                                  
  19737433.488   105581962.329                                                  
  22720271.055   121495512.235                                                  
  25843493.814   135808480.154                                                  
  25792549.891   135540762.546                                                  
  23713980.538   124617804.657                                                  
  26215793.406   137764919.055                                                  
  25786244.609   135507627.244                                                  
  23752878.792   124822224.520                                                  
  23873952.001   125458466.544                                                  
                 130825557.737    25123673.317   130825557.737                  
                 113819883.496    21857912.740   113819883.496                  
                 116170902.630    22309401.034   116170902.630                  
 21  8 31  9 18 39.0000000  0 24G 1G17G19G30G21G 7G14G13R12R13R14R22
                                R23R24E 1E 9E12E24E26E31E33C23C27C28
  21021668.947   110469613.9721   21021674.022    86080244.2871   21021673.360  
  20766778.395   109130152.5471   20766780.986    85036493.7431   20766780.236  
  22392294.538   117672308.9301                   91692706.7231   22392294.574  
  20473105.398   107586894.1661   20473110.491    83833959.3551   20473110.384  
  23093401.361   121356646.3161                   94563625.2581   23093403.755  
  21737296.227   114230263.5301   21737298.479    89010603.3681   21737297.406  
  20813370.872   109375001.4361   20813372.802    85227281.1671   20813371.872  
  23174102.371   121780730.6331                   94894083.9291   23174106.857  
  19731712.345   105403267.332    19731720.118    81980354.419                  
  20354994.480   108694531.401    20355001.807    84540223.422                  
  24614944.396   131211529.189    24614951.597   102053426.057                  
  20483865.177   109344254.198                                                  
  19737027.986   105579791.958                                                  
  22719500.865   121491394.688                                                  
  25843770.820   135809935.474                                                  
  25792969.652   135542970.795                                                  
  23713464.803   124615094.292                                                  
  26215421.606   137762965.614                                                  
  25786648.324   135509748.769                                                  
  23752782.443   124821718.635                                                  
  23873899.645   125458191.586                                                  
                 130828277.916    25124195.825   130828277.916                  
                 113818415.882    21857631.017   113818415.882                  
                 116172504.440    22309708.720   116172504.440                  
 21  8 31  9 18 40.0000000  0 24G 1G17G19G30G21G 7G14G13R12R13R14R22
                                R23R24E 1E 9E12E24E26E31E33C23C27C28
  21021739.637   110469985.8991   21021744.461    86080534.0981   21021744.140  
  20766626.222   109129354.6001   20766629.278    85035871.9661   20766628.385  
  22391791.864   117669668.4981                   91690649.2501   22391792.115  
  20473299.277   107587913.1621   20473304.102    83834753.3771   20473304.263  
  23093849.534   121359002.8131                   94565461.4891   23093852.143  
  21737849.184   114233168.7831   21737851.203    89012867.2071   21737850.274  
  20813190.412   109374052.9101   20813192.396    85226542.0611   20813191.395  
  23174224.292   121781369.8621                   94894582.0131   23174228.527  
  19731857.638   105404043.354    19731865.411    81980958.021                  
  20354529.367   108692050.713    20354537.176    84538294.016                  
  24614264.158   131207904.719    24614271.341   102050607.077                  
  20484406.465   109347143.552                                                  
  19736622.556   105577622.857                                                  
  22718730.281   121487278.044                                                  
  25844047.879   135811391.532                                                  
  25793390.092   135545179.698                                                  
  23712949.228   124612384.710                                                  
  26215050.144   137761012.709                                                  
  25787051.985   135511871.120                                                  
  23752686.325   124821213.447                                                  
  23873847.575   125457917.652                                                  
                 130830998.808    25124718.065   130830998.808                  
                 113816949.185    21857349.437   113816949.185                  
                 116174107.122    22310016.550   116174107.122                  
 21  8 31  9 18 41.0000000  0 24G 1G17G19G30G21G 7G14G13R12R13R14R22
                                R23R24E 1E 9E12E24E26E31E33C23C27C28
  21021810.559   110470358.6711   21021815.580    86080824.5671   21021815.044  
  20766474.282   109128557.2021   20766477.624    85035250.6351   20766476.659  
  22391289.727   117667028.5361                   91688592.1561   22391289.638  
  20473493.335   107588932.8951   20473498.106    83835547.9761   20473498.302  
  23094298.225   121361359.8531                   94567298.1391   23094300.691  
  21738401.980   114236074.5831   21738404.071    89015131.4731   21738403.231  
  20813009.917   109373104.7341   20813011.901    85225803.2251   20813010.954  
  23174346.802   121782009.7101                   94895080.5311   23174350.286  
  19732002.877   105404820.151    19732010.847    81981562.200                  
  20354064.648   108689570.501    20354072.456    84536364.970                  
  24613584.134   131204280.320    24613591.425   102047788.105                  
  20484948.004   109350033.571                                                  
  19736217.376   105575454.640                                                  
  22717961.037   121483161.845                                                  
  25844324.831   135812847.814                                                  
  25793810.675   135547388.765                                                  
  23712433.510   124609675.469                                                  
  26214678.540   137759059.916                                                  
  25787455.665   135513993.903                                                  
  23752590.208   124820708.522                                                  
  23873795.540   125457644.341                                                  
                 130833720.079    25125240.377   130833720.079                  
                 113815483.060    21857067.803   113815483.060                  
                 116175710.322    22310324.273   116175710.322                  
 21  8 31  9 18 42.0000000  0 24G 1G17G19G30G21G 7G14G13R12R13R14R22
                                R23R24E 1E 9E12E24E26E31E33C23C27C28
  21021881.356   110470731.5361   21021886.431    86081115.1141   21021885.930  
  20766322.574   109127759.5871   20766325.862    85034629.1191   20766324.897  
  22390787.393   117664388.2671                   91686534.7861   22390787.179  
  20473687.249   107589952.5891   20473691.681    83836342.5441   20473692.360  
  23094746.541   121363716.6761                   94569134.6311   23094749.185  
  21738954.848   114238980.1271   21738957.171    89017395.5241   21738956.098  
  20812829.476   109372156.1331   20812831.084    85225064.0601   20812830.459  
  23174467.954   121782649.6221                   94895579.2211   23174472.099  
  19732148.206   105405596.865    19732156.444    81982166.301                  
  20353600.125   108687089.938    20353607.129    84534435.636                  
  24612904.361   131200655.075    24612911.401   102044968.433                  
  20485489.596   109352923.545                                                  
  19735812.071   105573286.507                                                  
  22717191.436   121479045.188                                                  
  25844601.783   135814303.652                                                  
  25794231.133   135549597.331                                                  
  23711917.828   124606965.820                                                  
  26214306.990   137757106.506                                                  
  25787859.344   135516116.328                                                  
  23752494.054   124820203.092                                                  
  23873743.345   125457370.835                                                  
                 130836440.883    25125762.814   130836440.883                  
                 113814016.752    21856786.294   113814016.752                  
                 116177313.234    22310632.138   116177313.234                  
 21  8 31  9 18 43.0000000  0 24G 1G17G19G30G21G 7G14G13R12R13R14R22
                                R23R24E 1E 9E12E24E26E31E33C23C27C28
  21021952.385   110471105.2591   21021957.817    86081406.3241   21021956.995  
  20766170.848   109126962.4931   20766173.922    85034008.0051   20766173.243  
  22390284.684   117661748.4101                   91684477.7621   22390284.737  
  20473881.450   107590973.0411   20473885.238    83837137.7011   20473886.525  
  23095195.178   121366074.0331                   94570971.5331   23095197.805  
  21739507.858   114241886.2051   21739509.931    89019659.9961   21739509.037  
  20812649.017   109371207.8301   20812650.697    85224325.1181   20812649.982  
  23174589.767   121783290.0531                   94896078.2521   23174593.966  
  19732293.553   105406374.211    19732302.166    81982770.911                  
  20353135.959   108684609.804    20353142.838    84532506.636                  
  24612224.945   131197029.819    24612231.270   102042148.787                  
  20486030.706   109355814.174                                                  
  19735406.873   105571119.275                                                  
  22716422.193   121474928.923                                                  
  25844878.860   135815759.755                                                  
  25794651.860   135551806.128                                                  
  23711402.163   124604256.517                                                  
  26213935.207   137755153.173                                                  
  25788263.255   135518239.205                                                  
  23752397.955   124819697.918                                                  
  23873691.400   125457097.940                                                  
                 130839162.028    25126285.304   130839162.028                  
                 113812550.991    21856504.911   113812550.991                  
                 116178916.644    22310940.003   116178916.644                  
 21  8 31  9 18 44.0000000  0 24G 1G17G19G30G21G 7G14G13R12R13R14R22
                                R23R24E 1E 9E12E24E26E31E33C23C27C28
  21022023.629   110471479.8231   21022028.990    86081698.1881   21022028.257  
  20766019.265   109126165.9111   20766022.321    85033387.2941   20766021.713  
  22389782.546   117659109.0061                   91682421.0821   22389782.439  
  20474075.883   107591994.1941   20474079.653    83837933.3991   20474080.850  
  23095643.959   121368431.9121                   94572808.8411   23095646.496  
  21740060.904   114244792.8081   21740062.745    89021924.8821   21740062.119  
  20812468.486   109370259.8541   20812470.362    85223586.4361   20812469.522  
  23174711.330   121783931.1781                   94896577.8411   23174715.958  
  19732439.025   105407152.208    19732447.870    81983376.019                  
  20352671.918   108682130.028    20352678.565    84530577.944                  
  24611545.886   131193404.461    24611551.032   102039329.055                  
  20486572.388   109358705.487                                                  
  19735001.818   105568952.860                                                  
  22715653.253   121470813.097                                                  
  25845156.062   135817216.125                                                  
  25795072.157   135554015.046                                                  
  23710886.606   124601547.560                                                  
  26213563.424   137753199.972                                                  
  25788667.202   135520362.472                                                  
  23752301.891   124819192.991                                                  
  23873639.687   125456825.638                                                  
                 130841883.496    25126807.883   130841883.496                  
                 113811085.771    21856223.652   113811085.771                  
                 116180520.527    22311247.976   116180520.527                  
 21  8 31  9 18 45.0000000  0 24G 1G17G19G30G21G 7G14G13R12R13R14R22
                                R23R24E 1E 9E12E24E26E31E33C23C27C28
  21022094.926   110471854.6731   21022100.484    86081990.2781   21022099.572  
  20765867.539   109125369.3201   20765870.684    85032766.5691   20765870.148  
  22389279.962   117656469.4841                   91680364.3301   22389280.194  
  20474270.298   107593015.4991   20474274.068    83838729.2221   20474275.158  
  23096092.471   121370789.7621                   94574646.1241   23096095.152  
  21740613.897   114247699.3791   21740616.059    89024189.7311   21740615.201  
  20812288.080   109369311.6281   20812289.760    85222847.5541   20812289.081  
  23174832.875   121784572.5481                   94897077.6291   23174837.986  
  19732584.603   105407930.321    19732593.645    81983981.209                  
  20352207.449   108679650.159    20352214.239    84528649.130                  
  24610864.862   131189778.502    24610870.705   102036508.844                  
  20487113.640   109361596.957                                                  
  19734596.691   105566786.761                                                  
  22714884.099   121466697.014                                                  
  25845433.193   135818672.201                                                  
  25795492.990   135556223.697                                                  
  23710371.031   124598838.448                                                  
  26213191.284   137751246.319                                                  
  25789071.310   135522485.586                                                  
  23752205.720   124818687.770                                                  
  23873587.920   125456553.357                                                  
                 130844604.743    25127330.731   130844604.743                  
                 113809620.548    21855942.269   113809620.548                  
                 116182124.340    22311556.092   116182124.340                  
 21  8 31  9 18 46.0000000  0 24G 1G17G19G30G21G 7G14G13R12R13R14R22
                                R23R24E 1E 9E12E24E26E31E33C23C27C28
  21022166.295   110472230.5291   21022171.942    86082283.1531   21022171.084  
  20765716.189   109124573.3831   20765719.030    85032146.3561   20765718.673  
  22388778.129   117653830.5381                   91678308.0101   22388778.057  
  20474464.820   107594037.6851   20474468.823    83839525.7301   20474469.609  
  23096541.252   121373148.2981                   94576483.9451   23096544.004  
  21741167.176   114250606.6171   21741169.338    89026455.1081   21741168.373  
  20812107.782   109368363.8691   20812109.569    85222109.0441   20812108.747  
  23174955.582   121785214.6581                   94897577.9741   23174960.156  
  19732730.307   105408709.263    19732739.832    81984587.060                  
  20351743.605   108677170.812    20351749.966    84526720.781                  
  24610185.321   131186152.681    24610190.646   102033688.761                  
  20487655.679   109364489.232                                                  
  19734191.529   105564621.692                                                  
  22714115.177   121462581.534                                                  
  25845710.270   135820128.691                                                  
  25795913.627   135558432.665                                                  
  23709855.474   124596129.770                                                  
  26212819.429   137749292.868                                                  
  25789475.597   135524609.279                                                  
  23752109.692   124818182.948                                                  
  23873536.296   125456281.815                                                  
                 130847326.426    25127853.793   130847326.426                  
                 113808156.046    21855661.100   113808156.046                  
                 116183728.764    22311864.261   116183728.764                  
 21  8 31  9 18 47.0000000  0 24G 1G17G19G30G21G 7G14G13R12R13R14R22
                                R23R24E 1E 9E12E24E26E31E33C23C27C28
  21022238.075   110472607.2061   21022243.525    86082576.6731   21022242.721  
  20765564.928   109123778.0041   20765567.322    85031526.5781   20765567.251  
  22388276.259   117651191.9961                   91676251.9971   22388276.027  
  20474659.432   107595060.5921   20474663.667    83840322.7971   20474664.185  
  23096989.907   121375507.3511                   94578322.1661   23096992.981  
  21741720.508   114253514.4031   21741722.491    89028720.9181   21741721.687  
  20811927.555   109367416.4441   20811929.235    85221370.7891   20811928.466  
  23175078.109   121785857.5461                   94898078.8391   23175082.487  
  19732876.440   105409488.909    19732885.929    81985193.449                  
  20351279.653   108674691.919    20351286.354    84524792.728                  
  24609505.047   131182526.796    24609510.050   102030868.656                  
  20488197.361   109367382.214                                                  
  19733786.563   105562457.484                                                  
  22713345.665   121458466.485                                                  
  25845987.686   135821585.480                                                  
  25796333.942   135560641.876                                                  
  23709340.185   124593421.444                                                  
  26212447.521   137747339.538                                                  
  25789879.794   135526733.412                                                  
  23752013.574   124817678.390                                                  
  23873484.816   125456010.862                                                  
                 130850048.446    25128376.998   130850048.446                  
                 113806692.096    21855380.038   113806692.096                  
                 116185333.686    22312172.358   116185333.686                  
 21  8 31  9 18 48.0000000  0 24G 1G17G19G30G21G 7G14G13R12R13R14R22
                                R23R24E 1E 9E12E24E26E31E33C23C27C28
  21022309.837   110472984.2181   21022315.376    86082870.4481   21022314.465  
  20765413.577   109122982.5691   20765415.954    85030906.7511   20765415.846  
  22387774.354   117648553.3551                   91674195.9061   22387773.979  
  20474854.115   107596083.6561   20474858.457    83841119.9891   20474858.796  
  23097439.099   121377866.3751                   94580160.3681   23097441.886  
  21742273.983   114256422.1211   21742276.091    89030986.6701   21742275.019  
  20811747.274   109366468.7901   20811748.954    85220632.3621   20811748.096  
  23175199.637   121786500.5131                   94898579.8631   23175204.819  
  19733022.520   105410268.618    19733031.990    81985799.887                  
  20350814.809   108672212.885    20350822.028    84522864.607                  
  24608822.558   131178900.287    24608829.812   102028048.051                  
  20488738.953   109370275.312                                                  
  19733381.830   105560293.589                                                  
  22712576.154   121454351.241                                                  
  25846264.799   135823041.985                                                  
  25796754.454   135562850.700                                                  
  23708824.896   124590712.987                                                  
  26212076.060   137745385.764                                                  
  25790283.848   135528857.371                                                  
  23751917.582   124817173.539                                                  
  23873433.246   125455739.957                                                  
                 130852770.275    25128899.810   130852770.275                  
                 113805228.123    21855099.047   113805228.123                  
                 116186938.543    22312480.402   116186938.543                  
 21  8 31  9 18 49.0000000  0 24G 1G17G19G30G21G 7G14G13R12R13R14R22
                                R23R24E 1E 9E12E24E26E31E33C23C27C28
  21022381.814   110473362.3371   21022387.549    86083165.0841   21022386.424  
  20765262.423   109122187.9401   20765264.514    85030287.5581   20765264.621  
  22387272.592   117645915.3741                   91672140.3431   22387272.092  
  20475048.887   107597107.7401   20475052.800    83841917.9761   20475053.640  
  23097888.576   121380226.2611                   94581999.2451   23097890.935  
  21742827.583   114259330.6411   21742829.334    89033253.0521   21742828.548  
  20811567.083   109365521.7291   20811568.638    85219894.3971   20811567.887  
  23175321.789   121787144.4131                   94899081.6061   23175327.329  
  19733168.778   105411049.272    19733177.730    81986407.058                  
  20350350.768   108669734.561    20350357.647    84520936.996                  
  24608142.445   131175274.015    24608149.003   102025227.648                  
  20489280.742   109373169.355                                                  
  19732977.150   105558130.827                                                  
  22711806.213   121450236.681                                                  
  25846541.983   135824499.018                                                  
  25797174.572   135565060.008                                                  
  23708309.840   124588005.130                                                  
  26211704.134   137743432.425                                                  
  25790688.135   135530982.038                                                  
  23751821.643   124816669.221                                                  
  23873381.926   125455469.917                                                  
                 130855492.650    25129422.997   130855492.650                  
                 113803764.961    21854818.057   113803764.961                  
                 116188544.127    22312788.661   116188544.127                  
 21  8 31  9 18 50.0000000  0 24G 1G17G19G30G21G 7G14G13R12R13R14R22
                                R23R24E 1E 9E12E24E26E31E33C23C27C28
  21022453.951   110473741.2681   21022459.901    86083460.3551   21022458.543  
  20765111.430   109121393.8141   20765113.199    85029668.7581   20765113.520  
  22386770.848   117643277.8481                   91670085.1531   22386770.222  
  20475243.802   107598132.5141   20475247.858    83842716.5021   20475248.573  
  23098337.607   121382586.5971                   94583838.4701   23098340.091  
  21743381.183   114262239.6981   21743382.934    89035519.8511   21743382.148  
  20811386.946   109364574.9151   20811388.607    85219156.6101   20811387.732  
  23175445.014   121787789.0591                   94899583.9341   23175450.017  
  19733315.161   105411830.586    19733323.845    81987014.737                  
  20349886.120   108667256.601    20349893.285    84519009.696                  
  24607463.708   131171647.675    24607468.515   102022407.131                  
  20489822.924   109376064.032                                                  
  19732572.721   105555968.918                                                  
  22711036.934   121446122.506                                                  
  25846819.257   135825956.309                                                  
  25797595.048   135567269.527                                                  
  23707794.640   124585297.562                                                  
  26211332.280   137741479.072                                                  
  25791092.422   135533107.104                                                  
  23751725.758   124816165.112                                                  
  23873330.624   125455200.441                                                  
                 130858215.339    25129946.256   130858215.339                  
                 113802302.355    21854537.156   113802302.355                  
                 116190150.177    22313097.205   116190150.177                  
 21  8 31  9 18 51.0000000  0 24G 1G17G19G30G21G 7G14G13R12R13R14R22
                                R23R24E 1E 9E12E24E26E31E33C23C27C28
  21022526.159   110474120.8651   21022531.878    86083756.1451   21022530.770  
  20764960.418   109120600.0191   20764962.259    85029050.2151   20764962.456  
  22386268.978   117640640.5561                   91668030.1271   22386268.335  
  20475439.021   107599157.7871   20475443.095    83843515.4091   20475443.596  
  23098786.941   121384947.2901                   94585677.9741   23098789.300  
  21743934.855   114265149.0561   21743936.892    89037786.8861   21743935.731  
  20811206.969   109363628.2681   20811208.684    85218418.9681   20811207.594  
  23175567.917   121788434.0121                   94900086.4911   23175572.742  
  19733461.579   105412612.347    19733469.978    81987622.773                  
  20349422.061   108664778.906    20349429.638    84517082.602                  
  24606784.185   131168021.082    24606789.099   102019586.439                  
  20490364.963   109378959.208                                                  
  19732168.630   105553807.685                                                  
  22710268.387   121442008.498                                                  
  25847096.566   135827413.662                                                  
  25798015.542   135569479.017                                                  
  23707279.404   124582590.181                                                  
  26210960.658   137739525.674                                                  
  25791496.780   135535232.373                                                  
  23751629.783   124815661.068                                                  
  23873279.411   125454931.364                                                  
                 130860938.199    25130469.228   130860938.199                  
                 113800840.104    21854256.309   113800840.104                  
                 116191756.517    22313405.732   116191756.517                  
 21  8 31  9 18 52.0000000  0 24G 1G17G19G30G21G 7G14G13R12R13R14R22
                                R23R24E 1E 9E12E24E26E31E33C23C27C28
  21022598.529   110474501.0671   21022604.122    86084052.4041   21022603.103  
  20764809.568   109119806.4891   20764811.284    85028431.8791   20764811.462  
  22385767.109   117638003.4081                   91665975.1961   22385766.519  
  20475634.258   107600183.5671   20475638.743    83844314.7231   20475638.761  
  23099236.687   121387308.2971                   94587517.7261   23099238.599  
  21744488.509   114268058.6851   21744490.617    89040054.1251   21744489.402  
  20811026.921   109362681.6821   20811028.707    85217681.3641   20811027.457  
  23175690.231   121789079.4971                   94900589.5371   23175695.609  
  19733608.123   105413394.537    19733616.039    81988231.148                  
  20348957.377   108662301.346    20348965.811    84515155.622                  
  24606103.250   131164394.108    24606109.558   102016765.522                  
  20490907.555   109381854.804                                                  
  19731764.523   105551647.080                                                  
  22709498.876   121437894.577                                                  
  25847373.894   135828871.047                                                  
  25798435.875   135571688.501                                                  
  23706764.401   124579882.909                                                  
  26210588.928   137737572.132                                                  
  25791901.138   135537357.826                                                  
  23751533.880   124815157.035                                                  
  23873228.342   125454662.618                                                  
                 130863661.086    25130991.879   130863661.086                  
                 113799378.134    21853975.497   113799378.134                  
                 116193363.087    22313714.205   116193363.087                  
 21  8 31  9 18 53.0000000  0 24G 1G17G19G30G21G 7G14G13R12R13R14R22
                                R23R24E 1E 9E12E24E26E31E33C23C27C28
  21022671.310   110474882.1581   21022676.492    86084349.3551   21022675.580  
  20764658.736   109119013.5601   20764660.773    85027814.0171   20764660.594  
  22385265.204   117635366.8241                   91663920.7071   22385264.757  
  20475829.674   107601210.1281   20475833.498    83845114.6431   20475834.088  
  23099686.182   121389669.8531                   94589357.9051   23099687.987  
  21745042.270   114270968.8891   21745044.825    89042321.8191   21745043.199  
  20810846.872   109361735.4981   20810848.784    85216944.0741   20810847.426  
  23175812.902   121789725.7621                   94901093.0861   23175818.584  
  19733754.739   105414177.512    19733762.726    81988840.119                  
  20348493.533   108659824.325    20348502.628    84513229.023                  
  24605422.011   131160767.310    24605429.766   102013944.644                  
  20491449.773   109384751.160                                                  
  19731360.647   105549487.379                                                  
  22708729.150   121433781.116                                                  
  25847651.364   135830328.772                                                  
  25798856.441   135573898.238                                                  
  23706249.255   124577176.053                                                  
  26210217.324   137735618.776                                                  
  25792305.585   135539483.734                                                  
  23751437.959   124814653.352                                                  
  23873177.361   125454394.545                                                  
                 130866384.359    25131514.477   130866384.359                  
                 113797916.781    21853694.667   113797916.781                  
                 116194970.212    22314022.892   116194970.212                  
 21  8 31  9 18 54.0000000  0 24G 1G17G19G30G21G 7G14G13R12R13R14R22
                                R23R24E 1E 9E12E24E26E31E33C23C27C28
  21022743.840   110475263.3281   21022749.254    86084646.3731   21022748.093  
  20764507.850   109118220.3641   20764509.422    85027195.9421   20764509.672  
  22384763.066   117632729.8201                   91661865.8991   22384762.905  
  20476025.107   107602236.6101   20476029.110    83845914.4961   20476029.414  
  23100135.802   121392031.1421                   94591197.8651   23100137.339  
  21745596.084   114273878.8411   21745598.872    89044589.3161   21745596.942  
  20810666.699   109360788.8041   20810668.557    85216206.3881   20810667.271  
  23175936.001   121790371.9071                   94901596.5111   23175941.523  
  19733901.425   105414960.350    19733909.145    81989448.998                  
  20348029.778   108657346.869    20348038.749    84511302.152                  
  24604742.381   131157139.670    24604748.831   102011123.023                  
  20491992.420   109387647.387                                                  
  19730957.004   105547327.723                                                  
  22707959.298   121429667.347                                                  
  25847928.852   135831785.996                                                  
  25799276.541   135576107.420                                                  
  23705734.056   124574468.725                                                  
  26209845.434   137733664.697                                                  
  25792710.015   135541609.293                                                  
  23751341.949   124814149.096                                                  
  23873126.202   125454126.266                                                  
                 130869107.206    25132036.824   130869107.206                  
                 113796455.207    21853413.766   113796455.207                  
                 116196577.024    22314331.419   116196577.024                  
 21  8 31  9 18 55.0000000  0 24G 1G17G19G30G21G 7G14G13R12R13R14R22
                                R23R24E 1E 9E12E24E26E31E33C23C27C28
  21022816.638   110475646.2621   21022822.321    86084944.7661   21022820.963  
  20764357.071   109117428.6111   20764358.768    85026578.9921   20764359.019  
  22384261.447   117630094.1511                   91659812.1221   22384261.340  
  20476220.702   107603264.7351   20476225.008    83846715.6301   20476225.062  
  23100585.548   121394393.9131                   94593038.9861   23100586.959  
  21746150.060   114276790.2451   21746152.919    89046857.9401   21746150.918  
  20810486.776   109359843.3811   20810488.813    85215469.6961   20810487.365  
  23176059.244   121791019.6221                   94902101.1721   23176064.765  
  19734048.434   105415744.790    19734056.153    81990059.115                  
  20347566.506   108654870.808    20347575.119    84509376.306                  
  24604062.000   131153512.800    24604069.183   102008302.152                  
  20492535.298   109390545.240                                                  
  19730553.914   105545169.865                                                  
  22707189.233   121425554.850                                                  
  25848206.554   135833244.378                                                  
  25799697.107   135578317.705                                                  
  23705219.070   124571762.715                                                  
  26209473.830   137731711.663                                                  
  25793114.927   135543736.190                                                  
  23751246.296   124813646.038                                                  
  23873075.276   125453859.507                                                  
                 130871831.287    25132559.761   130871831.287                  
                 113794995.082    21853133.187   113794995.082                  
                 116198185.242    22314640.160   116198185.242                  
 21  8 31  9 18 56.0000000  0 24G 1G17G19G30G21G 7G14G13R12R13R14R22
                                R23R24E 1E 9E12E24E26E31E33C23C27C28
  21022889.687   110476029.7531   21022895.226    86085243.5881   21022893.922  
  20764206.524   109116637.0971   20764208.401    85025962.2281   20764208.401  
  22383760.185   117627458.6791                   91657758.5231   22383759.846  
  20476416.510   107604293.3241   20476421.085    83847517.1241   20476420.781  
  23101035.204   121396756.9391                   94594880.3121   23101036.616  
  21746704.160   114279701.8751   21746706.751    89049126.7411   21746704.965  
  20810306.835   109358898.0071   20810308.747    85214733.0391   20810307.424  
  23176183.094   121791667.7161                   94902606.2091   23176188.097  
  19734195.371   105416529.584    19734203.144    81990669.509                  
  20347103.162   108652394.861    20347110.828    84507450.546                  
  24603382.244   131149885.615    24603388.463   102005481.022                  
  20493078.392   109393443.479                                                  
  19730151.003   105543012.587                                                  
  22706419.596   121421442.530                                                  
  25848483.953   135834702.779                                                  
  25800117.654   135580527.905                                                  
  23704704.264   124569056.763                                                  
  26209102.226   137729758.439                                                  
  25793519.660   135545863.210                                                  
  23751150.590   124813142.947                                                  
  23873024.528   125453593.050                                                  
                 130874555.407    25133082.680   130874555.407                  
                 113793535.252    21852852.876   113793535.252                  
                 116199793.633    22314948.883   116199793.633                  
 21  8 31  9 18 57.0000000  0 24G 1G17G19G30G21G 7G14G13R12R13R14R22
                                R23R24E 1E 9E12E24E26E31E33C23C27C28
  21022962.789   110476413.5411   21022968.239    86085542.6501   21022966.970  
  20764056.014   109115845.5471   20764057.568    85025345.4421   20764057.765  
  22383258.620   117624823.1481                   91655704.8841   22383258.387  
  20476612.176   107605322.0151   20476617.144    83848318.7041   20476616.483  
  23101484.521   121399119.9011                   94596721.5691   23101486.236  
  21747258.279   114282613.4611   21747260.620    89051395.5071   21747259.065  
  20810126.751   109357952.3551   20810128.609    85213996.1631   20810127.501  
  23176306.944   121792315.9651                   94903111.3501   23176311.465  
  19734342.433   105417314.465    19734350.134    81991279.988                  
  20346639.872   108649918.728    20346647.788    84505524.697                  
  24602702.971   131146257.822    24602707.778   102002659.438                  
  20493621.628   109396341.829                                                  
  19729748.093   105540855.617                                                  
  22705650.353   121417329.938                                                  
  25848761.441   135836160.836                                                  
  25800537.987   135582737.762                                                  
  23704189.386   124566350.597                                                  
  26208730.514   137727804.774                                                  
  25793924.430   135547990.095                                                  
  23751054.919   124812639.540                                                  
  23872973.869   125453326.640                                                  
                 130877279.239    25133605.778   130877279.239                  
                 113792075.379    21852572.421   113792075.379                  
                 116201401.962    22315257.820   116201401.962                  
 21  8 31  9 18 58.0000000  0 23G 1G17G19G30G21G 7G14G13R12R13R22R23
                                R24E 1E 9E12E24E26E31E33C23C27C28
  21023036.106   110476798.0361   21023041.341    86085842.2521   21023040.126  
  20763905.414   109115054.3901   20763907.111    85024728.9541   20763907.200  
  22382756.965   117622187.8671                   91653651.3921   22382756.947  
  20476807.931   107606351.3351   20476813.131    83849120.7801   20476812.327  
  23101934.212   121401483.2851                   94598563.1691   23101935.981  
  21747812.379   114285525.4641   21747814.506    89053664.6051   21747813.291  
  20809946.738   109357006.9251   20809948.507    85213259.4691   20809947.632  
  23176430.580   121792964.7711                   94903616.9431   23176434.958  
  19734489.441   105418099.892    19734497.393    81991890.880                  
  20346176.689   108647442.927    20346184.248    84503599.072                  
  20494164.882   109399240.722                                                  
  19729345.468   105538699.390                                                  
  22704881.163   121413217.733                                                  
  25849039.090   135837619.101                                                  
  25800959.071   135584947.698                                                  
  23703674.526   124563644.660                                                  
  26208358.642   137725851.080                                                  
  25794329.234   135550117.262                                                  
  23750959.230   124812136.270                                                  
  23872923.246   125453060.679                                                  
                 130880003.338    25134128.715   130880003.338                  
                 113790615.983    21852292.181   113790615.983                  
                 116203010.646    22315566.651   116203010.646                  
 21  8 31  9 18 59.0000000  0 23G 1G17G19G30G21G 7G14G13R12R13R22R23
                                R24E 1E 9E12E24E26E31E33C23C27C28
  21023109.422   110477183.4821   21023115.087    86086142.5991   21023113.461  
  20763754.956   109114263.8591   20763756.833    85024112.9561   20763756.797  
  22382255.685   117619553.0731                   91651598.2741   22382255.488  
  20477003.919   107607381.4581   20477009.297    83849923.4801   20477008.350  
  23102383.868   121403847.2921                   94600405.2541   23102385.780  
  21748366.659   114288438.0801   21748368.946    89055934.1731   21748367.623  
  20809766.708   109356061.8921   20809768.977    85212523.0891   20809767.833  
  23176554.752   121793614.3561                   94904123.1811   23176558.576  
  19734636.521   105418886.092    19734644.634    81992502.360                  
  20345713.542   108644967.618    20345721.369    84501673.845                  
  20494708.618   109402140.378                                                  
  19728942.879   105536544.134                                                  
  22704113.152   121409105.921                                                  
  25849316.775   135839077.698                                                  
  25801379.654   135587157.971                                                  
  23703159.576   124560939.178                                                  
  26207987.038   137723897.573                                                  
  25794734.146   135552244.922                                                  
  23750863.595   124811633.344                                                  
  23872872.784   125452795.385                                                  
                 130882727.810    25134651.616   130882727.810                  
                 113789157.198    21852011.995   113789157.198                  
                 116204619.891    22315875.749   116204619.891                  
 21  8 31  9 19  0.0000000  0 23G 1G17G19G30G21G 7G14G13R12R13R22R23
                                R24E 1E 9E12E24E26E31E33C23C27C28
  21023182.810   110477569.5351   21023188.671    86086443.4201   21023186.938  
  20763604.696   109113473.6211   20763606.429    85023497.1861   20763606.411  
  22381754.655   117616918.4781                   91649545.3361   22381754.119  
  20477200.121   107608412.1071   20477205.410    83850726.5811   20477204.463  
  23102833.614   121406211.6211                   94602247.5821   23102835.615  
  21748920.920   114291350.9841   21748923.279    89058203.9641   21748921.974  
  20809586.927   109355116.9561   20809589.411    85211786.7771   20809588.035  
  23176678.388   121794264.3771                   94904629.6411   23176682.265  
  19734783.762   105419672.760    19734791.821    81993114.208                  
  20345249.823   108642492.469    20345258.114    84499748.735                  
  20495251.747   109405040.513                                                  
  19728540.290   105534389.553                                                  
  22703343.962   121404994.338                                                  
  25849594.209   135840536.333                                                  
  25801799.790   135589368.133                                                  
  23702644.609   124558233.819                                                  
  26207615.380   137721943.991                                                  
  25795139.166   135554372.791                                                  
  23750767.817   124811130.476                                                  
  23872822.375   125452530.486                                                  
                 130885452.403    25135174.857   130885452.403                  
                 113787698.753    21851731.827   113787698.753                  
                 116206229.406    22316184.919   116206229.406                  
 21  8 31  9 19  1.0000000  0 23G 1G17G19G30G21G 7G14G13R12R13R22R23
                                R24E 1E 9E12E24E26E31E33C23C27C28
  21023256.359   110477956.6061   21023262.238    86086745.0341   21023260.630  
  20763454.435   109112684.0401   20763456.544    85022881.9301   20763456.168  
  22381253.644   117614284.4851                   91647492.8761   22381252.929  
  20477396.555   107609443.6041   20477401.469    83851530.3491   20477400.701  
  23103283.413   121408576.5921                   94604090.4191   23103285.593  
  21749475.342   114294264.5481   21749477.218    89060474.2731   21749476.396  
  20809407.004   109354172.4951   20809409.488    85211050.8311   20809408.344  
  23176802.059   121794915.1731                   94905136.7391   23176806.115  
  19734931.110   105420460.263    19734939.312    81993726.701                  
  20344786.426   108640017.941    20344794.056    84497824.078                  
  20495795.162   109407941.457                                                  
  19728138.004   105532235.958                                                  
  22702576.273   121400883.283                                                  
  25849871.822   135841995.426                                                  
  25802219.802   135591578.712                                                  
  23702129.784   124555528.944                                                  
  26207243.669   137719990.593                                                  
  25795544.042   135556501.219                                                  
  23750672.218   124810627.981                                                  
  23872772.074   125452266.301                                                  
                 130888177.433    25135698.205   130888177.433                  
                 113786240.991    21851451.998   113786240.991                  
                 116207839.535    22316494.196   116207839.535                  
 21  8 31  9 19  2.0000000  0 23G 1G17G19G30G21G 7G14G13R12R13R22R23
                                R24E 1E 9E12E24E26E31E33C23C27C28
  21023330.444   110478344.3171   21023336.037    86087047.1511   21023334.429  
  20763304.192   109111894.7851   20763306.212    85022266.9191   20763305.961  
  22380752.168   117611650.6791                   91645440.5831   22380751.703  
  20477592.953   107610475.6291   20477597.975    83852334.5221   20477597.045  
  23103733.212   121410941.9051                   94605933.5181   23103735.660  
  21750029.925   114297178.4491   21750032.087    89062744.8531   21750030.872  
  20809227.278   109353228.1421   20809229.851    85210314.9651   20809228.689  
  23176925.355   121795566.5741                   94905644.3791   23176930.109  
  19735078.583   105421248.225    19735086.445    81994339.579                  
  20344322.921   108637543.574    20344330.497    84495899.615                  
  20496338.077   109410842.877                                                  
  19727735.451   105530083.026                                                  
  22701808.566   121396772.399                                                  
  25850149.400   135843454.551                                                  
  25802640.224   135593789.264                                                  
  23701615.121   124552824.234                                                  
  26206871.957   137718037.151                                                  
  25795948.990   135558629.865                                                  
  23750576.637   124810125.539                                                  
  23872721.862   125452002.511                                                  
                 130890902.611    25136221.731   130890902.611                  
                 113784783.587    21851172.187   113784783.587                  
                 116209449.944    22316803.277   116209449.944                  
 21  8 31  9 19  3.0000000  0 23G 1G17G19G30G21G 7G14G13R12R13R22R23
                                R24E 1E 9E12E24E26E31E33C23C27C28
  21023404.368   110478733.1781   21023410.033    86087350.1601   21023408.389  
  20763154.146   109111106.3661   20763156.237    85021652.5691   20763155.915  
  22380251.013   117609017.6401                   91643388.8801   22380250.602  
  20477789.530   107611508.6841   20477794.391    83853139.4981   20477793.587  
  23104183.315   121413308.0591                   94607777.2761   23104185.870  
  21750584.508   114300093.1781   21750586.581    89065016.0701   21750585.544  
  20809047.855   109352284.4381   20809050.553    85209579.6131   20809049.123  
  23177049.438   121796218.8871                   94906152.6771   23177054.227  
  19735226.110   105422037.196    19735234.258    81994953.188                  
  20343859.309   108635069.986    20343867.243    84493975.689                  
  20496881.491   109413745.290                                                  
  19727333.166   105527931.286                                                  
  22701040.359   121392662.237                                                  
  25850427.066   135844914.313                                                  
  25803060.754   135596000.409                                                  
  23701100.332   124550120.172                                                  
  26206500.228   137716084.106                                                  
  25796354.295   135560759.230                                                  
  23750481.163   124809623.693                                                  
  23872671.900   125451739.632                                                  
                 130893628.426    25136745.633   130893628.426                  
                 113783327.049    21850892.519   113783327.049                  
                 116211061.143    22317112.571   116211061.143                  
 21  8 31  9 19  4.0000000  0 23G 1G17G19G30G21G 7G14G13R12R13R22R23
                                R24E 1E 9E12E24E26E31E33C23C27C28
  21023478.328   110479122.4151   21023483.885    86087653.4571   21023482.474  
  20763004.171   109110318.0091   20763006.298    85021038.2651   20763005.905  
  22379749.948   117606384.5771                   91641337.1521   22379749.555  
  20477986.233   107612541.9761   20477990.628    83853944.6611   20477990.164  
  23104633.650   121415674.2871                   94609621.0831   23104636.098  
  21751139.145   114303007.9451   21751141.146    89067287.3171   21751140.217  
  20808868.325   109351340.5351   20808870.773    85208844.1001   20808869.540  
  23177174.057   121796871.4791                   94906661.1701   23177178.345  
  19735373.833   105422826.301    19735381.785    81995566.960                  
  20343395.680   108632596.319    20343403.881    84492051.708                  
  20497425.192   109416647.947                                                  
  19726930.934   105525779.910                                                  
  22700271.902   121388551.968                                                  
  25850704.840   135846373.805                                                  
  25803481.659   135598211.214                                                  
  23700585.579   124547416.001                                                  
  26206128.677   137714130.687                                                  
  25796759.386   135562888.501                                                  
  23750385.492   124809121.594                                                  
  23872621.903   125451476.864                                                  
                 130896354.075    25137269.267   130896354.075                  
                 113781870.555    21850612.797   113781870.555                  
                 116212672.342    22317421.884   116212672.342                  
 21  8 31  9 19  5.0000000  0 23G 1G17G19G30G21G 7G14G13R12R13R22R23
                                R24E 1E 9E12E24E26E31E33C23C27C28
  21023552.645   110479512.6091   21023558.524    86087957.5041   21023556.738  
  20762854.232   109109530.2821   20762856.341    85020424.4551   20762856.002  
  22379248.775   117603752.0721                   91639285.8421   22379248.650  
  20478182.988   107613576.1051   20478187.170    83854750.4731   20478186.938  
  23105083.985   121418041.1421                   94611465.3961   23105086.505  
  21751693.906   114305923.3671   21751695.854    89069559.0761   21751695.014  
  20808688.795   109350397.1071   20808691.243    85208108.9591   20808690.045  
  23177298.014   121797524.7751                   94907170.2431   23177302.624  
  19735521.735   105423616.208    19735529.454    81996181.327                  
  20342932.032   108630123.166    20342940.323    84490128.151                  
  20497969.125   109419551.335                                                  
  19726528.899   105523629.505                                                  
  22699503.319   121384442.207                                                  
  25850982.650   135847833.714                                                  
  25803902.367   135600422.341                                                  
  23700071.255   124544712.283                                                  
  26205757.127   137712177.474                                                  
  25797164.887   135565018.347                                                  
  23750290.000   124808619.874                                                  
  23872572.013   125451214.817                                                  
                 130899080.137    25137793.383   130899080.137                  
                 113780414.759    21850333.147   113780414.759                  
                 116214284.143    22317731.483   116214284.143                  
 21  8 31  9 19  6.0000000  0 23G 1G17G19G30G21G 7G14G13R12R13R22R23
                                R24E 1E 9E12E24E26E31E33C23C27C28
  21023626.927   110479903.2691   21023632.788    86088261.9171   21023631.091  
  20762704.151   109108742.6761   20762706.527    85019810.7331   20762706.134  
  22378747.406   117601119.6011                   91637234.5711   22378747.710  
  20478379.816   107614610.5421   20478384.194    83855556.5331   20478383.783  
  23105534.499   121420408.1391                   94613309.8091   23105536.911  
  21752248.650   114308838.9061   21752250.705    89071830.9231   21752249.830  
  20808509.318   109349453.5731   20808511.588    85207373.7401   20808510.533  
  23177422.454   121798178.3771                   94907679.5641   23177426.975  
  19735669.637   105424406.393    19735677.588    81996795.927                  
  20342468.778   108627650.066    20342477.230    84488204.618                  
  20498512.987   109422455.018                                                  
  19726126.935   105521479.578                                                  
  22698735.023   121380332.496                                                  
  25851260.460   135849293.484                                                  
  25804323.164   135602633.258                                                  
  23699556.895   124542008.514                                                  
  26205385.469   137710223.983                                                  
  25797570.371   135567148.185                                                  
  23750194.401   124808118.016                                                  
  23872522.158   125450952.962                                                  
                 130901806.211    25138316.928   130901806.211                  
                 113778959.096    21850053.550   113778959.096                  
                 116215896.029    22318041.028   116215896.029                  
 21  8 31  9 19  7.0000000  0 23G 1G17G19G30G21G 7G14G13R12R13R22R23
                                R24E 1E 9E12E24E26E31E33C23C27C28
  21023701.584   110480294.8831   21023707.016    86088567.0681   21023705.622  
  20762554.337   109107955.7101   20762556.999    85019197.5111   20762556.356  
  22378246.484   117598487.6501                   91635183.6941   22378246.859  
  20478576.840   107615645.8391   20478580.592    83856363.2601   20478580.789  
  23105985.031   121422775.7661                   94615154.7151   23105987.443  
  21752803.608   114311755.0751   21752805.753    89074103.2561   21752804.770  
  20808329.860   109348510.4881   20808332.254    85206638.8661   20808331.146  
  23177547.555   121798832.7851                   94908189.4761   23177551.504  
  19735817.842   105425197.398    19735825.758    81997411.137                  
  20342006.184   108625177.473    20342013.761    84486281.497                  
  20499057.045   109425359.482                                                  
  19725725.061   105519330.646                                                  
  22697966.869   121376223.233                                                  
  25851538.377   135850753.631                                                  
  25804744.016   135604844.567                                                  
  23699042.553   124539305.245                                                  
  26205013.740   137708270.732                                                  
  25797975.802   135569278.571                                                  
  23750098.944   124807616.545                                                  
  23872472.464   125450691.772                                                  
                 130904532.602    25138840.312   130904532.602                  
                 113777504.097    21849774.097   113777504.097                  
                 116217508.487    22318350.698   116217508.487                  
 21  8 31  9 19  8.0000000  0 23G 1G17G19G30G21G 7G14G13R12R13R22R23
                                R24E 1E 9E12E24E26E31E33C23C27C28
  21023776.366   110480687.2691   21023781.530    86088872.8251   21023780.315  
  20762404.559   109107169.2081   20762407.561    85018584.6451   20762406.685  
  22377745.990   117595856.0641                   91633133.1041   22377746.133  
  20478773.863   107616681.7551   20478777.777    83857170.4671   20478777.920  
  23106435.955   121425143.8841                   94616999.9991   23106437.992  
  21753358.710   114314671.6971   21753361.068    89076375.9391   21753359.782  
  20808150.383   109347567.6471   20808152.724    85205904.1871   20808151.795  
  23177671.602   121799487.8181                   94908699.9221   23177676.194  
  19735966.155   105425988.985    19735974.196    81998026.820                  
  20341543.305   108622705.229    20341550.095    84484358.643                  
  20499601.461   109428264.580                                                  
  19725323.490   105517182.512                                                  
  22697198.126   121372114.308                                                  
  25851816.258   135852214.018                                                  
  25805164.885   135607055.953                                                  
  23698528.265   124536602.239                                                  
  26204641.957   137706317.492                                                  
  25798381.375   135571409.291                                                  
  23750003.524   124807115.256                                                  
  23872422.896   125450431.155                                                  
                 130907259.356    25139364.106   130907259.356                  
                 113776049.597    21849494.768   113776049.597                  
                 116219121.358    22318660.476   116219121.358                  
 21  8 31  9 19  9.0000000  0 23G 1G17G19G30G21G 7G14G13R12R13R22R23
                                R24E 1E 9E12E24E26E31E33C23C27C28
  21023851.130   110481079.8161   21023856.062    86089178.7061   21023855.061  
  20762254.834   109106382.5461   20762257.657    85017971.6671   20762256.978  
  22377245.175   117593224.2391                   91631082.3321   22377245.282  
  20478970.995   107617717.7471   20478974.711    83857977.7391   20478975.051  
  23106886.255   121427511.8311                   94618845.1511   23106888.470  
  21753913.793   114317588.1571   21753916.062    89078648.5081   21753914.776  
  20807970.960   109346624.4681   20807973.462    85205169.2451   20807972.336  
  23177796.113   121800142.8311                   94909210.3261   23177800.830  
  19736114.415   105426780.554    19736122.759    81998642.494                  
  20341080.515   108620232.729    20341086.895    84482435.608                  
  20500145.054   109431169.622                                                  
  19724921.884   105515034.538                                                  
  22696429.651   121368005.060                                                  
  25852094.068   135853673.964                                                  
  25805585.772   135609266.872                                                  
  23698013.869   124533898.917                                                  
  26204270.138   137704363.663                                                  
  25798786.769   135573539.771                                                  
  23749908.049   124806613.524                                                  
  23872373.363   125450170.433                                                  
                 130909985.735    25139887.776   130909985.735                  
                 113774594.990    21849215.493   113774594.990                  
                 116220734.060    22318970.217   116220734.060                  
 21  8 31  9 19 10.0000000  0 23G 1G17G19G30G21G 7G14G13R12R13R22R23
                                R24E 1E 9E12E24E26E31E33C23C27C28
  21023925.947   110481473.0471   21023930.843    86089485.1221   21023929.896  
  20762105.163   109105596.2171   20762108.147    85017358.9421   20762107.307  
  22376744.539   117590592.6521                   91629031.7511   22376744.521  
  20479168.411   107618754.2861   20479171.807    83858785.4331   20479172.307  
  23107336.751   121429880.1281                   94620690.5771   23107339.074  
  21754468.698   114320504.9791   21754471.021    89080921.3571   21754469.823  
  20807791.412   109345681.4011   20807794.003    85204434.3871   20807792.895  
  23177921.053   121800798.3521                   94909721.0821   23177925.556  
  19736262.817   105427572.600    19736271.251    81999258.530                  
  20340617.600   108617760.452    20340623.783    84480512.730                  
  20500689.094   109434075.186                                                  
  19724520.403   105512887.255                                                  
  22695660.908   121363896.093                                                  
  25852371.681   135855134.026                                                  
  25806006.373   135611477.832                                                  
  23697499.706   124531195.785                                                  
  26203898.194   137702409.796                                                  
  25799192.200   135575670.471                                                  
  23749812.593   124806111.886                                                  
  23872323.901   125449910.126                                                  
                 130912712.250    25140411.052   130912712.250                  
                 113773140.718    21848936.254   113773140.718                  
                 116222347.059    22319279.959   116222347.059                  
 21  8 31  9 19 11.0000000  0 23G 1G17G19G30G21G 7G14G13R12R13R22R23
                                R24E 1E 9E12E24E26E31E33C23C27C28
  21024001.104   110481867.8561   21024005.875    86089792.7611   21024005.053  
  20761955.867   109104811.1641   20761958.315    85016747.2201   20761957.922  
  22376244.010   117587962.2771                   91626982.0951   22376244.027  
  20479366.043   107619792.2471   20479369.384    83859594.2321   20479369.813  
  23107787.693   121432249.7011                   94622536.9991   23107789.945  
  21755023.960   114323423.0381   21755026.193    89083195.1721   21755025.139  
  20807612.186   109344739.4081   20807614.813    85203700.3621   20807613.669  
  23178045.833   121801455.3101                   94910232.9541   23178050.568  
  19736411.308   105428366.033    19736419.885    81999875.642                  
  20340154.471   108615289.434    20340160.761    84478590.793                  
  20501233.974   109436982.189                                                  
  19724119.261   105510741.614                                                  
  22694892.432   121359788.233                                                  
  25852649.776   135856595.082                                                  
  25806427.707   135613689.722                                                  
  23696985.596   124528493.707                                                  
  26203526.376   137700456.745                                                  
  25799597.898   135577802.295                                                  
  23749717.315   124805611.234                                                  
  23872274.654   125449651.132                                                  
                 130915439.761    25140934.400   130915439.761                  
                 113771687.751    21848657.247   113771687.751                  
                 116223961.242    22319590.058   116223961.242                  
 21  8 31  9 19 12.0000000  0 23G 1G17G19G30G21G 7G14G13R12R13R22R23
                                R24E 1E 9E12E24E26E31E33C23C27C28
  21024076.136   110482263.2611   21024081.336    86090100.8711   21024080.318  
  20761806.536   109104026.3961   20761808.805    85016135.7161   20761808.573  
  22375743.266   117585332.0581                   91624932.5691   22375743.552  
  20479563.656   107620830.7391   20479567.230    83860403.4471   20479567.462  
  23108238.779   121434619.5551                   94624383.6371   23108240.870  
  21755579.293   114326341.3911   21755581.741    89085469.2111   21755580.508  
  20807432.835   109343797.4881   20807435.515    85202966.4031   20807434.479  
  23178171.630   121802112.7091                   94910745.1901   23178175.633  
  19736560.014   105429159.952    19736568.323    82000493.124                  
  20339691.431   108612818.502    20339698.597    84476668.994                  
  20501779.123   109439889.571                                                  
  19723718.137   105508596.559                                                  
  22694124.190   121355680.574                                                  
  25852927.979   135858056.199                                                  
  25806848.593   135615901.592                                                  
  23696471.397   124525791.769                                                  
  26203154.468   137698503.579                                                  
  25800003.560   135579934.325                                                  
  23749622.127   124805110.596                                                  
  23872225.479   125449392.490                                                  
                 130918167.428    25141458.231   130918167.428                  
                 113770235.078    21848378.186   113770235.078                  
                 116225575.686    22319900.193   116225575.686                  
 21  8 31  9 19 13.0000000  0 23G 1G17G19G30G21G 7G14G13R12R13R22R23
                                R24E 1E 9E12E24E26E31E33C23C27C28
  21024151.472   110482659.1801   21024156.583    86090409.3791   21024155.689  
  20761657.205   109103241.8001   20761659.438    85015524.3441   20761659.259  
  22375242.808   117582701.8851                   91622883.0831   22375243.148  
  20479761.288   107621869.5671   20479765.201    83861212.9201   20479765.147  
  23108689.775   121436989.5711                   94626230.4031   23108691.884  
  21756134.823   114329259.9171   21756136.860    89087743.3881   21756135.949  
  20807253.680   109342855.5331   20807256.539    85202232.4121   20807255.270  
  23178297.482   121802770.3481                   94911257.6431   23178300.752  
  19736708.828   105429954.176    19736717.065    82001110.858                  
  20339228.463   108610347.698    20339236.682    84474747.232                  
  20502324.038   109442797.335                                                  
  19723316.978   105506452.027                                                  
  22693356.393   121351572.855                                                  
  25853205.967   135859517.202                                                  
  25807269.498   135618113.289                                                  
  23695957.341   124523089.835                                                  
  26202782.685   137696550.140                                                  
  25800409.402   135582066.413                                                  
  23749526.957   124804609.862                                                  
  23872176.357   125449134.097                                                  
                 130920895.025    25141981.847   130920895.025                  
                 113768782.611    21848099.179   113768782.611                  
                 116227190.255    22320210.024   116227190.255                  
 21  8 31  9 19 14.0000000  0 24G 1G17G19G30G21G 7G22G14G13R12R13R22
                                R23R24E 1E 9E12E24E26E31E33C23C27C28
  21024226.933   110483055.5951   21024231.704    86090718.2721   21024231.132  
  20761507.855   109102457.3751   20761510.196    85014913.1061   20761510.000  
  22374742.404   117580071.8501                   91620833.7241   22374742.744  
  20479959.116   107622908.7811   20479963.422    83862022.6861   20479962.904  
  23109140.807   121439359.8071                   94628077.3451   23109142.844  
  21756690.157   114332178.6131   21756692.122    89090017.6941   21756691.408  
  25241292.927   132643888.651                                1                 
  20807074.418   109341913.5611   20807077.330    85201498.4081   20807076.044  
  23178422.958   121803428.4041                   94911770.3751   23178425.960  
  19736857.641   105430748.739    19736865.700    82001728.840                  
  20338765.440   108607876.951    20338774.196    84472825.542                  
  20502868.561   109445705.432                                                  
  19722915.925   105504308.039                                                  
  22692587.507   121347465.208                                                  
  25853484.009   135860978.159                                                  
  25807690.296   135620324.886                                                  
  23695443.160   124520387.891                                                  
  26202411.116   137694596.504                                                  
  25800815.064   135584198.577                                                  
  23749431.715   124804109.046                                                  
  23872127.270   125448875.965                                                  
                 130923622.654    25142505.320   130923622.654                  
                 113767330.382    21847820.244   113767330.382                  
                 116228804.950    22320519.837   116228804.950                  
 21  8 31  9 19 15.0000000  0 24G 1G17G19G30G21G 7G22G14G13R12R13R22
                                R23R24E 1E 9E12E24E26E31E33C23C27C28
  21024302.644   110483452.7341   21024307.201    86091027.7331   21024306.718  
  20761358.720   109101673.3171   20761361.025    85014302.1531   20761360.811  
  22374241.964   117577442.1361                   91618784.6031   22374242.340  
  20480156.979   107623948.5731   20480161.536    83862832.9121   20480160.786  
  23109591.911   121441730.3961                   94629924.5541   23109593.894  
  21757245.651   114335097.6971   21757247.456    89092292.3071   21757246.955  
  25240968.961   132642187.760                                1                 
  20806895.227   109340971.7761   20806898.015    85200764.5491   20806896.871  
  23178548.167   121804087.0031                   94912283.5651   23178551.258  
  19737006.543   105431543.804    19737014.191    82002347.233                  
  20338302.651   108605406.467    20338311.567    84470904.059                  
  20503413.513   109448614.006                                                  
  19722515.070   105502164.716                                                  
  22691819.675   121343357.847                                                  
  25853761.980   135862439.232                                                  
  25808111.344   135622536.521                                                  
  23694928.997   124517686.174                                                  
  26202039.334   137692642.793                                                  
  25801220.834   135586330.994                                                  
  23749336.491   124803608.338                                                  
  23872078.202   125448618.262                                                  
                 130926350.420    25143028.596   130926350.420                  
                 113765878.538    21847541.255   113765878.538                  
                 116230419.993    22320830.043   116230419.993                  
 21  8 31  9 19 16.0000000  0 24G 1G17G19G30G21G 7G22G14G13R12R13R22
                                R23R24E 1E 9E12E24E26E31E33C23C27C28
  21024378.319   110483850.7661   21024382.787    86091337.8921   21024382.483  
  20761209.639   109100889.8401   20761211.908    85013691.6561   20761211.712  
  22373741.614   117574812.8431                   91616735.7991   22373742.078  
  20480355.004   107624989.1291   20480359.739    83863643.7321   20480358.792  
  23110043.282   121444101.5741                   94631772.2281   23110045.105  
  21757801.110   114338017.3561   21757802.646    89094567.3701   21757802.521  
  25240644.728   132640487.259                                1                 
  20806716.108   109340030.3581   20806718.699    85200030.9771   20806717.716  
  23178673.804   121804746.3291                   94912797.4191   23178676.716  
  19737155.696   105432339.591    19737163.112    82002966.180                  
  20337840.093   108602936.486    20337849.724    84468982.951                  
  20503958.715   109451523.335                                                  
  19722114.303   105500022.338                                                  
  22691051.665   121339250.913                                                  
  25854040.022   135863900.614                                                  
  25808532.570   135624748.423                                                  
  23694414.977   124514984.835                                                  
  26201667.604   137690689.254                                                  
  25801626.532   135588463.907                                                  
  23749241.285   124803107.953                                                  
  23872029.259   125448361.213                                                  
                 130929078.576    25143552.462   130929078.576                  
                 113764427.278    21847262.587   113764427.278                  
                 116232035.568    22321140.231   116232035.568                  
 21  8 31  9 19 17.0000000  0 24G 1G17G19G30G21G 7G22G14G13R12R13R22
                                R23R24E 1E 9E12E24E26E31E33C23C27C28
  21024454.352   110484250.1821   21024458.891    86091649.1241   21024458.462  
  20761060.808   109100107.4811   20761063.202    85013082.0261   20761062.809  
  22373241.085   117572184.6311                   91614687.8411   22373242.067  
  20480553.279   107626030.9721   20480558.193    83864455.5621   20480556.978  
  23110494.600   121446473.8551                   94633620.7591   23110496.494  
  21758356.997   114340938.1091   21758358.552    89096843.2821   21758358.301  
  25240321.459   132638787.638                                1                 
  20806537.221   109339089.8261   20806539.759    85199298.0971   20806538.740  
  23178799.548   121805406.8911                   94913312.1221   23178802.389  
  19737305.028   105433136.648    19737311.996    82003586.102                  
  20337377.732   108600467.492    20337387.113    84467062.630                  
  20504504.327   109454433.909                                                  
  19721714.126   105497881.435                                                  
  22690284.208   121335144.956                                                  
  25854318.475   135865362.873                                                  
  25808953.886   135626961.088                                                  
  23693900.831   124512284.497                                                  
  26201295.929   137688736.367                                                  
  25802032.677   135590597.788                                                  
  23749146.257   124802608.389                                                  
  23871980.405   125448105.326                                                  
                 130931807.624    25144076.436   130931807.624                  
                 113762977.169    21846984.224   113762977.169                  
                 116233652.185    22321450.652   116233652.185                  
 21  8 31  9 19 18.0000000  0 24G 1G17G19G30G21G 7G22G14G13R12R13R22
                                R23R24E 1E 9E12E24E26E31E33C23C27C28
  21024530.456   110484649.9331   21024535.227    86091960.6131   21024534.530  
  20760911.941   109099325.0661   20760914.657    85012472.3451   20760913.925  
  22372741.056   117569556.2541                   91612639.7491   22372741.931  
  20480751.607   107627072.9981   20480756.449    83865267.5401   20480755.199  
  23110946.043   121448846.1101                   94635469.2741   23110947.866  
  21758912.795   114343858.8241   21758914.564    89099119.1551   21758914.082  
  25239998.012   132637087.812                                1                 
  20806357.977   109338149.0541   20806360.657    85198565.0261   20806359.764  
  23178924.667   121806067.6061                   94913826.9601   23178928.133  
  19737454.323   105433933.819    19737461.060    82004206.122                  
  20336916.318   108597998.349    20336924.395    84465142.185                  
  20505049.958   109457344.576                                                  
  19721314.110   105495740.852                                                  
  22689516.358   121331038.858                                                  
  25854596.731   135866824.803                                                  
  25809374.541   135629173.416                                                  
  23693386.561   124509583.910                                                  
  26200924.199   137686783.057                                                  
  25802438.733   135592731.507                                                  
  23749051.105   124802108.512                                                  
  23871931.605   125447849.469                                                  
                 130934536.431    25144600.123   130934536.431                  
                 113761527.058    21846705.753   113761527.058                  
                 116235268.720    22321761.108   116235268.720                  
 21  8 31  9 19 19.0000000  0 24G 1G17G19G30G21G 7G22G14G13R12R13R22
                                R23R24E 1E 9E12E24E26E31E33C23C27C28
  21024606.614   110485050.2241   21024611.546    86092272.5351   21024610.742  
  20760763.003   109098542.8861   20760765.916    85011862.8471   20760765.111  
  22372240.741   117566927.9781                   91610591.7361   22372241.867  
  20480949.917   107628115.4431   20480955.135    83866079.8411   20480953.527  
  23111397.540   121451218.6091                   94637317.9761   23111399.309  
  21759468.593   114346779.7631   21759470.273    89101395.2151   21759469.898  
  25239674.422   132635387.962                                1                 
  20806178.912   109337208.3161   20806181.413    85197831.9861   20806180.770  
  23179050.465   121806728.6781                   94914342.0861   23179053.913  
  19737603.547   105434731.377    19737610.481    82004826.445                  
  20336453.993   108595529.356    20336461.802    84463221.838                  
  20505595.178   109460255.648                                                  
  19720914.130   105493600.803                                                  
  22688748.723   121326932.847                                                  
  25854874.898   135868286.752                                                  
  25809795.249   135631385.646                                                  
  23692872.362   124506883.381                                                  
  26200552.327   137684829.554                                                  
  25802844.771   135594865.382                                                  
  23748956.024   124801608.631                                                  
  23871882.965   125447593.913                                                  
                 130937265.276    25145124.257   130937265.276                  
                 113760077.188    21846427.318   113760077.188                  
                 116236885.444    22322071.529   116236885.444                  
 21  8 31  9 19 20.0000000  0 24G 1G17G19G30G21G 7G22G14G13R12R13R22
                                R23R24E 1E 9E12E24E26E31E33C23C27C28
  21024682.986   110485451.3521   21024687.811    86092585.1021   21024687.096  
  20760614.279   109097761.2401   20760617.031    85011253.7721   20760616.388  
  22371741.248   117564300.1141                   91608544.0251   22371741.909  
  20481148.442   107629158.5871   20481153.410    83866892.6761   20481151.998  
  23111849.108   121453591.6331                   94639167.0811   23111850.859  
  21760024.606   114349701.2111   21760026.339    89103671.6641   21760025.821  
  25239350.832   132633688.450                                1                 
  20805999.936   109336267.8901   20806002.294    85197099.1891   20806001.865  
  23179176.209   121807390.4551                   94914857.7661   23179179.819  
  19737752.861   105435529.574    19737760.080    82005447.293                  
  20335992.061   108593060.750    20335999.191    84461301.816                  
  20506140.379   109463167.376                                                  
  19720514.525   105491461.642                                                  
  22687981.552   121322827.257                                                  
  25855153.119   135869748.952                                                  
  25810215.707   135633598.030                                                  
  23692358.181   124504183.184                                                  
  26200180.812   137682876.138                                                  
  25803250.934   135596999.639                                                  
  23748860.889   124801108.977                                                  
  23871834.361   125447338.951                                                  
                 130939994.421    25145648.427   130939994.421                  
                 113758627.870    21846149.026   113758627.870                  
                 116238502.656    22322382.057   116238502.656                  
 21  8 31  9 19 21.0000000  0 24G 1G17G19G30G21G 7G22G14G13R12R13R22
                                R23R24E 1E 9E12E24E26E31E33C23C27C28
  21024759.501   110485853.2861   21024764.165    86092898.3001   21024763.611  
  20760465.376   109096980.0281   20760468.182    85010645.0311   20760467.753  
  22371241.702   117561672.6361                   91606496.6391   22371241.952  
  20481347.181   107630202.4201   20481351.452    83867706.0551   20481350.630  
  23112300.890   121455965.1171                   94641016.5471   23112302.516  
  21760580.547   114352623.1361   21760582.477    89105948.4931   21760581.869  
  25239027.599   132631989.216                                1                 
  20805820.977   109335327.7401   20805823.193    85196366.6041   20805822.979  
  23179302.043   121808052.8421                   94915373.8931   23179305.813  
  19737902.317   105436328.386    19737909.429    82006068.572                  
  20335529.753   108590592.537    20335536.669    84459382.086                  
  20506686.117   109466079.766                                                  
  19720114.920   105489323.296                                                  
  22687214.131   121318722.011                                                  
  25855431.286   135871211.393                                                  
  25810637.148   135635810.598                                                  
  23691844.393   124501483.306                                                  
  26199808.904   137680922.785                                                  
  25803657.150   135599134.283                                                  
  23748765.861   124800609.531                                                  
  23871786.008   125447084.525                                                  
                 130942723.899    25146172.776   130942723.899                  
                 113757179.067    21845870.984   113757179.067                  
                 116240120.264    22322692.799   116240120.264                  
 21  8 31  9 19 22.0000000  0 24G 1G17G19G30G21G 7G22G14G13R12R13R22
                                R23R24E 1E 9E12E24E26E31E33C23C27C28
  21024836.374   110486256.1831   21024841.002    86093212.2461   21024840.287  
  20760316.831   109096199.5171   20760319.387    85010036.8461   20760319.244  
  22370742.120   117559045.8031                   91604449.7501   22370742.102  
  20481545.974   107631247.1131   20481549.816    83868520.0991   20481549.441  
  23112752.441   121458339.2891                   94642866.5511   23112754.352  
  21761136.738   114355545.7081   21761138.418    89108225.8221   21761137.989  
  25238703.687   132630290.4321                               1                 
  20805642.233   109334388.0501   20805644.163    85195634.3781   20805644.181  
  23179427.930   121808716.0921                   94915890.7041   23179432.040  
  19738052.006   105437128.032    19738059.350    82006690.512                  
  20335067.589   108588124.879    20335074.594    84457462.806                  
  20507232.159   109468992.993                                                  
  19719715.583   105487185.929                                                  
  22686446.639   121314617.311                                                  
  25855709.561   135872674.198                                                  
  25811057.231   135638023.598                                                  
  23691330.801   124498783.936                                                  
  26199437.193   137678969.674                                                  
  25804063.456   135601269.440                                                  
  23748670.923   124800110.475                                                  
  23871737.761   125446830.834                                                  
                 130945453.733    25146697.250   130945453.733                  
                 113755730.967    21845592.888   113755730.967                  
                 116241738.500    22323003.702   116241738.500                  
 21  8 31  9 19 23.0000000  0 24G 1G17G19G30G21G 7G22G14G13R12R13R22
                                R23R24E 1E 9E12E24E26E31E33C23C27C28
  21024913.121   110486659.6581   21024918.107    86093526.6421   21024917.124  
  20760168.500   109095419.2271   20760170.502    85009428.8251   20760170.770  
  22370242.198   117556419.0551                   91602402.9241   22370242.341  
  20481744.749   107632292.2401   20481748.019    83869334.4881   20481748.305  
  23113204.312   121460713.6831                   94644716.7241   23113206.171  
  21761693.054   114358468.5251   21761694.770    89110503.3441   21761694.216  
  25238380.455   132628591.6591                               1                 
  20805463.418   109333448.3611   20805465.795    85194902.1551   20805465.402  
  23179554.175   121809379.6911                   94916407.8061   23179558.338  
  19738201.731   105437928.063    19738209.057    82007312.761                  
  20334605.532   108585657.341    20334613.073    84455543.637                  
  20507778.147   109471906.563                                                  
  19719316.318   105485049.152                                                  
  22685679.200   121310512.667                                                  
  25855988.067   135874137.012                                                  
  25811477.939   135640236.462                                                  
  23690817.353   124496084.602                                                  
  26199065.517   137677016.409                                                  
  25804469.673   135603404.774                                                  
  23748575.950   124799611.402                                                  
  23871689.551   125446577.426                                                  
                 130948183.700    25147221.938   130948183.700                  
                 113754283.098    21845314.721   113754283.098                  
                 116243356.957    22323314.534   116243356.957                  
 21  8 31  9 19 24.0000000  0 24G 1G17G19G30G21G 7G22G14G13R12R13R22
                                R23R24E 1E 9E12E24E26E31E33C23C27C28
  21024989.851   110487063.4641   21024995.158    86093841.2961   21024993.979  
  20760020.098   109094638.9511   20760021.885    85008820.8131   20760022.260  
  22369742.723   117553792.2241                   91600356.0591   22369742.509  
  20481943.596   107633337.5701   20481946.651    83870149.0311   20481947.170  
  23113656.095   121463088.0801                   94646566.9061   23113657.935  
  21762249.245   114361391.3701   21762251.372    89112780.8881   21762250.443  
  25238057.508   132626892.7051                               1                 
  20805284.531   109332508.5151   20805286.997    85194169.8131   20805286.586  
  23179680.920   121810043.4371                   94916925.0081   23179684.619  
  19738351.491   105438728.253    19738358.871    82007935.124                  
  20334143.439   108583189.719    20334150.730    84453624.357                  
  20508324.117   109474820.357                                                  
  19718917.088   105482912.732                                                  
  22684911.815   121306407.955                                                  
  25856266.395   135875599.623                                                  
  25811899.291   135642448.913                                                  
  23690303.725   124493385.126                                                  
  26198693.520   137675062.644                                                  
  25804876.050   135605539.996                                                  
  23748480.886   124799112.073                                                  
  23871641.412   125446324.095                                                  
                 130950913.420    25147746.340   130950913.420                  
                 113752835.249    21845036.429   113752835.249                  
                 116244975.335    22323625.241   116244975.335                  
 21  8 31  9 19 25.0000000  0 24G 1G17G19G30G21G 7G22G14G13R12R13R22
                                R23R24E 1E 9E12E24E26E31E33C23C27C28
  21025066.867   110487468.3451   21025072.317    86094156.7871   21025070.994  
  20759871.857   109093859.4301   20759873.411    85008213.3921   20759873.894  
  22369243.159   117551166.1041                   91598309.7301   22369242.783  
  20482142.621   107634383.8771   20482146.123    83870964.3311   20482146.284  
  23114107.967   121465463.2751                   94648417.7071   23114109.861  
  21762805.597   114364314.9491   21762807.724    89115059.0061   21762806.813  
  25237734.829   132625194.3281                               1                 
  20805105.609   109331569.2101   20805108.486    85193437.8871   20805107.896  
  23179807.468   121810708.1341                   94917442.9561   23179811.078  
  19738501.376   105439529.334    19738509.007    82008558.170                  
  20333681.275   108580722.768    20333688.905    84451705.617                  
  20508869.783   109477734.991                                                  
  19718518.091   105480777.403                                                  
  22684144.662   121302303.915                                                  
  25856544.723   135877062.689                                                  
  25812320.767   135644661.898                                                  
  23689790.152   124490686.241                                                  
  26198321.987   137673109.308                                                  
  25805282.517   135607675.858                                                  
  23748386.002   124798613.226                                                  
  23871593.308   125446071.615                                                  
                 130953643.713    25148270.814   130953643.713                  
                 113751388.225    21844758.494   113751388.225                  
                 116246594.464    22323936.108   116246594.464                  
 21  8 31  9 19 26.0000000  0 24G 1G17G19G30G21G 7G22G14G13R12R13R22
                                R23R24E 1E 9E12E24E26E31E33C23C27C28
  21025143.918   110487873.7621   21025149.475    86094472.6971   21025148.153  
  20759723.562   109093080.1021   20759725.224    85007606.1211   20759725.599  
  22368743.309   117548540.0551                   91596263.4531   22368743.094  
  20482341.807   107635430.5541   20482345.291    83871779.9181   20482345.470  
  23114559.910   121467838.6261                   94650268.6281   23114561.822  
  21763362.003   114367238.7171   21763363.951    89117337.2691   21763363.200  
  25237411.900   132623495.9601                               1                 
  20804926.865   109330629.8961   20804929.527    85192705.9561   20804929.188  
  23179934.356   121811373.1061                   94917961.1161   23179937.590  
  19738651.351   105440330.761    19738658.946    82009181.517                  
  20333219.146   108578255.873    20333226.722    84449786.921                  
  20509416.004   109480649.995                                                  
  19718119.236   105478642.606                                                  
  22683377.706   121298199.854                                                  
  25856823.301   135878525.717                                                  
  25812742.405   135646874.862                                                  
  23689276.489   124487987.373                                                  
  26197950.186   137671155.728                                                  
  25805688.912   135609811.790                                                  
  23748291.117   124798114.317                                                  
  23871545.366   125445819.394                                                  
                 130956373.997    25148795.377   130956373.997                  
                 113749941.428    21844480.559   113749941.428                  
                 116248213.718    22324246.958   116248213.718                  
 21  8 31  9 19 27.0000000  0 24G 1G17G19G30G21G 7G22G14G13R12R13R22
                                R23R24E 1E 9E12E24E26E31E33C23C27C28
  21025221.040   110488279.6671   21025226.633    86094788.9891   21025225.400  
  20759575.410   109092300.9351   20759576.750    85006998.9781   20759577.340  
  22368243.709   117545914.0961                   91594217.2581   22368243.405  
  20482541.029   107636477.5911   20482544.978    83872595.7941   20482544.710  
  23115011.710   121470214.1651                   94652119.6991   23115013.855  
  21763918.534   114370162.6541   21763920.321    89119615.6661   21763919.642  
  25237088.524   132621797.5401                               1                 
  20804747.996   109329690.5531   20804750.551    85191974.0021   20804750.462  
  23180061.494   121812038.5101                   94918479.6151   23180064.228  
  19738801.451   105441132.496    19738809.188    82009805.093                  
  20332757.410   108575789.053    20332764.880    84447868.290                  
  20509962.420   109483565.285                                                  
  19717720.507   105476508.314                                                  
  22682610.195   121294095.844                                                  
  25857101.647   135879988.672                                                  
  25813162.702   135649087.498                                                  
  23688762.808   124485288.487                                                  
  26197578.457   137669201.867                                                  
  25806095.325   135611947.796                                                  
  23748196.233   124797615.281                                                  
  23871497.495   125445567.392                                                  
                 130959104.269    25149319.797   130959104.269                  
                 113748494.812    21844202.785   113748494.812                  
                 116249833.090    22324558.129   116249833.090                  
 21  8 31  9 19 28.0000000  0 24G 1G17G19G30G21G 7G22G14G13R12R13R22
                                R23R24E 1E 9E12E24E26E31E33C23C27C28
  21025298.395   110488686.6251   21025303.988    86095106.1011   21025302.845  
  20759427.329   109091522.5061   20759428.991    85006392.4051   20759429.223  
  22367744.305   117543288.7681                   91592171.5501   22367743.876  
  20482740.519   107637525.5881   20482744.700    83873412.4171   20482744.200  
  23115464.136   121472590.4581                   94653971.3651   23115466.048  
  21764475.136   114373087.3361   21764477.084    89121894.6421   21764476.226  
  25236765.524   132620099.6441                               1                 
  20804569.342   109328751.7351   20804572.111    85191242.4511   20804571.843  
  23180188.293   121812704.7741                   94918998.7751   23180191.009  
  19738951.622   105441935.105    19738959.181    82010429.346                  
  20332295.818   108573322.898    20332303.412    84445950.140                  
  20510509.034   109486481.490                                                  
  19717321.920   105474375.124                                                  
  22681843.257   121289992.484                                                  
  25857379.993   135881452.090                                                  
  25813583.750   135651300.598                                                  
  23688249.306   124482590.209                                                  
  26197206.799   137667248.358                                                  
  25806501.988   135614084.426                                                  
  23748101.402   124797116.745                                                  
  23871449.784   125445316.200                                                  
                 130961835.060    25149844.646   130961835.060                  
                 113747048.957    21843925.262   113747048.957                  
                 116251453.176    22324869.336   116251453.176                  
 21  8 31  9 19 29.0000000  0 24G 1G17G19G30G21G 7G22G14G13R12R13R22
                                R23R24E 1E 9E12E24E26E31E33C23C27C28
  21025376.001   110489094.1381   21025381.379    86095423.6411   21025380.379  
  20759279.195   109090744.3251   20759280.982    85005786.0301   20759281.125  
  22367244.634   117540663.5491                   91590125.9361   22367244.473  
  20482939.937   107638573.9701   20482944.315    83874229.3341   20482943.725  
  23115916.473   121474966.9831                   94655823.2001   23115918.260  
  21765031.631   114376012.2511   21765033.597    89124173.7961   21765032.810  
  25236442.148   132618401.7581                               1                 
  20804390.759   109327812.9641   20804393.439    85190510.9411   20804393.278  
  23180315.002   121813371.4271                   94919518.2661   23180317.861  
  19739101.829   105442738.071    19739109.370    82011053.878                  
  20331833.457   108570856.851    20331842.016    84444032.121                  
  20511055.504   109489398.038                                                  
  19716923.405   105472242.519                                                  
  22681076.140   121285889.271                                                  
  25857658.463   135882915.493                                                  
  25814005.101   135653513.626                                                  
  23687735.947   124479891.996                                                  
  26196835.249   137665294.678                                                  
  25806908.562   135616221.168                                                  
  23748006.535   124796618.170                                                  
  23871402.145   125445065.334                                                  
                 130964565.893    25150369.173   130964565.893                  
                 113745603.376    21843647.845   113745603.376                  
                 116253073.462    22325180.346   116253073.462                  
 21  8 31  9 19 30.0000000  0 24G 1G17G19G30G21G 7G22G14G13R12R13R22
                                R23R24E 1E 9E12E24E26E31E33C23C27C28
  21025453.784   110489502.6251   21025459.056    86095741.9451   21025458.109  
  20759131.293   109089966.7611   20759132.883    85005180.1431   20759133.151  
  22366744.962   117538038.9261                   91588080.7911   22366745.105  
  20483139.659   107639623.2051   20483143.947    83875046.9241   20483143.429  
  23116368.863   121477344.1501                   94657675.5411   23116370.578  
  21765588.287   114378937.7871   21765590.092    89126453.4301   21765589.502  
  25236119.112   132616704.3441                               1                 
  20804212.283   109326874.6061   20804215.160    85189779.7581   20804214.784  
  23180441.640   121814038.8821                   94920038.3421   23180444.874  
  19739252.251   105443541.831    19739260.113    82011679.055                  
  20331371.417   108568391.337    20331380.245    84442114.502                  
  20511601.242   109492315.397                                                  
  19716525.069   105470110.894                                                  
  22680309.094   121281786.488                                                  
  25857937.095   135884379.290                                                  
  25814426.256   135655727.005                                                  
  23687222.570   124477194.202                                                  
  26196463.591   137663341.204                                                  
  25807315.046   135618358.483                                                  
  23747911.543   124796119.963                                                  
  23871354.489   125444815.149                                                  
                 130967297.140    25150893.307   130967297.140                  
                 113744158.426    21843370.679   113744158.426                  
                 116254694.309    22325491.303   116254694.309                  
 21  8 31  9 19 31.0000000  0 24G 1G17G19G30G21G 7G22G14G13R12R13R22
                                R23R24E 1E 9E12E24E26E31E33C23C27C28
  21025531.586   110489911.5401   21025536.697    86096060.5811   21025535.893  
  20758983.284   109089189.2791   20758984.892    85004574.3151   20758985.214  
  22366245.451   117535414.3341                   91586035.6601   22366245.773  
  20483339.435   107640672.7611   20483344.080    83875864.7671   20483343.187  
  23116821.128   121479721.4021                   94659527.9431   23116822.915  
  21766145.032   114381863.4291   21766146.658    89128733.1421   21766146.211  
  25235796.290   132615006.8331                               1                 
  20804033.771   109325936.1581   20804036.702    85189048.5001   20804036.237  
  23180568.420   121814706.5521                   94920558.5331   23180571.923  
  19739402.726   105444345.871    19739410.552    82012304.408                  
  20330910.021   108565925.814    20330918.563    84440196.852                  
  20512147.909   109495232.982                                                  
  19716126.572   105467979.702                                                  
  22679542.155   121277683.723                                                  
  25858215.620   135885842.934                                                  
  25814847.840   135657940.113                                                  
  23686709.068   124474496.375                                                  
  26196091.719   137661387.360                                                  
  25807721.585   135620495.747                                                  
  23747816.570   124795621.599                                                  
  23871306.814   125444565.137                                                  
                 130970028.317    25151417.316   130970028.317                  
                 113742713.639    21843093.226   113742713.639                  
                 116256315.223    22325802.313   116256315.223                  
 21  8 31  9 19 32.0000000  0 24G 1G17G19G30G21G 7G22G14G13R12R13R22
                                R23R24E 1E 9E12E24E26E31E33C23C27C28
  21025609.513   110490321.3451   21025614.498    86096379.9061   21025613.855  
  20758835.382   109088412.3981   20758837.205    85003968.9561   20758837.401  
  22365746.191   117532790.2631                   91583990.9241   22365746.423  
  20483539.389   107641723.1061   20483544.160    83876683.2171   20483543.106  
  23117273.625   121482099.2711                   94661380.8251   23117275.412  
  21766701.831   114384789.6471   21766703.207    89131013.3161   21766703.046  
  25235473.540   132613309.6861                               1                 
  20803855.510   109324998.1001   20803858.422    85188317.5431   20803857.797  
  23180695.541   121815375.0311                   94921079.4621   23180699.150  
  19739553.540   105445150.693    19739561.045    82012930.369                  
  20330448.322   108563460.759    20330456.363    84438279.636                  
  20512694.415   109498151.370                                                  
  19715728.272   105465849.448                                                  
  22678774.395   121273581.325                                                  
  25858494.323   135887306.931                                                  
  25815269.764   135660153.538                                                  
  23686195.816   124471798.998                                                  
  26195720.043   137659433.728                                                  
  25808128.391   135622633.498                                                  
  23747721.739   124795123.571                                                  
  23871259.372   125444315.791                                                  
                 130972759.874    25151941.433   130972759.874                  
                 113741269.465    21842815.917   113741269.465                  
                 116257936.684    22326113.627   116257936.684                  
 21  8 31  9 19 33.0000000  0 24G 1G17G19G30G21G 7G22G14G13R12R13R22
                                R23R24E 1E 9E12E24E26E31E33C23C27C28
  21025687.779   110490732.2851   21025692.836    86096700.1151   21025692.032  
  20758687.712   109087636.3301   20758689.624    85003364.2231   20758689.714  
  22365246.895   117530166.8161                   91581946.6481   22365247.216  
  20483739.361   107642774.4221   20483743.989    83877502.4221   20483743.257  
  23117726.104   121484477.9381                   94663234.3321   23117728.052  
  21767258.862   114387716.6741   21767259.737    89133294.1121   21767260.077  
  25235150.468   132611613.1721                               1                 
  20803677.177   109324060.6381   20803680.161    85187587.0511   20803679.482  
  23180822.589   121816044.4221                   94921601.1031   23180826.574  
  19739704.498   105445956.419    19739711.860    82013557.030                  
  20329987.086   108560996.432    20329994.859    84436362.935                  
  20513240.850   109501070.657                                                  
  19715330.025   105463720.341                                                  
  22678006.760   121269479.718                                                  
  25858773.026   135888771.464                                                  
  25815690.990   135662367.347                                                  
  23685682.689   124469102.205                                                  
  26195348.546   137657480.506                                                  
  25808535.394   135624771.943                                                  
  23747626.997   124794626.035                                                  
  23871212.037   125444067.311                                                  
                 130975491.993    25152465.799   130975491.993                  
                 113739826.117    21842538.911   113739826.117                  
                 116259558.889    22326425.281   116259558.889                  
 21  8 31  9 19 34.0000000  0 24G 1G17G19G30G21G 7G22G14G13R12R13R22
                                R23R24E 1E 9E12E24E26E31E33C23C27C28
  21025766.153   110491143.8151   21025771.424    86097020.7881   21025770.370  
  20758540.025   109086860.4971   20758542.044    85002759.6781   20758542.080  
  22364747.581   117527543.5771                   91579902.5521   22364748.009  
  20483939.548   107643826.2161   20483943.979    83878322.0021   20483943.497  
  23118178.870   121486856.8831                   94665088.0581   23118180.746  
  21767815.911   114390643.9711   21767817.019    89135575.1221   21767817.144  
  25234827.146   132609916.7211                               1                 
  20803498.701   109323123.2311   20803501.471    85186856.6021   20803501.149  
  23180950.121   121816714.2401                   94922123.0381   23180954.052  
  19739855.509   105446762.526    19739862.960    82014184.005                  
  20329525.315   108558532.293    20329533.285    84434446.359                  
  20513787.874   109503990.367                                                  
  19714932.046   105461591.829                                                  
  22677238.767   121265378.154                                                  
  25859051.675   135890236.018                                                  
  25816111.413   135664581.221                                                  
  23685169.508   124466405.529                                                  
  26194977.049   137655527.100                                                  
  25808942.575   135626910.566                                                  
  23747532.434   124794128.529                                                  
  23871164.898   125443819.150                                                  
                 130978224.246    25152990.166   130978224.246                  
                 113738383.062    21842261.906   113738383.062                  
                 116261181.326    22326736.899   116261181.326                  
 21  8 31  9 19 35.0000000  0 24G 1G17G19G30G21G 7G22G14G13R12R13R22
                                R23R24E 1E 9E12E24E26E31E33C23C27C28
  21025844.580   110491556.3781   21025849.959    86097342.2681   21025848.904  
  20758392.570   109086085.3601   20758394.839    85002155.6841   20758394.571  
  22364248.302   117524920.9641                   91577858.9641   22364248.981  
  20484139.877   107644878.8731   20484144.273    83879142.2521   20484143.916  
  23118631.635   121489236.5071                   94666942.3081   23118633.511  
  21768372.888   114393571.9141   21768373.799    89137856.6361   21768374.282  
  25234504.521   132608220.7211                               1                 
  20803320.547   109322186.3291   20803322.924    85186126.5501   20803322.870  
  23181077.813   121817384.9251                   94922645.6481   23181081.654  
  19740006.591   105447569.463    19740013.793    82014811.634                  
  20329063.740   108556068.720    20329071.335    84432530.279                  
  20514334.792   109506910.942                                                  
  19714534.192   105459464.365                                                  
  22676470.756   121261277.237                                                  
  25859330.486   135891701.032                                                  
  25816532.603   135666795.448                                                  
  23684656.453   124463709.364                                                  
  26194604.998   137653573.960                                                  
  25809349.721   135629049.732                                                  
  23747437.907   124793631.436                                                  
  23871117.724   125443571.774                                                  
                 130980956.958    25153514.621   130980956.958                  
                 113736940.697    21841984.972   113736940.697                  
                 116262804.398    22327048.517   116262804.398                  
 21  8 31  9 19 36.0000000  0 24G 1G17G19G30G21G 7G22G14G13R12R13R22
                                R23R24E 1E 9E12E24E26E31E33C23C27C28
  21025923.061   110491969.5541   21025928.689    86097664.2211   21025927.546  
  20758245.097   109085310.5391   20758247.277    85001551.9371   20758247.134  
  22363749.042   117522298.5681                   91575815.5451   22363749.989  
  20484340.225   107645932.0641   20484344.531    83879962.9201   20484344.406  
  23119084.597   121491616.4621                   94668796.8161   23119086.348  
  21768930.116   114396500.1971   21768931.009    89140138.4151   21768931.456  
  25234181.306   132606524.8541                               1   25234182.912  
  20803142.143   109321249.5151   20803144.626    85185396.5681   20803144.573  
  23181205.612   121818056.0781                   94923168.6611   23181209.382  
  19740157.835   105448376.901    19740164.625    82015439.639                  
  20328602.577   108553605.386    20328610.403    84430614.320                  
  20514881.584   109509831.932                                                  
  19714136.553   105457337.543                                                  
  22675703.621   121257176.469                                                  
  25859609.046   135893166.068                                                  
  25816954.187   135669009.624                                                  
  23684143.612   124461013.342                                                  
  26194233.126   137651620.718                                                  
  25809756.723   135631189.094                                                  
  23747343.434   124793134.408                                                  
  23871070.657   125443324.752                                                  
                 130983689.746    25154039.131   130983689.746                  
                 113735498.713    21841708.127   113735498.713                  
                 116264427.728    22327360.081   116264427.728                  
 21  8 31  9 19 37.0000000  0 24G 1G17G19G30G21G 7G22G14G13R12R13R22
                                R23R24E 1E 9E12E24E26E31E33C23C27C28
  21026001.881   110492382.9681   21026007.617    86097986.3621   21026006.259  
  20758097.624   109084535.6511   20758099.643    85000948.1331   20758099.679  
  22363249.888   117519675.9981                   91573771.9851   22363251.014  
  20484540.751   107646985.3701   20484544.432    83880783.6781   20484544.861  
  23119537.666   121493996.3261                   94670651.2601   23119539.221  
  21769487.379   114399428.4041   21769488.005    89142420.1441   21769488.684  
  25233859.181   132604828.7221                  103328438.802    25233860.146  
  20802963.828   109320312.4311   20802966.097    85184666.3801   20802966.294  
  23181333.447   121818727.3011                   94923691.6601   23181337.110  
  19740308.935   105449184.425    19740315.583    82016067.695                  
  20328141.395   108551141.873    20328148.846    84428698.266                  
  20515428.465   109512753.026                                                  
  19713738.770   105455210.976                                                  
  22674936.022   121253075.499                                                  
  25859887.731   135894630.786                                                  
  25817375.574   135671223.413                                                  
  23683630.735   124458317.086                                                  
  26193861.271   137649667.003                                                  
  25810163.780   135633328.284                                                  
  23747248.781   124792637.010                                                  
  23871023.715   125443077.730                                                  
                 130986422.301    25154563.408   130986422.301                  
                 113734056.697    21841431.425   113734056.697                  
                 116266050.945    22327671.717   116266050.945                  
 21  8 31  9 19 38.0000000  0 24G 1G17G19G30G21G 7G22G14G13R12R13R22
                                R23R24E 1E 9E12E24E26E31E33C23C27C28
  21026080.648   110492797.0921   21026086.384    86098309.0581   21026085.115  
  20757950.365   109083761.1591   20757952.080    85000344.6391   20757952.313  
  22362750.842   117517053.7141                   91571728.6441   22362752.093  
  20484741.242   107648039.2591   20484744.797    83881604.8911   20484745.387  
  23119990.431   121496376.5801                   94672506.0011   23119992.147  
  21770044.696   114402356.9661   21770045.858    89144702.1361   21770045.965  
  25233536.270   132603132.7161                  103327117.209    25233537.378  
  20802785.638   109319375.5241   20802787.639    85183936.3221   20802788.050  
  23181461.586   121819399.0841                   94924215.1321   23181464.945  
  19740460.232   105449992.472    19740466.647    82016696.192                  
  20327680.589   108548678.619    20327687.432    84426782.397                  
  20515975.686   109515674.659                                                  
  19713341.292   105453085.152                                                  
  22674168.351   121248974.785                                                  
  25860166.434   135896095.642                                                  
  25817797.069   135673437.199                                                  
  23683117.751   124455621.032                                                  
  26193489.596   137647713.236                                                  
  25810570.818   135635467.766                                                  
  23747154.290   124792139.724                                                  
  23870976.809   125442831.151                                                  
                 130989154.993    25155088.239   130989154.993                  
                 113732615.067    21841154.437   113732615.067                  
                 116267674.497    22327983.460   116267674.497                  
 21  8 31  9 19 39.0000000  0 24G 1G17G19G30G21G 7G22G14G13R12R13R22
                                R23R24E 1E 9E12E24E26E31E33C23C27C28
  21026159.682   110493212.2691   21026165.293    86098632.5731   21026164.185  
  20757803.196   109082987.3751   20757804.911    84999741.6861   20757805.072  
  22362252.046   117514432.0511                   91569685.7901   22362253.333  
  20484941.946   107649094.0501   20484945.484    83882426.8031   20484946.110  
  23120443.768   121498757.5741                   94674361.3211   23120445.180  
  21770602.031   114405286.2671   21770603.764    89146984.7081   21770603.335  
  25233213.823   132601437.2741                  103325796.079    25233214.538  
  20802607.144   109318439.1441   20802609.449    85183206.6781   20802609.896  
  23181589.742   121820071.7061                   94924739.2741   23181592.959  
  19740611.672   105450801.368    19740618.230    82017325.318                  
  20327219.586   108546215.995    20327226.733    84424867.028                  
  20516523.247   109518597.159                                                  
  19712944.010   105450960.424                                                  
  22673400.608   121244874.710                                                  
  25860445.370   135897560.944                                                  
  25818218.832   135675651.466                                                  
  23682605.018   124452925.541                                                  
  26193117.759   137645759.785                                                  
  25810978.196   135637607.827                                                  
  23747059.781   124791642.907                                                  
  23870930.010   125442585.368                                                  
                 130991888.269    25155613.606   130991888.269                  
                 113731174.173    21840877.575   113731174.173                  
                 116269298.734    22328295.435   116269298.734                  
 21  8 31  9 19 40.0000000  0 24G 1G17G19G30G21G 7G22G14G13R12R13R22
                                R23R24E 1E 9E12E24E26E31E33C23C27C28
  21026238.753   110493628.1861   21026244.524    86098956.6711   21026243.381  
  20757655.866   109082213.9861   20757657.706    84999139.0431   20757657.938  
  22361753.251   117511810.6791                   91567643.1571   22361754.662  
  20485142.812   107650149.4421   20485146.690    83883249.1891   20485146.993  
  23120896.873   121501138.9641                   94676216.9501   23120898.338  
  21771159.598   114408215.9321   21771161.439    89149267.5671   21771160.813  
  25232891.037   132599742.0171                  103324475.120    25232891.680  
  20802428.918   109317502.9381   20802431.349    85182477.1661   20802431.813  
  23181718.113   121820744.9161                   94925263.8431   23181721.026  
  19740763.130   105451610.793    19740769.885    82017954.870                  
  20326758.869   108543753.678    20326765.677    84422951.894                  
  20517070.628   109521520.185                                                  
  19712546.692   105448836.413                                                  
  22672633.830   121240774.886                                                  
  25860724.270   135899026.402                                                  
  25818641.130   135677865.836                                                  
  23682092.177   124450230.268                                                  
  26192746.030   137643806.293                                                  
  25811385.592   135639748.185                                                  
  23746965.218   124791146.240                                                  
  23870883.336   125442340.045                                                  
                 130994621.653    25156138.401   130994621.653                  
                 113729733.704    21840600.730   113729733.704                  
                 116270923.303    22328607.446   116270923.303                  
 21  8 31  9 19 41.0000000  0 24G 1G17G19G30G21G 7G22G14G13R12R13R22
                                R23R24E 1E 9E12E24E26E31E33C23C27C28
  21026318.252   110494044.5641   21026323.791    86099281.1211   21026322.666  
  20757508.643   109081440.7711   20757510.573    84998536.5421   20757510.787  
  22361254.508   117509189.4121                   91565600.6121   22361255.956  
  20485343.731   107651205.2061   20485347.609    83884071.8651   20485347.913  
  23121349.889   121503520.5011                   94678072.6931   23121351.479  
  21771717.308   114411145.7851   21771719.095    89151550.5761   21771718.345  
  25232568.734   132598046.7481                  103323154.147    25232569.252  
  20802250.800   109316566.7081   20802253.498    85181747.6341   20802253.677  
  23181846.181   121821418.4601                   94925788.6581   23181849.165  
  19740914.713   105452420.554    19740921.271    82018584.678                  
  20326298.187   108541291.438    20326305.013    84421036.816                  
  20517618.832   109524443.541                                                  
  19712149.464   105446712.901                                                  
  22671867.785   121236675.036                                                  
  25861003.116   135900491.795                                                  
  25819062.625   135680080.030                                                  
  23681579.086   124447535.013                                                  
  26192374.301   137641852.541                                                  
  25811792.988   135641888.595                                                  
  23746870.601   124790649.444                                                  
  23870836.734   125442094.954                                                  
                 130997355.057    25156663.197   130997355.057                  
                 113728293.444    21840324.099   113728293.444                  
                 116272548.003    22328919.564   116272548.003                  
 21  8 31  9 19 42.0000000  0 24G 1G17G19G30G21G 7G22G14G13R12R13R22
                                R23R24E 1E 9E12E24E26E31E33C23C27C28
  21026397.680   110494461.7601   21026403.201    86099606.2071   21026402.076  
  20757361.491   109080668.0601   20757363.403    84997934.4231   20757363.743  
  22360756.070   117506568.5011                   91563558.3431   22360757.303  
  20485544.686   107652261.6581   20485548.886    83884895.0711   20485548.975  
  23121803.512   121505902.5451                   94679928.8311   23121804.745  
  21772275.125   114414076.1311   21772277.055    89153833.9651   21772275.947  
  25232245.983   132596351.7581                  103321833.380    25232246.805  
  20802072.700   109315630.7571   20802075.630    85181018.3241   20802075.594  
  23181974.176   121822092.5671                   94926313.9181   23181977.446  
  19741066.493   105453230.966    19741073.336    82019215.007                  
  20325837.024   108538829.580    20325843.832    84419122.033                  
  20518166.643   109527367.496                                                  
  19711752.557   105444590.210                                                  
  22671102.366   121232575.561                                                  
  25861281.944   135901957.423                                                  
  25819484.101   135682294.383                                                  
  23681066.191   124444840.062                                                  
  26192002.446   137639898.891                                                  
  25812200.348   135644029.401                                                  
  23746776.110   124790152.870                                                  
  23870790.221   125441850.435                                                  
                 131000088.755    25157188.546   131000088.755                  
                 113726853.725    21840047.541   113726853.725                  
                 116274173.137    22329231.736   116274173.137                  
 21  8 31  9 19 43.0000000  0 24G 1G17G19G30G21G 7G22G14G13R12R13R22
                                R23R24E 1E 9E12E24E26E31E33C23C27C28
  21026477.268   110494879.7521   21026482.593    86099931.9121   21026481.646  
  20757214.572   109079895.7951   20757216.288    84997332.6511   20757216.770  
  22360257.417   117503948.0271                   91561516.4181   22360258.757  
  20485745.820   107653318.7601   20485750.109    83885718.7851   20485750.144  
  23122257.045   121508285.0741                   94681785.3451   23122258.082  
  21772833.014   114417006.9271   21772834.962    89156117.7011   21772833.640  
  25231923.251   132594657.0401                  103320512.816    25231924.305  
  20801894.527   109314695.0901   20801897.601    85180289.2311   20801897.583  
  23182102.047   121822767.3261                   94926839.6761   23182105.835  
  19741218.415   105454041.981    19741225.312    82019845.801                  
  20325375.681   108536368.094    20325382.364    84417207.552                  
  20518715.132   109530292.098                                                  
  19711355.829   105442468.377                                                  
  22670336.285   121228476.520                                                  
  25861560.808   135903423.250                                                  
  25819905.810   135684508.849                                                  
  23680553.404   124442145.426                                                  
  26191630.646   137637945.255                                                  
  25812607.976   135646170.557                                                  
  23746681.601   124789656.508                                                  
  23870743.654   125441606.438                                                  
                 131002822.715    25157714.038   131002822.715                  
                 113725414.453    21839770.964   113725414.453                  
                 116275798.703    22329544.033   116275798.703                  
 21  8 31  9 19 44.0000000  0 24G 1G17G19G30G21G 7G22G14G13R12R13R22
                                R23R24E 1E 9E12E24E26E31E33C23C27C28
  21026557.107   110495298.7301   21026562.432    86100258.3881   21026561.432  
  20757067.778   109079124.1881   20757069.369    84996731.3991   20757069.887  
  22359758.835   117501328.0691                   91559474.8971   22359760.283  
  20485947.240   107654376.7141   20485951.528    83886543.1631   20485951.510  
  23122710.918   121510668.2421                   94683642.3611   23122711.562  
  21773390.885   114419938.3581   21773392.869    89158401.9311   21773391.457  
  25231601.037   132592962.7631                  103319192.623    25231602.002  
  20801716.641   109313759.8551   20801719.554    85179560.4741   20801719.625  
  23182230.615   121823442.9651                   94927366.1161   23182234.403  
  19741370.552   105454853.815    19741377.342    82020477.205                  
  20324914.643   108533907.196    20324921.879    84415293.518                  
  20519262.907   109533217.472                                                  
  19710959.351   105440347.506                                                  
  22669569.847   121224377.932                                                  
  25861839.833   135904889.503                                                  
  25820327.394   135686723.692                                                  
  23680040.795   124439451.253                                                  
  26191259.113   137635991.898                                                  
  25813015.479   135648312.246                                                  
  23746587.109   124789160.534                                                  
  23870697.409   125441363.176                                                  
                 131005557.107    25158239.691   131005557.107                  
                 113723975.862    21839494.762   113723975.862                  
                 116277424.871    22329856.258   116277424.871                  
 21  8 31  9 19 45.0000000  0 24G 1G17G19G30G21G 7G22G14G13R12R13R22
                                R23R24E 1E 9E12E24E26E31E33C23C27C28
  21026636.910   110495718.1331   21026642.164    86100585.1981   21026641.324  
  20756920.931   109078352.6751   20756922.324    84996130.2191   20756923.039  
  22359260.325   117498708.1641                   91557433.4061   22359261.791  
  20486148.552   107655435.0051   20486152.680    83887367.8101   20486152.930  
  23123164.524   121513051.5421                   94685499.4761   23123165.078  
  21773948.649   114422869.9051   21773950.775    89160686.2461   21773949.346  
  25231278.769   132591268.3981                  103317872.325    25231279.501  
  20801538.737   109312824.5491   20801541.686    85178831.6661   20801541.650  
  23182358.879   121824118.8151                   94927892.7941   23182363.060  
  19741522.671   105455665.874    19741529.425    82021108.836                  
  20324453.550   108531446.269    20324460.984    84413379.472                  
  20519811.451   109536143.142                                                  
  19710562.891   105438227.082                                                  
  22668803.427   121220279.290                                                  
  25862118.732   135906355.603                                                  
  25820748.317   135688938.297                                                  
  23679528.204   124436757.048                                                  
  26190887.562   137634038.210                                                  
  25813422.964   135650453.939                                                  
  23746492.743   124788664.421                                                  
  23870651.164   125441120.083                                                  
                 131008291.398    25158765.273   131008291.398                  
                 113722537.452    21839218.579   113722537.452                  
                 116279051.118    22330168.591   116279051.118                  
 21  8 31  9 19 46.0000000  0 23G 1G17G19G30G21G 7G14G13R12R13R22R23
                                R24E 1E 9E12E24E26E31E33C23C27C28
  21026716.821   110496138.5071   21026722.163    86100912.7601   21026721.395  
  20756774.244   109077581.8101   20756775.673    84995529.5521   20756776.335  
  22358762.030   117496088.7901                   91555392.3331   22358763.370  
  20486350.115   107656494.1181   20486354.135    83888193.0951   20486354.475  
  23123617.932   121515435.4711                   94687357.0781   23123618.718  
  21774506.573   114425802.1231   21774508.700    89162971.0961   21774507.377  
  20801360.976   109311889.6551   20801363.728    85178103.1701   20801363.746  
  23182487.553   121824795.4881                   94928420.1191   23182491.824  
  19741674.879   105456478.761    19741681.955    82021741.086                  
  20323992.976   108528985.863    20323999.481    84411465.832                  
  20520359.690   109539069.601                                                  
  19710166.753   105436107.678                                                  
  22668036.971   121216181.387                                                  
  25862397.811   135907822.100                                                  
  25821169.597   135691153.236                                                  
  23679015.542   124434063.291                                                  
  26190515.851   137632084.733                                                  
  25813830.575   135652596.165                                                  
  23746398.484   124788168.658                                                  
  23870605.098   125440877.703                                                  
                 131011026.178    25159290.658   131011026.178                  
                 113721099.698    21838942.556   113721099.698                  
                 116280677.932    22330481.120   116280677.932                  
 21  8 31  9 19 47.0000000  0 23G 1G17G19G30G21G 7G14G13R12R13R22R23
                                R24E 1E 9E12E24E26E31E33C23C27C28
  21026797.142   110496559.7501   21026802.235    86101241.0021   21026801.645  
  20756627.646   109076811.5081   20756629.469    84994929.3271   20756629.737  
  22358263.716   117493469.8861                   91553351.6311   22358265.021  
  20486551.785   107657553.9761   20486556.020    83889018.9491   20486556.162  
  23124071.680   121517819.9421                   94689215.1071   23124072.449  
  21775064.605   114428734.8601   21775066.553    89165256.3531   21775065.481  
  20801183.287   109310955.1241   20801185.949    85177374.9671   20801185.967  
  23182616.050   121825472.8461                   94928947.9221   23182620.696  
  19741827.052   105457292.371    19741834.414    82022373.871                  
  20323532.259   108526525.955    20323539.121    84409552.556                  
  20520908.001   109541996.772                                                  
  19709770.847   105433989.178                                                  
  22667271.015   121212083.716                                                  
  25862676.693   135909288.896                                                  
  25821591.109   135693368.366                                                  
  23678502.880   124431369.940                                                  
  26190144.390   137630131.447                                                  
  25814238.453   135654738.838                                                  
  23746304.332   124787673.200                                                  
  23870559.121   125440635.946                                                  
                 131013761.263    25159816.222   131013761.263                  
                 113719662.521    21838666.640   113719662.521                  
                 116282305.264    22330793.703   116282305.264                  
 21  8 31  9 19 48.0000000  0 23G 1G17G19G30G21G 7G14G13R12R13R22R23
                                R24E 1E 9E12E24E26E31E33C23C27C28
  21026877.499   110496981.4661   21026882.270    86101569.6131   21026881.930  
  20756481.031   109076041.3271   20756482.586    84994329.1901   20756483.175  
  22357765.296   117490851.0291                   91551310.9561   22357766.725  
  20486753.579   107658614.1431   20486757.975    83889845.0551   20486757.886  
  23124525.500   121520204.5891                   94691073.2811   23124526.250  
  21775622.583   114431667.7361   21775624.978    89167541.7151   21775623.602  
  20801005.454   109310020.5311   20801008.010    85176646.7171   20801008.135  
  23182745.261   121826150.5191                   94929475.9601   23182749.603  
  19741979.189   105458106.225    19741986.586    82023006.868                  
  20323071.560   108524066.050    20323078.904    84407639.309                  
  20521456.437   109544924.203                                                  
  19709374.994   105431871.174                                                  
  22666505.077   121207986.092                                                  
  25862955.700   135910755.568                                                  
  25822012.389   135695583.396                                                  
  23677990.360   124428676.542                                                  
  26189772.607   137628177.817                                                  
  25814646.171   135656881.513                                                  
  23746210.002   124787177.598                                                  
  23870513.108   125440394.382                                                  
                 131016496.301    25160342.161   131016496.301                  
                 113718225.479    21838390.689   113718225.479                  
                 116283932.679    22331106.304   116283932.679                  
 21  8 31  9 19 49.0000000  0 23G 1G17G19G30G21G 7G14G13R12R13R22R23
                                R24E 1E 9E12E24E26E31E33C23C27C28
  21026957.909   110497403.9881   21026962.627    86101898.8541   21026962.395  
  20756334.451   109075271.6561   20756336.506    84993729.4471   20756336.685  
  22357266.964   117488232.5561                   91549270.5921   22357268.519  
  20486955.428   107659675.0371   20486960.181    83890671.7281   20486959.734  
  23124979.409   121522589.7031                   94692931.8091   23124980.088  
  21776180.740   114434601.1071   21776182.902    89169827.4571   21776181.794  
  20800827.800   109309086.2441   20800830.284    85175918.6991   20800830.374  
  23182874.186   121826828.8431                   94930004.5251   23182878.671  
  19742131.576   105458920.712    19742138.420    82023640.348                  
  20322610.789   108521606.544    20322618.026    84405726.358                  
  20522005.302   109547852.302                                                  
  19708979.356   105429753.998                                                  
  22665739.032   121203888.899                                                  
  25863234.921   135912222.496                                                  
  25822433.241   135697798.550                                                  
  23677478.002   124425983.481                                                  
  26189400.895   137626224.293                                                  
  25815053.977   135659024.603                                                  
  23746115.796   124786682.234                                                  
  23870467.328   125440153.394                                                  
                 131019231.668    25160867.474   131019231.668                  
                 113716789.000    21838115.024   113716789.000                  
                 116285560.575    22331418.976   116285560.575                  
 21  8 31  9 19 50.0000000  0 23G 1G17G19G30G21G 7G14G13R12R13R22R23
                                R24E 1E 9E12E24E26E31E33C23C27C28
  21027038.445   110497827.3611   21027043.359    86102228.7531   21027043.020  
  20756188.068   109074502.5051   20756190.391    84993130.1031   20756190.338  
  22356768.669   117485614.5941                   91547230.6331   22356770.313  
  20487157.401   107660736.6501   20487161.851    83891498.9611   20487161.708  
  23125433.586   121524975.3681                   94694790.7671   23125434.032  
  21776738.950   114437534.9901   21776740.987    89172113.6061   21776740.094  
  20800650.111   109308152.2771   20800652.559    85175190.9341   20800652.648  
  23183004.129   121827507.8041                   94930533.5761   23183007.864  
  19742284.124   105459735.863    19742291.128    82024274.376                  
  20322150.358   108519147.492    20322157.881    84403813.743                  
  20522553.774   109550781.056                                                  
  19708583.861   105427637.691                                                  
  22664972.558   121199791.951                                                  
  25863514.178   135913689.670                                                  
  25822854.128   135700013.906                                                  
  23676965.429   124423290.782                                                  
  26189028.862   137624270.840                                                  
  25815461.874   135661168.091                                                  
  23746021.555   124786187.134                                                  
  23870421.565   125439913.009                                                  
                 131021967.311    25161392.627   131021967.311                  
                 113715353.090    21837839.394   113715353.090                  
                 116287188.910    22331731.666   116287188.910                  
 21  8 31  9 19 51.0000000  0 23G 1G17G19G30G21G 7G14G13R12R13R22R23
                                R24E 1E 9E12E24E26E31E33C23C27C28
  21027119.106   110498251.2071   21027123.966    86102559.0231   21027123.734  
  20756041.560   109073733.4981   20756044.348    84992530.8791   20756044.008  
  22356270.570   117482996.6611                   91545190.6831   22356272.142  
  20487359.447   107661798.6091   20487363.574    83892326.4671   20487363.717  
  23125887.423   121527361.1981                   94696649.8551   23125887.977  
  21777297.339   114440469.0071   21777299.466    89174399.8441   21777298.394  
  20800472.225   109307218.2331   20800474.709    85174463.1081   20800474.887  
  23183133.483   121828187.0701                   94931062.8841   23183137.128  
  19742436.832   105460551.337    19742443.873    82024908.634                  
  20321689.784   108516688.437    20321697.379    84401901.142                  
  20523102.942   109553710.106                                                  
  19708188.348   105425521.880                                                  
  22664205.763   121195695.262                                                  
  25863793.381   135915156.780                                                  
  25823275.819   135702229.080                                                  
  23676453.106   124420598.073                                                  
  26188657.044   137622317.175                                                  
  25815869.680   135663311.629                                                  
  23745927.260   124785691.907                                                  
  23870375.820   125439672.822                                                  
                 131024702.975    25161917.851   131024702.975                  
                 113713917.331    21837563.586   113713917.331                  
                 116288817.372    22332044.499   116288817.372                  
 21  8 31  9 19 52.0000000  0 23G 1G17G19G30G21G 7G14G13R12R13R22R23
                                R24E 1E 9E12E24E26E31E33C23C27C28
  21027200.053   110498675.9221   21027204.627    86102889.9691   21027204.627  
  20755895.356   109072965.0361   20755898.304    84991932.0711   20755897.786  
  22355772.417   117480379.1741                   91543151.0661   22355774.043  
  20487561.563   107662861.3021   20487565.798    83893154.5411   20487565.869  
  23126341.618   121529747.5421                   94698509.3411   23126342.011  
  21777855.925   114443403.5611   21777857.694    89176686.5091   21777856.818  
  20800294.392   109306284.5301   20800296.930    85173735.5471   20800297.216  
  23183262.676   121828867.0701                   94931592.7881   23183266.518  
  19742589.773   105461367.521    19742596.689    82025543.436                  
  20321229.317   108514229.853    20321237.180    84399988.910                  
  20523651.736   109556639.835                                                  
  19707792.889   105423406.949                                                  
  22663438.717   121191598.738                                                  
  25864072.531   135916624.174                                                  
  25823697.617   135704444.547                                                  
  23675940.855   124417905.725                                                  
  26188285.207   137620363.569                                                  
  25816277.469   135665455.602                                                  
  23745833.090   124785196.971                                                  
  23870330.254   125439433.245                                                  
                 131027438.871    25162442.503   131027438.871                  
                 113712482.142    21837288.063   113712482.142                  
                 116290446.312    22332357.314   116290446.312                  
 21  8 31  9 19 53.0000000  0 23G 1G17G19G30G21G 7G14G13R12R13R22R23
                                R24E 1E 9E12E24E26E31E33C23C27C28
  21027281.178   110499101.9041   21027285.717    86103221.9051   21027285.717  
  20755749.241   109072197.5431   20755752.118    84991334.0291   20755751.743  
  22355274.604   117477762.5151                   91541112.0971   22355276.159  
  20487764.001   107663925.1311   20487768.325    83893983.4891   20487768.236  
  23126795.634   121532134.8271                   94700369.5651   23126796.242  
  21778414.546   114446339.0711   21778416.119    89178973.9201   21778415.422  
  20800116.774   109305351.5921   20800119.454    85173008.5831   20800119.669  
  23183392.226   121829548.1961                   94932123.5491   23183396.104  
  19742742.821   105462184.796    19742749.647    82026179.076                  
  20320769.047   108511772.095    20320776.749    84398077.314                  
  20524200.565   109559570.658                                                  
  19707397.787   105421293.322                                                  
  22662672.047   121187503.166                                                  
  25864351.985   135918092.250                                                  
  25824119.379   135706660.537                                                  
  23675428.764   124415214.185                                                  
  26187913.406   137618410.547                                                  
  25816685.777   135667600.390                                                  
  23745738.956   124784702.699                                                  
  23870284.849   125439194.680                                                  
                 131030175.570    25162967.352   131030175.570                  
                 113711047.959    21837012.737   113711047.959                  
                 116292076.161    22332670.504   116292076.161                  
 21  8 31  9 19 54.0000000  0 22G 1G17G19G30G21G 7G14G13R12R13R22R23
                                E 1E 9E12E24E26E31E33C23C27C28
  21027362.321   110499528.5171   21027366.824    86103554.3311   21027366.931  
  20755603.322   109071430.3171   20755605.806    84990736.1881   20755605.771  
  22354776.719   117475146.0811                   91539073.3231   22354778.310  
  20487966.600   107664989.4431   20487971.139    83894812.8281   20487970.764  
  23127250.043   121534522.4261                   94702230.0281   23127250.508  
  21778973.239   114449274.8581   21778974.615    89181261.5421   21778974.115  
  20799939.478   109304418.7311   20799941.872    85172281.6801   20799942.122  
  23183522.349   121830229.7221                   94932654.6151   23183525.797  
  19742895.995   105463002.484    19742902.696    82026815.058                  
  20320308.652   108509314.546    20320316.621    84396165.898                  
  20524749.573   109562501.907                                                  
  19707002.792   105419180.330                                                  
  25864631.242   135919560.366                                                  
  25824541.231   135708876.568                                                  
  23674916.549   124412522.720                                                  
  26187541.802   137616457.378                                                  
  25817094.030   135669745.355                                                  
  23745644.769   124784208.459                                                  
  23870239.426   125438956.476                                                  
                 131032912.350    25163492.630   131032912.350                  
                 113709614.056    21836737.572   113709614.056                  
                 116293706.252    22332983.534   116293706.252                  
 21  8 31  9 19 55.0000000  0 22G 1G17G19G30G21G 7G14G13R12R13R22R23
                                E 1E 9E12E24E26E31E33C23C27C28
  21027443.661   110499955.5911   21027448.361    86103887.1141   21027448.271  
  20755457.333   109070663.2581   20755459.691    84990138.4711   20755459.798  
  22354278.871   117472529.6861                   91537034.5661   22354280.514  
  20488169.181   107666054.1231   20488173.809    83895642.4491   20488173.363  
  23127704.578   121536910.1811                   94704090.6251   23127704.792  
  21779531.950   114452210.8121   21779533.076    89183549.2981   21779532.897  
  20799761.735   109303485.8051   20799764.272    85171554.7301   20799764.611  
  23183652.417   121830911.5851                   94933185.9371   23183655.562  
  19743049.382   105463820.496    19743055.869    82027451.306                  
  20319848.775   108506857.038    20319856.744    84394254.494                  
  20525298.813   109565433.434                                                  
  19706608.047   105417067.832                                                  
  25864910.642   135921028.409                                                  
  25824962.833   135711092.402                                                  
  23674404.316   124409831.277                                                  
  26187169.966   137614503.957                                                  
  25817502.319   135671890.369                                                  
  23745550.670   124783714.104                                                  
  23870194.199   125438718.510                                                  
                 131035649.086    25164018.015   131035649.086                  
                 113708180.347    21836462.193   113708180.347                  
                 116295336.445    22333296.510   116295336.445                  
 21  8 31  9 19 56.0000000  0 22G 1G17G19G30G21G 7G14G13R12R13R22R23
                                E 1E 9E12E24E26E31E33C23C27C28
  21027524.947   110500383.5421   21027529.700    86104220.5821   21027529.772  
  20755311.468   109069896.7361   20755313.952    84989541.1721   20755313.934  
  22353780.950   117469913.7571                   91534996.1851   22353782.701  
  20488371.977   107667119.5451   20488376.569    83896472.6411   20488376.087  
  23128159.219   121539298.4871                   94705951.6431   23128159.219  
  21780090.661   114455147.2971   21780091.929    89185837.4651   21780091.733  
  20799584.313   109302553.2671   20799586.582    85170828.0771   20799587.190  
  23183782.432   121831594.1501                   94933717.8061   23183785.452  
  19743202.734   105464639.197    19743209.078    82028088.087                  
  20319389.076   108504399.990    20319396.081    84392343.438                  
  20525848.268   109568365.682                                                  
  19706213.410   105414956.203                                                  
  25865190.006   135922496.725                                                  
  25825384.721   135713308.500                                                  
  23673892.118   124407140.217                                                  
  26186798.218   137612550.618                                                  
  25817910.609   135674035.829                                                  
  23745456.644   124783220.051                                                  
  23870149.062   125438481.157                                                  
                 131038386.178    25164543.221   131038386.178                  
                 113706747.199    21836186.902   113706747.199                  
                 116296967.147    22333609.611   116296967.147                  
 21  8 31  9 19 57.0000000  0 22G 1G17G19G30G21G 7G14G13R12R13R22R23
                                E 1E 9E12E24E26E31E33C23C27C28
  21027606.287   110500811.8921   21027611.183    86104554.3681   21027611.362  
  20755165.782   109069130.2751   20755168.087    84988943.9211   20755168.069  
  22353283.387   117467297.7961                   91532957.7871   22353284.835  
  20488574.826   107668185.2341   20488579.472    83897303.0461   20488578.847  
  23128613.593   121541686.8351                   94707812.6891   23128613.664  
  21780649.604   114458083.8491   21780651.087    89188125.6861   21780650.533  
  20799406.891   109301620.5611   20799409.125    85170101.2911   20799409.715  
  23183912.340   121832276.8991                   94934249.8231   23183915.342  
  19743356.086   105465458.116    19743361.965    82028725.027                  
  20318929.753   108501942.885    20318935.024    84390432.393                  
  20526397.419   109571298.138                                                  
  19705818.862   105412844.985                                                  
  25865469.585   135923964.864                                                  
  25825806.233   135715524.302                                                  
  23673379.884   124404449.014                                                  
  26186426.579   137610596.997                                                  
  25818318.862   135676181.258                                                  
  23745362.456   124782725.773                                                  
  23870104.015   125438243.936                                                  
                 131041123.150    25165068.624   131041123.150                  
                 113705314.206    21835911.737   113705314.206                  
                 116298597.860    22333922.658   116298597.860                  
 21  8 31  9 19 58.0000000  0 22G 1G17G19G30G21G 7G14G13R12R13R22R23
                                E 1E 9E12E24E26E31E33C23C27C28
  21027687.948   110501240.7241   21027692.487    86104888.5231   21027693.005  
  20755020.078   109068363.9741   20755022.365    84988346.7981   20755022.240  
  22352785.610   117464681.9201                   91530919.4381   22352787.039  
  20488777.622   107669251.2841   20488782.107    83898133.7341   20488781.696  
  23129068.020   121544075.3911                   94709673.9061   23129068.217  
  21781208.404   114461020.5751   21781210.602    89190414.0431   21781209.387  
  20799229.559   109300687.8501   20799231.650    85169374.5071   20799232.240  
  23184042.444   121832960.0561                   94934782.1231   23184045.339  
  19743509.563   105466277.393    19743515.406    82029362.233                  
  20318469.536   108499485.833    20318474.772    84388521.342                  
  20526947.016   109574230.905                                                  
  19705424.207   105410734.291                                                  
  25865749.146   135925432.910                                                  
  25826228.174   135717739.978                                                  
  23672867.669   124401757.802                                                  
  26186054.778   137608643.083                                                  
  25818727.187   135678326.727                                                  
  23745268.375   124782231.412                                                  
  23870058.949   125438006.959                                                  
                 131043860.058    25165594.206   131043860.058                  
                 113703881.381    21835636.465   113703881.381                  
                 116300228.718    22334235.670   116300228.718                  
 21  8 31  9 19 59.0000000  0 22G 1G17G19G30G21G 7G14G13R12R13R22R23
                                E 1E 9E12E24E26E31E33C23C27C28
  21027769.735   110501670.4621   21027774.345    86105223.3791   21027774.828  
  20754874.481   109067598.2791   20754876.679    84987750.1551   20754876.482  
  22352288.029   117462066.5141                   91528881.4631   22352289.369  
  20488980.649   107670318.1051   20488985.313    83898965.0231   20488984.706  
  23129522.626   121546464.5311                   94711535.5751   23129522.858  
  21781767.347   114463957.8661   21781769.455    89192702.8421   21781768.383  
  20799052.263   109299755.5081   20799054.193    85168648.0001   20799054.854  
  23184172.656   121833643.9241                   94935314.9841   23184175.461  
  19743663.130   105467097.386    19743669.098    82029999.998                  
  20318009.123   108497029.289    20318015.038    84386610.668                  
  20527496.149   109577164.438                                                  
  19705029.784   105408624.538                                                  
  25866028.564   135926901.326                                                  
  25826650.205   135719955.945                                                  
  23672355.489   124399067.130                                                  
  26185682.995   137606689.350                                                  
  25819135.405   135680472.668                                                  
  23745174.295   124781737.389                                                  
  23870013.990   125437770.613                                                  
                 131046597.335    25166119.930   131046597.335                  
                 113702449.173    21835361.514   113702449.173                  
                 116301860.089    22334548.932   116301860.089                  
 21  8 31  9 20  0.0000000  0 22G 1G17G19G30G21G 7G14G13R12R13R22R23
                                E 1E 9E12E24E26E31E33C23C27C28
  21027851.807   110502101.5291   21027856.328    86105559.2801   21027856.882  
  20754729.134   109066833.5881   20754731.296    84987154.2921   20754730.957  
  22351790.770   117459452.0851                   91526844.2461   22351791.896  
  20489183.838   107671386.1531   20489188.573    83899797.2711   20489187.948  
  23129977.464   121548854.6771                   94713398.0291   23129977.643  
  21782326.576   114466896.1711   21782328.613    89194992.4321   21782327.559  
  20798874.859   109298823.9641   20798876.878    85167922.1271   20798877.593  
  23184302.778   121834328.8821                   94935848.7111   23184305.816  
  19743816.857   105467918.531    19743822.682    82030638.634                  
  20317549.353   108494573.642    20317555.321    84384700.732                  
  20528045.800   109580099.094                                                  
  19704635.647   105406516.137                                                  
  25866308.143   135928370.490                                                  
  25827071.646   135722172.501                                                  
  23671843.416   124396377.200                                                  
  26185311.337   137604736.223                                                  
  25819543.927   135682619.481                                                  
  23745080.447   124781244.079                                                  
  23869969.264   125437535.355                                                  
                 131049335.447    25166645.619   131049335.447                  
                 113701017.973    21835086.546   113701017.973                  
                 116303492.430    22334862.480   116303492.430                  
 21  8 31  9 20  1.0000000  0 22G 1G17G19G30G21G 7G14G13R12R13R22R23
                                E 1E 9E12E24E26E31E33C23C27C28
  21027933.898   110502532.8671   21027938.276    86105895.3901   21027939.008  
  20754583.645   109066068.8091   20754585.860    84986558.3561   20754585.431  
  22351293.278   117456837.4621                   91524806.8871   22351294.422  
  20489387.152   107672454.3131   20489391.994    83900629.5991   20489391.208  
  23130432.284   121551244.7391                   94715260.4061   23130432.409  
  21782885.626   114469834.3781   21782887.449    89197281.9421   21782886.698  
  20798697.724   109297892.1511   20798699.707    85167196.0451   20798700.279  
  23184432.936   121835013.9711                   94936382.5581   23184436.170  
  19743970.548   105468739.717    19743976.106    82031277.380                  
  20317089.672   108492117.876    20317095.104    84382790.699                  
  20528595.862   109583033.837                                                  
  19704241.545   105404408.012                                                  
  25866587.543   135929839.322                                                  
  25827493.122   135724388.705                                                  
  23671331.344   124393687.062                                                  
  26184939.608   137602782.587                                                  
  25819952.359   135684766.174                                                  
  23744986.438   124780750.460                                                  
  23869924.502   125437300.103                                                  
                 131052073.297    25167171.576   131052073.297                  
                 113699586.739    21834811.470   113699586.739                  
                 116305124.670    22335175.884   116305124.670                  
 21  8 31  9 20  2.0000000  0 22G 1G17G19G30G21G 7G14G13R12R13R22R23
                                E 1E 9E12E24E26E31E33C23C27C28
  21028016.238   110502965.2231   21028020.545    86106232.2841   21028021.295  
  20754438.387   109065304.7381   20754440.925    84985962.9801   20754440.067  
  22350795.823   117454223.4521                   91522770.0031   22350797.091  
  20489590.626   107673523.3741   20489595.397    83901462.6291   20489594.665  
  23130887.265   121553635.5221                   94717123.3561   23130887.319  
  21783444.801   114472773.2901   21783446.499    89199572.0031   21783445.945  
  20798520.570   109296960.8451   20798522.554    85166470.3521   20798523.054  
  23184563.541   121835699.9331                   94936917.0941   23184566.686  
  19744124.293   105469561.783    19744129.940    82031916.746                  
  20316629.527   108489662.676    20316635.424    84380881.115                  
  20529145.960   109585969.429                                                  
  19703847.819   105402300.941                                                  
  25866867.121   135931308.606                                                  
  25827914.653   135726605.331                                                  
  23670819.700   124390997.461                                                  
  26184567.789   137600829.257                                                  
  25820360.702   135686913.419                                                  
  23744892.733   124780257.271                                                  
  23869879.901   125437065.611                                                  
                 131054811.615    25167697.604   131054811.615                  
                 113698156.237    21834536.662   113698156.237                  
                 116306757.538    22335489.325   116306757.538                  
 21  8 31  9 20  3.0000000  0 22G 1G17G19G30G21G 7G14G13R12R13R22R23
                                E 1E 9E12E24E26E31E33C23C27C28
  21028098.614   110503398.0481   21028103.064    86106569.5481   21028103.689  
  20754292.987   109064540.8251   20754295.453    84985367.7231   20754294.685  
  22350298.349   117451609.4981                   91520733.1721   22350299.671  
  20489794.208   107674592.7631   20489798.657    83902295.9171   20489798.211  
  23131342.193   121556026.4601                   94718986.4231   23131342.300  
  21784004.084   114475712.3601   21784005.657    89201862.1931   21784005.210  
  20798343.381   109296029.4981   20798345.293    85165744.6291   20798345.829  
  23184693.806   121836386.1571                   94937451.8231   23184697.237  
  19744278.235   105470384.159    19744283.757    82032556.359                  
  20316169.167   108487207.536    20316176.244    84378971.555                  
  20529695.701   109588905.320                                                  
  19703454.183   105400194.381                                                  
  25867146.682   135932777.814                                                  
  25828336.237   135728821.791                                                  
  23670308.182   124388307.834                                                  
  26184196.131   137598875.663                                                  
  25820769.277   135689060.713                                                  
  23744798.956   124779763.940                                                  
  23869835.372   125436831.343                                                  
                 131057549.887    25168223.525   131057549.887                  
                 113696725.948    21834261.783   113696725.948                  
                 116308390.519    22335802.926   116308390.519                  
 21  8 31  9 20  4.0000000  0 22G 1G17G19G30G21G 7G14G13R12R13R22R23
                                E 1E 9E12E24E26E31E33C23C27C28
  21028180.919   110503831.5831   21028185.636    86106907.3721   21028186.226  
  20754147.587   109063777.2811   20754150.017    84984772.7491   20754149.374  
  22349801.054   117448995.8381                   91518696.5551   22349802.234  
  20489997.790   107675662.7481   20490001.989    83903129.6731   20490001.810  
  23131797.174   121558417.7721                   94720849.7801   23131797.317  
  21784563.384   114478651.7971   21784564.868    89204152.6631   21784564.564  
  20798166.209   109295098.3071   20798168.247    85165019.0261   20798168.622  
  23184824.303   121837072.9381                   94937986.9981   23184827.931  
  19744432.302   105471207.037    19744437.645    82033196.384                  
  20315709.076   108484752.682    20315717.099    84377062.236                  
  20530245.548   109591841.735                                                  
  19703060.689   105398088.514                                                  
  25867426.225   135934247.095                                                  
  25828757.660   135731038.294                                                  
  23669796.448   124385618.400                                                  
  26183824.563   137596922.015                                                  
  25821177.995   135691208.251                                                  
  23744705.126   124779270.741                                                  
  23869790.949   125436597.520                                                  
                 131060288.386    25168749.947   131060288.386                  
                 113695296.060    21833987.065   113695296.060                  
                 116310023.838    22336116.617   116310023.838                  
 21  8 31  9 20  5.0000000  0 22G 1G17G19G30G21G 7G14G13R12R13R22R23
                                E 1E 9E12E24E26E31E33C23C27C28
  21028263.599   110504265.6791   21028268.263    86107245.6261   21028268.835  
  20754002.419   109063013.9491   20754004.563    84984177.9401   20754004.116  
  22349303.759   117446382.3071                   91516660.0281   22349304.867  
  20490201.479   107676733.1701   20490205.589    83903963.7761   20490205.499  
  23132252.119   121560809.3001                   94722713.3151   23132252.405  
  21785122.881   114481591.4691   21785124.365    89206443.3161   21785124.025  
  20797989.002   109294167.1531   20797991.147    85164293.4471   20797991.433  
  23184955.140   121837760.1301                   94938522.4631   23184958.696  
  19744586.386   105472030.305    19744592.283    82033836.701                  
  20315248.752   108482297.936    20315257.597    84375152.975                  
  20530795.825   109594778.502                                                  
  19702667.213   105395983.238                                                  
  25867705.661   135935716.397                                                  
  25829179.208   135733254.624                                                  
  23669284.376   124382929.052                                                  
  26183452.709   137594968.148                                                  
  25821586.982   135693355.930                                                  
  23744611.349   124778777.513                                                  
  23869746.598   125436363.994                                                  
                 131063026.908    25169275.707   131063026.908                  
                 113693866.408    21833712.543   113693866.408                  
                 116311657.328    22336430.343   116311657.328                  
 21  8 31  9 20  6.0000000  0 22G 1G17G19G30G21G 7G14G13R12R13R22R23
                                E 1E 9E12E24E26E31E33C23C27C28
  21028346.404   110504700.9551   21028351.086    86107584.7951   21028351.622  
  20753857.251   109062251.5201   20753859.377    84983583.8401   20753859.038  
  22348806.125   117443769.5711                   91514624.1261   22348807.662  
  20490405.239   107677804.6811   20490409.582    83904798.7241   20490409.421  
  23132707.243   121563201.7301                   94724577.5441   23132707.672  
  21785682.450   114484531.9971   21785684.147    89208734.6371   21785683.629  
  20797811.867   109293236.6921   20797814.082    85163568.4171   20797814.386  
  23185085.924   121838448.4111                   94939058.7911   23185089.641  
  19744740.632   105472854.596    19744746.332    82034477.826                  
  20314789.464   108479844.001    20314797.648    84373244.361                  
  20531346.673   109597716.330                                                  
  19702273.969   105393879.208                                                  
  25867985.347   135937186.324                                                  
  25829601.381   135735471.626                                                  
  23668772.821   124380240.445                                                  
  26183080.854   137593014.774                                                  
  25821996.003   135695504.395                                                  
  23744517.626   124778284.916                                                  
  23869702.408   125436131.415                                                  
                 131065766.055    25169802.039   131065766.055                  
                 113692437.660    21833438.164   113692437.660                  
                 116313291.661    22336744.284   116313291.661                  
 21  8 31  9 20  7.0000000  0 22G 1G17G19G30G21G 7G14G13R12R13R22R23
                                E 1E 9E12E24E26E31E33C23C27C28
  21028429.209   110505136.9371   21028434.337    86107924.5221   21028434.570  
  20753712.280   109061489.4501   20753714.531    84982990.0191   20753714.013  
  22348308.955   117441157.1251                   91512588.4541   22348310.474  
  20490609.286   107678876.7351   20490613.896    83905634.0811   20490613.449  
  23133162.313   121565594.5021                   94726442.0331   23133162.939  
  21786242.233   114487472.8961   21786244.073    89211026.2441   21786243.359  
  20797634.838   109292306.3931   20797637.304    85162843.5061   20797637.376  
  23185217.350   121839137.0821                   94939595.3651   23185220.638  
  19744894.895   105473679.409    19744900.792    82035119.331                  
  20314330.195   108477390.367    20314337.968    84371335.995                  
  20531896.771   109600654.664                                                  
  19701880.708   105391775.915                                                  
  25868265.140   135938656.362                                                  
  25830023.394   135737688.661                                                  
  23668261.589   124377551.995                                                  
  26182709.178   137591061.391                                                  
  25822405.079   135697653.095                                                  
  23744423.885   124777792.396                                                  
  23869658.236   125435899.291                                                  
                 131068505.379    25170328.228   131068505.379                  
                 113691009.324    21833164.089   113691009.324                  
                 116314926.306    22337058.475   116314926.306                  
 21  8 31  9 20  8.0000000  0 22G 1G17G19G30G21G 7G14G13R12R13R22R23
                                E 1E 9E12E24E26E31E33C23C27C28
  21028512.300   110505573.5951   21028517.536    86108264.7751   21028517.679  
  20753567.219   109060727.7321   20753569.399    84982396.4771   20753569.041  
  22347811.624   117438544.9471                   91510552.9791   22347813.322  
  20490813.404   107679949.3201   20490818.478    83906469.8621   20490817.585  
  23133617.580   121567987.6621                   94728306.8401   23133618.331  
  21786801.837   114490414.1081   21786804.106    89213318.0931   21786803.124  
  20797457.721   109291376.2291   20797460.329    85162118.7051   20797460.329  
  23185348.438   121839826.2961                   94940132.4051   23185351.779  
  19745049.194   105474504.721    19745055.448    82035761.261                  
  20313870.586   108474936.914    20313878.788    84369427.782                  
  20532446.994   109603593.473                                                  
  19701487.715   105389673.259                                                  
  25868545.130   135940126.524                                                  
  25830445.264   135739905.625                                                  
  23667750.302   124374863.752                                                  
  26182337.306   137589107.855                                                  
  25822814.190   135699802.003                                                  
  23744330.198   124777299.960                                                  
  23869613.974   125435667.561                                                  
                 131071244.823    25170854.417   131071244.823                  
                 113689581.373    21832889.960   113689581.373                  
                 116316561.267    22337372.577   116316561.267                  
 21  8 31  9 20  9.0000000  0 22G 1G17G19G30G21G 7G14G13R12R13R22R23
                                E 1E 9E12E24E26E31E33C23C27C28
  21028595.748   110506010.7161   21028600.519    86108605.3961   21028600.841  
  20753422.230   109059966.1511   20753424.695    84981803.0431   20753424.106  
  22347314.598   117435932.7801                   91508517.5241   22347316.277  
  20491017.611   107681022.2631   20491022.936    83907305.9231   20491021.810  
  23134072.937   121570380.9461                   94730171.7381   23134073.759  
  21787361.477   114493355.4881   21787364.622    89215610.0751   21787362.924  
  20797280.799   109290445.9971   20797283.176    85161393.8491   20797283.265  
  23185479.400   121840515.8411                   94940669.7461   23185483.009  
  19745203.725   105475330.328    19745209.980    82036403.390                  
  20313411.495   108472483.587    20313419.429    84367519.595                  
  20532997.485   109606532.538                                                  
  19701094.721   105387571.120                                                  
  25868824.816   135941596.530                                                  
  25830867.026   135742122.460                                                  
  23667238.980   124372175.484                                                  
  26181965.523   137587154.082                                                  
  25823223.141   135701950.988                                                  
  23744236.547   124776807.404                                                  
  23869569.945   125435436.045                                                  
                 131073984.298    25171380.356   131073984.298                  
                 113688153.579    21832615.707   113688153.579                  
                 116318196.296    22337686.696   116318196.296                  
 21  8 31  9 20 10.0000000  0 22G 1G17G19G30G21G 7G14G13R12R13R22R23
                                E 1E 9E12E24E26E31E33C23C27C28
  21028679.018   110506448.6121   21028684.146    86108946.6161   21028684.164  
  20753277.490   109059205.0351   20753279.617    84981209.9721   20753279.259  
  22346817.428   117433321.0091                   91506482.3761   22346819.322  
  20491221.943   107682095.8571   20491227.107    83908142.4901   20491226.124  
  23134528.561   121572774.7041                   94732037.0051   23134529.169  
  21787921.224   114496297.3371   21787924.315    89217902.4251   21787922.797  
  20797103.467   109289516.0441   20797106.022    85160669.2151   20797106.308  
  23185611.041   121841206.0031                   94941207.5201   23185614.347  
  19745358.203   105476156.558    19745364.636    82037046.021                  
  20312952.332   108470030.559    20312959.784    84365611.686                  
  20533548.030   109609472.262                                                  
  19700701.781   105385469.775                                                  
  25869104.466   135943066.762                                                  
  25831289.146   135744339.462                                                  
  23666727.605   124369487.485                                                  
  26181593.758   137585200.376                                                  
  25823632.091   135704100.289                                                  
  23744142.859   124776315.045                                                  
  23869525.987   125435205.068                                                  
                 131076723.969    25171906.170   131076723.969                  
                 113686726.264    21832341.560   113686726.264                  
                 116319831.754    22338000.870   116319831.754                  
 21  8 31  9 20 11.0000000  0 22G 1G17G19G30G21G 7G14G13R12R13R22R23
                                E 1E 9E12E24E26E31E33C23C27C28
  21028762.717   110506887.9491   21028767.720    86109288.9601   21028767.791  
  20753132.876   109058445.0271   20753135.021    84980617.7671   20753134.663  
  22346320.651   117430710.2661                   91504448.0321   22346322.509  
  20491426.525   107683170.7601   20491431.439    83908980.0771   20491430.671  
  23134984.489   121575169.5611                   94733903.1221   23134984.829  
  21788481.257   114499240.2601   21788484.080    89220195.6141   21788482.830  
  20796926.671   109288586.9831   20796929.101    85159945.2691   20796929.494  
  23185743.575   121841897.4291                   94941746.2601   23185745.916  
  19745512.913   105476984.047    19745519.650    82037689.621                  
  20312493.259   108467578.570    20312500.460    84363704.605                  
  20534099.039   109612413.205                                                  
  19700309.038   105383369.894                                                  
  25869384.349   135944537.863                                                  
  25831711.248   135746557.204                                                  
  23666216.372   124366800.455                                                  
  26181221.654   137583247.351                                                  
  25824041.328   135706250.600                                                  
  23744049.297   124775823.548                                                  
  23869482.173   125434975.245                                                  
                 131079464.555    25172431.841   131079464.555                  
                 113685300.107    21832067.610   113685300.107                  
                 116321468.266    22338315.061   116321468.266                  
 21  8 31  9 20 12.0000000  0 22G 1G17G19G30G21G 7G14G13R12R13R22R23
                                E 1E 9E12E24E26E31E33C23C27C28
  21028846.326   110507327.5381   21028851.186    86109631.4931   21028851.400  
  20752988.227   109057684.9461   20752990.496    84980025.4991   20752990.049  
  22345823.856   117428099.3641                   91502413.5771   22345825.661  
  20491631.054   107684245.7871   20491635.718    83909817.7621   20491635.254  
  23135440.328   121577564.3291                   94735769.1701   23135440.525  
  21789041.326   114502183.1211   21789044.185    89222488.7551   21789042.845  
  20796749.929   109287657.6461   20796752.341    85159221.1081   20796752.609  
  23185875.484   121842588.9351                   94942285.0931   23185877.486  
  19745667.641   105477811.596    19745674.485    82038333.274                  
  20312034.436   108465126.424    20312041.495    84361797.373                  
  20534650.191   109615354.237                                                  
  19699916.277   105381270.264                                                  
  25869664.267   135946008.638                                                  
  25832133.815   135748774.596                                                  
  23665705.050   124364113.192                                                  
  26180849.889   137581293.836                                                  
  25824450.457   135708400.724                                                  
  23743955.699   124775331.690                                                  
  23869438.393   125434745.437                                                  
                 131082204.868    25172957.869   131082204.868                  
                 113683873.909    21831793.714   113683873.909                  
                 116323104.664    22338629.109   116323104.664                  
 21  8 31  9 20 13.0000000  0 22G 1G17G19G30G21G 7G14G13R12R13R22R23
                                E 1E 9E12E24E26E31E33C23C27C28
  21028930.060   110507767.9351   21028934.795    86109974.6611   21028935.170  
  20752843.470   109056925.3531   20752846.168    84979433.6121   20752845.543  
  22345326.919   117425488.8551                   91500379.4101   22345328.920  
  20491835.655   107685321.4911   20491840.640    83910655.9691   20491839.979  
  23135896.345   121579959.6021                   94737635.6261   23135896.292  
  21789601.323   114505126.4381   21789604.111    89224782.2421   21789602.967  
  20796573.115   109286728.5991   20796575.438    85158497.1711   20796575.777  
  23186007.822   121843281.1071                   94942824.4111   23186009.127  
  19745822.565   105478639.774    19745829.195    82038977.408                  
  20311575.578   108462674.660    20311582.225    84359890.452                  
  20535200.843   109618295.884                                                  
  19699523.623   105379171.476                                                  
  25869944.096   135947479.641                                                  
  25832556.042   135750992.124                                                  
  23665193.781   124361426.226                                                  
  26180478.106   137579340.385                                                  
  25824859.443   135710551.208                                                  
  23743862.137   124774840.056                                                  
  23869394.882   125434516.177                                                  
                 131084945.524    25173483.630   131084945.524                  
                 113682448.223    21831519.764   113682448.223                  
                 116324741.498    22338943.300   116324741.498                  
 21  8 31  9 20 14.0000000  0 22G 1G17G19G30G21G 7G14G13R12R13R22R23
                                E 1E 9E12E24E26E31E33C23C27C28
  21029013.937   110508208.8881   21029018.637    86110318.2591   21029019.048  
  20752698.874   109056165.9911   20752701.697    84978841.8991   20752701.072  
  22344830.232   117422878.4781                   91498345.3431   22344832.161  
  20492040.523   107686397.6321   20492045.669    83911494.5211   20492044.829  
  23136352.041   121582355.1271                   94739502.2621   23136352.131  
  21790161.446   114508070.0151   21790163.858    89227075.9381   21790163.125  
  20796396.283   109285799.6151   20796398.606    85157773.2871   20796398.927  
  23186139.178   121843973.6541                   94943364.1251   23186140.875  
  19745977.651   105479468.363    19745984.459    82039621.853                  
  20311116.469   108460223.038    20311123.188    84357983.594                  
  20535751.620   109621237.909                                                  
  19699131.291   105377073.304                                                  
  25870224.085   135948950.645                                                  
  25832978.394   135753209.590                                                  
  23664682.620   124358739.343                                                  
  26180106.359   137577386.723                                                  
  25825268.679   135712701.853                                                  
  23743768.539   124774348.418                                                  
  23869351.371   125434287.223                                                  
                 131087686.134    25174009.587   131087686.134                  
                 113681022.795    21831246.064   113681022.795                  
                 116326378.521    22339257.705   116326378.521                  
 21  8 31  9 20 15.0000000  0 22G 1G17G19G30G21G 7G14G13R12R13R22R23
                                E 1E 9E12E24E26E31E33C23C27C28
  21029098.118   110508650.8161   21029102.693    86110662.6121   21029103.139  
  20752554.349   109055407.2831   20752557.244    84978250.6921   20752556.690  
  22344333.544   117420268.6911                   91496311.7451   22344335.492  
  20492245.445   107687474.6311   20492250.127    83912333.7401   20492249.823  
  23136807.880   121584751.2831                   94741369.3921   23136808.094  
  21790721.979   114511014.2271   21790723.659    89229370.1311   21790723.426  
  20796219.737   109284871.0441   20796221.899    85157049.7251   20796222.221  
  23186271.140   121844666.9561                   94943904.3741   23186272.766  
  19746132.915   105480297.764    19746139.776    82040266.964                  
  20310657.432   108457771.969    20310663.829    84356077.241                  
  20536302.986   109624180.747                                                  
  19698739.137   105374976.108                                                  
  25870504.129   135950422.051                                                  
  25833399.960   135755427.328                                                  
  23664171.280   124356052.964                                                  
  26179734.701   137575433.337                                                  
  25825677.916   135714853.009                                                  
  23743674.959   124773857.151                                                  
  23869307.967   125434058.993                                                  
                 131090427.203    25174535.615   131090427.203                  
                 113679598.051    21830972.525   113679598.051                  
                 116328016.143    22339572.289   116328016.143                  
 21  8 31  9 20 16.0000000  0 22G 1G17G19G30G21G 7G14G13R12R13R22R23
                                E 1E 9E12E24E26E31E33C23C27C28
  21029182.245   110509093.6101   21029187.052    86111007.6481   21029187.410  
  20752410.021   109054649.0921   20752412.969    84977659.8961   20752412.433  
  22343837.125   117417659.3391                   91494278.4721   22343838.912  
  20492450.367   107688552.3451   20492454.870    83913173.5131   20492454.906  
  23137263.755   121587147.9971                   94743236.9661   23137264.201  
  21791282.387   114513958.9481   21791284.210    89231664.7221   21791283.799  
  20796043.119   109283942.8191   20796045.049    85156326.4331   20796045.550  
  23186403.407   121845360.9741                   94944445.1821   23186404.819  
  19746288.357   105481127.846    19746295.040    82040912.585                  
  20310198.412   108455321.328    20310205.363    84354171.199                  
  20536854.210   109627124.215                                                  
  19698347.323   105372879.818                                                  
  25870784.315   135951893.721                                                  
  25833821.508   135757645.358                                                  
  23663660.083   124353366.914                                                  
  26179362.936   137573480.054                                                  
  25826087.098   135717004.573                                                  
  23743581.379   124773366.144                                                  
  23869264.635   125433831.350                                                  
                 131093168.586    25175061.750   131093168.586                  
                 113678173.862    21830699.022   113678173.862                  
                 116329654.230    22339886.891   116329654.230                  
 21  8 31  9 20 17.0000000  0 22G 1G17G19G30G21G 7G14G13R12R13R22R23
                                E 1E 9E12E24E26E31E33C23C27C28
  21029266.319   110509537.3861   21029271.769    86111353.4481   21029271.841  
  20752265.979   109053891.5761   20752268.641    84977069.6261   20752268.337  
  22343340.705   117415050.5461                   91492245.6471   22343342.492  
  20492655.664   107689630.9191   20492659.917    83914013.9581   20492660.131  
  23137719.915   121589545.3531                   94745105.0381   23137720.415  
  21791842.831   114516904.3311   21791844.779    89233959.8211   21791844.297  
  20795866.627   109283015.0341   20795868.432    85155603.4841   20795868.914  
  23186535.638   121846055.8191                   94944986.6361   23186536.996  
  19746444.068   105481958.723    19746450.733    82041558.811                  
  20309739.393   108452871.275    20309746.540    84352265.595                  
  20537406.077   109630068.553                                                  
  19697955.849   105370784.543                                                  
  25871064.269   135953365.819                                                  
  25834243.110   135759863.715                                                  
  23663148.922   124350681.365                                                  
  26178991.171   137571527.029                                                  
  25826496.478   135719156.704                                                  
  23743487.995   124772875.531                                                  
  23869221.374   125433604.468                                                  
                 131095910.498    25175587.886   131095910.498                  
                 113676750.377    21830425.661   113676750.377                  
                 116331292.960    22340201.565   116331292.960                  
 21  8 31  9 20 18.0000000  0 22G 1G17G19G30G21G 7G14G13R12R13R22R23
                                E 1E 9E12E24E26E31E33C23C27C28
  21029350.804   110509981.5621   21029356.594    86111699.5591   21029356.343  
  20752121.811   109053134.1541   20752124.474    84976479.4241   20752124.242  
  22342844.197   117412441.7401                   91490212.8171   22342846.055  
  20492860.943   107690709.7781   20492865.161    83914854.6251   20492865.429  
  23138176.272   121591942.8091                   94746973.1861   23138176.611  
  21792403.418   114519849.8241   21792405.277    89236255.0171   21792404.812  
  20795690.027   109282087.1591   20795691.743    85154880.4671   20795692.315  
  23186667.886   121846750.9021                   94945528.2521   23186669.209  
  19746599.761   105482789.804    19746606.444    82042205.212                  
  20309279.998   108450421.240    20309287.646    84350359.998                  
  20537957.300   109633013.100                                                  
  19697564.499   105368689.677                                                  
  25871344.348   135954837.756                                                  
  25834665.212   135762081.795                                                  
  23662637.814   124347995.752                                                  
  26178619.299   137569573.669                                                  
  25826906.036   135721308.843                                                  
  23743394.630   124772384.756                                                  
  23869178.167   125433377.732                                                  
                 131098652.225    25176113.878   131098652.225                  
                 113675326.994    21830152.337   113675326.994                  
                 116332931.716    22340516.274   116332931.716                  
 21  8 31  9 20 19.0000000  0 22G 1G17G19G30G21G 7G14G13R12R13R22R23
                                E 1E 9E12E24E26E31E33C23C27C28
  21029435.342   110510426.3661   21029441.025    86112046.1611   21029440.953  
  20751977.698   109052376.9871   20751980.253    84975889.4191   20751980.164  
  22342347.920   117409833.1441                   91488180.1481   22342349.672  
  20493066.330   107691789.1271   20493070.833    83915695.6781   20493070.851  
  23138632.468   121594340.5501                   94748841.5571   23138632.843  
  21792963.898   114522795.5591   21792965.560    89238550.3921   21792965.381  
  20795513.374   109281159.3741   20795515.376    85154157.5221   20795515.751  
  23186800.117   121847446.4421                   94946070.2141   23186801.547  
  19746755.453   105483621.340    19746762.279    82042851.967                  
  20308821.300   108447971.399    20308828.912    84348454.550                  
  20538508.756   109635958.061                                                  
  19697173.328   105366595.466                                                  
  25871624.642   135956309.725                                                  
  25835087.064   135764299.856                                                  
  23662126.635   124345310.259                                                  
  26178247.373   137567620.166                                                  
  25827315.629   135723461.126                                                  
  23743301.246   124771894.005                                                  
  23869135.031   125433151.330                                                  
                 131101394.064    25176640.496   131101394.064                  
                 113673903.936    21829879.012   113673903.936                  
                 116334570.720    22340831.091   116334570.720                  
 21  8 31  9 20 20.0000000  0 22G 1G17G19G30G21G 7G14G13R12R13R22R23
                                E 1E 9E12E24E26E31E33C23C27C28
  21029520.363   110510872.2581   21029525.920    86112393.6051   21029525.760  
  20751833.941   109051620.6271   20751836.532    84975300.0461   20751836.247  
  22341851.823   117407225.2381                   91486148.0111   22341853.306  
  20493271.895   107692869.4501   20493276.434    83916537.4981   20493276.398  
  23139089.111   121596739.0451                   94750710.5121   23139089.236  
  21793524.682   114525742.0791   21793526.129    89240846.3731   21793526.129  
  20795336.882   109280232.1651   20795339.044    85153435.0171   20795339.276  
  23186932.795   121848142.8421                   94946612.8341   23186934.010  
  19746911.432   105484453.856    19746917.901    82043499.470                  
  20308362.459   108445522.223    20308370.393    84346549.642                  
  20539061.070   109638903.952                                                  
  19696781.979   105364502.401                                                  
  25871904.828   135957782.234                                                  
  25835509.470   135766518.346                                                  
  23661615.706   124342625.374                                                  
  26177875.947   137565667.020                                                  
  25827725.384   135725614.054                                                  
  23743207.952   124771403.770                                                  
  23869092.074   125432925.780                                                  
                 131104136.503    25177167.025   131104136.503                  
                 113672481.681    21829605.902   113672481.681                  
                 116336210.444    22341146.032   116336210.444                  
 21  8 31  9 20 21.0000000  0 22G 1G17G19G30G21G 7G14G13R12R13R22R23
                                E 1E 9E12E24E26E31E33C23C27C28
  21029605.259   110511318.7081   21029610.834    86112741.4881   21029610.673  
  20751690.274   109050864.4701   20751692.329    84974710.8301   20751692.401  
  22341355.761   117404617.4671                   91484115.9841   22341357.030  
  20493477.639   107693950.1951   20493482.053    83917379.6301   20493482.053  
  23139545.718   121599137.7891                   94752579.6611   23139545.700  
  21794085.501   114528688.8081   21794086.966    89243142.5311   21794086.895  
  20795160.336   109279304.9731   20795162.909    85152712.5321   20795162.748  
  23187065.043   121848839.6651                   94947155.8011   23187066.562  
  19747067.572   105485286.738    19747073.826    82044147.241                  
  20307904.280   108443073.163    20307912.053    84344644.816                  
  20539613.133   109641850.222                                                  
  19696390.933   105362409.827                                                  
  25872184.889   135959254.676                                                  
  25835931.608   135768736.774                                                  
  23661104.813   124339940.565                                                  
  26177504.379   137563713.684                                                  
  25828135.210   135727767.103                                                  
  23743114.586   124770913.479                                                  
  23869049.099   125432700.508                                                  
                 131106878.915    25177693.518   131106878.915                  
                 113671059.685    21829332.720   113671059.685                  
                 116337850.337    22341460.956   116337850.337                  
 21  8 31  9 20 22.0000000  0 22G 1G17G19G30G21G 7G14G13R12R13R22R23
                                E 1E 9E12E24E26E31E33C23C27C28
  21029690.351   110511765.1401   21029695.908    86113089.3581   21029695.587  
  20751546.411   109050107.9811   20751548.109    84974121.3621   20751548.448  
  22340859.413   117402009.2881                   91482083.6411   22340860.682  
  20493683.169   107695030.8211   20493687.600    83918221.6711   20493687.690  
  23140002.272   121601536.2081                   94754448.5541   23140002.075  
  21794646.016   114531635.2091   21794647.517    89245438.4201   21794647.553  
  20794983.844   109278377.2471   20794986.220    85151989.6261   20794986.167  
  23187197.828   121849536.3471                   94947698.6891   23187199.114  
  19747223.568   105486119.465    19747229.805    82044794.939                  
  20307445.332   108440623.691    20307453.516    84342739.676                  
  20540165.197   109644796.295                                                  
  19695999.870   105360317.294                                                  
  25872465.040   135960726.554                                                  
  25836353.888   135770954.595                                                  
  23660593.955   124337255.248                                                  
  26177132.542   137561759.617                                                  
  25828544.875   135729919.723                                                  
  23743021.114   124770422.593                                                  
  23869006.142   125432475.016                                                  
                 131109620.857    25178219.904   131109620.857                  
                 113669637.401    21829059.539   113669637.401                  
                 116339489.870    22341775.790   116339489.870                  
 21  8 31  9 20 23.0000000  0 22G 1G17G19G30G21G 7G14G13R12R13R22R23
                                E 1E 9E12E24E26E31E33C23C27C28
  21029775.551   110512212.7441   21029781.054    86113438.1421   21029780.768  
  20751402.583   109049352.3511   20751404.567    84973532.5631   20751404.656  
  22340363.154   117399401.8721                   91480051.8871   22340364.584  
  20493888.770   107696112.4581   20493893.433    83919064.5011   20493893.541  
  23140458.897   121603935.4511                   94756318.0921   23140458.647  
  21795206.728   114534582.4541   21795208.337    89247734.9751   21795208.390  
  20794807.441   109277450.1611   20794809.728    85151267.2191   20794809.746  
  23187330.470   121850233.9711                   94948242.3011   23187331.792  
  19747379.779   105486953.134    19747385.873    82045443.353                  
  20306986.026   108438174.951    20306995.032    84340835.109                  
  20540717.511   109647743.345                                                  
  19695608.913   105358225.974                                                  
  25872745.226   135962199.043                                                  
  25836776.026   135773172.862                                                  
  23660082.955   124334570.618                                                  
  26176760.956   137559805.970                                                  
  25828954.683   135732073.083                                                  
  23742927.784   124769932.299                                                  
  23868963.381   125432250.419                                                  
                 131112363.391    25178746.808   131112363.391                  
                 113668215.983    21828786.625   113668215.983                  
                 116341130.196    22342090.821   116341130.196                  
 21  8 31  9 20 24.0000000  0 22G 1G17G19G30G21G 7G14G13R12R13R22R23
                                E 1E 9E12E24E26E31E33C23C27C28
  21029861.000   110512661.3391   21029866.272    86113787.7031   21029866.129  
  20751258.809   109048597.3881   20751260.989    84972944.2801   20751260.971  
  22339867.075   117396795.0081                   91478020.5591   22339868.540  
  20494094.764   107697194.9381   20494099.660    83919907.9871   20494099.535  
  23140915.665   121606335.3891                   94758188.1791   23140915.414  
  21795767.655   114537530.3311   21795769.406    89250032.0221   21795769.353  
  20794630.948   109276523.5531   20794633.271    85150545.1871   20794633.396  
  23187463.290   121850932.4991                   94948786.6311   23187464.648  
  19747535.937   105487787.609    19747542.548    82046092.387                  
  20306527.382   108435726.788    20306536.656    84338930.973                  
  20541269.985   109650691.168                                                  
  19695218.136   105356135.669                                                  
  25873025.341   135963671.957                                                  
  25837198.432   135775391.417                                                  
  23659572.169   124331886.461                                                  
  26176389.334   137557852.552                                                  
  25829364.384   135734226.965                                                  
  23742834.489   124769442.405                                                  
  23868920.746   125432026.535                                                  
                 131115106.374    25179273.372   131115106.374                  
                 113666795.260    21828513.819   113666795.260                  
                 116342771.124    22342405.870   116342771.124                  
 21  8 31  9 20 25.0000000  0 22G 1G17G19G30G21G 7G14G13R12R13R22R23
                                E 1E 9E12E24E26E31E33C23C27C28
  21029946.468   110513110.5411   21029951.668    86114137.7261   21029951.578  
  20751115.178   109047842.6801   20751117.251    84972356.1931   20751117.340  
  22339371.013   117394188.3171                   91475989.3601   22339372.496  
  20494300.919   107698277.9351   20494305.672    83920751.8831   20494305.636  
  23141372.415   121608735.5951                   94760058.4711   23141372.182  
  21796328.546   114540478.4951   21796330.708    89252329.2901   21796330.386  
  20794454.545   109275597.0251   20794457.118    85149823.2171   20794457.029  
  23187596.414   121851631.3731                   94949331.2221   23187597.629  
  19747692.255   105488622.517    19747698.777    82046741.776                  
  20306068.649   108433278.787    20306078.048    84337026.979                  
  20541822.281   109653639.429                                                  
  19694827.447   105354045.998                                                  
  25873305.581   135965144.871                                                  
  25837620.981   135777610.004                                                  
  23659061.526   124329202.470                                                  
  26176017.551   137555899.022                                                  
  25829774.246   135736381.033                                                  
  23742741.195   124768952.505                                                  
  23868878.271   125431803.030                                                  
                 131117849.504    25179800.240   131117849.504                  
                 113665374.829    21828241.084   113665374.829                  
                 116344412.302    22342720.972   116344412.302                  
 21  8 31  9 20 26.0000000  0 22G 1G17G19G30G21G 7G14G13R12R13R22R23
                                E 1E 9E12E24E26E31E33C23C27C28
  21030032.150   110513560.6001   21030037.439    86114488.4221   21030037.171  
  20750971.743   109047088.5121   20750973.673    84971768.5321   20750973.834  
  22338875.183   117391582.0841                   91473958.5381   22338876.523  
  20494507.306   107699361.6381   20494511.970    83921596.3301   20494511.880  
  23141829.165   121611136.3031                   94761929.1501   23141829.040  
  21796889.740   114543427.1901   21796891.849    89254626.9771   21796891.527  
  20794278.339   109274670.8041   20794280.662    85149101.4871   20794280.751  
  23187729.628   121852330.9661                   94949876.4071   23187730.736  
  19747848.609   105489458.107    19747855.077    82047391.654                  
  20305610.290   108430831.268    20305619.403    84335123.340                  
  20542375.113   109656588.390                                                  
  19694436.813   105351957.170                                                  
  25873585.928   135966618.093                                                  
  25838043.226   135779828.822                                                  
  23658550.883   124326518.823                                                  
  26175645.518   137553945.607                                                  
  25830184.322   135738535.505                                                  
  23742647.990   124768462.904                                                  
  23868836.011   125431580.088                                                  
                 131120592.914    25180327.287   131120592.914                  
                 113663954.972    21827968.510   113663954.972                  
                 116346053.940    22343036.217   116346053.940                  
 21  8 31  9 20 27.0000000  0 22G 1G17G19G30G21G 7G14G13R12R13R22R23
                                E 1E 9E12E24E26E31E33C23C27C28
  21030117.850   110514011.2321   21030123.192    86114839.5631   21030122.835  
  20750828.309   109046334.6261   20750830.364    84971181.0911   20750830.381  
  22338379.496   117388976.0531                   91471927.8621   22338380.622  
  20494713.639   107700445.8141   20494718.357    83922441.1401   20494718.178  
  23142286.076   121613537.2921                   94763800.0461   23142285.969  
  21797450.845   114546376.1171   21797453.079    89256924.8401   21797452.722  
  20794102.186   109273744.6451   20794104.259    85148379.8041   20794104.473  
  23187862.288   121853031.0141                   94950421.8511   23187863.914  
  19748005.088   105490294.145    19748011.413    82048041.927                  
  20305152.504   108428383.893    20305160.920    84333219.844                  
  20542927.873   109659537.757                                                  
  19694046.196   105349868.965                                                  
  25873866.275   135968091.295                                                  
  25838465.364   135782047.538                                                  
  23658040.222   124323835.253                                                  
  26175273.503   137551992.030                                                  
  25830594.291   135740690.153                                                  
  23742554.821   124767973.285                                                  
  23868793.625   125431357.484                                                  
                 131123336.344    25180853.887   131123336.344                  
                 113662535.404    21827695.936   113662535.404                  
                 116347695.787    22343351.641   116347695.787                  
 21  8 31  9 20 28.0000000  0 22G 1G17G19G30G21G 7G14G13R12R13R22R23
                                E 1E 9E12E24E26E31E33C23C27C28
  21030203.996   110514462.9841   21030209.142    86115191.5811   21030208.767  
  20750684.981   109045581.5061   20750686.982    84970594.2391   20750687.072  
  22337883.542   117386370.7091                   91469897.7291   22337884.828  
  20494920.116   107701530.9641   20494924.780    83923286.7051   20494924.691  
  23142742.897   121615939.0671                   94765671.5641   23142743.076  
  21798012.076   114549325.8631   21798014.345    89259223.3381   21798014.041  
  20793926.230   109272819.1081   20793928.178    85147658.6051   20793928.338  
  23187995.644   121853731.9781                   94950968.0451   23187997.324  
  19748161.638   105491131.120    19748168.089    82048692.909                  
  20304694.574   108425937.231    20304702.937    84331316.857                  
  20543480.651   109662488.050                                                  
  19693655.632   105347781.923                                                  
  25874146.586   135969565.063                                                  
  25838887.877   135784266.729                                                  
  23657529.579   124321152.339                                                  
  26174901.666   137550038.826                                                  
  25831004.403   135742845.464                                                  
  23742461.885   124767484.189                                                  
  23868751.455   125431135.754                                                  
                 131126080.452    25181381.166   131126080.452                  
                 113661116.670    21827423.469   113661116.670                  
                 116349338.408    22343667.244   116349338.408                  
 21  8 31  9 20 29.0000000  0 22G 1G17G19G30G21G 7G14G13R12R13R22R23
                                E 1E 9E12E24E26E31E33C23C27C28
  21030290.286   110514915.0951   21030295.396    86115543.8721   21030294.771  
  20750541.636   109044828.4241   20750543.601    84970007.4271   20750543.798  
  22337387.712   117383765.3061                   91467867.5421   22337389.070  
  20495126.682   107702616.3491   20495131.471    83924132.4661   20495131.203  
  23143199.594   121618340.8871                   94767543.1101   23143200.148  
  21798573.342   114552275.6231   21798575.772    89261521.8551   21798575.379  
  20793750.041   109271893.3691   20793751.917    85146937.2541   20793752.168  
  23188129.215   121854433.1081                   94951514.3761   23188130.734  
  19748318.278   105491968.253    19748324.836    82049344.003                  
  20304236.627   108423490.491    20304244.436    84329413.839                  
  20544033.001   109665438.505                                                  
  19693265.445   105345695.250                                                  
  25874426.826   135971038.634                                                  
  25839309.961   135786485.668                                                  
  23657019.061   124318469.270                                                  
  26174529.937   137548085.237                                                  
  25831414.569   135745000.673                                                  
  23742368.841   124766994.849                                                  
  23868709.248   125430914.133                                                  
                 131128824.377    25181908.409   131128824.377                  
                 113659697.966    21827150.859   113659697.966                  
                 116350980.990    22343982.632   116350980.990                  
 21  8 31  9 20 30.0000000  0 22G 1G17G19G30G21G 7G14G13R12R13R22R23
                                E 1E 9E12E24E26E31E33C23C27C28
  21030376.504   110515368.1061   21030381.453    86115896.8661   21030380.971  
  20750398.523   109044075.9111   20750400.256    84969421.0481   20750400.578  
  22336892.061   117381160.3901                   91465837.7381   22336893.365  
  20495333.319   107703702.5181   20495338.251    83924978.8261   20495337.912  
  23143656.719   121620743.2911                   94769415.1191   23143657.309  
  21799134.733   114555225.9671   21799137.217    89263820.8271   21799136.841  
  20793574.049   109270968.0231   20793575.568    85146216.2071   20793576.015  
  23188262.661   121855135.0431                   94952061.3611   23188264.305  
  19748475.079   105492806.125    19748481.815    82049995.670                  
  20303778.644   108421044.251    20303786.363    84327511.190                  
  20544585.850   109668389.693                                                  
  19692875.489   105343609.525                                                  
  25874707.352   135972512.488                                                  
  25839732.063   135788704.813                                                  
  23656508.489   124315786.639                                                  
  26174158.083   137546131.828                                                  
  25831824.806   135747156.377                                                  
  23742275.975   124766505.867                                                  
  23868667.131   125430693.166                                                  
                 131131568.595    25182435.921   131131568.595                  
                 113658279.889    21826878.500   113658279.889                  
                 116352624.114    22344298.199   116352624.114                  
 21  8 31  9 20 31.0000000  0 22G 1G17G19G30G21G 7G14G13R12R13R22R23
                                E 1E 9E12E24E26E31E33C23C27C28
  21030462.579   110515821.4111   21030467.671    86116250.0901   21030467.225  
  20750255.285   109043323.3601   20750256.768    84968834.6491   20750257.393  
  22336396.482   117378555.3371                   91463807.8191   22336397.643  
  20495540.135   107704788.8451   20495544.889    83925825.3101   20495544.656  
  23144113.773   121623145.6471                   94771287.0851   23144114.488  
  21799696.285   114558176.2591   21799698.822    89266119.7601   21799698.286  
  20793397.789   109270042.4391   20793399.362    85145494.9711   20793399.826  
  23188396.786   121855837.0131                   94952608.3581   23188397.876  
  19748631.897   105493644.102    19748638.545    82050647.435                  
  20303320.554   108418597.845    20303328.220    84325608.464                  
  20545138.986   109671340.959                                                  
  19692485.533   105341524.102                                                  
  25874987.806   135973986.074                                                  
  25840153.486   135790923.608                                                  
  23655998.043   124313103.787                                                  
  26173786.175   137544177.964                                                  
  25832235.114   135749311.932                                                  
  23742183.003   124766016.566                                                  
  23868625.049   125430472.211                                                  
                 131134312.662    25182963.968   131134312.662                  
                 113656861.827    21826606.158   113656861.827                  
                 116354267.150    22344613.623   116354267.150                  
 21  8 31  9 20 32.0000000  0 22G 1G17G19G30G21G 7G14G13R12R13R22R23
                                E 1E 9E12E24E26E31E33C23C27C28
  21030548.886   110516275.8311   21030554.140    86116604.1861   21030553.711  
  20750112.100   109042571.6041   20750113.941    84968248.8701   20750114.387  
  22335900.831   117375951.0311                   91461778.4991   22335902.046  
  20495747.077   107705876.1551   20495752.026    83926672.5601   20495751.597  
  23144571.166   121625548.8111                   94773159.6831   23144571.828  
  21800257.765   114561127.3281   21800260.338    89268419.2951   21800259.856  
  20793221.726   109269117.4691   20793223.495    85144774.2171   20793223.745  
  23188530.643   121856539.9371                   94953156.0611   23188531.590  
  19748788.930   105494483.034    19748795.613    82051299.960                  
  20302862.392   108416152.170    20302870.147    84323706.268                  
  20545691.693   109674293.199                                                  
  19692095.971   105339439.810                                                  
  25875268.439   135975460.206                                                  
  25840575.999   135793142.878                                                  
  23655487.703   124310421.560                                                  
  26173414.517   137542224.457                                                  
  25832645.423   135751468.159                                                  
  23742090.137   124765527.786                                                  
  23868583.164   125430252.130                                                  
                 131137057.273    25183491.337   131137057.273                  
                 113655444.570    21826333.995   113655444.570                  
                 116355910.931    22344929.262   116355910.931                  
 21  8 31  9 20 33.0000000  0 22G 1G17G19G30G21G 7G14G13R12R13R22R23
                                E 1E 9E12E24E26E31E33C23C27C28
  21030635.354   110516730.9991   21030640.661    86116958.8651   21030640.286  
  20749969.166   109041820.2561   20749971.203    84967663.4091   20749971.453  
  22335405.430   117373347.0221                   91459749.4011   22335406.502  
  20495954.000   107706964.0871   20495958.878    83927520.3021   20495958.628  
  23145028.631   121627952.3941                   94775032.6001   23145029.185  
  21800819.442   114564078.8171   21800821.479    89270719.1601   21800821.515  
  20793045.680   109268192.7161   20793047.699    85144053.6301   20793047.717  
  23188664.571   121857243.4831                   94953704.3061   23188665.464  
  19748946.017   105495322.565    19748952.825    82051952.915                  
  20302404.320   108413706.795    20302412.450    84321804.319                  
  20546243.720   109677246.009                                                  
  19691706.497   105337356.281                                                  
  25875549.233   135976934.522                                                  
  25840998.744   135795362.246                                                  
  23654977.292   124307739.598                                                  
  26173042.948   137540270.957                                                  
  25833055.874   135753624.705                                                  
  23741997.165   124765039.171                                                  
  23868541.404   125430032.545                                                  
                 131139802.128    25184018.384   131139802.128                  
                 113654027.767    21826061.921   113654027.767                  
                 116357555.099    22345244.954   116357555.099                  
 21  8 31  9 20 34.0000000  0 22G 1G17G19G30G21G 7G14G13R12R13R22R23
                                E 1E 9E12E24E26E31E33C23C27C28
  21030722.073   110517186.8271   21030727.255    86117314.0531   21030727.022  
  20749826.107   109041069.2661   20749828.376    84967078.2241   20749828.555  
  22334909.993   117370743.2631                   91457720.5021   22334910.976  
  20496161.298   107708052.5711   20496165.569    83928368.4731   20496165.730  
  23145486.311   121630356.3121                   94776905.7831   23145486.579  
  21801381.262   114567030.6371   21801382.995    89273019.2731   21801383.192  
  20792869.670   109267268.0801   20792871.761    85143333.1281   20792871.707  
  23188798.517   121857947.4981                   94954252.9141   23188799.428  
  19749103.300   105496162.585    19749110.090    82052606.257                  
  20301946.158   108411261.692    20301954.681    84319902.589                  
  20546796.927   109680199.256                                                  
  19691317.113   105335273.471                                                  
  25875829.991   135978408.933                                                  
  25841420.829   135797581.642                                                  
  23654466.864   124305057.802                                                  
  26172671.416   137538317.386                                                  
  25833466.451   135755781.466                                                  
  23741904.228   124764550.633                                                  
  23868499.680   125429813.357                                                  
                 131142547.116    25184545.627   131142547.116                  
                 113652611.334    21825789.954   113652611.334                  
                 116359199.534    22345560.789   116359199.534                  
 21  8 31  9 20 35.0000000  0 22G 1G17G19G30G21G 7G14G13R12R13R22R23
                                E 1E 9E12E24E26E31E33C23C27C28
  21030808.916   110517643.5361   21030814.152    86117669.9331   21030813.902  
  20749683.405   109040318.8281   20749685.263    84966493.4671   20749685.763  
  22334414.575   117368140.0021                   91455691.9971   22334415.575  
  20496368.508   107709141.7971   20496372.975    83929217.2231   20496373.011  
  23145944.008   121632760.7691                   94778779.3861   23145944.169  
  21801943.082   114569983.0091   21801944.923    89275319.8231   21801944.976  
  20792693.642   109266343.8171   20792696.251    85142612.9251   20792695.805  
  23188932.231   121858652.2381                   94954802.0671   23188933.518  
  19749260.619   105497003.318    19749267.838    82053260.156                  
  20301488.032   108408817.034    20301497.091    84318001.206                  
  20547350.099   109683153.216                                                  
  19690927.962   105333191.525                                                  
  25876110.767   135979883.631                                                  
  25841843.449   135799801.262                                                  
  23653956.667   124302376.421                                                  
  26172299.883   137536363.965                                                  
  25833876.849   135757938.685                                                  
  23741811.345   124764062.396                                                  
  23868458.099   125429594.779                                                  
                 131145292.454    25185073.335   131145292.454                  
                 113651195.487    21825518.095   113651195.487                  
                 116360844.489    22345876.838   116360844.489                  
 21  8 31  9 20 36.0000000  0 22G 1G17G19G30G21G 7G14G13R12R13R22R23
                                E 1E 9E12E24E26E31E33C23C27C28
  21030895.956   110518100.6821   21030901.085    86118026.1551   21030900.906  
  20749540.649   109039568.4511   20749542.597    84965908.7611   20749542.990  
  22333919.281   117365536.7441                   91453663.4841   22333920.210  
  20496575.788   107710231.3251   20496580.166    83930066.2061   20496580.363  
  23146401.669   121635165.3271                   94780653.0671   23146401.776  
  21802504.902   114572935.4691   21802506.975    89277620.4391   21802506.778  
  20792517.758   109265419.4621   20792520.224    85141892.6471   20792519.866  
  23189066.320   121859357.2361                   94955351.4071   23189067.642  
  19749417.991   105497844.263    19749424.925    82053914.224                  
  20301029.977   108406372.432    20301038.805    84316099.802                  
  20547903.502   109686107.433                                                  
  19690538.828   105331110.038                                                  
  25876391.346   135981358.186                                                  
  25842265.748   135802020.688                                                  
  23653446.418   124299694.957                                                  
  26171928.189   137534410.185                                                  
  25834287.407   135760095.874                                                  
  23741718.372   124763573.995                                                  
  23868416.607   125429376.388                                                  
                 131148037.728    25185600.293   131148037.728                  
                 113649779.772    21825246.218   113649779.772                  
                 116362489.494    22346192.780   116362489.494                  
 21  8 31  9 20 37.0000000  0 22G 1G17G19G30G21G 7G14G13R12R13R22R23
                                E 1E 9E12E24E26E31E33C23C27C28
  21030983.139   110518558.5001   21030988.303    86118382.8961   21030988.017  
  20749398.000   109038818.4621   20749400.091    84965324.3531   20749400.288  
  22333423.505   117362933.7511                   91451635.1751   22333424.863  
  20496783.105   107711321.4171   20496787.500    83930915.6261   20496787.822  
  23146859.331   121637570.2571                   94782527.0371   23146859.473  
  21803066.776   114575888.2901   21803068.795    89279921.3431   21803068.688  
  20792342.016   109264495.2431   20792344.232    85141172.4761   20792343.928  
  23189200.463   121860062.7251                   94955901.1471   23189201.875  
  19749575.561   105498685.724    19749582.476    82054568.705                  
  20300572.691   108403928.068    20300581.143    84314198.661                  
  20548457.156   109689062.168                                                  
  19690149.945   105329029.266                                                  
  25876671.872   135982832.861                                                  
  25842687.742   135804240.126                                                  
  23652936.096   124297013.710                                                  
  26171556.549   137532456.397                                                  
  25834698.020   135762253.313                                                  
  23741625.257   124763085.683                                                  
  23868375.169   125429158.429                                                  
                 131150783.135    25186126.821   131150783.135                  
                 113648364.437    21824974.359   113648364.437                  
                 116364134.807    22346508.812   116364134.807                  
 21  8 31  9 20 38.0000000  0 22G 1G17G19G30G21G 7G14G13R12R13R22R23
                                E 1E 9E12E24E26E31E33C23C27C28
  21031070.590   110519017.5621   21031075.629    86118740.6071   21031075.343  
  20749255.424   109038069.3801   20749257.407    84964740.6591   20749257.764  
  22332928.068   117360331.5991                   91449607.5251   22332929.677  
  20496990.743   107712412.6331   20496994.996    83931765.9221   20496995.514  
  23147317.314   121639976.1291                   94784401.7421   23147317.349  
  21803628.917   114578842.0271   21803630.936    89282222.9511   21803630.793  
  20792166.345   109263571.7691   20792168.543    85140452.8841   20792168.168  
  23189334.409   121860769.3191                   94956451.7271   23189336.321  
  19749733.308   105499528.298    19749739.866    82055224.050                  
  20300115.727   108401484.536    20300123.410    84312298.132                  
  20549010.864   109692017.950                                                  
  19689761.115   105326949.771                                                  
  25876952.434   135984308.216                                                  
  25843109.648   135806460.192                                                  
  23652426.078   124294333.218                                                  
  26171184.749   137530503.129                                                  
  25835108.507   135764411.573                                                  
  23741532.338   124762598.039                                                  
  23868333.873   125428941.462                                                  
                 131153529.275    25186653.636   131153529.275                  
                 113646950.065    21824702.606   113646950.065                  
                 116365780.998    22346824.968   116365780.998                  
 21  8 31  9 20 39.0000000  0 22G 1G17G19G30G21G 7G14G13R12R13R22R23
                                E 1E 9E12E24E26E31E33C23C27C28
  21031158.113   110519477.3051   21031163.098    86119098.8461   21031162.830  
  20749112.864   109037320.6401   20749115.277    84964157.2311   20749115.330  
  22332433.186   117357729.7001                   91447580.0681   22332434.544  
  20497198.488   107713504.3801   20497202.866    83932616.6291   20497203.295  
  23147775.279   121642382.3211                   94786276.6951   23147775.279  
  21804191.095   114581796.0921   21804192.721    89284524.8201   21804192.881  
  20791990.729   109262648.4281   20791992.855    85139733.3991   20791992.444  
  23189468.659   121861476.4011                   94957002.6931   23189470.875  
  19749891.110   105500371.363    19749897.471    82055879.763                  
  20299657.904   108399041.261    20299665.785    84310397.793                  
  20549564.911   109694974.181                                                  
  19689372.374   105324870.985                                                  
  25877233.085   135985783.660                                                  
  25843532.161   135808680.213                                                  
  23651915.864   124291652.907                                                  
  26170813.019   137528549.766                                                  
  25835519.262   135766570.060                                                  
  23741439.491   124762110.477                                                  
  23868292.614   125428724.897                                                  
                 131156275.485    25187181.147   131156275.485                  
                 113645536.062    21824430.997   113645536.062                  
                 116367427.489    22347141.018   116367427.489                  
 21  8 31  9 20 40.0000000  0 22G 1G17G19G30G21G 7G14G13R12R13R22R23
                                E 1E 9E12E24E26E31E33C23C27C28
  21031245.850   110519937.9521   21031251.014    86119457.7871   21031250.478  
  20748970.484   109036572.5061   20748972.753    84963574.2731   20748972.986  
  22331938.089   117355128.3001                   91445552.9991   22331939.554  
  20497406.305   107714596.9011   20497410.736    83933467.9451   20497411.201  
  23148233.012   121644789.1151                   94788152.1181   23148233.226  
  21804753.415   114584750.7351   21804755.130    89286827.1311   21804755.059  
  20791815.362   109261725.4911   20791817.238    85139014.2271   20791816.774  
  23189602.552   121862184.1811                   94957554.1841   23189605.518  
  19750049.125   105501215.145    19750055.790    82056536.028                  
  20299201.047   108396598.472    20299207.837    84308497.841                  
  20550119.029   109697931.194                                                  
  19688983.812   105322793.146                                                  
  25877513.878   135987259.426                                                  
  25843954.227   135810900.543                                                  
  23651405.900   124288973.014                                                  
  26170441.326   137526596.586                                                  
  25835930.125   135768729.019                                                  
  23741346.750   124761623.233                                                  
  23868251.497   125428509.000                                                  
                 131159022.134    25187709.052   131159022.134                  
                 113644122.685    21824159.549   113644122.685                  
                 116369074.500    22347457.282   116369074.500                  
 21  8 31  9 20 41.0000000  0 22G 1G17G19G30G21G 7G14G13R12R13R22R23
                                E 1E 9E12E24E26E31E33C23C27C28
  21031333.569   110520399.0391   21031338.804    86119817.0731   21031338.197  
  20748828.247   109035824.4821   20748830.391    84962991.4001   20748830.623  
  22331442.992   117352526.9381                   91443525.9681   22331444.529  
  20497614.407   107715689.7541   20497618.714    83934319.5211   20497619.160  
  23148690.852   121647196.0111                   94790027.6261   23148691.245  
  21805315.628   114587705.4961   21805317.719    89289129.5421   21805317.272  
  20791639.745   109260802.4571   20791641.389    85138294.9831   20791641.050  
  23189737.141   121862892.3101                   94958105.9371   23189740.232  
  19750207.195   105502059.186    19750213.663    82057192.514                  
  20298743.868   108394155.698    20298750.551    84306597.915                  
  20550673.058   109700888.409                                                  
  19688595.411   105320715.746                                                  
  25877794.726   135988735.075                                                  
  25844376.562   135813120.653                                                  
  23650895.972   124286293.084                                                  
  26170069.614   137524643.097                                                  
  25836341.148   135770887.986                                                  
  23741254.028   124761135.844                                                  
  23868210.452   125428293.289                                                  
                 131161768.690    25188237.135   131161768.690                  
                 113642709.450    21823887.922   113642709.450                  
                 116370721.602    22347773.617   116370721.602                  
 21  8 31  9 20 42.0000000  0 22G 1G17G19G30G21G 7G14G13R12R13R22R23
                                E 1E 9E12E24E26E31E33C23C27C28
  21031421.305   110520860.7071   21031426.756    86120176.8171   21031426.041  
  20748685.974   109035076.6911   20748687.778    84962408.7081   20748688.314  
  22330947.948   117349925.7221                   91441499.0491   22330949.503  
  20497822.421   107716783.0451   20497826.745    83935171.4361   20497827.192  
  23149148.996   121649603.1621                   94791903.3261   23149149.299  
  21805877.948   114590660.5061   21805880.075    89291432.1421   21805879.539  
  20791464.075   109259879.4701   20791465.755    85137575.7721   20791465.326  
  23189872.195   121863600.8481                   94958658.0371   23189875.054  
  19750365.300   105502903.639    19750371.500    82057849.296                  
  20298286.385   108391713.097    20298292.925    84304698.123                  
  20551227.176   109703846.012                                                  
  19688207.314   105318638.949                                                  
  25878075.591   135990210.724                                                  
  25844799.110   135815340.748                                                  
  23650386.044   124283613.229                                                  
  26169697.885   137522689.444                                                  
  25836751.939   135773047.101                                                  
  23741161.181   124760648.444                                                  
  23868169.389   125428077.889                                                  
                 131164515.322    25188765.093   131164515.322                  
                 113641296.496    21823616.331   113641296.496                  
                 116372368.901    22348089.774   116372368.901                  
 21  8 31  9 20 43.0000000  0 22G 1G17G19G30G21G 7G14G13R12R13R22R23
                                E 1E 9E12E24E26E31E33C23C27C28
  21031509.257   110521322.8851   21031514.832    86120536.9581   21031513.992  
  20748543.611   109034329.1111   20748545.505    84961826.1811   20748546.059  
  22330453.244   117347324.6241                   91439472.2241   22330454.513  
  20498030.523   107717876.7251   20498035.187    83936023.6541   20498035.276  
  23149606.961   121652010.5221                   94793779.1941   23149607.461  
  21806440.376   114593615.6921   21806442.752    89293734.8851   21806441.877  
  20791288.423   109258956.4891   20791290.084    85136856.5691   20791289.655  
  23190006.999   121864309.7111                   94959210.4181   23190009.965  
  19750523.423   105503748.462    19750529.641    82058506.362                  
  20297829.242   108389270.600    20297835.264    84302798.394                  
  20551781.223   109706803.945                                                  
  19687819.359   105316562.681                                                  
  25878356.421   135991686.300                                                  
  25845221.409   135817560.608                                                  
  23649876.080   124280933.411                                                  
  26169326.209   137520735.562                                                  
  25837162.730   135775206.277                                                  
  23741068.405   124760160.974                                                  
  23868128.380   125427862.764                                                  
                 131167261.930    25189292.855   131167261.930                  
                 113639883.773    21823344.722   113639883.773                  
                 116374016.331    22348406.037   116374016.331                  
 21  8 31  9 20 44.0000000  0 22G 1G17G19G30G21G 7G14G13R12R13R22R23
                                E 1E 9E12E24E26E31E33C23C27C28
  21031597.226   110521786.3321   21031603.212    86120898.0831   21031602.194  
  20748401.552   109033582.4701   20748403.679    84961244.3851   20748403.965  
  22329958.415   117344724.3771                   91437446.0641   22329959.738  
  20498238.912   107718971.5271   20498243.504    83936876.7441   20498243.576  
  23150065.194   121654418.8091                   94795655.7811   23150065.837  
  21807002.875   114596571.8151   21807005.269    89296038.3541   21807004.429  
  20791112.770   109258034.2571   20791114.450    85136137.9481   20791114.110  
  23190142.214   121865019.6651                   94959763.6501   23190145.091  
  19750681.921   105504594.394    19750687.675    82059164.326                  
  20297372.081   108386828.977    20297378.460    84300899.342                  
  20552336.021   109709762.988                                                  
  19687431.530   105314487.742                                                  
  25878637.393   135993162.603                                                  
  25845644.190   135819781.161                                                  
  23649366.312   124278254.392                                                  
  26168954.623   137518782.214                                                  
  25837573.842   135777366.277                                                  
  23740975.807   124759674.172                                                  
  23868087.585   125427648.658                                                  
                 131170009.292    25189820.598   131170009.292                  
                 113638472.030    21823073.506   113638472.030                  
                 116375664.665    22348722.516   116375664.665                  
 21  8 31  9 20 45.0000000  0 22G 1G17G19G30G21G 7G14G13R12R13R22R23
                                E 1E 9E12E24E26E31E33C23C27C28
  21031685.410   110522250.0891   21031691.574    86121259.4521   21031690.449  
  20748259.637   109032835.8201   20748261.602    84960662.5771   20748261.834  
  22329463.587   117342124.0301                   91435419.8161   22329464.962  
  20498447.390   107720066.5311   20498451.982    83937729.9961   20498451.928  
  23150523.517   121656827.0991                   94797532.3681   23150524.160  
  21807565.534   114599527.9221   21807567.625    89298341.8151   21807566.946  
  20790937.171   109257111.7871   20790938.958    85135419.1401   20790938.565  
  23190277.089   121865729.7401                   94960316.9581   23190280.199  
  19750840.330   105505440.446    19750846.280    82059822.361                  
  20296914.956   108384387.219    20296921.353    84299000.188                  
  20552890.693   109712722.131                                                  
  19687043.969   105312413.114                                                  
  25878918.473   135994638.613                                                  
  25846066.918   135822001.283                                                  
  23648856.509   124275575.185                                                  
  26168582.715   137516828.420                                                  
  25837984.991   135779526.143                                                  
  23740883.031   124759187.103                                                  
  23868046.790   125427434.573                                                  
                 131172756.383    25190348.700   131172756.383                  
                 113637060.292    21822802.272   113637060.292                  
                 116377312.933    22349039.208   116377312.933                  
 21  8 31  9 20 46.0000000  0 22G 1G17G19G30G21G 7G14G13R12R13R22R23
                                E 1E 9E12E24E26E31E33C23C27C28
  21031773.772   110522714.5391   21031779.722    86121621.3631   21031778.829  
  20748117.721   109032089.5311   20748119.740    84960081.0441   20748119.776  
  22328968.900   117339523.9711                   91433393.7951   22328970.223  
  20498655.707   107721162.1021   20498660.549    83938583.6851   20498660.335  
  23150982.054   121659235.7501                   94799409.2421   23150982.500  
  21808128.194   114602484.4001   21808130.249    89300645.5681   21808129.517  
  20790761.554   109256189.5041   20790763.538    85134700.4811   20790763.020  
  23190411.947   121866440.3551                   94960870.6541   23190415.431  
  19750998.846   105506287.010    19751004.457    82060480.791                  
  20296457.491   108381945.745    20296463.995    84297101.259                  
  20553445.240   109715681.803                                                  
  19686656.443   105310339.215                                                  
  25879199.392   135996114.752                                                  
  25846489.502   135824221.598                                                  
  23648346.741   124272896.186                                                  
  26168210.914   137514874.606                                                  
  25838396.086   135781686.299                                                  
  23740790.345   124758700.146                                                  
  23868006.066   125427220.945                                                  
                 131175503.730    25190876.819   131175503.730                  
                 113635648.956    21822531.181   113635648.956                  
                 116378961.529    22349355.937   116378961.529                  
 21  8 31  9 20 47.0000000  0 22G 1G17G19G30G21G 7G14G13R12R13R22R23
                                E 1E 9E12E24E26E31E33C23C27C28
  21031862.438   110523179.8781   21031868.228    86121983.9651   21031867.406  
  20747975.912   109031343.7971   20747977.681    84959499.9481   20747977.842  
  22328474.250   117336924.3791                   91431368.1391   22328475.537  
  20498864.292   107722258.4141   20498868.956    83939437.9531   20498868.848  
  23151440.698   121661644.9441                   94801286.5291   23151440.948  
  21808690.800   114605441.4141   21808692.802    89302949.7371   21808692.194  
  20790585.884   109255267.5681   20790588.100    85133982.0871   20790587.528  
  23190547.662   121867151.6831                   94961424.9671   23190550.789  
  19751157.505   105507134.258    19751163.098    82061139.750                  
  20295999.883   108379504.733    20296007.174    84295202.708                  
  20553999.841   109718642.157                                                  
  19686269.132   105308266.203                                                  
  25879480.525   135997591.217                                                  
  25846912.265   135826442.016                                                  
  23647837.188   124270217.566                                                  
  26167839.132   137512920.932                                                  
  25838807.091   135783846.889                                                  
  23740697.712   124758213.483                                                  
  23867965.593   125427007.936                                                  
                 131178251.353    25191404.437   131178251.353                  
                 113634238.201    21822260.161   113634238.201                  
                 116380610.628    22349672.701   116380610.628                  
 21  8 31  9 20 48.0000000  0 22G 1G17G19G30G21G 7G14G13R12R13R22R23
                                E 1E 9E12E24E26E31E33C23C27C28
  21031951.372   110523646.4791   21031956.983    86122347.5521   21031956.179  
  20747834.068   109030599.0021   20747835.337    84958919.5861   20747836.051  
  22327979.654   117334325.6341                   91429343.1361   22327981.029  
  20499073.127   107723355.9011   20499077.630    83940293.1371   20499077.648  
  23151899.199   121664055.0891                   94803164.5701   23151899.628  
  21809253.532   114608399.3731   21809255.604    89305254.6341   21809255.051  
  20790410.428   109254346.3981   20790412.751    85133264.2911   20790412.233  
  23190683.824   121867864.1021                   94961980.0861   23190686.362  
  19751316.254   105507982.610    19751322.418    82061799.595                  
  20295542.847   108377064.574    20295550.048    84293304.830                  
  20554554.210   109721603.635                                                  
  19685882.018   105306194.523                                                  
  25879761.569   135999068.377                                                  
  25847335.350   135828663.132                                                  
  23647327.599   124267539.752                                                  
  26167467.456   137510967.778                                                  
  25839218.400   135786008.316                                                  
  23740605.418   124757727.506                                                  
  23867925.334   125426795.966                                                  
                 131180999.793    25191932.217   131180999.793                  
                 113632828.432    21821989.481   113632828.432                  
                 116382260.611    22349989.590   116382260.611                  
 21  8 31  9 20 49.0000000  0 22G 1G17G19G30G21G 7G14G13R12R13R22R23
                                E 1E 9E12E24E26E31E33C23C27C28
  21032040.378   110524113.7721   21032045.792    86122711.6791   21032045.095  
  20747692.420   109029854.5701   20747693.742    84958339.5121   20747694.350  
  22327485.164   117331727.1681                   91427318.3601   22327486.558  
  20499282.213   107724453.9221   20499286.948    83941148.7381   20499286.573  
  23152357.897   121666465.5921                   94805042.8821   23152358.379  
  21809816.299   114611357.6811   21809818.961    89307559.8071   21809817.978  
  20790235.258   109253425.3801   20790237.367    85132546.6151   20790236.956  
  23190819.897   121868577.0351                   94962535.6231   23190822.005  
  19751475.145   105508831.477    19751481.274    82062459.844                  
  20295085.865   108374624.695    20295092.941    84291407.119                  
  20555108.989   109724565.616                                                  
  19685494.975   105304123.516                                                  
  25880042.738   136000545.614                                                  
  25847758.060   135830884.257                                                  
  23646818.100   124264862.115                                                  
  26167095.709   137509014.562                                                  
  25839629.959   135788169.977                                                  
  23740513.071   124757241.614                                                  
  23867885.021   125426584.401                                                  
                 131183748.324    25192459.674   131183748.324                  
                 113631419.035    21821718.855   113631419.035                  
                 116383910.905    22350306.587   116383910.905                  
 21  8 31  9 20 50.0000000  0 22G 1G17G19G30G21G 7G14G13R12R13R22R23
                                E 1E 9E12E24E26E31E33C23C27C28
  21032129.205   110524581.5491   21032134.512    86123076.1791   21032134.101  
  20747550.683   109029110.2941   20747551.648    84957759.5561   20747552.702  
  22326990.764   117329128.8141                   91425293.6681   22326992.068  
  20499491.280   107725552.3121   20499496.141    83942004.6151   20499495.551  
  23152816.291   121668876.2701                   94806921.3371   23152817.167  
  21810379.119   114614316.1421   21810381.728    89309865.1031   21810380.960  
  20790059.999   109252504.3301   20790061.786    85131828.9091   20790061.660  
  23190955.844   121869290.2851                   94963091.3931   23190957.703  
  19751634.090   105509680.685    19751640.094    82063120.330                  
  20294628.936   108372184.873    20294635.672    84289509.500                  
  20555664.251   109727527.893                                                  
  19685107.735   105302053.019                                                  
  25880323.675   136002022.798                                                  
  25848180.787   135833105.233                                                  
  23646308.547   124262184.493                                                  
  26166723.997   137507061.094                                                  
  25840041.269   135790331.671                                                  
  23740420.545   124756755.640                                                  
  23867844.834   125426373.065                                                  
                 131186496.846    25192987.007   131186496.846                  
                 113630009.856    21821448.264   113630009.856                  
                 116385561.318    22350623.547   116385561.318                  
 21  8 31  9 20 51.0000000  0 22G 1G17G19G30G21G 7G14G13R12R13R22R23
                                E 1E 9E12E24E26E31E33C23C27C28
  21032218.318   110525050.2221   21032223.303    86123441.3761   21032223.285  
  20747409.053   109028366.6021   20747410.215    84957180.0581   20747411.126  
  22326496.328   117326530.9381                   91423269.3491   22326497.686  
  20499700.491   107726651.4691   20499704.976    83942861.1001   20499704.743  
  23153275.025   121671287.5071                   94808800.2161   23153276.025  
  21810942.262   114617275.1671   21810944.835    89312170.8461   21810944.031  
  20789884.954   109251583.6351   20789886.562    85131111.4801   20789886.401  
  23191091.774   121870004.2721                   94963647.7251   23191093.561  
  19751793.178   105510530.599    19751798.664    82063781.384                  
  20294172.168   108369745.537    20294178.833    84287612.243                  
  20556219.013   109730490.843                                                  
  19684720.746   105299983.469                                                  
  25880604.558   136003500.301                                                  
  25848603.854   135835326.411                                                  
  23645799.030   124259507.275                                                  
  26166352.286   137505107.805                                                  
  25840452.756   135792493.860                                                  
  23740328.180   124756269.965                                                  
  23867804.664   125426162.387                                                  
                 131189245.696    25193514.536   131189245.696                  
                 113628601.264    21821177.727   113628601.264                  
                 116387212.249    22350940.615   116387212.249                  
 21  8 31  9 20 52.0000000  0 22G 1G17G19G30G21G 7G14G13R12R13R22R23
                                E 1E 9E12E24E26E31E33C23C27C28
  21032307.716   110525519.7451   21032312.666    86123807.2411   21032312.630  
  20747267.513   109027623.4331   20747268.889    84956600.9681   20747269.657  
  22326002.017   117323933.4491                   91421245.3301   22326003.411  
  20499909.719   107727751.3611   20499914.061    83943718.1581   20499914.097  
  23153733.955   121673699.2621                   94810679.5041   23153734.937  
  21811505.368   114620234.7111   21811507.798    89314476.9861   21811507.191  
  20789709.748   109250663.2921   20789711.303    85130394.3301   20789711.177  
  23191227.882   121870718.9041                   94964204.6131   23191229.598  
  19751952.444   105511381.218    19751957.662    82064442.969                  
  20293715.221   108367306.633    20293722.029    84285715.311                  
  20556774.025   109733454.464                                                  
  19684333.917   105297914.806                                                  
  25880885.692   136004978.072                                                  
  25849027.189   135837547.850                                                  
  23645289.709   124256830.424                                                  
  26165980.503   137503154.606                                                  
  25840864.048   135794656.432                                                  
  23740235.815   124755784.569                                                  
  23867764.709   125425952.301                                                  
                 131191994.904    25194042.387   131191994.904                  
                 113627193.240    21820907.190   113627193.240                  
                 116388863.666    22351257.719   116388863.666                  
 21  8 31  9 20 53.0000000  0 22G 1G17G19G30G21G 7G14G13R12R13R22R23
                                E 1E 9E12E24E26E31E33C23C27C28
  21032397.151   110525989.9731   21032402.083    86124173.6521   21032402.118  
  20747126.097   109026880.6391   20747127.527    84956022.1691   20747128.241  
  22325507.939   117321336.3041                   91419221.5831   22325509.225  
  20500119.108   107728851.8151   20500123.218    83944575.6561   20500123.504  
  23154193.028   121676111.4171                   94812559.1021   23154193.993  
  21812068.475   114623194.6361   21812071.244    89316783.4261   21812070.422  
  20789534.685   109249743.1231   20789536.079    85129677.3171   20789536.043  
  23191363.419   121871434.0911                   94964761.9571   23191365.724  
  19752111.675   105512232.391    19752117.036    82065105.002                  
  20293258.614   108364868.043    20293265.101    84283818.625                  
  20557329.269   109736418.618                                                  
  19683947.106   105295846.860                                                  
  25881166.914   136006455.998                                                  
  25849450.649   135839769.303                                                  
  23644780.424   124254153.788                                                  
  26165608.792   137501201.367                                                  
  25841275.553   135796819.305                                                  
  23740143.558   124755299.270                                                  
  23867724.808   125425742.667                                                  
                 131194744.298    25194570.346   131194744.298                  
                 113625785.611    21820636.832   113625785.611                  
                 116390515.420    22351574.966   116390515.420                  
 21  8 31  9 20 54.0000000  0 22G 1G17G19G30G21G 7G14G13R12R13R22R23
                                E 1E 9E12E24E26E31E33C23C27C28
  21032486.639   110526460.1571   21032491.624    86124540.0291   21032491.588  
  20746984.539   109026137.4931   20746985.915    84955443.1011   20746986.772  
  22325013.664   117318738.6771                   91417197.4651   22325015.004  
  20500328.497   107729952.0921   20500332.625    83945433.0151   20500332.858  
  23154651.976   121678523.1991                   94814438.4151   23154653.012  
  21812631.778   114626154.1681   21812634.458    89319089.5551   21812633.582  
  20789359.676   109248822.3781   20789360.677    85128959.8561   20789360.820  
  23191499.259   121872149.0691                   94965319.0891   23191501.797  
  19752270.924   105513083.296    19752276.463    82065766.812                  
  20292801.453   108362428.936    20292808.976    84281921.540                  
  20557884.585   109739382.532                                                  
  19683560.421   105293778.914                                                  
  25881447.851   136007933.284                                                  
  25849873.270   135841990.120                                                  
  23644271.032   124251476.611                                                  
  26165236.973   137499247.385                                                  
  25841687.023   135798981.674                                                  
  23740051.085   124754813.335                                                  
  23867684.978   125425532.733                                                  
                 131197493.119    25195098.161   131197493.119                  
                 113624377.677    21820366.349   113624377.677                  
                 116392166.743    22351891.962   116392166.743                  
 21  8 31  9 20 55.0000000  0 22G 1G17G19G30G21G 7G14G13R12R13R22R23
                                E 1E 9E12E24E26E31E33C23C27C28
  21032576.288   110526931.4321   21032581.202    86124907.2591   21032581.291  
  20746843.231   109025395.1181   20746844.821    84954864.6251   20746845.446  
  22324519.424   117316141.7171                   91415173.8641   22324520.854  
  20500538.012   107731053.3381   20500542.711    83946291.1241   20500542.390  
  23155111.299   121680935.7471                   94816318.3231   23155112.157  
  21813195.099   114629114.4661   21813197.815    89321396.2811   21813196.886  
  20789184.595   109247902.2081   20789185.918    85128242.8401   20789185.739  
  23191634.814   121872864.9691                   94965876.8971   23191637.994  
  19752430.280   105513935.140    19752436.266    82066429.332                  
  20292344.864   108359990.533    20292352.619    84280025.018                  
  20558439.990   109742347.339                                                  
  19683174.092   105291712.073                                                  
  25881729.252   136009411.099                                                  
  25850295.729   135844211.319                                                  
  23643761.782   124248800.045                                                  
  26164865.244   137497293.732                                                  
  25842098.565   135801144.691                                                  
  23739958.792   124754327.933                                                  
  23867645.183   125425323.633                                                  
                 131200242.545    25195626.119   131200242.545                  
                 113622970.536    21820096.276   113622970.536                  
                 116393818.802    22352209.084   116393818.802                  
 21  8 31  9 20 56.0000000  0 22G 1G17G19G30G21G 7G14G13R12R13R22R23
                                E 1E 9E12E24E26E31E33C23C27C28
  21032666.258   110527403.9491   21032671.297    86125275.4541   21032671.226  
  20746702.155   109024653.6011   20746703.441    84954286.8171   20746704.263  
  22324025.400   117313545.5901                   91413150.9081   22324026.775  
  20500747.687   107732155.6931   20500752.279    83947150.1041   20500752.136  
  23155570.533   121683349.1841                   94818198.9231   23155571.462  
  21813758.491   114632075.6591   21813761.368    89323703.7041   21813760.385  
  20789009.765   109246982.7461   20789011.141    85127526.3761   20789010.730  
  23191770.886   121873581.8991                   94966435.4791   23191774.406  
  19752589.957   105514788.029    19752595.926    82067092.702                  
  20291887.989   108357552.927    20291896.208    84278129.125                  
  20558995.806   109745313.228                                                  
  19682787.889   105289646.508                                                  
  25882010.725   136010889.565                                                  
  25850718.171   135846433.116                                                  
  23643252.658   124246124.209                                                  
  26164493.532   137495340.564                                                  
  25842510.249   135803308.503                                                  
  23739866.552   124753843.150                                                  
  23867605.639   125425115.490                                                  
                 131202992.582    25196153.916   131202992.582                  
                 113621564.271    21819826.525   113621564.271                  
                 116395471.705    22352526.295   116395471.705                  
 21  8 31  9 20 57.0000000  0 22G 1G17G19G30G21G 7G14G13R12R13R22R23
                                E 1E 9E12E24E26E31E33C23C27C28
  21032756.390   110527876.9551   21032761.321    86125644.0331   21032761.232  
  20746561.061   109023912.2891   20746562.633    84953709.1721   20746563.151  
  22323531.321   117310949.5631                   91411128.0271   22323532.733  
  20500957.398   107733258.4321   20500961.776    83948009.3721   20500961.954  
  23156029.785   121685762.8121                   94820079.6751   23156030.821  
  21814322.134   114635037.0401   21814324.546    89326011.2731   21814323.867  
  20788834.934   109246063.2571   20788836.078    85126809.8911   20788835.756  
  23191907.763   121874299.2071                   94966994.4411   23191910.890  
  19752749.671   105515641.260    19752755.782    82067756.345                  
  20291430.667   108355115.463    20291439.244    84276233.276                  
  20559551.228   109748279.401                                                  
  19682401.811   105287581.453                                                  
  25882292.109   136012367.972                                                  
  25851140.487   135848654.807                                                  
  23642743.552   124243448.430                                                  
  26164121.660   137493387.163                                                  
  25842921.880   135805472.401                                                  
  23739774.276   124753358.294                                                  
  23867566.149   125424907.622                                                  
                 131205742.656    25196682.053   131205742.656                  
                 113620158.294    21819556.739   113620158.294                  
                 116397124.729    22352843.541   116397124.729                  
 21  8 31  9 20 58.0000000  0 22G 1G17G19G30G21G 7G14G13R12R13R22R23
                                E 1E 9E12E24E26E31E33C23C27C28
  21032846.432   110528350.2321   21032851.238    86126012.8171   21032851.274  
  20746420.056   109023170.9531   20746421.522    84953131.5141   20746422.058  
  22323037.171   117308353.3831                   91409105.0271   22323038.654  
  20501167.323   107734361.3121   20501171.683    83948868.7641   20501171.808  
  23156489.072   121688176.3871                   94821960.3781   23156490.180  
  21814885.598   114637998.3621   21814888.385    89328318.7951   21814887.313  
  20788659.979   109245143.5391   20788660.872    85126093.2211   20788660.729  
  23192044.032   121875016.5971                   94967553.4861   23192047.356  
  19752909.348   105516494.614    19752915.656    82068420.032                  
  20290974.024   108352677.800    20290982.458    84274337.348                  
  20560106.759   109751245.705                                                  
  19682015.912   105285516.704                                                  
  25882573.385   136013846.069                                                  
  25851562.571   135850876.132                                                  
  23642234.392   124240772.442                                                  
  26163749.859   137491433.307                                                  
  25843333.672   135807636.107                                                  
  23739681.965   124752873.151                                                  
  23867526.569   125424699.778                                                  
                 131208492.469    25197210.404   131208492.469                  
                 113618752.273    21819286.809   113618752.273                  
                 116398777.684    22353160.877   116398777.684                  
 21  8 31  9 20 59.0000000  0 22G 1G17G19G30G21G 7G14G13R12R13R22R23
                                E 1E 9E12E24E26E31E33C23C27C28
  21032936.599   110528824.2041   21032941.423    86126382.1461   21032941.441  
  20746279.159   109022429.9401   20746281.053    84952554.1021   20746280.982  
  22322543.128   117305757.5021                   91407082.2701   22322544.647  
  20501377.409   107735464.7561   20501381.483    83949728.5951   20501381.716  
  23156948.628   121690590.3171                   94823841.3601   23156949.646  
  21815449.276   114640960.0161   21815452.171    89330626.5811   21815450.866  
  20788485.023   109244223.9771   20788485.809    85125376.6771   20788485.720  
  23192181.034   121875734.5311                   94968112.9191   23192183.982  
  19753069.115   105517348.457    19753075.369    82069084.146                  
  20290517.506   108350240.429    20290526.816    84272441.601                  
  20560662.128   109754212.497                                                  
  19681630.066   105283452.683                                                  
  25882854.894   136015324.309                                                  
  25851985.585   135853097.436                                                  
  23641725.160   124238096.618                                                  
  26163378.041   137489479.378                                                  
  25843745.535   135809800.087                                                  
  23739589.707   124752388.092                                                  
  23867486.971   125424492.354                                                  
                 131211242.447    25197739.059   131211242.447                  
                 113617346.647    21819016.898   113617346.647                  
                 116400430.918    22353478.445   116400430.918                  
 21  8 31  9 21  0.0000000  0 22G 1G17G19G30G21G 7G14G13R12R13R22R23
                                E 1E 9E12E24E26E31E33C23C27C28
  21033026.980   110529299.4001   21033031.787    86126752.4261   21033031.876  
  20746138.351   109021689.8311   20746140.478    84951977.3911   20746140.084  
  22322049.121   117303162.4081                   91405060.1171   22322050.765  
  20501587.585   107736569.2761   20501591.587    83950589.2551   20501591.820  
  23157408.040   121693005.1391                   94825723.0441   23157409.291  
  21816013.008   114643922.5731   21816015.688    89332935.0681   21816014.634  
  20788310.121   109243305.1011   20788310.889    85124660.6701   20788310.854  
  23192317.678   121876453.4791                   94968673.1461   23192320.787  
  19753229.061   105518203.341    19753234.993    82069749.063                  
  20290061.363   108347803.884    20290070.548    84270546.501                  
  20561218.301   109757180.321                                                  
  19681244.470   105281389.919                                                  
  25883136.349   136016803.151                                                  
  25852408.294   135855319.298                                                  
  23641216.108   124235421.528                                                  
  26163006.544   137487525.957                                                  
  25844157.612   135811964.841                                                  
  23739497.485   124751903.650                                                  
  23867447.731   125424285.895                                                  
                 131213993.115    25198267.107   131213993.115                  
                 113615941.935    21818747.308   113615941.935                  
                 116402085.016    22353796.103   116402085.016                  
