     2.11           OBSERVATION DATA    M (MIXED)           RINEX VERSION / TYPE
CONVBIN 2.4.3                           20210901 190850 UTC PGM / RUN BY / DATE 
log: logs/21_09_01_09_42_26_mami_VZ.rtcm                    COMMENT             
format: RTCM 3, station ID: 374                             COMMENT             
0374                                                        MARKER NAME         
                                                            MARKER NUMBER       
                                                            OBSERVER / AGENCY   
                    LEICA GR50          4.40/7.701          REC # / TYPE / VERS 
                    GPPNULLANTENNA                          ANT # / TYPE        
  1539867.4900 -4473007.8162  4263693.9494                  APPROX POSITION XYZ 
        0.0000        0.0000        0.0000                  ANTENNA: DELTA H/E/N
     1     1                                                WAVELENGTH FACT L1/2
     7    C1    L1    C2    L2    P2    C5    L5            # / TYPES OF OBSERV 
  2021     9     1     9    42   34.0000000     GPS         TIME OF FIRST OBS   
  2021     9     1    10    12   30.0000000     GPS         TIME OF LAST OBS    
                                                            END OF HEADER       
 21  9  1  9 42 34.0000000  0 19G 1G 3G 7G 8G14G17G19G21G22G30R13R14
                                R17R24E13E15E21E26E27
  20162792.214   105956202.833    20162791.946    82563270.057    20162791.606  
  20162791.106    79123142.614  
  23850133.058   125333295.378    23850133.505    97662317.414    23850132.701  
  23850133.487    93593044.299  
  23304833.734   122467722.077    23304831.036    95429376.135    23304830.535  
                                
  24560613.059   129066895.703    24560613.917   100571613.119    24560612.791  
  24560612.827    96381126.649  
  20513436.015   107798842.879    20513433.621    83999085.622    20513433.031  
  20513437.481    80499144.291  
  21432481.769   112628467.252    21432478.625    87762435.058    21432477.963  
                                
  23258808.545   122225871.901                    95240920.677    23258803.220  
                                
  22328426.486   117336690.773                    91431176.114    22328422.412  
                                
  23106884.789   121427498.831                    94618816.411    23106879.375  
                                
  21880678.036   114983730.054    21880677.696    89597709.398    21880676.892  
  21880678.000    85864470.242  
  19945652.314   106508667.809    19945653.189    82840073.590    19945653.171  
                                
  19802237.430   105557066.606    19802238.841    82099942.092    19802238.895  
                                
  23096773.781   123595509.919    23096774.675    96129838.685    23096774.532  
                                
  19612086.009   104874651.664    19612086.026    81569179.641    19612085.991  
                                
  23540238.241   123704804.889                                                  
  23540239.403    92376975.401  
  23888978.081   125537447.634                                                  
  23888980.475    93745513.285  
  24216369.548   127257886.247                                                  
  24216371.049    95030244.445  
  27156700.963   142709430.781                                                  
  27156704.394   106568741.441  
  23758728.950   124852982.249                                                  
  23758730.647    93234386.554  
 21  9  1  9 42 35.0000000  0 19G 1G 3G 7G 8G14G17G19G21G22G30R13R14
                                R17R24E13E15E21E26E27
  20162960.879   105957089.312    20162960.611    82563960.816    20162960.272  
  20162959.771    79123804.595  
  23849573.079   125330352.737    23849573.544    97660024.444    23849572.739  
  23849573.526    93590846.870  
  23305513.954   122471296.710    23305511.256    95432161.559    23305510.755  
                                
  24561177.989   129069864.423    24561178.828   100573926.405    24561177.721  
  24561177.756    96383343.550  
  20513189.477   107797547.379    20513187.082    83998076.139    20513186.492  
  20513190.942    80498176.877  
  21432212.662   112627053.082    21432209.517    87761333.106    21432208.856  
                                
  23258267.578   122223029.060                    95238705.477    23258262.253  
                                
  22328912.738   117339246.035                    91433167.229    22328908.664  
                                
  23106571.277   121425851.412                    94617532.709    23106565.863  
                                
  21881122.742   114986066.949    21881122.403    89599530.353    21881121.598  
  21881122.706    85866215.328  
  19946122.037   106511176.050    19946122.912    82842024.444    19946122.894  
                                
  19801873.509   105555126.782    19801874.921    82098433.338    19801874.974  
                                
  23096107.106   123591942.437    23096107.982    96127063.981    23096107.857  
                                
  19611863.504   104873461.800    19611863.521    81568254.188    19611863.486  
                                
  23539991.470   123703508.098                                                  
  23539992.649    92376007.020  
  23889264.753   125538954.115                                                  
  23889267.148    93746638.257  
  24216092.596   127256430.866                                                  
  24216094.080    95029157.635  
  27156144.665   142706507.501                                                  
  27156148.113   106566558.490  
  23758965.125   124854223.344                                                  
  23758966.822    93235313.344  
 21  9  1  9 42 36.0000000  0 19G 1G 3G 7G 8G14G17G19G21G22G30R13R14
                                R17R24E13E15E21E26E27
  20163129.742   105957976.624    20163129.474    82564652.228    20163129.134  
  20163128.634    79124467.199  
  23849013.189   125327410.433    23849013.636    97657731.737    23849012.831  
  23849013.636    93588649.703  
  23306194.246   122474871.620    23306191.529    95434947.200    23306191.029  
                                
  24561742.971   129072833.307    24561743.829   100576239.819    24561742.703  
  24561742.739    96385560.557  
  20512943.045   107796252.445    20512940.650    83997067.100    20512940.061  
  20512944.510    80497209.878  
  21431943.626   112625639.318    21431940.481    87760231.469    21431939.820  
                                
  23257726.647   122220186.569                    95236490.548    23257721.322  
                                
  22329399.061   117341801.766                    91435158.704    22329394.987  
                                
  23106257.926   121424204.631                    94616249.497    23106252.512  
                                
  21881567.538   114988404.475    21881567.198    89601351.804    21881566.412  
  21881567.520    85867960.883  
  19946591.885   106513685.102    19946592.778    82843975.924    19946592.760  
                                
  19801509.767   105553187.810    19801511.179    82096925.248    19801511.232  
                                
  23095440.520   123588375.356    23095441.396    96124289.580    23095441.271  
                                
  19611641.141   104872272.714    19611641.159    81567329.349    19611641.124  
                                
  23539744.788   123702211.832                                                  
  23539745.949    92375039.029  
  23889551.533   125540461.063                                                  
  23889553.910    93747763.569  
  24215815.734   127254975.902                                                  
  24215817.217    95028071.136  
  27155588.473   142703584.527                                                  
  27155591.904   106564375.742  
  23759201.389   124855464.933                                                  
  23759203.104    93236240.509  
 21  9  1  9 42 37.0000000  0 19G 1G 3G 7G 8G14G17G19G21G22G30R13R14
                                R17R24E13E15E21E26E27
  20163298.783   105958864.891    20163298.514    82565344.386    20163298.175  
  20163297.675    79125130.517  
  23848453.370   125324468.633    23848453.817    97655439.431    23848453.031  
  23848453.817    93586452.894  
  23306874.609   122478446.966    23306871.892    95437733.194    23306871.392  
                                
  24562307.972   129075802.441    24562308.830   100578553.430    24562307.704  
  24562307.740    96387777.769  
  20512696.774   107794958.189    20512694.380    83996058.591    20512693.790  
  20512698.239    80496243.388  
  21431674.679   112624226.026    21431671.534    87759130.209    21431670.873  
                                
  23257185.823   122217344.500                    95234275.951    23257180.498  
                                
  22329885.510   117344358.055                    91437150.617    22329881.436  
                                
  23105944.682   121422558.579                    94614966.856    23105939.268  
                                
  21882012.512   114990742.746    21882012.173    89603173.836    21882011.386  
  21882012.494    85869706.993  
  19947061.947   106516195.130    19947062.823    82845928.168    19947062.805  
                                
  19801146.204   105551249.817    19801147.634    82095417.922    19801147.687  
                                
  23094774.023   123584808.866    23094774.917    96121515.644    23094774.792  
                                
  19611418.940   104871084.492    19611418.958    81566405.174    19611418.922  
                                
  23539498.249   123700916.205                                                  
  23539499.411    92374071.516  
  23889838.385   125541968.571                                                  
  23889840.779    93748889.304  
  24215538.943   127253521.469                                                  
  24215540.444    95026985.038  
  27155032.318   142700661.919                                                  
  27155035.767   106562193.258  
  23759437.778   124856707.123                                                  
  23759439.476    93237168.117  
 21  9  1  9 42 38.0000000  0 19G 1G 3G 7G 8G14G17G19G21G22G30R13R14
                                R17R24E13E15E21E26E27
  20163467.984   105959754.120    20163467.716    82566037.292    20163467.377  
  20163466.876    79125794.551  
  23847893.641   125321527.313    23847894.070    97653147.488    23847893.284  
  23847894.088    93584256.475  
  23307555.043   122482022.759    23307552.345    95440519.521    23307551.845  
                                
  24562873.008   129078771.824    24562873.848   100580867.228    24562872.740  
  24562872.776    96389995.183  
  20512450.628   107793664.643    20512448.234    83995050.628    20512447.644  
  20512452.093    80495277.422  
  21431405.840   112622813.288    21431402.713    87758029.375    21431402.034  
                                
  23256645.089   122214502.885                    95232061.702    23256639.764  
                                
  22330372.083   117346914.949                    91439143.004    22330368.009  
                                
  23105631.599   121420913.301                    94613684.822    23105626.185  
                                
  21882457.612   114993081.774    21882457.272    89604996.453    21882456.486  
  21882457.594    85871453.672  
  19947532.171   106518706.135    19947533.064    82847881.172    19947533.028  
                                
  19800782.837   105549312.830    19800784.267    82093911.375    19800784.321  
                                
  23094107.670   123581242.942    23094108.545    96118742.142    23094108.420  
                                
  19611196.882   104869897.169    19611196.917    81565481.700    19611196.864  
                                
  23539251.835   123699621.251                                                  
  23539252.997    92373104.502  
  23890125.379   125543476.681                                                  
  23890127.774    93750015.490  
  24215262.294   127252067.599                                                  
  24215263.778    95025899.358  
  27154476.234   142697739.716                                                  
  27154479.665   106560011.093  
  23759674.275   124857949.947                                                  
  23759675.972    93238096.193  
 21  9  1  9 42 39.0000000  0 19G 1G 3G 7G 8G14G17G19G21G22G30R13R14
                                R17R24E13E15E21E26E27
  20163637.311   105960643.900    20163637.043    82566730.625    20163636.704  
  20163636.203    79126458.987  
  23847333.965   125318586.091    23847334.394    97650855.625    23847333.608  
  23847334.394    93582060.091  
  23308235.513   122485598.584    23308232.815    95443305.881    23308232.315  
                                
  24563438.063   129081741.116    24563438.920   100583180.960    24563437.795  
  24563437.848    96392212.496  
  20512204.518   107792371.364    20512202.142    83994042.881    20512201.552  
  20512206.001    80494311.664  
  21431137.036   112621400.657    21431133.891    87756928.623    21431133.230  
                                
  23256104.354   122211661.295                    95229847.468    23256099.029  
                                
  22330858.657   117349472.001                    91441135.505    22330854.583  
                                
  23105318.587   121419268.332                    94612403.025    23105313.173  
                                
  21882902.765   114995421.137    21882902.443    89606819.331    21882901.639  
  21882902.747    85873200.601  
  19948002.519   106521217.683    19948003.395    82849834.598    19948003.377  
                                
  19800419.560   105547376.384    19800420.972    82092405.253    19800421.026  
                                
  23093441.316   123577677.097    23093442.191    96115968.707    23093442.066  
                                
  19610974.948   104868710.305    19610974.966    81564558.584    19610974.931  
                                
  23539005.439   123698326.534                                                  
  23539006.601    92372137.666  
  23890412.391   125544984.955                                                  
  23890414.786    93751141.794  
  24214985.646   127250613.853                                                  
  24214987.147    95024813.766  
  27153920.114   142694817.442                                                  
  27153923.545   106557828.887  
  23759910.807   124859192.965                                                  
  23759912.504    93239024.420  
 21  9  1  9 42 40.0000000  0 19G 1G 3G 7G 8G14G17G19G21G22G30R13R14
                                R17R24E13E15E21E26E27
  20163806.727   105961534.253    20163806.459    82567424.404    20163806.120  
  20163805.619    79127123.867  
  23846774.290   125315644.982    23846774.736    97648563.851    23846773.950  
  23846774.736    93579863.804  
  23308915.984   122489174.438    23308913.268    95446092.263    23308912.767  
                                
  24564003.063   129084710.261    24564003.921   100585494.579    24564002.795  
  24564002.849    96394429.720  
  20511958.462   107791078.399    20511956.067    83993035.376    20511955.478  
  20511959.927    80493346.143  
  21430868.250   112619988.189    21430865.105    87755827.997    21430864.444  
                                
  23255563.638   122208819.774                    95227633.299    23255558.313  
                                
  22331345.284   117352029.252                    91443128.171    22331341.228  
                                
  23105005.611   121417623.732                    94611121.516    23105000.197  
                                
  21883348.025   114997760.887    21883347.686    89608642.508    21883346.899  
  21883348.007    85874947.808  
  19948472.957   106523729.812    19948473.832    82851788.474    19948473.815  
                                
  19800056.408   105545440.540    19800057.820    82090899.594    19800057.873  
                                
  23092774.962   123574111.379    23092775.838    96113195.371    23092775.713  
                                
  19610753.105   104867523.991    19610753.140    81563635.900    19610753.087  
                                
  23538759.115   123697032.081                                                  
  23538760.276    92371171.034  
  23890699.439   125546493.432                                                  
  23890701.834    93752268.258  
  24214709.052   127249160.280                                                  
  24214710.553    95023728.303  
  27153364.066   142691895.231                                                  
  27153367.497   106555646.720  
  23760147.393   124860436.223                                                  
  23760149.108    93239952.827  
 21  9  1  9 42 41.0000000  0 19G 1G 3G 7G 8G14G17G19G21G22G30R13R14
                                R17R24E13E15E21E26E27
  20163976.340   105962425.486    20163976.072    82568118.871    20163975.715  
  20163975.214    79127789.403  
  23846214.685   125312704.242    23846215.114    97646272.357    23846214.328  
  23846215.114    93577667.810  
  23309596.507   122492750.627    23309593.791    95448878.899    23309593.291  
                                
  24564568.082   129087679.574    24564568.922   100587808.327    24564567.814  
  24564567.867    96396647.087  
  20511712.548   107789786.044    20511710.154    83992028.346    20511709.564  
  20511714.013    80492381.068  
  21430599.536   112618576.150    21430596.391    87754727.707    21430595.730  
                                
  23255022.992   122205978.591                    95225419.390    23255017.668  
                                
  22331832.018   117354586.994                    91445121.219    22331827.944  
                                
  23104692.796   121415979.795                    94609840.527    23104687.382  
                                
  21883793.375   115000101.289    21883793.035    89610466.202    21883792.249  
  21883793.357    85876695.519  
  19948943.573   106526242.824    19948944.449    82853743.039    19948944.431  
                                
  19799693.417   105543505.559    19799694.828    82089394.609    19799694.882  
                                
  23092108.716   123570546.132    23092109.609    96110422.396    23092109.484  
                                
  19610531.404   104866338.516    19610531.421    81562713.859    19610531.386  
                                
  23538512.898   123695738.198                                                  
  23538514.077    92370204.827  
  23890986.577   125548002.408                                                  
  23890988.971    93753395.088  
  24214432.528   127247707.159                                                  
  24214434.012    95022643.183  
  27152808.053   142688973.295                                                  
  27152811.484   106553464.753  
  23760384.068   124861680.004                                                  
  23760385.783    93240881.629  
 21  9  1  9 42 42.0000000  0 19G 1G 3G 7G 8G14G17G19G21G22G30R13R14
                                R17R24E13E15E21E26E27
  20164146.060   105963317.344    20164145.792    82568813.828    20164145.453  
  20164144.952    79128455.398  
  23845655.117   125309763.687    23845655.546    97643981.013    23845654.760  
  23845655.546    93575471.947  
  23310277.049   122496326.904    23310274.333    95451665.610    23310273.833  
                                
  24565133.154   129090648.890    24565133.994   100590122.080    24565132.886  
  24565132.922    96398864.416  
  20511466.688   107788494.048    20511464.294    83991021.596    20511463.704  
  20511468.154    80491416.268  
  21430330.875   112617164.308    21430327.730    87753627.572    21430327.069  
                                
  23254482.347   122203137.544                    95223205.587    23254477.022  
                                
  22332318.788   117357144.994                    91447114.465    22332314.732  
                                
  23104380.017   121414336.272                    94608559.869    23104374.621  
                                
  21884238.832   115002442.125    21884238.492    89612290.226    21884237.706  
  21884238.814    85878443.537  
  19949414.279   106528756.480    19949415.173    82855698.104    19949415.155  
                                
  19799330.533   105541571.210    19799331.962    82087890.117    19799332.016  
                                
  23091442.505   123566981.142    23091443.398    96107649.629    23091443.273  
                                
  19610309.810   104865153.573    19610309.846    81561792.237    19610309.792  
                                
  23538266.734   123694444.640                                                  
  23538267.895    92369238.856  
  23891273.786   125549511.630                                                  
  23891276.180    93754522.107  
  24214156.059   127246254.257                                                  
  24214157.542    95021558.217  
  27152252.041   142686051.432                                                  
  27152255.472   106551282.838  
  23760620.815   124862924.075                                                  
  23760622.530    93241810.643  
 21  9  1  9 42 43.0000000  0 19G 1G 3G 7G 8G14G17G19G21G22G30R13R14
                                R17R24E13E15E21E26E27
  20164315.852   105964209.619    20164315.584    82569509.107    20164315.244  
  20164314.726    79129121.708  
  23845095.549   125306823.085    23845095.995    97641689.632    23845095.209  
  23845095.995    93573276.021  
  23310957.555   122499903.060    23310954.857    95454452.228    23310954.357  
                                
  24565698.137   129093617.909    24565698.976   100592435.599    24565697.869  
  24565697.904    96401081.536  
  20511220.864   107787202.192    20511218.470    83990014.955    20511217.880  
  20511222.329    80490451.568  
  21430062.197   112615752.436    21430059.069    87752527.410    21430058.390  
                                
  23253941.684   122200296.358                    95220991.678    23253936.359  
                                
  22332805.558   117359703.023                    91449107.735    22332801.484  
                                
  23104067.309   121412692.943                    94607279.352    23104061.895  
                                
  21884684.306   115004783.155    21884683.985    89614114.405    21884683.181  
  21884684.288    85880191.707  
  19949885.074   106531270.530    19949885.968    82857653.476    19949885.950  
                                
  19798967.720   105539637.297    19798969.150    82086385.961    19798969.203  
                                
  23090776.276   123563416.102    23090777.170    96104876.822    23090777.045  
                                
  19610088.288   104863968.958    19610088.323    81560870.872    19610088.270  
                                
  23538020.606   123693151.173                                                  
  23538021.767    92368272.955  
  23891560.976   125551020.878                                                  
  23891563.389    93755649.145  
  24213879.572   127244801.339                                                  
  24213881.073    95020473.248  
  27151695.975   142683129.390                                                  
  27151699.406   106549100.792  
  23760857.561   124864168.202                                                  
  23760859.277    93242739.695  
 21  9  1  9 42 44.0000000  0 19G 1G 3G 7G 8G14G17G19G21G22G30R13R14
                                R17R24E13E15E21E26E27
  20164485.768   105965102.592    20164485.500    82570204.928    20164485.161  
  20164484.660    79129788.540  
  23844535.998   125303882.694    23844536.445    97639398.416    23844535.658  
  23844536.445    93571080.284  
  23311638.115   122503479.399    23311635.399    95457238.990    23311634.898  
                                
  24566263.102   129096586.919    24566263.941   100594749.111    24566262.834  
  24566262.887    96403298.665  
  20510975.094   107785910.771    20510972.699    83989008.648    20510972.110  
  20510976.559    80489487.200  
  21429793.589   112614340.840    21429790.444    87751427.463    21429789.783  
                                
  23253401.057   122197455.380                    95218777.934    23253395.732  
                                
  22333292.400   117362261.369                    91451101.253    22333288.326  
                                
  23103754.708   121411050.112                    94605999.222    23103749.294  
                                
  21885129.888   115007124.680    21885129.549    89615938.968    21885128.763  
  21885129.870    85881940.253  
  19950356.030   106533785.295    19950356.906    82859609.405    19950356.888  
                                
  19798605.068   105537704.112    19798606.480    82084882.374    19798606.533  
                                
  23090110.119   123559851.354    23090111.012    96102104.245    23090110.887  
                                
  19609866.872   104862784.988    19609866.890    81559950.004    19609866.855  
                                
  23537774.550   123691858.123                                                  
  23537775.711    92367307.364  
  23891848.257   125552530.464                                                  
  23891850.651    93756776.431  
  24213603.156   127243348.722                                                  
  24213604.639    95019388.504  
  27151139.962   142680207.501                                                  
  27151143.393   106546918.858  
  23761094.397   124865412.701                                                  
  23761096.095    93243669.031  
 21  9  1  9 42 45.0000000  0 19G 1G 3G 7G 8G14G17G19G21G22G30R13R14
                                R17R24E13E15E21E26E27
  20164655.828   105965996.319    20164655.560    82570901.339    20164655.220  
  20164654.720    79130455.930  
  23843976.501   125300942.571    23843976.948    97637107.409    23843976.161  
  23843976.948    93568884.739  
  23312318.692   122507055.960    23312315.994    95460025.928    23312315.494  
                                
  24566828.120   129099556.038    24566828.978   100597062.710    24566827.870  
  24566827.906    96405515.827  
  20510729.448   107784619.833    20510727.054    83988002.725    20510726.464  
  20510730.913    80488523.184  
  21429525.018   112612929.547    21429521.891    87750327.754    21429521.212  
                                
  23252860.483   122194614.626                    95216564.364    23252855.140  
                                
  22333779.313   117364820.099                    91453095.067    22333775.239  
                                
  23103442.179   121409407.816                    94604719.511    23103436.765  
                                
  21885575.577   115009466.745    21885575.238    89617763.958    21885574.452  
  21885575.560    85883689.196  
  19950827.093   106536300.800    19950827.969    82861565.906    19950827.951  
                                
  19798242.559   105535771.688    19798243.971    82083379.378    19798244.025  
                                
  23089443.998   123556286.870    23089444.891    96099331.868    23089444.766  
                                
  19609645.600   104861601.687    19609645.618    81559029.658    19609645.565  
                                
  23537528.582   123690565.499                                                  
  23537529.744    92366342.092  
  23892135.591   125554040.417                                                  
  23892137.985    93757903.989  
  24213326.793   127241896.434                                                  
  24213328.294    95018304.001  
  27150583.985   142677285.771                                                  
  27150587.416   106544737.035  
  23761331.287   124866657.594                                                  
  23761332.985    93244598.656  
 21  9  1  9 42 46.0000000  0 19G 1G 3G 7G 8G14G17G19G21G22G30R13R14
                                R17R24E13E15E21E26E27
  20164826.012   105966890.578    20164825.744    82571598.166    20164825.405  
  20164824.904    79131123.725  
  23843417.040   125298002.538    23843417.486    97634816.481    23843416.700  
  23843417.486    93566689.249  
  23312999.288   122510632.516    23312996.589    95462812.859    23312996.089  
                                
  24567393.085   129102524.940    24567393.943   100599376.138    24567392.817  
  24567392.871    96407732.882  
  20510483.838   107783329.160    20510481.444    83986997.008    20510480.854  
  20510485.322    80487559.374  
  21429256.482   112611518.365    21429253.337    87749228.131    21429252.676  
                                
  23252319.892   122191773.883                    95214350.807    23252314.567  
                                
  22334266.262   117367378.982                    91455089.000    22334262.188  
                                
  23103129.721   121407765.825                    94603440.042    23103124.307  
                                
  21886021.302   115011809.148    21886020.981    89619589.200    21886020.195  
  21886021.302    85885438.390  
  19951298.282   106538816.850    19951299.157    82863522.835    19951299.139  
                                
  19797880.140   105533839.791    19797881.551    82081876.789    19797881.605  
                                
  23088777.930   123552722.537    23088778.805    96096559.619    23088778.680  
                                
  19609424.400   104860418.836    19609424.418    81558109.666    19609424.382  
                                
  23537282.633   123689273.109                                                  
  23537283.795    92365376.998  
  23892422.942   125555550.522                                                  
  23892425.337    93759031.669  
  24213050.449   127240444.264                                                  
  24213051.932    95017219.590  
  27150027.991   142674364.002                                                  
  27150031.422   106542555.210  
  23761568.212   124867902.687                                                  
  23761569.928    93245528.431  
 21  9  1  9 42 47.0000000  0 19G 1G 3G 7G 8G14G17G19G21G22G30R13R14
                                R17R24E13E15E21E26E27
  20164996.286   105967785.297    20164996.018    82572295.350    20164995.679  
  20164995.178    79131791.857  
  23842857.561   125295062.473    23842857.989    97632525.521    23842857.203  
  23842857.989    93564493.764  
  23313679.883   122514209.007    23313677.185    95465599.740    23313676.684  
                                
  24567957.996   129105493.619    24567958.854   100601689.389    24567957.728  
  24567957.782    96409949.757  
  20510238.264   107782038.675    20510235.870    83985991.435    20510235.280  
  20510239.730    80486595.700  
  21428987.947   112610107.209    21428984.802    87748128.532    21428984.141  
                                
  23251779.318   122188933.099                    95212137.207    23251773.993  
                                
  22334753.193   117369937.956                    91457083.005    22334749.136  
                                
  23102817.317   121406124.095                    94602160.774    23102811.903  
                                
  21886467.117   115014151.792    21886466.777    89621414.642    21886465.991  
  21886467.099    85887187.765  
  19951769.524   106541333.369    19951770.417    82865480.129    19951770.399  
                                
  19797517.792   105531908.361    19797519.221    82080374.566    19797519.257  
                                
  23088111.862   123549158.256    23088112.738    96093787.405    23088112.612  
                                
  19609203.288   104859236.371    19609203.306    81557189.971    19609203.253  
                                
  23537036.738   123687980.869                                                  
  23537037.899    92364412.016  
  23892710.330   125557060.712                                                  
  23892712.724    93760159.407  
  24212774.122   127238992.137                                                  
  24212775.623    95016135.212  
  27149471.978   142671442.143                                                  
  27149475.409   106540373.293  
  23761805.173   124869147.890                                                  
  23761806.889    93246458.293  
 21  9  1  9 42 48.0000000  0 19G 1G 3G 7G 8G14G17G19G21G22G30R13R14
                                R17R24E13E15E21E26E27
  20165166.631   105968680.489    20165166.363    82572992.899    20165166.024  
  20165165.524    79132460.333  
  23842298.099   125292122.434    23842298.546    97630234.582    23842297.760  
  23842298.546    93562298.252  
  23314360.443   122517785.401    23314357.744    95468386.540    23314357.244  
                                
  24568522.872   129108462.045    24568523.712   100604002.451    24568522.604  
  24568522.657    96412166.441  
  20509992.744   107780748.401    20509990.350    83984986.027    20509989.760  
  20509994.209    80485632.174  
  21428719.429   112608696.100    21428716.284    87747028.964    21428715.623  
                                
  23251238.727   122186092.266                    95209923.568    23251233.402  
                                
  22335240.177   117372497.004                    91459077.068    22335236.103  
                                
  23102504.931   121404482.620                    94600881.705    23102499.517  
                                
  21886912.949   115016494.691    21886912.609    89623240.275    21886911.823  
  21886912.931    85888937.326  
  19952240.891   106543850.356    19952241.766    82867437.783    19952241.748  
                                
  19797155.551   105529977.428    19797156.980    82078872.729    19797157.034  
                                
  23087445.776   123545594.013    23087446.652    96091015.221    23087446.527  
                                
  19608982.213   104858054.292    19608982.231    81556270.576    19608982.195  
                                
  23536790.860   123686688.776                                                  
  23536792.021    92363447.139  
  23892997.717   125558570.982                                                  
  23893000.130    93761287.206  
  24212497.796   127237540.061                                                  
  24212499.279    95015050.867  
  27148915.930   142668520.163                                                  
  27148919.343   106538191.291  
  23762042.152   124870393.209                                                  
  23762043.868    93247388.234  
 21  9  1  9 42 49.0000000  0 19G 1G 3G 7G 8G14G17G19G21G22G30R13R14
                                R17R24E13E15E21E26E27
  20165337.048   105969576.038    20165336.780    82573690.730    20165336.441  
  20165335.940    79133129.094  
  23841738.602   125289182.270    23841739.049    97627943.540    23841738.263  
  23841739.049    93560102.688  
  23315040.984   122521361.690    23315038.286    95471173.256    23315037.786  
                                
  24569087.712   129111430.201    24569088.569   100606315.303    24569087.461  
  24569087.497    96414382.902  
  20509747.224   107779458.215    20509744.829    83983980.682    20509744.240  
  20509748.689    80484668.733  
  21428450.893   112607284.903    21428447.766    87745929.330    21428447.087  
                                
  23250698.099   122183251.271                    95207709.810    23250692.756  
                                
  22335727.144   117375056.045                    91461071.126    22335723.087  
                                
  23102192.598   121402841.272                    94599602.735    23102187.202  
                                
  21887358.817   115018837.754    21887358.477    89625066.038    21887357.691  
  21887358.799    85890687.022  
  19952712.311   106546367.724    19952713.187    82869395.739    19952713.169  
                                
  19796793.399   105528046.895    19796794.829    82077371.203    19796794.883  
                                
  23086779.708   123542029.726    23086780.584    96088243.002    23086780.459  
                                
  19608761.227   104856872.510    19608761.245    81555351.413    19608761.191  
                                
  23536544.982   123685396.767                                                  
  23536546.161    92362482.325  
  23893285.123   125560081.260                                                  
  23893287.517    93762415.009  
  24212221.469   127236087.952                                                  
  24212222.970    95013966.498  
  27148359.864   142665597.974                                                  
  27148363.277   106536009.150  
  23762279.131   124871638.559                                                  
  23762280.829    93248318.208  
 21  9  1  9 42 50.0000000  0 19G 1G 3G 7G 8G14G17G19G21G22G30R13R14
                                R17R24E13E15E21E26E27
  20165507.608   105970472.407    20165507.340    82574389.199    20165507.001  
  20165506.500    79133798.463  
  23841179.195   125286242.466    23841179.624    97625652.789    23841178.855  
  23841179.641    93557907.371  
  23315721.580   122524938.240    23315718.881    95473960.171    23315718.381  
                                
  24569652.534   129114398.437    24569653.391   100608628.216    24569652.266  
  24569652.319    96416599.457  
  20509501.828   107778168.583    20509499.434    83982975.779    20509498.844  
  20509503.294    80483705.694  
  21428182.429   112605874.097    21428179.284    87744830.003    21428178.623  
                                
  23250157.526   122180410.575                    95205496.279    23250152.201  
                                
  22336214.217   117377615.527                    91463065.523    22336210.143  
                                
  23101880.373   121401200.563                    94598324.256    23101874.959  
                                
  21887804.810   115021181.430    21887804.470    89626892.280    21887803.684  
  21887804.792    85892437.164  
  19953183.893   106548885.915    19953184.768    82871354.330    19953184.750  
                                
  19796431.373   105526117.179    19796432.803    82075870.316    19796432.856  
                                
  23086113.712   123538465.827    23086114.588    96085471.083    23086114.463  
                                
  19608540.366   104855691.505    19608540.401    81554432.853    19608540.348  
                                
  23536299.229   123684105.252                                                  
  23536300.391    92361517.882  
  23893572.600   125561591.973                                                  
  23893575.012    93763543.138  
  24211945.214   127234636.239                                                  
  24211946.697    95012882.424  
  27147803.851   142662676.056                                                  
  27147807.282   106533827.198  
  23762516.182   124872884.382                                                  
  23762517.897    93249248.533  
 21  9  1  9 42 51.0000000  0 19G 1G 3G 7G 8G14G17G19G21G22G30R13R14
                                R17R24E13E15E21E26E27
  20165678.365   105971369.702    20165678.097    82575088.395    20165677.757  
  20165677.257    79134468.523  
  23840619.841   125283303.108    23840620.270    97623362.375    23840619.501  
  23840620.287    93555712.411  
  23316402.264   122528515.203    23316399.548    95476747.413    23316399.066  
                                
  24570217.427   129117366.943    24570218.267   100610941.337    24570217.159  
  24570217.213    96418816.194  
  20509256.523   107776879.621    20509254.128    83981971.393    20509253.538  
  20509258.006    80482743.157  
  21427914.054   112604463.801    21427910.909    87743731.071    21427910.248  
                                
  23249617.041   122177570.305                    95203283.081    23249611.716  
                                
  22336701.363   117380175.566                    91465060.361    22336697.289  
                                
  23101568.308   121399560.570                    94597046.342    23101562.894  
                                
  21888250.928   115023525.826    21888250.588    89628719.081    21888249.802  
  21888250.910    85894187.851  
  19953655.635   106551405.058    19953656.528    82873313.663    19953656.492  
                                
  19796069.543   105524188.393    19796070.973    82074370.146    19796071.026  
                                
  23085447.805   123534902.460    23085448.681    96082699.575    23085448.556  
                                
  19608319.683   104854511.417    19608319.701    81553515.007    19608319.647  
                                
  23536053.584   123682814.374                                                  
  23536054.745    92360553.908  
  23893860.184   125563103.238                                                  
  23893862.578    93764671.680  
  24211669.066   127233185.043                                                  
  24211670.567    95011798.741  
  27147247.875   142659754.481                                                  
  27147251.288   106531645.498  
  23762753.393   124874130.801                                                  
  23762755.109    93250179.289  
 21  9  1  9 42 52.0000000  0 19G 1G 3G 7G 8G14G17G19G21G22G30R13R14
                                R17R24E13E15E21E26E27
  20165849.318   105972268.087    20165849.049    82575788.428    20165848.710  
  20165848.210    79135139.392  
  23840060.630   125280364.399    23840061.076    97621072.465    23840060.308  
  23840061.094    93553517.896  
  23317083.038   122532092.695    23317080.322    95479535.067    23317079.840  
                                
  24570782.410   129120335.862    24570783.267   100613254.779    24570782.160  
  24570782.195    96421033.226  
  20509011.413   107775591.475    20509009.019    83980967.640    20509008.429  
  20509012.878    80481781.223  
  21427645.804   112603054.139    21427642.659    87742632.635    21427641.998  
                                
  23249076.664   122174730.589                    95201070.318    23249071.339  
                                
  22337188.651   117382736.304                    91467055.737    22337184.595  
                                
  23101256.387   121397921.428                    94595769.086    23101250.990  
                                
  21888697.224   115025871.093    21888696.903    89630546.560    21888696.116  
  21888697.224    85895939.186  
  19954127.609   106553925.283    19954128.485    82875273.836    19954128.467  
                                
  19795707.928   105522260.687    19795709.339    82072870.822    19795709.393  
                                
  23084782.023   123531339.732    23084782.917    96079928.565    23084782.774  
                                
  19608099.197   104853332.353    19608099.215    81552597.955    19608099.162  
                                
  23535808.081   123681524.267                                                  
  23535809.243    92359590.521  
  23894147.893   125564615.203                                                  
  23894150.305    93765800.745  
  24211393.043   127231734.519                                                  
  24211394.527    95010715.555  
  27146692.041   142656833.425                                                  
  27146695.472   106529464.186  
  23762990.712   124875377.941                                                  
  23762992.409    93251110.602  
 21  9  1  9 42 53.0000000  0 19G 1G 3G 7G 8G14G17G19G21G22G30R13R14
                                R17R24E13E15E21E26E27
  20166020.431   105973167.266    20166020.163    82576489.090    20166019.824  
  20166019.323    79135810.855  
  23839501.454   125277425.989    23839501.901    97618782.802    23839501.115  
  23839501.901    93551323.634  
  23317763.866   122535670.439    23317761.150    95482322.917    23317760.668  
                                
  24571347.375   129123304.843    24571348.232   100615568.266    24571347.124  
  24571347.160    96423250.331  
  20508766.393   107774303.847    20508763.999    83979964.295    20508763.409  
  20508767.858    80480819.688  
  21427377.626   112601644.850    21427374.481    87741534.485    21427373.820  
                                
  23248536.358   122171891.167                    95198857.774    23248531.016  
                                
  22337676.029   117385297.461                    91469051.448    22337671.972  
                                
  23100944.572   121396282.859                    94594492.274    23100939.176  
                                
  21889143.610   115028216.938    21889143.289    89632374.491    21889142.503  
  21889143.610    85897690.958  
  19954599.709   106556446.325    19954600.584    82877234.646    19954600.567  
                                
  19795346.455   105520333.791    19795347.867    82071372.122    19795347.921  
                                
  23084116.313   123527777.444    23084117.188    96077157.899    23084117.063  
                                
  19607878.836   104852153.973    19607878.854    81551681.437    19607878.819  
                                
  23535562.668   123680234.635                                                  
  23535563.830    92358627.489  
  23894435.691   125566127.583                                                  
  23894438.104    93766930.122  
  24211117.092   127230284.370                                                  
  24211118.593    95009632.656  
  27146136.207   142653912.581                                                  
  27146139.620   106527283.049  
  23763228.119   124876625.540                                                  
  23763229.835    93252042.248  
 21  9  1  9 42 54.0000000  0 19G 1G 3G 7G 8G14G17G19G21G22G30R13R14
                                R17R24E13E15E21E26E27
  20166191.652   105974067.018    20166191.384    82577190.195    20166191.045  
  20166190.544    79136482.748  
  23838942.315   125274487.693    23838942.761    97616493.214    23838941.975  
  23838942.761    93549129.452  
  23318444.712   122539248.253    23318442.013    95485110.820    23318441.513  
                                
  24571912.322   129126273.736    24571913.179   100617881.682    24571912.072  
  24571912.107    96425467.366  
  20508521.427   107773016.540    20508519.032    83978961.198    20508518.443  
  20508522.892    80479858.387  
  21427109.466   112600235.701    21427106.339    87740436.448    21427105.659  
                                
  23247996.035   122169051.809                    95196645.293    23247990.710  
                                
  22338163.424   117387858.809                    91471047.297    22338159.368  
                                
  23100632.847   121394644.662                    94593215.757    23100627.433  
                                
  21889590.086   115030563.170    21889589.746    89634202.724    21889588.960  
  21889590.068    85899443.008  
  19955071.916   106558967.949    19955072.809    82879195.909    19955072.791  
                                
  19794985.072   105518407.502    19794986.484    82069873.897    19794986.537  
                                
  23083450.638   123524215.296    23083451.531    96074387.346    23083451.388  
                                
  19607658.547   104850976.077    19607658.583    81550765.298    19607658.529  
                                
  23535317.327   123678945.289                                                  
  23535318.488    92357664.665  
  23894723.543   125567640.174                                                  
  23894725.938    93768059.652  
  24210841.159   127228834.388                                                  
  24210842.642    95008549.876  
  27145580.409   142650991.775                                                  
  27145583.840   106525101.908  
  23763465.581   124877873.379                                                  
  23763467.278    93252974.074  
 21  9  1  9 42 55.0000000  0 19G 1G 3G 7G 8G14G17G19G21G22G30R13R14
                                R17R24E13E15E21E26E27
  20166362.980   105974967.427    20166362.712    82577891.817    20166362.373  
  20166361.873    79137155.138  
  23838383.211   125271549.577    23838383.658    97614203.771    23838382.871  
  23838383.658    93546935.410  
  23319125.557   122542826.162    23319122.859    95487898.796    23319122.376  
                                
  24572477.304   129129242.620    24572478.162   100620195.089    24572477.036  
  24572477.090    96427684.386  
  20508276.514   107771729.617    20508274.119    83977958.401    20508273.530  
  20508277.979    80478897.373  
  21426841.359   112598826.775    21426838.214    87739338.581    21426837.553  
                                
  23247455.747   122166212.581                    95194432.911    23247450.422  
                                
  22338650.891   117390420.433                    91473043.367    22338646.835  
                                
  23100321.176   121393006.914                    94591939.590    23100315.779  
                                
  21890036.651   115032909.843    21890036.329    89636031.300    21890035.543  
  21890036.651    85901195.396  
  19955544.283   106561490.243    19955545.159    82881157.694    19955545.141  
                                
  19794623.832   105516481.888    19794625.262    82068376.200    19794625.297  
                                
  23082785.017   123520653.375    23082785.892    96071616.972    23082785.767  
                                
  19607438.401   104849798.778    19607438.419    81549849.620    19607438.365  
                                
  23535072.038   123677656.294                                                  
  23535073.200    92356702.099  
  23895011.413   125569153.040                                                  
  23895013.826    93769189.388  
  24210565.297   127227384.651                                                  
  24210566.780    95007467.279  
  27145024.593   142648071.019                                                  
  27145028.006   106522920.837  
  23763703.096   124879121.523                                                  
  23763704.794    93253906.134  
 21  9  1  9 42 56.0000000  0 19G 1G 3G 7G 8G14G17G19G21G22G30R13R14
                                R17R24E13E15E21E26E27
  20166534.434   105975868.317    20166534.166    82578593.809    20166533.826  
  20166533.326    79137827.874  
  23837824.125   125268611.475    23837824.572    97611914.343    23837823.785  
  23837824.572    93544741.365  
  23319806.403   122546404.017    23319803.704    95490686.729    23319803.204  
                                
  24573042.234   129132211.284    24573043.091   100622508.325    24573041.983  
  24573042.019    96429901.221  
  20508031.672   107770442.909    20508029.278    83976955.773    20508028.688  
  20508033.138    80477936.515  
  21426573.252   112597417.888    21426570.125    87738240.749    21426569.446  
                                
  23246915.442   122163373.314                    95192220.496    23246910.117  
                                
  22339138.376   117392982.159                    91475039.516    22339134.320  
                                
  23100009.576   121391369.433                    94590663.633    23100004.179  
                                
  21890483.251   115035256.782    21890482.929    89637860.084    21890482.143  
  21890483.251    85902947.983  
  19956016.704   106564012.997    19956017.580    82883119.833    19956017.562  
                                
  19794262.699   105514556.784    19794264.111    82066878.895    19794264.164  
                                
  23082119.360   123517091.472    23082120.236    96068846.613    23082120.111  
                                
  19607218.326   104848621.914    19607218.344    81548934.282    19607218.290  
                                
  23534826.768   123676367.464                                                  
  23534827.948    92355739.661  
  23895299.319   125570666.004                                                  
  23895301.731    93770319.194  
  24210289.417   127225934.974                                                  
  24210290.900    95006384.727  
  27144468.813   142645150.210                                                  
  27144472.244   106520739.698  
  23763940.629   124880369.802                                                  
  23763942.344    93254838.286  
 21  9  1  9 42 57.0000000  0 19G 1G 3G 7G 8G14G17G19G21G22G30R13R14
                                R17R24E13E15E21E26E27
  20166705.994   105976769.962    20166705.726    82579296.385    20166705.387  
  20166704.886    79138501.178  
  23837265.057   125265673.640    23837265.503    97609625.128    23837264.717  
  23837265.503    93542547.549  
  23320487.284   122549982.078    23320484.586    95493474.824    23320484.085  
                                
  24573607.127   129135179.957    24573607.985   100624821.574    24573606.877  
  24573606.913    96432118.109  
  20507786.920   107769156.681    20507784.526    83975953.518    20507783.936  
  20507788.386    80476976.024  
  21426305.217   112596009.318    21426302.072    87737143.164    21426301.410  
                                
  23246375.189   122160534.279                    95190008.259    23246369.864  
                                
  22339625.932   117395544.261                    91477035.963    22339621.876  
                                
  23099698.083   121389732.483                    94589388.090    23099692.686  
                                
  21890929.959   115037604.276    21890929.637    89639689.298    21890928.851  
  21890929.959    85904700.982  
  19956489.287   106566536.523    19956490.162    82885082.575    19956490.144  
                                
  19793901.691   105512632.453    19793903.121    82065382.191    19793903.174  
                                
  23081453.793   123513529.871    23081454.668    96066076.488    23081454.543  
                                
  19606998.376   104847445.747    19606998.394    81548019.490    19606998.340  
                                
  23534581.605   123675079.079                                                  
  23534582.767    92354777.561  
  23895587.314   125572179.346                                                  
  23895589.709    93771449.291  
  24210013.626   127224485.642                                                  
  24210015.109    95005302.435  
  27143913.032   142642229.553                                                  
  27143916.445   106518558.690  
  23764178.251   124881618.486                                                  
  23764179.967    93255770.749  
 21  9  1  9 42 58.0000000  0 19G 1G 3G 7G 8G14G17G19G21G22G30R13R14
                                R17R24E13E15E21E26E27
  20166877.751   105977672.525    20166877.483    82579999.681    20166877.144  
  20166876.643    79139175.170  
  23836706.114   125262736.299    23836706.560    97607336.290    23836705.774  
  23836706.560    93540354.064  
  23321168.237   122553560.556    23321165.538    95496263.252    23321165.038  
                                
  24574172.110   129138148.900    24574172.968   100627135.034    24574171.842  
  24574171.895    96434335.181  
  20507542.276   107767871.111    20507539.881    83974951.770    20507539.292  
  20507543.759    80476016.019  
  21426037.271   112594601.246    21426034.126    87736045.961    21426033.464  
                                
  23245835.027   122157695.661                    95187796.348    23245829.702  
                                
  22340113.578   117398106.895                    91479032.816    22340109.522  
                                
  23099386.715   121388096.249                    94588113.102    23099381.301  
                                
  21891376.809   115039952.463    21891376.488    89641519.056    21891375.702  
  21891376.809    85906454.500  
  19956962.029   106569060.991    19956962.905    82887046.048    19956962.887  
                                
  19793540.862   105510709.025    19793542.274    82063886.196    19793542.327  
                                
  23080788.332   123509968.829    23080789.208    96063306.791    23080789.065  
                                
  19606778.569   104846270.431    19606778.587    81547105.353    19606778.551  
                                
  23534336.567   123673791.306                                                  
  23534337.729    92353815.909  
  23895875.398   125573693.222                                                  
  23895877.811    93772579.783  
  24209737.907   127223036.805                                                  
  24209739.390    95004220.516  
  27143357.306   142639309.237                                                  
  27143360.719   106516377.957  
  23764415.981   124882867.751                                                  
  23764417.696    93256703.642  
 21  9  1  9 42 59.0000000  0 19G 1G 3G 7G 8G14G17G19G21G22G30R13R14
                                R17R24E13E15E21E26E27
  20167049.651   105978575.801    20167049.383    82580703.534    20167049.044  
  20167048.543    79139849.698  
  23836147.171   125259799.153    23836147.617    97605047.608    23836146.831  
  23836147.617    93538160.768  
  23321849.225   122557139.183    23321846.527    95499051.804    23321846.026  
                                
  24574737.110   129141117.896    24574737.968   100629448.534    24574736.860  
  24574736.896    96436552.255  
  20507297.720   107766585.981    20507295.326    83973950.375    20507294.736  
  20507299.185    80475056.346  
  21425769.360   112593193.441    21425766.233    87734948.973    21425765.572  
                                
  23245294.900   122154857.219                    95185584.573    23245289.557  
                                
  22340601.295   117400669.868                    91481029.943    22340597.239  
                                
  23099075.437   121386460.500                    94586838.492    23099070.040  
                                
  21891823.749   115042301.169    21891823.428    89643349.214    21891822.642  
  21891823.749    85908208.402  
  19957434.933   106571586.184    19957435.809    82889010.087    19957435.791  
                                
  19793180.158   105508786.311    19793181.587    82062390.749    19793181.641  
                                
  23080122.908   123506408.113    23080123.783    96060537.349    23080123.658  
                                
  19606558.905   104845095.750    19606558.923    81546191.717    19606558.887  
                                
  23534091.565   123672503.934                                                  
  23534092.727    92352854.569  
  23896163.536   125575207.435                                                  
  23896165.949    93773710.522  
  24209462.278   127221588.279                                                  
  24209463.761    95003138.820  
  27142801.615   142636389.091                                                  
  27142805.028   106514197.313  
  23764653.764   124884117.386                                                  
  23764655.479    93257636.809  
 21  9  1  9 43  0.0000000  0 19G 1G 3G 7G 8G14G17G19G21G22G30R13R14
                                R17R24E13E15E21E26E27
  20167221.694   105979480.016    20167221.444    82581408.115    20167221.105  
  20167220.604    79140524.920  
  23835588.353   125256862.507    23835588.799    97602759.317    23835588.013  
  23835588.799    93535967.811  
  23322530.303   122560718.233    23322527.605    95501840.670    23322527.104  
                                
  24575302.129   129144087.112    24575303.005   100631762.218    24575301.879  
  24575301.932    96438769.520  
  20507053.308   107765301.529    20507050.913    83972949.503    20507050.324  
  20507054.773    80474097.173  
  21425501.557   112591786.142    21425498.430    87733852.375    21425497.769  
                                
  23244754.844   122152019.214                    95183373.143    23244749.501  
                                
  22341089.119   117403233.396                    91483027.497    22341085.063  
                                
  23098764.319   121384825.493                    94585564.465    23098758.905  
                                
  21892270.850   115044650.609    21892270.529    89645179.947    21892269.742  
  21892270.850    85909962.847  
  19957907.980   106574112.319    19957908.873    82890974.859    19957908.837  
                                
  19792819.650   105506864.537    19792821.062    82060896.034    19792821.116  
                                
  23079457.590   123502847.856    23079458.466    96057768.261    23079458.323  
                                
  19606339.402   104843921.933    19606339.420    81545278.748    19606339.367  
                                
  23533846.706   123671217.193                                                  
  23533847.867    92351893.686  
  23896451.782   125576722.209                                                  
  23896454.194    93774841.689  
  24209186.737   127220140.272                                                  
  24209188.220    95002057.514  
  27142246.013   142633469.297                                                  
  27142249.426   106512016.937  
  23764891.690   124885367.608                                                  
  23764893.387    93258570.411  
 21  9  1  9 43  1.0000000  0 19G 1G 3G 7G 8G14G17G19G21G22G30R13R14
                                R17R24E13E15E21E26E27
  20167393.862   105980384.715    20167393.594    82582113.078    20167393.255  
  20167392.754    79141200.509  
  23835029.517   125253925.884    23835029.964    97600471.044    23835029.177  
  23835029.964    93533774.876  
  23323211.381   122564297.254    23323208.682    95504629.519    23323208.182  
                                
  24575867.112   129147056.101    24575867.952   100634075.719    24575866.844  
  24575866.897    96440986.649  
  20506808.913   107764017.291    20506806.519    83971948.796    20506805.929  
  20506810.396    80473138.170  
  21425233.772   112590378.903    21425230.645    87732755.826    21425229.966  
                                
  23244214.771   122149181.177                    95181161.688    23244209.446  
                                
  22341576.979   117405797.042                    91485025.146    22341572.905  
                                
  23098453.219   121383190.761                    94584290.649    23098447.823  
                                
  21892717.969   115047000.319    21892717.647    89647010.892    21892716.861  
  21892717.969    85911717.498  
  19958381.151   106576638.961    19958382.027    82892940.025    19958382.009  
                                
  19792459.214   105504943.270    19792460.626    82059401.717    19792460.680  
                                
  23078792.273   123499287.671    23078793.149    96054999.224    23078793.006  
                                
  19606119.971   104842748.557    19606119.989    81544366.118    19606119.935  
                                
  23533601.882   123669930.643                                                  
  23533603.044    92350932.951  
  23896740.045   125578237.095                                                  
  23896742.457    93775972.937  
  24208911.197   127218692.339                                                  
  24208912.680    95000976.268  
  27141690.358   142630549.421                                                  
  27141693.789   106509836.525  
  23765129.616   124886617.982                                                  
  23765131.331    93259504.132  
 21  9  1  9 43  2.0000000  0 19G 1G 3G 7G 8G14G17G19G21G22G30R13R14
                                R17R24E13E15E21E26E27
  20167566.137   105981290.098    20167565.869    82582818.569    20167565.530  
  20167565.030    79141876.607  
  23834470.753   125250989.479    23834471.181    97598182.938    23834470.395  
  23834471.181    93531582.103  
  23323892.458   122567876.412    23323889.760    95507418.474    23323889.260  
                                
  24576432.094   129150025.153    24576432.970   100636389.266    24576431.844  
  24576431.898    96443203.783  
  20506564.626   107762733.476    20506562.231    83970948.423    20506561.642  
  20506566.091    80472179.475  
  21424966.023   112588971.906    21424962.896    87731659.467    21424962.234  
                                
  23243674.751   122146343.310                    95178950.367    23243669.408  
                                
  22342064.857   117408360.981                    91487023.020    22342060.801  
                                
  23098142.245   121381556.476                    94583017.177    23098136.831  
                                
  21893165.195   115049350.507    21893164.873    89648842.209    21893164.087  
  21893165.195    85913472.511  
  19958854.430   106579166.268    19958855.306    82894905.708    19958855.288  
                                
  19792098.921   105503022.732    19792100.351    82057907.965    19792100.404  
                                
  23078127.027   123495727.750    23078127.903    96052230.393    23078127.760  
                                
  19605900.664   104841575.794    19605900.682    81543453.973    19605900.628  
                                
  23533357.130   123668644.471                                                  
  23533358.292    92349972.493  
  23897028.379   125579752.277                                                  
  23897030.792    93777104.404  
  24208635.728   127217244.685                                                  
  24208637.211    94999895.223  
  27141134.757   142627629.660                                                  
  27141138.170   106507656.184  
  23765367.631   124887868.688                                                  
  23765369.329    93260438.103  
 21  9  1  9 43  3.0000000  0 19G 1G 3G 7G 8G14G17G19G21G22G30R13R14
                                R17R24E13E15E21E26E27
  20167738.574   105982196.153    20167738.306    82583524.586    20167737.966  
  20167737.466    79142553.208  
  23833912.006   125248053.270    23833912.453    97595894.980    23833911.667  
  23833912.453    93529389.482  
  23324573.572   122571455.706    23324570.874    95510207.541    23324570.373  
                                
  24576997.077   129152994.143    24576997.935   100638702.757    24576996.809  
  24576996.863    96445420.890  
  20506320.392   107761450.062    20506317.997    83969948.360    20506317.408  
  20506321.857    80471221.082  
  21424698.345   112587565.143    21424695.200    87730563.290    21424694.539  
                                
  23243134.731   122143505.590                    95176739.159    23243129.407  
                                
  22342552.825   117410925.211                    91489021.121    22342548.768  
                                
  23097831.324   121379922.678                    94581744.081    23097825.927  
                                
  21893612.510   115051701.149    21893612.188    89650673.874    21893611.402  
  21893612.510    85915227.865  
  19959327.852   106581694.279    19959328.728    82896871.937    19959328.710  
                                
  19791738.771   105501102.884    19791740.201    82056414.748    19791740.254  
                                
  23077461.817   123492168.118    23077462.710    96049461.793    23077462.568  
                                
  19605681.465   104840403.634    19605681.483    81542542.291    19605681.429  
                                
  23533112.450   123667358.648                                                  
  23533113.611    92349012.306  
  23897316.785   125581267.761                                                  
  23897319.198    93778236.092  
  24208360.277   127215797.274                                                  
  24208361.778    94998814.368  
  27140579.155   142624709.980                                                  
  27140582.568   106505475.928  
  23765605.682   124889119.720                                                  
  23765607.398    93261372.315  
 21  9  1  9 43  4.0000000  0 19G 1G 3G 7G 8G14G17G19G21G22G30R13R14
                                R17R24E13E15E21E26E27
  20167911.135   105983103.003    20167910.885    82584231.222    20167910.527  
  20167910.045    79143230.399  
  23833353.331   125245117.404    23833353.778    97593607.295    23833352.992  
  23833353.778    93527197.106  
  23325254.739   122575035.275    23325252.041    95512996.822    23325251.541  
                                
  24577562.060   129155963.241    24577562.918   100641016.338    24577561.810  
  24577561.863    96447638.078  
  20506076.265   107760167.189    20506073.871    83968948.719    20506073.281  
  20506077.731    80470263.092  
  21424430.720   112586158.762    21424427.575    87729467.411    21424426.914  
                                
  23242594.801   122140668.166                    95174528.182    23242589.458  
                                
  22343040.863   117413489.869                    91491019.554    22343036.807  
                                
  23097520.546   121378289.452                    94580471.442    23097515.149  
                                
  21894059.933   115054052.385    21894059.611    89652506.008    21894058.825  
  21894059.933    85916983.660  
  19959801.417   106584223.092    19959802.293    82898838.791    19959802.275  
                                
  19791378.782   105499183.852    19791380.193    82054922.170    19791380.247  
                                
  23076796.696   123488608.895    23076797.572    96046693.507    23076797.429  
                                
  19605462.391   104839232.211    19605462.408    81541631.182    19605462.355  
                                
  23532867.877   123666073.336                                                  
  23532869.038    92348052.493  
  23897605.263   125582783.676                                                  
  23897607.675    93779368.105  
  24208084.933   127214350.262                                                  
  24208086.434    94997733.805  
  27140023.589   142621790.548                                                  
  27140027.002   106503295.819  
  23765843.841   124890371.224                                                  
  23765845.556    93262306.880  
 21  9  1  9 43  5.0000000  0 19G 1G 3G 7G 8G14G17G19G21G22G30R13R14
                                R17R24E13E15E21E26E27
  20168083.803   105984010.388    20168083.535    82584938.277    20168083.196  
  20168082.695    79143907.998  
  23832794.674   125242181.597    23832795.121    97591319.651    23832794.334  
  23832795.121    93525004.789  
  23325935.906   122578614.847    23325933.208    95515786.095    23325932.708  
                                
  24578127.043   129158932.166    24578127.901   100643329.782    24578126.793  
  24578126.828    96449855.135  
  20505832.192   107758884.577    20505829.798    83967949.283    20505829.208  
  20505833.675    80469305.302  
  21424163.114   112584752.462    21424159.969    87728371.591    21424159.308  
                                
  23242054.853   122137830.757                    95172317.211    23242049.510  
                                
  22343528.938   117416054.665                    91493018.101    22343524.882  
                                
  23097209.821   121376656.552                    94579199.052    23097204.425  
                                
  21894507.426   115056403.941    21894507.105    89654338.387    21894506.319  
  21894507.426    85918739.690  
  19960275.071   106586752.436    19960275.947    82900806.058    19960275.929  
                                
  19791018.864   105497265.341    19791020.275    82053429.992    19791020.329  
                                
  23076131.575   123485049.724    23076132.469    96043925.260    23076132.326  
                                
  19605243.424   104838061.233    19605243.441    81540720.424    19605243.388  
                                
  23532623.339   123664788.245                                                  
  23532624.483    92347092.848  
  23897893.740   125584299.730                                                  
  23897896.153    93780500.229  
  24207809.590   127212903.365                                                  
  24207811.073    94996653.332  
  27139468.059   142618871.109                                                  
  27139471.454   106501115.701  
  23766082.017   124891622.904                                                  
  23766083.732    93263241.581  
 21  9  1  9 43  6.0000000  0 19G 1G 3G 7G 8G14G17G19G21G22G30R13R14
                                R17R24E13E15E21E26E27
  20168256.561   105984918.250    20168256.293    82585645.703    20168255.953  
  20168255.471    79144585.943  
  23832235.999   125239245.798    23832236.446    97589032.020    23832235.677  
  23832236.446    93522812.470  
  23326617.056   122582194.346    23326614.357    95518575.310    23326613.857  
                                
  24578691.990   129161900.930    24578692.848   100645643.095    24578691.740  
  24578691.775    96452072.052  
  20505588.173   107757602.176    20505585.778    83966950.007    20505585.189  
  20505589.638    80468347.660  
  21423895.507   112583346.219    21423892.362    87727275.817    21423891.701  
                                
  23241514.905   122134993.310                    95170106.211    23241509.580  
                                
  22344017.012   117418619.569                    91495016.721    22344012.956  
                                
  23096899.115   121375023.927                    94577926.882    23096893.718  
                                
  21894954.956   115058755.775    21894954.635    89656170.985    21894953.848  
  21894954.974    85920495.925  
  19960748.833   106589282.265    19960749.708    82902773.706    19960749.690  
                                
  19790659.035   105495347.300    19790660.465    82051938.180    19790660.518  
                                
  23075466.490   123481490.630    23075467.384    96041157.073    23075467.241  
                                
  19605024.528   104836890.677    19605024.546    81539809.989    19605024.492  
                                
  23532378.801   123663503.317                                                  
  23532379.963    92346133.325  
  23898182.254   125585815.889                                                  
  23898184.666    93781632.422  
  24207534.282   127211456.532                                                  
  24207535.765    94995572.903  
  27138912.476   142615951.541                                                  
  27138915.889   106498935.519  
  23766320.247   124892874.716                                                  
  23766321.962    93264176.375  
 21  9  1  9 43  7.0000000  0 19G 1G 3G 7G 8G14G17G19G21G22G30R13R14
                                R17R24E13E15E21E26E27
  20168429.426   105985826.629    20168429.158    82586353.528    20168428.818  
  20168428.318    79145264.278  
  23831677.360   125236310.062    23831677.806    97586744.431    23831677.020  
  23831677.806    93520620.195  
  23327298.223   122585773.857    23327295.525    95521364.537    23327295.024  
                                
  24579256.865   129164869.474    24579257.723   100647956.244    24579256.615  
  24579256.669    96454288.823  
  20505344.171   107756320.036    20505341.777    83965950.940    20505341.187  
  20505345.655    80467390.220  
  21423627.919   112581940.067    21423624.792    87726180.114    21423624.113  
                                
  23240974.974   122132155.880                    95167895.229    23240969.631  
                                
  22344505.122   117421184.609                    91497015.455    22344501.066  
                                
  23096588.515   121373391.593                    94576654.936    23096583.119  
                                
  21895402.557   115061107.923    21895402.236    89658003.828    21895401.449  
  21895402.557    85922252.393  
  19961222.683   106591812.632    19961223.559    82904741.766    19961223.541  
                                
  19790299.332   105493429.801    19790300.761    82050446.792    19790300.797  
                                
  23074801.405   123477931.661    23074802.299    96038388.980    23074802.156  
                                
  19604805.722   104835720.598    19604805.740    81538899.927    19604805.686  
                                
  23532134.335   123662218.610                                                  
  23532135.497    92345173.963  
  23898470.803   125587332.186                                                  
  23898473.215    93782764.726  
  24207258.973   127210009.811                                                  
  24207260.457    94994492.559  
  27138356.910   142613031.935                                                  
  27138360.323   106496755.283  
  23766558.477   124894126.713                                                  
  23766560.192    93265111.304  
 21  9  1  9 43  8.0000000  0 19G 1G 3G 7G 8G14G17G19G21G22G30R13R14
                                R17R24E13E15E21E26E27
  20168602.398   105986735.578    20168602.130    82587061.800    20168601.790  
  20168601.290    79145943.034  
  23831118.703   125233374.393    23831119.149    97584456.901    23831118.363  
  23831119.149    93518427.992  
  23327979.372   122589353.385    23327976.674    95524153.780    23327976.191  
                                
  24579821.741   129167837.883    24579822.599   100650269.287    24579821.491  
  24579821.544    96456505.501  
  20505100.241   107755038.190    20505097.847    83964952.098    20505097.257  
  20505101.724    80466433.002  
  21423360.366   112580534.043    21423357.221    87725084.509    21423356.560  
                                
  23240435.026   122129318.477                    95165684.263    23240429.701  
                                
  22344993.286   117423749.845                    91499014.336    22344989.230  
                                
  23096277.952   121371759.632                    94575383.275    23096272.555  
                                
  21895850.230   115063460.406    21895849.908    89659836.927    21895849.122  
  21895850.230    85924009.128  
  19961696.659   106594343.573    19961697.535    82906710.277    19961697.517  
                                
  19789939.736   105491512.903    19789941.147    82048955.874    19789941.201  
                                
  23074136.356   123474372.818    23074137.250    96035620.984    23074137.124  
                                
  19604586.987   104834551.024    19604587.005    81537990.258    19604586.951  
                                
  23531889.923   123660934.161                                                  
  23531891.084    92344214.799  
  23898759.387   125588848.677                                                  
  23898761.800    93783897.170  
  24206983.701   127208563.236                                                  
  24206985.184    94993412.325  
  27137801.326   142610112.317                                                  
  27137804.721   106494575.058  
  23766796.760   124895378.931                                                  
  23766798.475    93266046.401  
 21  9  1  9 43  9.0000000  0 19G 1G 3G 7G 8G14G17G19G21G22G30R13R14
                                R17R24E13E15E21E26E27
  20168775.495   105987645.304    20168775.245    82587770.677    20168774.905  
  20168774.405    79146622.370  
  23830560.135   125230439.087    23830560.581    97582169.650    23830559.795  
  23830560.581    93516236.023  
  23328660.611   122592933.160    23328657.912    95526943.215    23328657.412  
                                
  24580386.652   129170806.406    24580387.510   100652582.422    24580386.402  
  24580386.456    96458722.225  
  20504856.436   107753756.863    20504854.042    83963953.660    20504853.452  
  20504857.902    80465476.154  
  21423092.867   112579128.363    21423089.740    87723989.176    21423089.061  
                                
  23239895.149   122126481.349                    95163473.517    23239889.806  
                                
  22345481.504   117426315.463                    91501013.518    22345477.448  
                                
  23095967.513   121370128.223                    94574112.047    23095962.099  
                                
  21896297.992   115065813.478    21896297.670    89661670.487    21896296.884  
  21896298.010    85925766.282  
  19962170.760   106596875.300    19962171.636    82908679.397    19962171.636  
                                
  19789580.265   105489596.824    19789581.694    82047465.588    19789581.730  
                                
  23073471.360   123470814.280    23073472.254    96032853.227    23073472.111  
                                
  19604368.413   104833382.175    19604368.431    81537081.149    19604368.378  
                                
  23531645.582   123659650.175                                                  
  23531646.743    92343255.981  
  23899048.044   125590365.563                                                  
  23899050.456    93785029.904  
  24206708.482   127207117.020                                                  
  24206709.966    94992332.360  
  27137245.760   142607192.905                                                  
  27137249.173   106492394.973  
  23767035.151   124896631.573                                                  
  23767036.866    93266981.818  
 21  9  1  9 43 10.0000000  0 19G 1G 3G 7G 8G14G17G19G21G22G30R13R14
                                R17R24E13E15E21E26E27
  20168948.771   105988555.834    20168948.503    82588480.181    20168948.163  
  20168947.663    79147302.325  
  23830001.621   125227504.075    23830002.049    97579882.628    23830001.263  
  23830002.049    93514044.311  
  23329341.867   122596513.196    23329339.169    95529732.846    23329338.669  
                                
  24580951.546   129173775.026    24580952.421   100654895.628    24580951.313  
  24580951.349    96460939.058  
  20504612.685   107752476.067    20504610.291    83962955.637    20504609.701  
  20504614.150    80464519.726  
  21422825.457   112577723.056    21422822.312    87722894.129    21422821.651  
                                
  23239355.290   122123644.507                    95161262.990    23239349.965  
                                
  22345969.793   117428881.497                    91503013.021    22345965.736  
                                
  23095657.182   121368497.418                    94572841.292    23095651.786  
                                
  21896745.897   115068167.138    21896745.575    89663504.510    21896744.789  
  21896745.897    85927523.891  
  19962645.040   106599407.843    19962645.915    82910649.148    19962645.898  
                                
  19789220.972   105487681.539    19789222.384    82045975.924    19789222.437  
                                
  23072806.436   123467256.133    23072807.330    96030085.777    23072807.205  
                                
  19604149.982   104832214.043    19604149.982    81536172.607    19604149.929  
                                
  23531401.348   123658366.703                                                  
  23531402.510    92342297.541  
  23899336.753   125591882.882                                                  
  23899339.183    93786162.970  
  24206433.353   127205671.214                                                  
  24206434.854    94991252.703  
  27136690.266   142604273.742                                                  
  27136693.661   106490215.092  
  23767273.595   124897884.697                                                  
  23767275.310    93267917.588  
 21  9  1  9 43 11.0000000  0 19G 1G 3G 7G 8G14G17G19G21G22G30R13R14
                                R17R24E13E15E21E26E27
  20169122.154   105989466.924    20169121.886    82589190.119    20169121.547  
  20169121.046    79147982.678  
  23829443.124   125224569.193    23829443.571    97577595.700    23829442.785  
  23829443.571    93511852.674  
  23330023.142   122600093.296    23330020.443    95532522.535    23330019.943  
                                
  24581516.421   129176743.493    24581517.279   100657208.718    24581516.171  
  24581516.225    96463155.799  
  20504369.023   107751195.580    20504366.629    83961957.854    20504366.039  
  20504370.488    80463563.520  
  21422558.047   112576317.889    21422554.920    87721799.192    21422554.259  
                                
  23238815.467   122120807.723                    95159052.516    23238810.142  
                                
  22346458.135   117431447.745                    91505012.695    22346454.079  
                                
  23095346.904   121366866.982                    94571570.821    23095341.508  
                                
  21897193.838   115070521.149    21897193.516    89665338.802    21897192.730  
  21897193.855    85929281.755  
  19963119.409   106601940.961    19963120.284    82912619.352    19963120.267  
                                
  19788861.769   105485766.832    19788863.199    82044486.710    19788863.252  
                                
  23072141.566   123463698.178    23072142.459    96027318.481    23072142.316  
                                
  19603931.605   104831046.371    19603931.605    81535264.420    19603931.569  
                                
  23531157.150   123657083.486                                                  
  23531158.311    92341339.297  
  23899625.535   125593400.393                                                  
  23899627.965    93787296.173  
  24206158.242   127204225.555                                                  
  24206159.743    94990173.150  
  27136134.790   142601354.571                                                  
  27136138.185   106488035.184  
  23767512.111   124899138.032                                                  
  23767513.826    93268853.523  
 21  9  1  9 43 12.0000000  0 19G 1G 3G 7G 8G14G17G19G21G22G30R13R14
                                R17R24E13E15E21E26E27
  20169295.644   105990378.637    20169295.376    82589900.545    20169295.037  
  20169294.537    79148663.500  
  23828884.682   125221634.448    23828885.128    97575308.885    23828884.342  
  23828885.128    93509661.132  
  23330704.416   122603673.455    23330701.718    95535312.267    23330701.235  
                                
  24582081.297   129179711.940    24582082.154   100659521.793    24582081.047  
  24582081.100    96465372.488  
  20504125.433   107749915.435    20504123.038    83960960.337    20504122.448  
  20504126.898    80462607.559  
  21422290.690   112574912.881    21422287.545    87720704.383    21422286.884  
                                
  23238275.680   122117971.029                    95156842.108    23238270.337  
                                
  22346946.531   117434014.202                    91507012.529    22346942.475  
                                
  23095036.716   121365236.931                    94570300.651    23095031.337  
                                
  21897641.868   115072875.572    21897641.546    89667173.417    21897640.760  
  21897641.868    85931039.927  
  19963593.903   106604474.706    19963594.778    82914590.042    19963594.761  
                                
  19788502.673   105483852.732    19788504.103    82042997.966    19788504.156  
                                
  23071476.695   123460140.419    23071477.588    96024551.340    23071477.463  
                                
  19603713.335   104829879.209    19603713.353    81534356.627    19603713.299  
                                
  23530913.023   123655800.572                                                  
  23530914.185    92340381.273  
  23899914.352   125594918.125                                                  
  23899916.782    93788429.544  
  24205883.202   127202780.093                                                  
  24205884.685    94989093.742  
  27135579.278   142598435.428                                                  
  27135582.673   106485855.321  
  23767750.662   124900391.635                                                  
  23767752.377    93269789.650  
 21  9  1  9 43 13.0000000  0 19G 1G 3G 7G 8G14G17G19G21G22G30R13R14
                                R17R24E13E15E21E26E27
  20169469.278   105991291.074    20169469.010    82590611.530    20169468.670  
  20169468.170    79149344.868  
  23828326.257   125218699.970    23828326.703    97573022.282    23828325.917  
  23828326.703    93507469.808  
  23331385.744   122607253.840    23331383.046    95538102.175    23331382.563  
                                
  24582646.190   129182680.446    24582647.048   100661834.914    24582645.940  
  24582645.994    96467589.220  
  20503881.914   107748635.758    20503879.519    83959963.188    20503878.929  
  20503883.379    80461651.960  
  21422023.370   112573508.170    21422020.243    87719609.802    21422019.582  
                                
  23237735.910   122115134.556                    95154631.867    23237730.567  
                                
  22347434.963   117436581.008                    91509012.638    22347430.907  
                                
  23094726.635   121363607.403                    94569030.889    23094721.256  
                                
  21898090.005   115075230.505    21898089.683    89669008.428    21898088.897  
  21898090.023    85932798.485  
  19964068.522   106607009.176    19964069.398    82916561.296    19964069.380  
                                
  19788143.738   105481939.365    19788145.168    82041509.789    19788145.203  
                                
  23070811.914   123456583.014    23070812.807    96021784.471    23070812.682  
                                
  19603495.208   104828712.735    19603495.226    81533449.372    19603495.172  
                                
  23530668.968   123654518.086                                                  
  23530670.130    92339423.572  
  23900203.240   125596436.215                                                  
  23900205.670    93789563.183  
  24205608.180   127201334.950                                                  
  24205609.681    94988014.581  
  27135023.801   142595516.459                                                  
  27135027.196   106483675.558  
  23767989.285   124901645.627                                                  
  23767991.000    93270726.075  
 21  9  1  9 43 14.0000000  0 19G 1G 3G 7G 8G14G17G19G21G22G30R13R14
                                R17R24E13E15E21E26E27
  20169643.072   105992204.404    20169642.804    82591323.216    20169642.464  
  20169641.964    79150026.897  
  23827767.921   125215765.912    23827768.368    97570736.005    23827767.600  
  23827768.368    93505278.793  
  23332067.125   122610834.539    23332064.427    95540892.326    23332063.945  
                                
  24583211.155   129185649.151    24583212.013   100664148.189    24583210.905  
  24583210.959    96469806.084  
  20503638.502   107747356.702    20503636.107    83958966.519    20503635.518  
  20503639.985    80460696.819  
  21421756.156   112572103.907    21421753.012    87718515.571    21421752.350  
                                
  23237196.212   122112298.450                    95152421.916    23237190.887  
                                
  22347923.502   117439148.325                    91511013.147    22347919.446  
                                
  23094416.679   121361978.546                    94567761.652    23094411.282  
                                
  21898538.267   115077586.124    21898537.945    89670843.976    21898537.159  
  21898538.267    85934557.545  
  19964543.302   106609544.543    19964544.177    82918533.248    19964544.160  
                                
  19787784.982   105480026.902    19787786.393    82040022.320    19787786.447  
                                
  23070147.204   123453026.020    23070148.097    96019017.923    23070147.972  
                                
  19603277.224   104827547.126    19603277.224    81532542.787    19603277.170  
                                
  23530425.038   123653236.169                                                  
  23530426.200    92338466.303  
  23900492.200   125597954.813                                                  
  23900494.630    93790697.203  
  24205333.282   127199890.286                                                  
  24205334.783    94986935.771  
  27134468.378   142592597.786                                                  
  27134471.773   106481496.045  
  23768228.015   124902900.157                                                  
  23768229.730    93271662.899  
 21  9  1  9 43 15.0000000  0 19G 1G 3G 7G 8G14G17G19G21G22G30R13R14
                                R17R24E13E15E21E26E27
  20169817.009   105993118.399    20169816.741    82592035.425    20169816.384  
  20169815.901    79150709.431  
  23827209.639   125212832.059    23827210.086    97568449.884    23827209.300  
  23827210.086    93503087.927  
  23332748.543   122614415.397    23332745.845    95543682.606    23332745.362  
                                
  24583776.048   129188617.786    24583776.924   100666461.402    24583775.816  
  24583775.852    96472022.918  
  20503395.197   107746078.048    20503392.785    83957970.165    20503392.195  
  20503396.662    80459741.983  
  21421488.979   112570699.888    21421485.834    87717421.533    21421485.173  
                                
  23236656.567   122109462.496                    95150212.082    23236651.225  
                                
  22348412.113   117441715.926                    91513013.870    22348408.057  
                                
  23094106.812   121360350.150                    94566492.768    23094101.415  
                                
  21898986.619   115079942.211    21898986.297    89672679.891    21898985.511  
  21898986.637    85936316.961  
  19965018.243   106612080.604    19965019.118    82920505.738    19965019.100  
                                
  19787426.350   105478115.166    19787427.762    82038535.409    19787427.816  
                                
  23069482.548   123449469.311    23069483.423    96016251.591    23069483.298  
                                
  19603059.364   104826382.150    19603059.382    81531636.699    19603059.329  
                                
  23530181.180   123651954.631                                                  
  23530182.323    92337509.306  
  23900781.249   125599473.704                                                  
  23900783.680    93791831.433  
  24205058.421   127198445.877                                                  
  24205059.904    94985857.152  
  27133912.991   142589679.231                                                  
  27133916.368   106479316.610  
  23768466.817   124904155.024                                                  
  23768468.532    93272599.971  
 21  9  1  9 43 16.0000000  0 19G 1G 3G 7G 8G14G17G19G21G22G30R13R14
                                R17R24E13E15E21E26E27
  20169991.071   105994033.114    20169990.803    82592748.187    20169990.464  
  20169989.963    79151392.495  
  23826651.393   125209898.474    23826651.840    97566163.968    23826651.072  
  23826651.858    93500897.255  
  23333430.014   122617996.477    23333427.316    95546473.059    23333426.833  
                                
  24584340.942   129191586.406    24584341.800   100668774.607    24584340.692  
  24584340.745    96474239.773  
  20503151.964   107744799.850    20503149.569    83956974.169    20503148.980  
  20503153.429    80458787.486  
  21421221.873   112569296.133    21421218.728    87716327.695    21421218.067  
                                
  23236116.923   122106626.757                    95148002.413    23236111.580  
                                
  22348900.777   117444283.880                    91515014.880    22348896.721  
                                
  23093797.017   121358722.289                    94565224.302    23093791.638  
                                
  21899435.060   115082298.796    21899434.738    89674516.187    21899433.952  
  21899435.060    85938076.748  
  19965493.291   106614617.385    19965494.166    82922478.792    19965494.148  
                                
  19787067.844   105476204.191    19787069.256    82037049.098    19787069.309  
                                
  23068817.927   123445912.861    23068818.821    96013485.466    23068818.696  
                                
  19602841.630   104825217.819    19602841.648    81530731.107    19602841.595  
                                
  23529937.375   123650673.504                                                  
  23529938.536    92336552.622  
  23901070.352   125600992.935                                                  
  23901072.765    93792965.933  
  24204783.613   127197001.780                                                  
  24204785.114    94984778.772  
  27133357.675   142586760.860                                                  
  27133361.071   106477137.297  
  23768705.672   124905410.260                                                  
  23768707.387    93273537.327  
 21  9  1  9 43 17.0000000  0 19G 1G 3G 7G 8G14G17G19G21G22G30R13R14
                                R17R24E13E15E21E26E27
  20170165.258   105994948.524    20170164.990    82593461.493    20170164.651  
  20170164.150    79152076.078  
  23826093.183   125206965.108    23826093.630    97563878.224    23826092.843  
  23826093.630    93498706.760  
  23334111.485   122621577.681    23334108.786    95549263.607    23334108.304  
                                
  24584905.907   129194555.117    24584906.765   100671087.884    24584905.675  
  24584905.710    96476456.630  
  20502908.820   107743522.094    20502906.426    83955978.517    20502905.836  
  20502910.285    80457833.313  
  21420954.784   112567892.651    21420951.657    87715234.075    21420950.996  
                                
  23235577.332   122103791.211                    95145792.897    23235571.989  
                                
  22349389.495   117446852.150                    91517016.127    22349385.439  
                                
  23093487.347   121357094.891                    94563956.202    23093481.950  
                                
  21899883.590   115084655.880    21899883.268    89676352.878    21899882.482  
  21899883.590    85939836.906  
  19965968.482   106617154.875    19965969.357    82924452.393    19965969.339  
                                
  19786709.481   105474293.920    19786710.893    82035563.333    19786710.946  
                                
  23068153.378   123442356.708    23068154.272    96010719.567    23068154.129  
                                
  19602624.021   104824054.080    19602624.021    81529825.978    19602623.986  
                                
  23529693.659   123649392.767                                                  
  23529694.821    92335596.227  
  23901359.527   125602512.492                                                  
  23901361.939    93794100.662  
  24204508.877   127195557.966                                                  
  24204510.378    94983700.595  
  27132802.324   142583842.572                                                  
  27132805.701   106474958.069  
  23768944.616   124906665.852                                                  
  23768946.332    93274474.942  
 21  9  1  9 43 18.0000000  0 19G 1G 3G 7G 8G14G17G19G21G22G30R13R14
                                R17R24E13E15E21E26E27
  20170339.553   105995864.441    20170339.285    82594175.198    20170338.945  
  20170338.445    79152760.045  
  23825534.990   125204031.798    23825535.437    97561592.526    23825534.651  
  23825535.437    93496516.299  
  23334792.956   122625158.888    23334790.275    95552054.156    23334789.775  
                                
  24585470.782   129197523.632    24585471.640   100673401.010    24585470.532  
  24585470.586    96478673.391  
  20502665.694   107742244.585    20502663.300    83954983.051    20502662.710  
  20502667.177    80456879.333  
  21420687.732   112566489.251    21420684.587    87714140.517    21420683.926  
                                
  23235037.741   122100955.651                    95143583.376    23235032.416  
                                
  22349878.248   117449420.549                    91519017.482    22349874.192  
                                
  23093177.730   121355467.806                    94562688.348    23093172.334  
                                
  21900332.192   115087013.260    21900331.870    89678189.795    21900331.084  
  21900332.210    85941597.294  
  19966443.762   106619692.857    19966444.637    82926426.381    19966444.620  
                                
  19786351.225   105472384.160    19786352.637    82034077.960    19786352.690  
                                
  23067488.847   123438800.653    23067489.741    96007953.744    23067489.616  
                                
  19602406.466   104822890.776    19602406.466    81528921.184    19602406.430  
                                
  23529449.979   123648112.244                                                  
  23529451.141    92334639.997  
  23901648.719   125604032.193                                                  
  23901651.131    93795235.502  
  24204234.141   127194114.265                                                  
  24204235.642    94982622.513  
  27132247.008   142580924.277                                                  
  27132250.386   106472778.812  
  23769183.579   124907921.626                                                  
  23769185.294    93275412.697  
 21  9  1  9 43 19.0000000  0 19G 1G 3G 7G 8G14G17G19G21G22G30R13R14
                                R17R24E13E15E21E26E27
  20170513.972   105996781.049    20170513.704    82594889.437    20170513.365  
  20170512.864    79153444.526  
  23824976.851   125201098.703    23824977.298    97559307.001    23824976.512  
  23824977.298    93494325.998  
  23335474.462   122628740.235    23335471.764    95554844.811    23335471.282  
                                
  24586035.676   129200492.146    24586036.534   100675714.134    24586035.426  
  24586035.479    96480890.130  
  20502422.675   107740967.486    20502420.281    83953987.912    20502419.691  
  20502424.159    80455925.656  
  21420420.715   112565086.088    21420417.570    87713047.141    21420416.909  
                                
  23234498.186   122098120.246                    95141373.967    23234492.861  
                                
  22350367.055   117451989.242                    91521019.061    22350362.999  
                                
  23092868.185   121353841.183                    94561420.847    23092862.788  
                                
  21900780.865   115089371.110    21900780.544    89680027.081    21900779.757  
  21900780.883    85943358.026  
  19966919.185   106622231.531    19966920.061    82928400.903    19966920.043  
                                
  19785993.076   105470475.073    19785994.506    82032593.115    19785994.559  
                                
  23066824.370   123435244.890    23066825.263    96005188.148    23066825.138  
                                
  19602189.036   104821728.070    19602189.054    81528016.857    19602189.000  
                                
  23529206.371   123646832.091                                                  
  23529207.532    92333684.037  
  23901937.947   125605552.179                                                  
  23901940.359    93796370.554  
  24203959.476   127192670.824                                                  
  24203960.977    94981544.615  
  27131691.693   142578006.054                                                  
  27131695.070   106470599.623  
  23769422.595   124909177.722                                                  
  23769424.310    93276350.694  
 21  9  1  9 43 20.0000000  0 19G 1G 3G 7G 8G14G17G19G21G22G30R13R14
                                R17R24E13E15E21E26E27
  20170688.499   105997698.196    20170688.249    82595604.097    20170687.892  
  20170687.409    79154129.407  
  23824418.730   125198165.707    23824419.177    97557021.550    23824418.391  
  23824419.177    93492135.767  
  23336155.969   122632321.612    23336153.289    95557635.495    23336152.788  
                                
  24586600.533   129203460.502    24586601.409   100678027.134    24586600.301  
  24586600.337    96483106.764  
  20502179.728   107739690.678    20502177.334    83952992.996    20502176.744  
  20502181.194    80454972.191  
  21420153.734   112563683.052    21420150.589    87711953.869    21420149.928  
                                
  23233958.649   122095284.888                    95139164.593    23233953.306  
                                
  22350855.898   117454558.108                    91523020.777    22350851.842  
                                
  23092558.729   121352214.923                    94560153.632    23092553.333  
                                
  21901229.610   115091729.297    21901229.288    89681864.630    21901228.502  
  21901229.610    85945119.006  
  19967394.698   106624770.765    19967395.573    82930375.861    19967395.555  
                                
  19785635.034   105468566.554    19785636.446    82031108.713    19785636.500  
                                
  23066159.910   123431689.254    23066160.804    96002422.651    23066160.679  
                                
  19601971.713   104820565.874    19601971.713    81527112.925    19601971.677  
                                
  23528962.816   123645552.181                                                  
  23528963.978    92332728.253  
  23902227.229   125607072.341                                                  
  23902229.641    93797505.742  
  24203684.812   127191227.516                                                  
  24203686.312    94980466.819  
  27131136.359   142575087.827                                                  
  27131139.754   106468420.437  
  23769661.665   124910434.027                                                  
  23769663.380    93277288.839  
 21  9  1  9 43 21.0000000  0 19G 1G 3G 7G 8G14G17G19G21G22G30R13R14
                                R17R24E13E15E21E26E27
  20170863.205   105998616.200    20170862.936    82596319.425    20170862.597  
  20170862.097    79154814.929  
  23823860.663   125195233.066    23823861.110    97554736.373    23823860.323  
  23823861.110    93489945.812  
  23336837.547   122635903.300    23336834.849    95560426.427    23336834.366  
                                
  24587165.427   129206429.034    24587166.302   100680340.276    24587165.195  
  24587165.248    96485323.509  
  20501936.870   107738414.455    20501934.476    83951998.532    20501933.886  
  20501938.353    80454019.163  
  21419886.807   112562280.430    21419883.679    87710860.916    21419883.018  
                                
  23233419.165   122092449.870                    95136955.495    23233413.822  
                                
  22351344.813   117457127.444                    91525022.852    22351340.756  
                                
  23092249.363   121350589.283                    94558886.899    23092243.966  
                                
  21901678.480   115094088.124    21901678.176    89683702.679    21901677.390  
  21901678.498    85946880.470  
  19967870.389   106627310.838    19967871.247    82932351.473    19967871.229  
                                
  19785277.171   105466658.907    19785278.583    82029624.986    19785278.637  
                                
  23065495.540   123428134.026    23065496.433    95999657.472    23065496.308  
                                
  19601754.515   104819404.491    19601754.533    81526209.624    19601754.479  
                                
  23528719.369   123644272.811                                                  
  23528720.530    92331772.887  
  23902516.600   125608592.981                                                  
  23902519.012    93798641.280  
  24203410.254   127189784.650                                                  
  24203411.755    94979389.355  
  27130581.115   142572169.893                                                  
  27130584.510   106466241.452  
  23769900.824   124911690.837                                                  
  23769902.539    93278227.368  
 21  9  1  9 43 22.0000000  0 19G 1G 3G 7G 8G14G17G19G21G22G30R13R14
                                R17R24E13E15E21E26E27
  20171038.035   105999534.964    20171037.767    82597035.343    20171037.428  
  20171036.927    79155501.013  
  23823302.649   125192300.724    23823303.096    97552451.434    23823302.327  
  23823303.114    93487756.079  
  23337519.161   122639485.229    23337516.463    95563217.547    23337515.980  
                                
  24587730.338   129209397.604    24587731.214   100682653.443    24587730.124  
  24587730.160    96487540.279  
  20501694.084   107737138.715    20501691.707    83951004.453    20501691.118  
  20501695.567    80453066.502  
  21419619.968   112560878.139    21419616.823    87709768.222    21419616.162  
                                
  23232879.717   122089615.090                    95134746.576    23232874.374  
                                
  22351833.816   117459697.149                    91527025.222    22351829.760  
                                
  23091940.121   121348964.191                    94557620.592    23091934.743  
                                
  21902127.457   115096447.503    21902127.135    89685541.154    21902126.349  
  21902127.457    85948642.337  
  19968346.187   106629851.664    19968347.063    82934327.671    19968347.045  
                                
  19784919.452   105464752.050    19784920.881    82028141.872    19784920.917  
                                
  23064831.205   123424579.128    23064832.099    95996892.551    23064831.974  
                                
  19601537.478   104818243.812    19601537.478    81525306.876    19601537.424  
                                
  23528475.992   123642993.882                                                  
  23528477.136    92330817.842  
  23902806.042   125610113.982                                                  
  23902808.454    93799777.097  
  24203135.750   127188342.128                                                  
  24203137.233    94978312.145  
  27130025.871   142569252.124                                                  
  27130029.266   106464062.602  
  23770140.072   124912948.063                                                  
  23770141.787    93279166.204  
 21  9  1  9 43 23.0000000  0 19G 1G 3G 7G 8G14G17G19G21G22G30R13R14
                                R17R24E13E15E21E26E27
  20171213.044   106000454.646    20171212.776    82597751.979    20171212.437  
  20171211.936    79156187.789  
  23822744.742   125189368.861    23822745.189    97550166.861    23822744.403  
  23822745.189    93485566.699  
  23338200.864   122643067.518    23338198.166    95566008.937    23338197.684  
                                
  24588295.267   129212366.391    24588296.143   100684966.779    24588295.035  
  24588295.089    96489757.240  
  20501451.458   107735863.650    20501449.064    83950010.894    20501448.474  
  20501452.924    80452114.350  
  21419353.220   112559476.353    21419350.075    87708675.924    21419349.414  
                                
  23232340.341   122086780.748                    95132537.997    23232335.016  
                                
  22352322.927   117462267.415                    91529028.024    22352318.871  
                                
  23091631.023   121347339.848                    94556354.870    23091625.644  
                                
  21902576.577   115098807.601    21902576.255    89687380.193    21902575.469  
  21902576.595    85950404.750  
  19968822.200   106632393.421    19968823.058    82936304.596    19968823.040  
                                
  19784561.910   105462846.165    19784563.322    82026659.522    19784563.376  
                                
  23064166.996   123421024.782    23064167.889    95994128.062    23064167.764  
                                
  19601320.583   104817084.008    19601320.601    81524404.804    19601320.548  
                                
  23528232.741   123641715.604                                                  
  23528233.903    92329863.286  
  23903095.592   125611635.555                                                  
  23903098.004    93800913.337  
  24202861.353   127186900.135                                                  
  24202862.836    94977235.333  
  27129470.716   142566334.740                                                  
  27129474.111   106461884.019  
  23770379.428   124914205.891                                                  
  23770381.143    93280105.488  
 21  9  1  9 43 24.0000000  0 19G 1G 3G 7G 8G14G17G19G21G22G30R13R14
                                R17R24E13E15E21E26E27
  20171388.196   106001375.068    20171387.928    82598469.191    20171387.589  
  20171387.089    79156875.117  
  23822186.871   125186437.245    23822187.318    97547882.479    23822186.532  
  23822187.318    93483377.513  
  23338882.585   122646650.054    23338879.905    95568800.528    23338879.405  
                                
  24588860.232   129215335.246    24588861.126   100687280.165    24588860.018  
  24588860.054    96491974.235  
  20501208.922   107734589.061    20501206.528    83949017.707    20501205.938  
  20501210.387    80451162.539  
  21419086.524   112558074.864    21419083.379    87707583.852    21419082.718  
                                
  23231801.036   122083946.614                    95130329.581    23231795.693  
                                
  22352812.110   117464838.036                    91531031.105    22352808.053  
                                
  23091322.014   121345715.995                    94555089.527    23091316.618  
                                
  21903025.786   115101168.235    21903025.465    89689219.646    21903024.678  
  21903025.786    85952167.552  
  19969298.320   106634935.930    19969299.178    82938282.098    19969299.160  
                                
  19784204.512   105460941.022    19784205.924    82025177.740    19784205.977  
                                
  23063502.840   123417470.753    23063503.734    95991363.817    23063503.608  
                                
  19601103.814   104815924.852    19601103.814    81523503.241    19601103.761  
                                
  23527989.580   123640437.740                                                  
  23527990.741    92328909.032  
  23903385.177   125613157.471                                                  
  23903387.607    93802049.828  
  24202586.992   127185458.449                                                  
  24202588.493    94976158.750  
  27128915.579   142563417.493                                                  
  27128918.957   106459705.579  
  23770618.855   124915464.089                                                  
  23770620.570    93281045.054  
 21  9  1  9 43 25.0000000  0 19G 1G 3G 7G 8G14G17G19G21G22G30R13R14
                                R17R24E13E15E21E26E27
  20171563.474   106002296.206    20171563.206    82599186.960    20171562.866  
  20171562.384    79157562.984  
  23821629.054   125183505.927    23821629.501    97545598.334    23821628.715  
  23821629.501    93481188.533  
  23339564.342   122650232.752    23339561.662    95571592.238    23339561.161  
                                
  24589425.144   129218304.054    24589426.001   100689593.520    24589424.911  
  24589424.965    96494191.246  
  20500966.457   107733314.914    20500964.063    83948024.866    20500963.473  
  20500967.940    80450211.069  
  21418819.883   112556673.665    21418816.738    87706492.008    21418816.077  
                                
  23231261.749   122081112.670                    95128121.313    23231256.406  
                                
  22353301.328   117467408.997                    91533034.450    22353297.271  
                                
  23091013.112   121344092.672                    94553824.605    23091007.716  
                                
  21903475.085   115103529.360    21903474.763    89691059.484    21903473.995  
  21903475.103    85953930.736  
  19969774.566   106637479.166    19969775.441    82940260.173    19969775.423  
                                
  19783847.257   105459036.597    19783848.668    82023696.522    19783848.722  
                                
  23062838.720   123413916.990    23062839.613    95988599.781    23062839.488  
                                
  19600887.152   104814766.332    19600887.170    81522602.167    19600887.117  
                                
  23527746.490   123639160.292                                                  
  23527747.651    92327955.096  
  23903674.870   125614679.734                                                  
  23903677.282    93803186.587  
  24202312.721   127184017.080                                                  
  24202314.222    94975082.401  
  27128360.460   142560500.420                                                  
  27128363.855   106457527.232  
  23770858.353   124916722.682                                                  
  23770860.069    93281984.910  
 21  9  1  9 43 26.0000000  0 19G 1G 3G 7G 8G14G17G19G21G22G30R13R14
                                R17R24E13E15E21E26E27
  20171738.876   106003217.931    20171738.608    82599905.190    20171738.268  
  20171737.768    79158251.285  
  23821071.255   125180574.686    23821071.701    97543314.252    23821070.915  
  23821071.701    93478999.631  
  23340246.117   122653815.479    23340243.436    95574383.974    23340242.936  
                                
  24589990.091   129221272.847    24589990.966   100691906.865    24589989.858  
  24589989.912    96496408.184  
  20500724.046   107732041.097    20500721.652    83947032.283    20500721.062  
  20500725.529    80449259.843  
  21418553.277   112555272.618    21418550.132    87705400.284    21418549.471  
                                
  23230722.497   122078278.811                    95125913.112    23230717.154  
                                
  22353790.617   117469980.167                    91535037.956    22353786.561  
                                
  23090704.264   121342469.726                    94552559.969    23090698.868  
                                
  21903924.473   115105890.869    21903924.169    89692899.618    21903923.383  
  21903924.491    85955694.199  
  19970250.954   106640023.005    19970251.829    82942238.714    19970251.811  
                                
  19783490.108   105457132.763    19783491.520    82022215.763    19783491.574  
                                
  23062174.653   123410363.415    23062175.547    95985835.899    23062175.404  
                                
  19600670.616   104813608.305    19600670.616    81521701.484    19600670.562  
                                
  23527503.453   123637883.126                                                  
  23527504.597    92327001.368  
  23903964.580   125616202.202                                                  
  23903967.010    93804323.495  
  24202038.467   127182575.890                                                  
  24202039.950    94974006.188  
  27127805.359   142557583.352                                                  
  27127808.736   106455348.917  
  23771097.905   124917981.511                                                  
  23771099.621    93282924.947  
 21  9  1  9 43 27.0000000  0 19G 1G 3G 7G 8G14G17G19G21G22G30R13R14
                                R17R24E13E15E21E26E27
  20171914.421   106004140.416    20171914.153    82600624.009    20171913.814  
  20171913.313    79158940.156  
  23820513.509   125177643.765    23820513.956    97541030.422    23820513.169  
  23820513.956    93476810.956  
  23340927.945   122657398.478    23340925.247    95577175.919    23340924.764  
                                
  24590555.109   129224241.776    24590555.985   100694220.316    24590554.877  
  24590554.930    96498625.204  
  20500481.742   107730767.775    20500479.348    83946040.082    20500478.758  
  20500483.225    80448308.984  
  21418286.707   112553871.880    21418283.580    87704308.795    21418282.919  
                                
  23230183.282   122075445.211                    95123705.107    23230177.939  
                                
  22354279.978   117472551.700                    91537041.748    22354275.922  
                                
  23090395.523   121340847.304                    94551295.750    23090390.144  
                                
  21904373.950   115108252.924    21904373.647    89694740.176    21904372.860  
  21904373.968    85957458.075  
  19970727.485   106642567.600    19970728.343    82944217.842    19970728.325  
                                
  19783133.067   105455229.692    19783134.497    82020735.596    19783134.551  
                                
  23061510.658   123406810.201    23061511.534    95983072.293    23061511.409  
                                
  19600454.186   104812450.962    19600454.186    81520801.326    19600454.132  
                                
  23527260.506   123636606.409                                                  
  23527261.649    92326047.974  
  23904254.380   125617725.049                                                  
  23904256.810    93805460.684  
  24201764.285   127181135.041                                                  
  24201765.786    94972930.231  
  27127250.294   142554666.469                                                  
  27127253.671   106453170.732  
  23771337.529   124919240.756                                                  
  23771339.244    93283865.295  
 21  9  1  9 43 28.0000000  0 19G 1G 3G 7G 8G14G17G19G21G22G30R13R14
                                R17R24E13E15E21E26E27
  20172090.056   106005063.380    20172089.788    82601343.199    20172089.448  
  20172088.948    79159629.382  
  23819955.781   125174712.864    23819956.228    97538746.608    23819955.441  
  23819956.228    93474622.300  
  23341609.738   122660981.396    23341607.057    95579967.800    23341606.557  
                                
  24591120.003   129227210.413    24591120.878   100696533.535    24591119.770  
  24591119.824    96500842.059  
  20500239.492   107729494.670    20500237.097    83945048.053    20500236.508  
  20500240.957    80447358.289  
  21418020.173   112552471.206    21418017.046    87703217.365    21418016.384  
                                
  23229644.048   122072611.544                    95121497.059    23229638.705  
                                
  22354769.339   117475123.342                    91539045.623    22354765.283  
                                
  23090086.854   121339225.162                    94550031.747    23090081.457  
                                
  21904823.499   115110615.252    21904823.196    89696580.956    21904822.409  
  21904823.517    85959222.149  
  19971204.105   106645112.682    19971204.963    82946197.347    19971204.945  
                                
  19782776.169   105453327.144    19782777.581    82019255.835    19782777.635  
                                
  23060846.646   123403257.033    23060847.521    95980308.722    23060847.396  
                                
  19600237.828   104811294.042    19600237.828    81519901.500    19600237.774  
                                
  23527017.594   123635329.877                                                  
  23527018.738    92325094.721  
  23904544.198   125619248.010                                                  
  23904546.628    93806597.956  
  24201490.102   127179694.262                                                  
  24201491.603    94971854.325  
  27126695.228   142551749.533                                                  
  27126698.605   106450992.477  
  23771577.170   124920500.136                                                  
  23771578.886    93284805.739  
 21  9  1  9 43 29.0000000  0 19G 1G 3G 7G 8G14G17G19G21G22G30R13R14
                                R17R24E13E15E21E26E27
  20172265.833   106005987.135    20172265.565    82602063.009    20172265.226  
  20172264.726    79160319.201  
  23819398.107   125171782.286    23819398.553    97536463.045    23819397.767  
  23819398.553    93472433.884  
  23342291.602   122664564.566    23342288.904    95582759.890    23342288.421  
                                
  24591684.950   129230179.165    24591685.825   100698846.846    24591684.717  
  24591684.771    96503058.964  
  20499997.331   107728222.091    20499994.936    83944056.435    20499994.347  
  20499998.796    80446407.991  
  21417753.692   112551070.890    21417750.565    87702126.212    21417749.904  
                                
  23229104.886   122069778.181                    95119289.246    23229099.543  
                                
  22355258.772   117477695.395                    91541049.818    22355254.734  
                                
  23089778.273   121337603.612                    94548768.199    23089772.877  
                                
  21905273.138   115112978.161    21905272.834    89698422.181    21905272.048  
  21905273.155    85960986.659  
  19971680.851   106647658.557    19971681.726    82948177.475    19971681.709  
                                
  19782419.414   105451425.424    19782420.826    82017776.721    19782420.880  
                                
  23060182.722   123399704.250    23060183.615    95977545.451    23060183.490  
                                
  19600021.613   104810137.866    19600021.613    81519002.252    19600021.559  
                                
  23526774.754   123634053.824                                                  
  23526775.916    92324141.826  
  23904834.051   125620771.376                                                  
  23904836.481    93807735.539  
  24201216.027   127178253.867                                                  
  24201217.510    94970778.705  
  27126140.198   142548832.800                                                  
  27126143.576   106448814.408  
  23771816.919   124921759.971                                                  
  23771818.634    93285746.524  
 21  9  1  9 43 30.0000000  0 19G 1G 3G 7G 8G14G17G19G21G22G30R13R14
                                R17R24E13E15E21E26E27
  20172441.790   106006911.742    20172441.522    82602783.484    20172441.182  
  20172440.682    79161009.648  
  23818840.522   125168852.116    23818840.986    97534179.794    23818840.200  
  23818840.986    93470245.757  
  23342973.519   122668148.096    23342970.821    95585552.249    23342970.339  
                                
  24592249.932   129233148.085    24592250.808   100701160.290    24592249.700  
  24592249.754    96505276.010  
  20499755.259   107726950.104    20499752.865    83943065.274    20499752.275  
  20499756.742    80445458.124  
  21417487.318   112549671.000    21417484.191    87701035.386    21417483.530  
                                
  23228565.760   122066945.159                    95117081.692    23228560.417  
                                
  22355748.312   117480267.920                    91543054.381    22355744.273  
                                
  23089469.818   121335982.699                    94547505.155    23089464.440  
                                
  21905722.901   115115341.721    21905722.597    89700263.918    21905721.811  
  21905722.919    85962751.649  
  19972157.793   106650205.315    19972158.651    82950158.284    19972158.633  
                                
  19782062.820   105449524.579    19782064.250    82016298.284    19782064.285  
                                
  23059518.870   123396151.909    23059519.763    95974782.522    23059519.638  
                                
  19599805.558   104808982.488    19599805.558    81518103.622    19599805.505  
                                
  23526532.039   123632778.313                                                  
  23526533.183    92323189.332  
  23905124.047   125622295.217                                                  
  23905126.478    93808873.466  
  24200942.006   127176813.913                                                  
  24200943.489    94969703.410  
  27125585.187   142545916.337                                                  
  27125588.564   106446636.543  
  23772056.757   124923020.314                                                  
  23772058.472    93286687.683  
 21  9  1  9 43 31.0000000  0 19G 1G 3G 7G 8G14G17G19G21G22G30R13R14
                                R17R24E13E15E21E26E27
  20172617.853   106007837.023    20172617.585    82603504.482    20172617.246  
  20172616.745    79161700.607  
  23818282.972   125165922.137    23818283.419    97531896.700    23818282.633  
  23818283.419    93468057.794  
  23343655.473   122671731.736    23343652.792    95588344.691    23343652.292  
                                
  24592814.879   129236116.989    24592815.773   100703473.718    24592814.665  
  24592814.719    96507493.045  
  20499513.295   107725678.529    20499510.900    83942074.436    20499510.311  
  20499514.778    80444508.569  
  21417220.981   112548271.344    21417217.836    87699944.745    21417217.174  
                                
  23228026.687   122064112.275                    95114874.254    23228021.344  
                                
  22356237.923   117482840.739                    91545059.172    22356233.867  
                                
  23089161.470   121334362.282                    94546242.488    23089156.092  
                                
  21906172.771   115117705.721    21906172.450    89702105.994    21906171.664  
  21906172.789    85964516.978  
  19972634.824   106652752.732    19972635.700    82952139.606    19972635.682  
                                
  19781706.351   105447624.416    19781707.763    82014820.379    19781707.816  
                                
  23058855.089   123392599.801    23058855.983    95972019.774    23058855.840  
                                
  19599589.593   104807827.733    19599589.611    81517205.482    19599589.558  
                                
  23526289.396   123631503.181                                                  
  23526290.539    92322237.123  
  23905414.079   125623819.349                                                  
  23905416.510    93810011.625  
  24200668.038   127175374.226                                                  
  24200669.539    94968628.321  
  27125030.228   142542999.991                                                  
  27125033.588   106444458.754  
  23772296.649   124924280.985                                                  
  23772298.364    93287629.098  
 21  9  1  9 43 32.0000000  0 19G 1G 3G 7G 8G14G17G19G21G22G30R13R14
                                R17R24E13E15E21E26E27
  20172794.006   106008762.642    20172793.738    82604225.746    20172793.381  
  20172792.898    79162391.820  
  23817725.405   125162992.055    23817725.852    97529613.523    23817725.084  
  23817725.852    93465869.735  
  23344337.373   122675315.182    23344334.692    95591136.982    23344334.210  
                                
  24593379.773   129239085.554    24593380.666   100705786.882    24593379.558  
  24593379.612    96509709.832  
  20499271.348   107724407.029    20499268.954    83941083.659    20499268.364  
  20499272.813    80443559.077  
  21416954.607   112546871.603    21416951.480    87698854.036    21416950.819  
                                
  23227487.579   122061279.235                    95112666.697    23227482.236  
                                
  22356727.481   117485413.517                    91547063.938    22356723.442  
                                
  23088853.140   121332742.006                    94544979.937    23088847.744  
                                
  21906622.642   115120069.874    21906622.338    89703948.194    21906621.552  
  21906622.660    85966282.417  
  19973111.963   106655300.506    19973112.821    82954121.210    19973112.803  
                                
  19781349.953   105445724.622    19781351.365    82013342.764    19781351.419  
                                
  23058191.273   123389047.613    23058192.166    95969256.961    23058192.041  
                                
  19599373.718   104806673.269    19599373.718    81516307.562    19599373.664  
                                
  23526046.734   123630228.087                                                  
  23526047.896    92321284.943  
  23905704.112   125625343.452                                                  
  23905706.542    93811149.749  
  24200394.052   127173934.468                                                  
  24200395.553    94967553.175  
  27124475.216   142540083.434                                                  
  27124478.576   106442280.793  
  23772536.558   124925541.665                                                  
  23772538.274    93288570.510  
 21  9  1  9 43 33.0000000  0 19G 1G 3G 7G 8G14G17G19G21G22G30R13R14
                                R17R24E13E15E21E26E27
  20172970.266   106009688.880    20172969.998    82604947.488    20172969.659  
  20172969.158    79163083.485  
  23817167.820   125160062.076    23817168.249    97527330.423    23817167.481  
  23817168.267    93463681.785  
  23345019.308   122678898.704    23345016.610    95593929.334    23345016.127  
                                
  24593944.666   129242054.039    24593945.542   100708099.990    24593944.452  
  24593944.487    96511926.569  
  20499029.437   107723135.882    20499027.043    83940093.153    20499026.453  
  20499030.921    80442609.841  
  21416688.287   112545472.039    21416685.160    87697763.471    21416684.499  
                                
  23226948.488   122058446.289                    95110459.205    23226943.145  
                                
  22357217.110   117487986.520                    91549068.876    22357213.071  
                                
  23088544.882   121331122.117                    94543717.688    23088539.503  
                                
  21907072.620   115122434.421    21907072.298    89705790.695    21907071.512  
  21907072.638    85968048.141  
  19973589.173   106657848.874    19973590.049    82956103.272    19973590.031  
                                
  19780993.681   105443825.465    19780995.092    82011865.639    19780995.146  
                                
  23057527.492   123385495.649    23057528.386    95966494.326    23057528.261  
                                
  19599157.931   104805519.326    19599157.931    81515410.056    19599157.878  
                                
  23525804.162   123628953.295                                                  
  23525805.306    92320332.988  
  23905994.162   125626867.789                                                  
  23905996.610    93812288.051  
  24200120.120   127172494.910                                                  
  24200121.621    94966478.185  
  27123920.240   142537166.921                                                  
  27123923.600   106440102.875  
  23772776.503   124926802.609                                                  
  23772778.237    93289512.124  
 21  9  1  9 43 34.0000000  0 19G 1G 3G 7G 8G14G17G19G21G22G30R13R14
                                R17R24E13E15E21E26E27
  20173146.669   106010615.928    20173146.401    82605669.861    20173146.062  
  20173145.561    79163775.763  
  23816610.342   125157132.516    23816610.807    97525047.647    23816610.021  
  23816610.807    93461494.110  
  23345701.279   122682482.522    23345698.581    95596721.918    23345698.099  
                                
  24594509.560   129245022.659    24594510.453   100710413.200    24594509.345  
  24594509.399    96514143.400  
  20498787.652   107721865.289    20498785.257    83939103.076    20498784.667  
  20498789.135    80441661.022  
  21416422.021   112544072.858    21416418.894    87696673.200    21416418.233  
                                
  23226409.451   122055613.651                    95108251.955    23226404.108  
                                
  22357706.828   117490559.961                    91551074.153    22357702.772  
                                
  23088236.731   121329502.844                    94542455.915    23088231.352  
                                
  21907522.687   115124799.577    21907522.365    89707633.677    21907521.579  
  21907522.705    85969814.334  
  19974066.544   106660398.059    19974067.420    82958085.971    19974067.402  
                                
  19780637.551   105441927.138    19780638.963    82010389.163    19780639.016  
                                
  23056863.801   123381944.052    23056864.677    95963731.978    23056864.552  
                                
  19598942.270   104804366.125    19598942.270    81514513.119    19598942.216  
                                
  23525561.680   123627679.019                                                  
  23525562.823    92319381.418  
  23906284.319   125628392.564                                                  
  23906286.767    93813426.683  
  24199846.277   127171055.771                                                  
  24199847.778    94965403.497  
  27123365.282   142534250.649                                                  
  27123368.659   106437925.139  
  23773016.538   124928064.026                                                  
  23773018.271    93290454.094  
 21  9  1  9 43 35.0000000  0 19G 1G 3G 7G 8G14G17G19G21G22G30R13R14
                                R17R24E13E15E21E26E27
  20173323.215   106011543.645    20173322.947    82606392.759    20173322.608  
  20173322.107    79164468.539  
  23816052.918   125154203.139    23816053.365    97522765.015    23816052.579  
  23816053.365    93459306.587  
  23346383.268   122686066.440    23346380.588    95599514.586    23346380.088  
                                
  24595074.471   129247991.256    24595075.364   100712726.393    24595074.256  
  24595074.310    96516360.198  
  20498545.955   107720595.096    20498543.561    83938113.317    20498542.971  
  20498547.438    80440712.501  
  21416155.808   112542673.916    21416152.681    87695583.115    21416152.020  
                                
  23225870.450   122052781.151                    95106044.814    23225865.107  
                                
  22358196.600   117493133.675                    91553079.642    22358192.544  
                                
  23087928.704   121327884.021                    94541194.489    23087923.308  
                                
  21907972.843   115127165.186    21907972.522    89709477.003    21907971.735  
  21907972.861    85971580.860  
  19974544.076   106662947.924    19974544.934    82960069.197    19974544.916  
                                
  19780281.564   105440029.478    19780282.976    82008913.203    19780283.030  
                                
  23056200.146   123378392.733    23056201.039    95960969.846    23056200.914  
                                
  19598726.716   104803213.508    19598726.734    81513616.640    19598726.680  
                                
  23525319.251   123626405.090                                                  
  23525320.412    92318430.110  
  23906574.530   125629917.617                                                  
  23906576.978    93814565.520  
  24199572.452   127169616.873                                                  
  24199573.953    94964328.997  
  27122810.360   142531334.485                                                  
  27122813.737   106435747.475  
  23773256.662   124929325.763                                                  
  23773258.377    93291396.295  
 21  9  1  9 43 36.0000000  0 19G 1G 3G 7G 8G14G17G19G21G22G30R13R14
                                R17R24E13E15E21E26E27
  20173499.868   106012472.034    20173499.600    82607116.177    20173499.261  
  20173498.760    79165161.819  
  23815495.512   125151273.972    23815495.977    97520482.547    23815495.190  
  23815495.977    93457119.216  
  23347065.293   122689650.546    23347062.613    95602307.394    23347062.131  
                                
  24595639.400   129250959.876    24595640.311   100715039.598    24595639.204  
  24595639.239    96518576.999  
  20498304.330   107719325.325    20498301.936    83937123.885    20498301.346  
  20498305.796    80439764.295  
  21415889.649   112541275.223    21415886.522    87694493.225    21415885.861  
                                
  23225331.484   122049948.828                    95103837.809    23225326.142  
                                
  22358686.408   117495707.702                    91555085.382    22358682.352  
                                
  23087620.750   121326265.672                    94539933.434    23087615.353  
                                
  21908423.089   115129531.258    21908422.785    89711320.698    21908421.999  
  21908423.125    85973347.736  
  19975021.697   106665498.483    19975022.573    82962052.966    19975022.555  
                                
  19779925.703   105438132.530    19779927.115    82007437.803    19779927.168  
                                
  23055536.544   123374841.677    23055537.419    95958207.918    23055537.294  
                                
  19598511.305   104802061.489    19598511.305    81512720.623    19598511.251  
                                
  23525076.893   123625131.545                                                  
  23525078.055    92317479.086  
  23906864.812   125631442.979                                                  
  23906867.242    93815704.591  
  24199298.699   127168178.254                                                  
  24199300.200    94963254.704  
  27122255.437   142528418.403                                                  
  27122258.796   106433569.899  
  23773496.804   124930587.843                                                  
  23773498.537    93292338.764  
 21  9  1  9 43 37.0000000  0 19G 1G 3G 7G 8G14G17G19G21G22G30R13R14
                                R17R24E13E15E21E26E27
  20173676.718   106013401.318    20173676.450    82607840.297    20173676.093  
  20173675.610    79165855.764  
  23814938.195   125148345.231    23814938.642    97518200.403    23814937.856  
  23814938.642    93454932.176  
  23347747.408   122693235.004    23347744.709    95605100.482    23347744.227  
                                
  24596204.329   129253928.639    24596205.223   100717352.923    24596204.133  
  24596204.168    96520793.944  
  20498062.813   107718056.185    20498060.418    83936134.942    20498059.811  
  20498064.278    80438816.561  
  21415623.579   112539876.987    21415620.434    87693403.688    21415619.773  
                                
  23224792.555   122047116.877                    95101631.091    23224787.230  
                                
  22359176.323   117498282.232                    91557091.509    22359172.267  
                                
  23087312.902   121324647.996                    94538672.912    23087307.524  
                                
  21908873.460   115131898.011    21908873.156    89713164.924    21908872.370  
  21908873.496    85975115.121  
  19975499.515   106668049.940    19975500.372    82964037.437    19975500.354  
                                
  19779570.020   105436236.519    19779571.432    82005963.126    19779571.485  
                                
  23054873.031   123371291.126    23054873.907    95955446.383    23054873.782  
                                
  19598296.019   104800910.279    19598296.019    81511825.239    19598295.965  
                                
  23524834.661   123623858.593                                                  
  23524835.822    92316528.505  
  23907155.183   125632968.857                                                  
  23907157.614    93816844.043  
  24199025.017   127166740.119                                                  
  24199026.518    94962180.772  
  27121700.586   142525502.668                                                  
  27121703.963   106431392.571  
  23773737.071   124931850.477                                                  
  23773738.786    93293281.640  
 21  9  1  9 43 38.0000000  0 19G 1G 3G 7G 8G14G17G19G21G22G30R13R14
                                R17R24E13E15E21E26E27
  20173853.693   106014331.354    20173853.425    82608565.002    20173853.085  
  20173852.603    79166550.269  
  23814380.932   125145416.787    23814381.378    97515918.495    23814380.610  
  23814381.378    93452745.351  
  23348429.558   122696819.662    23348426.859    95607893.724    23348426.377  
                                
  24596769.276   129256897.488    24596770.170   100719666.314    24596769.080  
  24596769.115    96523010.941  
  20497821.384   107716787.526    20497818.990    83935146.379    20497818.400  
  20497822.867    80437869.188  
  21415357.563   112538479.066    21415354.418    87692314.404    21415353.757  
                                
  23224253.714   122044285.154                    95099424.557    23224248.371  
                                
  22359666.309   117500857.140                    91559097.931    22359662.271  
                                
  23087005.180   121323030.868                    94537412.810    23086999.801  
                                
  21909323.938   115134265.304    21909323.634    89715009.563    21909322.848  
  21909323.956    85976882.900  
  19975977.457   106670602.146    19975978.315    82966022.481    19975978.297  
                                
  19779214.462   105434341.258    19779215.874    82004489.034    19779215.927  
                                
  23054209.554   123367740.838    23054210.448    95952685.043    23054210.305  
                                
  19598080.858   104799759.791    19598080.858    81510930.411    19598080.804  
                                
  23524592.518   123622586.076                                                  
  23524593.679    92315578.250  
  23907445.591   125634495.102                                                  
  23907448.021    93817983.775  
  24198751.424   127165302.315                                                  
  24198752.925    94961107.090  
  27121145.771   142522587.094                                                  
  27121149.130   106429215.370  
  23773977.427   124933113.505                                                  
  23773979.142    93294224.808  
 21  9  1  9 43 39.0000000  0 19G 1G 3G 7G 8G14G17G19G21G22G30R13R14
                                R17R24E13E15E21E26E27
  20174030.793   106015262.032    20174030.525    82609290.205    20174030.185  
  20174029.685    79167245.258  
  23813823.704   125142488.533    23813824.151    97513636.735    23813823.382  
  23813824.151    93450558.668  
  23349111.707   122700404.446    23349109.027    95610687.062    23349108.545  
                                
  24597334.223   129259866.290    24597335.117   100721979.664    24597334.027  
  24597334.062    96525227.897  
  20497580.045   107715519.257    20497577.651    83934158.118    20497577.061  
  20497581.528    80436922.104  
  21415091.583   112537081.362    21415088.456    87691225.283    21415087.794  
                                
  23223714.874   122041453.588                    95097218.139    23223709.531  
                                
  22360156.367   117503432.306                    91561104.556    22360152.311  
                                
  23086697.511   121321414.181                    94536153.056    23086692.132  
                                
  21909774.523   115136633.040    21909774.202    89716854.557    21909773.433  
  21909774.541    85978651.017  
  19976455.525   106673154.999    19976456.401    82968008.033    19976456.365  
                                
  19778859.047   105432446.655    19778860.459    82003015.457    19778860.513  
                                
  23053546.149   123364190.795    23053547.042    95949923.901    23053546.899  
                                
  19597865.840   104798609.931    19597865.840    81510036.078    19597865.786  
                                
  23524350.428   123621313.913                                                  
  23524351.572    92314628.259  
  23907736.088   125636021.619                                                  
  23907738.518    93819123.705  
  24198477.868   127163864.756                                                  
  24198479.351    94960033.589  
  27120591.009   142519671.657                                                  
  27120594.386   106427038.232  
  23774217.837   124934376.855                                                  
  23774219.552    93295168.215  
 21  9  1  9 43 40.0000000  0 19G 1G 3G 7G 8G14G17G19G21G22G30R13R14
                                R17R24E13E15E21E26E27
  20174208.000   106016193.214    20174207.732    82610015.798    20174207.374  
  20174206.892    79167940.624  
  23813266.476   125139560.314    23813266.941    97511355.004    23813266.155  
  23813266.941    93448372.009  
  23349793.875   122703989.200    23349791.177    95613480.380    23349790.695  
                                
  24597899.135   129262834.896    24597900.028   100724292.861    24597898.920  
  24597898.956    96527444.728  
  20497338.760   107714251.229    20497336.365    83933170.044    20497335.776  
  20497340.225    80435975.202  
  21414825.620   112535683.737    21414822.493    87690136.225    21414821.832  
                                
  23223176.051   122038621.992                    95095011.703    23223170.709  
                                
  22360646.408   117506007.602                    91563111.271    22360642.369  
                                
  23086389.931   121319797.775                    94534893.519    23086384.553  
                                
  21910225.126   115139001.072    21910224.823    89718699.772    21910224.036  
  21910225.162    85980419.346  
  19976933.682   106675708.355    19976934.558    82969993.977    19976934.522  
                                
  19778503.722   105430552.585    19778505.133    82001542.291    19778505.187  
                                
  23052882.779   123360640.884    23052883.655    95947162.859    23052883.530  
                                
  19597650.894   104797460.519    19597650.894    81509142.093    19597650.840  
                                
  23524108.374   123620041.944                                                  
  23524109.518    92313678.410  
  23908026.602   125637548.263                                                  
  23908029.050    93820263.725  
  24198204.329   127162427.287                                                  
  24198205.812    94958960.155  
  27120036.176   142516756.110                                                  
  27120039.517   106424861.057  
  23774458.282   124935640.358                                                  
  23774459.998    93296111.742  
 21  9  1  9 43 41.0000000  0 19G 1G 3G 7G 8G14G17G19G21G22G30R13R14
                                R17R24E13E15E21E26E27
  20174385.314   106017125.054    20174385.046    82610741.909    20174384.706  
  20174384.206    79168636.472  
  23812709.285   125136632.289    23812709.731    97509073.423    23812708.945  
  23812709.731    93446185.499  
  23350476.043   122707574.078    23350473.363    95616273.789    23350472.880  
                                
  24598464.046   129265803.490    24598464.921   100726606.051    24598463.831  
  24598463.867    96529661.524  
  20497097.528   107712983.591    20497095.134    83932182.277    20497094.544  
  20497098.993    80435028.587  
  21414559.693   112534286.323    21414556.566    87689047.336    21414555.905  
                                
  23222637.247   122035790.543                    95092805.381    23222631.904  
                                
  22361136.537   117508583.173                    91565118.216    22361132.481  
                                
  23086082.441   121318181.842                    94533634.350    23086077.063  
                                
  21910675.855   115141369.551    21910675.533    89720545.340    21910674.765  
  21910675.872    85982188.013  
  19977411.983   106678262.377    19977412.840    82971980.438    19977412.822  
                                
  19778148.539   105428659.212    19778149.951    82000069.667    19778150.004  
                                
  23052219.428   123357091.203    23052220.303    95944401.996    23052220.178  
                                
  19597436.036   104796311.683    19597436.054    81508248.551    19597436.001  
                                
  23523866.410   123618770.321                                                  
  23523867.554    92312728.824  
  23908317.170   125639075.183                                                  
  23908319.600    93821403.959  
  24197930.807   127160990.061                                                  
  24197932.308    94957886.904  
  27119481.378   142513840.665                                                  
  27119484.738   106422683.926  
  23774698.764   124936904.181                                                  
  23774700.479    93297055.504  
 21  9  1  9 43 42.0000000  0 19G 1G 3G 7G 8G14G17G19G21G22G30R13R14
                                R17R24E13E15E21E26E27
  20174562.771   106018057.569    20174562.503    82611468.544    20174562.164  
  20174561.663    79169332.830  
  23812152.146   125133704.493    23812152.611    97506792.019    23812151.825  
  23812152.611    93443999.147  
  23351158.247   122711159.082    23351155.566    95619067.291    23351155.084  
                                
  24599028.939   129268772.066    24599029.815   100728919.225    24599028.725  
  24599028.761    96531878.323  
  20496856.385   107711716.373    20496853.991    83931194.832    20496853.401  
  20496857.869    80434082.284  
  21414293.820   112532889.162    21414290.693    87687958.639    21414290.032  
                                
  23222098.460   122032959.258                    95090599.187    23222093.117  
                                
  22361626.702   117511159.041                    91567125.384    22361622.664  
                                
  23085775.005   121316566.358                    94532375.531    23085769.626  
                                
  21911126.636   115143738.481    21911126.333    89722391.257    21911125.546  
  21911126.672    85983957.019  
  19977890.390   106680817.066    19977891.248    82973967.419    19977891.230  
                                
  19777793.464   105426766.523    19777794.876    81998597.578    19777794.929  
                                
  23051556.130   123353541.763    23051557.005    95941641.316    23051556.880  
                                
  19597221.322   104795163.432    19597221.322    81507355.469    19597221.269  
                                
  23523624.481   123617499.074                                                  
  23523625.625    92311779.514  
  23908607.792   125640602.396                                                  
  23908610.240    93822544.408  
  24197657.393   127159553.112                                                  
  24197658.877    94956813.853  
  27118926.617   142510925.326                                                  
  27118929.994   106420506.900  
  23774939.334   124938168.318                                                  
  23774941.050    93297999.504  
 21  9  1  9 43 43.0000000  0 19G 1G 3G 7G 8G14G17G19G21G22G30R13R14
                                R17R24E13E15E21E26E27
  20174740.354   106018990.876    20174740.086    82612195.794    20174739.746  
  20174739.264    79170029.781  
  23811595.080   125130777.026    23811595.526    97504510.878    23811594.758  
  23811595.526    93441813.051  
  23351840.504   122714744.341    23351837.823    95621860.998    23351837.341  
                                
  24599593.886   129271740.794    24599594.780   100731232.515    24599593.690  
  24599593.725    96534095.206  
  20496615.350   107710449.680    20496612.956    83930207.801    20496612.366  
  20496616.816    80433136.379  
  21414028.036   112531492.359    21414024.909    87686870.220    21414024.248  
                                
  23221559.727   122030128.246                    95088393.204    23221554.384  
                                
  22362116.957   117513735.310                    91569132.862    22362112.918  
                                
  23085467.711   121314951.457                    94531117.167    23085462.333  
                                
  21911577.543   115146108.004    21911577.222    89724237.639    21911576.453  
  21911577.561    85985726.468  
  19978368.958   106683372.564    19978369.834    82975955.028    19978369.798  
                                
  19777438.549   105424874.625    19777439.961    81997126.102    19777440.015  
                                
  23050892.921   123349992.697    23050893.796    95938880.934    23050893.671  
                                
  19597006.733   104794015.924    19597006.733    81506462.964    19597006.680  
                                
  23523382.678   123616228.320                                                  
  23523383.821    92310830.576  
  23908898.485   125642130.029                                                  
  23908900.916    93823685.175  
  24197383.997   127158116.538                                                  
  24197385.498    94955741.087  
  27118371.891   142508010.209                                                  
  27118375.232   106418330.017  
  23775179.976   124939432.930                                                  
  23775181.692    93298943.858  
 21  9  1  9 43 44.0000000  0 19G 1G 3G 7G 8G14G17G19G21G22G30R13R14
                                R17R24E13E15E21E26E27
  20174918.115   106019924.976    20174917.847    82612923.664    20174917.507  
  20174917.025    79170727.322  
  23811038.048   125127849.876    23811038.513    97502229.986    23811037.727  
  23811038.513    93439627.196  
  23352522.797   122718329.876    23352520.116    95624654.919    23352519.634  
                                
  24600158.833   129274709.602    24600159.727   100733545.867    24600158.637  
  24600158.673    96536312.167  
  20496374.404   107709183.525    20496372.010    83929221.181    20496371.420  
  20496375.887    80432190.871  
  21413762.306   112530095.910    21413759.161    87685782.077    21413758.500  
                                
  23221021.065   122027297.527                    95086187.454    23221015.722  
                                
  22362607.283   117516311.991                    91571140.667    22362603.226  
                                
  23085160.507   121313337.153                    94529859.268    23085155.128  
                                
  21912028.557   115148478.105    21912028.254    89726084.471    21912027.467  
  21912028.593    85987496.349  
  19978847.669   106685928.863    19978848.527    82977943.261    19978848.509  
                                
  19777083.796   105422983.526    19777085.207    81995655.245    19777085.261  
                                
  23050229.748   123346444.005    23050230.623    95936120.840    23050230.498  
                                
  19596792.269   104792869.161    19596792.269    81505571.039    19596792.216  
                                
  23523140.945   123614958.053                                                  
  23523142.107    92309881.998  
  23909189.268   125643658.084                                                  
  23909191.698    93824826.251  
  24197110.726   127156680.354                                                  
  24197112.210    94954668.612  
  27117817.219   142505095.342                                                  
  27117820.578   106416153.337  
  23775420.708   124940697.986                                                  
  23775422.441    93299888.542  
 21  9  1  9 43 45.0000000  0 19G 1G 3G 7G 8G14G17G19G21G22G30R13R14
                                R17R24E13E15E21E26E27
  20175096.001   106020859.680    20175095.733    82613652.009    20175095.393  
  20175094.893    79171425.316  
  23810481.071   125124922.895    23810481.536    97499949.227    23810480.749  
  23810481.536    93437441.455  
  23353205.125   122721915.499    23353202.445    95627448.911    23353201.963  
                                
  24600723.745   129277678.301    24600724.638   100735859.130    24600723.548  
  24600723.584    96538529.063  
  20496133.530   107707917.715    20496131.135    83928234.839    20496130.546  
  20496134.995    80431245.623  
  21413496.594   112528699.644    21413493.467    87684694.082    21413492.805  
                                
  23220482.403   122024466.905                    95083981.777    23220477.078  
                                
  22363097.662   117518888.912                    91573148.655    22363093.606  
                                
  23084853.392   121311723.253                    94528601.681    23084848.013  
                                
  21912479.643   115150848.611    21912479.339    89727931.614    21912478.553  
  21912479.679    85989266.528  
  19979326.488   106688485.795    19979327.345    82979931.984    19979327.327  
                                
  19776729.131   105421093.067    19776730.543    81994184.885    19776730.597  
                                
  23049566.646   123342895.528    23049567.522    95933360.911    23049567.397  
                                
  19596577.930   104791722.946    19596577.930    81504679.534    19596577.877  
                                
  23522899.303   123613688.089                                                  
  23522900.446    92308933.648  
  23909480.086   125645186.359                                                  
  23909482.517    93825967.500  
  24196837.456   127155244.367                                                  
  24196838.939    94953596.284  
  27117262.564   142502180.514                                                  
  27117265.923   106413976.664  
  23775661.493   124941963.311                                                  
  23775663.208    93300833.421  
 21  9  1  9 43 46.0000000  0 19G 1G 3G 7G 8G14G17G19G21G22G30R13R14
                                R17R24E13E15E21E26E27
  20175273.976   106021794.985    20175273.708    82614380.816    20175273.351  
  20175272.868    79172123.760  
  23809924.111   125121996.038    23809924.558    97497668.559    23809923.790  
  23809924.558    93435255.829  
  23353887.472   122725501.178    23353884.792    95630242.946    23353884.309  
                                
  24601288.710   129280646.983    24601289.639   100738172.382    24601288.531  
  24601288.567    96540745.875  
  20495892.709   107706652.240    20495890.315    83927248.754    20495889.725  
  20495894.192    80430300.628  
  21413230.935   112527303.545    21413227.790    87683606.210    21413227.129  
                                
  23219943.777   122021636.366                    95081776.159    23219938.435  
                                
  22363588.078   117521466.044                    91575156.810    22363584.021  
                                
  23084546.366   121310109.750                    94527344.408    23084540.988  
                                
  21912930.818   115153219.502    21912930.514    89729779.061    21912929.728  
  21912930.854    85991037.000  
  19979805.431   106691043.290    19979806.307    82981921.147    19979806.289  
                                
  19776374.610   105419203.238    19776376.021    81992715.016    19776376.075  
                                
  23048903.545   123339347.233    23048904.438    95930601.128    23048904.313  
                                
  19596363.681   104790577.242    19596363.681    81503788.433    19596363.627  
                                
  23522657.678   123612418.420                                                  
  23522658.821    92307985.521  
  23909770.958   125646714.855                                                  
  23909773.388    93827108.905  
  24196564.238   127153808.568                                                  
  24196565.721    94952524.101  
  27116707.874   142499265.703                                                  
  27116711.215   106411800.010  
  23775902.314   124943228.892                                                  
  23775904.047    93301778.500  
 21  9  1  9 43 47.0000000  0 19G 1G 3G 7G 8G14G17G19G21G22G30R13R14
                                R17R24E13E15E21E26E27
  20175452.148   106022731.312    20175451.880    82615110.419    20175451.541  
  20175451.058    79172822.963  
  23809367.259   125119069.736    23809367.706    97495388.328    23809366.937  
  23809367.706    93433070.601  
  23354569.890   122729087.329    23354567.210    95633037.350    23354566.727  
                                
  24601853.657   129283615.888    24601854.568   100740485.812    24601853.478  
  24601853.514    96542962.940  
  20495652.049   107705387.534    20495649.655    83926263.266    20495649.065  
  20495653.532    80429356.198  
  21412965.366   112525908.027    21412962.238    87682518.796    21412961.577  
                                
  23219405.241   122018806.328                    95079570.939    23219399.898  
                                
  22364078.618   117524043.822                    91577165.466    22364074.562  
                                
  23084239.466   121308497.056                    94526087.761    23084234.087  
                                
  21913382.136   115155591.196    21913381.832    89731627.135    21913381.046  
  21913382.172    85992808.069  
  19980284.553   106693601.835    19980285.429    82983911.124    19980285.411  
                                
  19776020.285   105417314.469    19776021.697    81991245.974    19776021.750  
                                
  23048240.586   123335799.554    23048241.461    95927841.825    23048241.336  
                                
  19596149.610   104789432.473    19596149.610    81502898.055    19596149.556  
                                
  23522416.196   123611149.465                                                  
  23522417.357    92307037.922  
  23910061.937   125648243.990                                                  
  23910064.386    93828250.796  
  24196291.110   127152373.382                                                  
  24196292.611    94951452.369  
  27116153.291   142496351.341                                                  
  27116156.632   106409623.719  
  23776143.277   124944495.141                                                  
  23776144.993    93302724.082  
 21  9  1  9 43 48.0000000  0 19G 1G 3G 7G 8G14G17G19G21G22G30R13R14
                                R17R24E13E15E21E26E27
  20175630.445   106023668.320    20175630.177    82615840.555    20175629.838  
  20175629.355    79173522.677  
  23808810.425   125116143.668    23808810.871    97493108.273    23808810.103  
  23808810.889    93430885.554  
  23355252.326   122732673.621    23355249.645    95635831.865    23355249.163  
                                
  24602418.621   129286584.822    24602419.515   100742799.265    24602418.425  
  24602418.461    96545180.008  
  20495411.478   107704123.239    20495409.084    83925278.101    20495408.494  
  20495412.944    80428412.081  
  21412699.850   112524512.767    21412696.723    87681431.580    21412696.061  
                                
  23218866.740   122015976.487                    95077365.868    23218861.415  
                                
  22364569.194   117526621.891                    91579174.353    22364565.138  
                                
  23083932.691   121306884.847                    94524831.499    23083927.312  
                                
  21913833.543   115157963.358    21913833.222    89733475.577    21913832.453  
  21913833.561    85994579.490  
  19980763.836   106696161.066    19980764.694    82985901.634    19980764.676  
                                
  19775666.085   105415426.403    19775667.515    81989777.480    19775667.550  
                                
  23047577.663   123332252.120    23047578.556    95925082.711    23047578.414  
                                
  19595935.628   104788288.301    19595935.628    81502008.144    19595935.575  
                                
  23522174.803   123609880.888                                                  
  23522175.947    92306090.606  
  23910352.970   125649773.436                                                  
  23910355.418    93829392.910  
  24196018.071   127150938.478                                                  
  24196019.572    94950380.845  
  27115598.744   142493437.119                                                  
  27115602.103   106407447.486  
  23776384.295   124945761.743                                                  
  23776386.010    93303669.917  
 21  9  1  9 43 49.0000000  0 19G 1G 3G 7G 8G14G17G19G21G22G30R13R14
                                R17R24E13E15E21E26E27
  20175808.885   106024606.014    20175808.617    82616571.226    20175808.278  
  20175807.795    79174222.903  
  23808253.662   125113217.847    23808254.126    97490828.413    23808253.340  
  23808254.126    93428700.677  
  23355934.815   122736260.092    23355932.135    95638626.518    23355931.652  
                                
  24602983.586   129289553.756    24602984.498   100745112.713    24602983.408  
  24602983.443    96547397.078  
  20495170.961   107702859.377    20495168.567    83924293.277    20495167.977  
  20495172.427    80427468.293  
  21412434.388   112523117.769    21412431.260    87680344.568    21412430.599  
                                
  23218328.275   122013146.795                    95075160.916    23218322.932  
                                
  22365059.842   117529200.270                    91581183.482    22365055.785  
                                
  23083625.987   121305273.107                    94523575.593    23083620.608  
                                
  21914285.040   115160336.012    21914284.736    89735324.396    21914283.950  
  21914285.076    85996351.273  
  19981243.208   106698720.989    19981244.084    82987892.688    19981244.066  
                                
  19775312.011   105413539.028    19775313.422    81988309.522    19775313.476  
                                
  23046914.794   123328704.993    23046915.669    95922323.837    23046915.544  
                                
  19595721.808   104787144.795    19595721.808    81501118.750    19595721.754  
                                
  23521933.464   123608612.702                                                  
  23521934.608    92305143.590  
  23910644.074   125651303.194                                                  
  23910646.523    93830535.264  
  24195745.069   127149503.858                                                  
  24195746.570    94949309.536  
  27115044.196   142490523.004                                                  
  27115047.556   106405271.380  
  23776625.402   124947028.700                                                  
  23776627.135    93304616.017  
 21  9  1  9 43 50.0000000  0 19G 1G 3G 7G 8G14G17G19G21G22G30R13R14
                                R17R24E13E15E21E26E27
  20175987.486   106025544.532    20175987.218    82617302.541    20175986.879  
  20175986.396    79174923.751  
  23807696.970   125110292.369    23807697.417    97488548.820    23807696.648  
  23807697.417    93426516.076  
  23356617.340   122739846.828    23356614.660    95641421.386    23356614.178  
                                
  24603548.605   129292522.854    24603549.498   100747426.294    24603548.408  
  24603548.444    96549614.249  
  20494930.552   107701596.077    20494928.157    83923308.887    20494927.567  
  20494932.035    80426524.922  
  21412169.015   112521723.154    21412165.870    87679257.856    21412165.209  
                                
  23217789.845   122010317.420                    95072956.211    23217784.503  
                                
  22365550.579   117531779.093                    91583192.950    22365546.522  
                                
  23083319.390   121303661.998                    94522320.186    23083314.011  
                                
  21914736.661   115162709.273    21914736.340    89737173.690    21914735.571  
  21914736.679    85998123.518  
  19981722.777   106701281.731    19981723.635    82989884.379    19981723.617  
                                
  19774958.097   105411652.479    19774959.526    81986842.206    19774959.562  
                                
  23046251.996   123325158.264    23046252.889    95919565.273    23046252.746  
                                
  19595508.112   104786002.066    19595508.112    81500229.963    19595508.058  
                                
  23521692.232   123607345.026                                                  
  23521693.376    92304196.949  
  23910935.268   125652833.397                                                  
  23910937.716    93831677.948  
  24195472.155   127148069.635                                                  
  24195473.638    94948238.532  
  27114489.703   142487609.135                                                  
  27114493.044   106403095.448  
  23776866.580   124948296.121                                                  
  23776868.295    93305562.474  
 21  9  1  9 43 51.0000000  0 19G 1G 3G 7G 8G14G17G19G21G22G30R13R14
                                R17R24E13E15E21E26E27
  20176166.159   106026483.494    20176165.891    82618034.200    20176165.551  
  20176165.069    79175624.915  
  23807140.261   125107366.856    23807140.725    97486269.206    23807139.939  
  23807140.725    93424331.442  
  23357299.848   122743433.484    23357297.167    95644216.176    23357296.685  
                                
  24604113.534   129295491.668    24604114.427   100749739.655    24604113.355  
  24604113.391    96551831.224  
  20494690.195   107700332.947    20494687.801    83922324.627    20494687.211  
  20494691.678    80425581.671  
  21411903.624   112520328.552    21411900.497    87678171.150    21411899.836  
                                
  23217251.416   122007487.969                    95070751.448    23217246.073  
                                
  22366041.316   117534357.971                    91585202.465    22366037.259  
                                
  23083012.865   121302051.109                    94521064.948    23083007.468  
                                
  21915188.319   115165082.752    21915188.015    89739023.157    21915187.229  
  21915188.355    85999895.916  
  19982202.382   106703842.927    19982203.257    82991876.420    19982203.239  
                                
  19774604.290   105409766.401    19774605.702    81985375.259    19774605.755  
                                
  23045589.216   123321611.577    23045590.109    95916806.734    23045589.967  
                                
  19595294.470   104784859.706    19595294.470    81499341.461    19595294.416  
                                
  23521451.036   123606077.485                                                  
  23521452.180    92303250.407  
  23911226.480   125654363.653                                                  
  23911228.910    93832820.668  
  24195199.241   127146635.444                                                  
  24195200.742    94947167.545  
  27113935.209   142484695.177                                                  
  27113938.551   106400919.415  
  23777107.794   124949563.644                                                  
  23777109.509    93306508.996  
 21  9  1  9 43 52.0000000  0 19G 1G 3G 7G 8G14G17G19G21G22G30R13R14
                                R17R24E13E15E21E26E27
  20176344.920   106027422.829    20176344.652    82618766.149    20176344.313  
  20176343.813    79176326.375  
  23806583.551   125104441.302    23806583.998    97483989.553    23806583.230  
  23806583.998    93422146.777  
  23357982.337   122747019.993    23357979.657    95647010.861    23357979.174  
                                
  24604678.445   129298460.212    24604679.339   100752052.811    24604678.249  
  24604678.285    96554047.994  
  20494449.857   107699069.951    20494447.463    83921340.477    20494446.873  
  20494451.340    80424638.529  
  21411638.233   112518933.899    21411635.106    87677084.410    21411634.445  
                                
  23216712.969   122004658.413                    95068546.599    23216707.626  
                                
  22366532.053   117536936.852                    91587211.988    22366528.014  
                                
  23082706.340   121300440.413                    94519809.863    23082700.961  
                                
  21915640.012   115167456.418    21915639.708    89740872.762    21915638.922  
  21915640.048    86001668.460  
  19982682.093   106706404.496    19982682.969    82993868.751    19982682.951  
                                
  19774250.537   105407880.734    19774251.966    81983908.629    19774252.002  
                                
  23044926.418   123318064.860    23044927.294    95914048.181    23044927.169  
                                
  19595080.899   104783717.640    19595080.899    81498453.189    19595080.846  
                                
  23521209.840   123604810.035                                                  
  23521210.984    92302303.937  
  23911517.673   125655893.924                                                  
  23911520.121    93833963.407  
  24194926.310   127145201.241                                                  
  24194927.811    94946096.547  
  27113380.644   142481781.012                                                  
  27113383.985   106398743.267  
  23777348.990   124950831.220                                                  
  23777350.705    93307455.563  
 21  9  1  9 43 53.0000000  0 19G 1G 3G 7G 8G14G17G19G21G22G30R13R14
                                R17R24E13E15E21E26E27
  20176523.754   106028362.653    20176523.486    82619498.482    20176523.146  
  20176522.646    79177028.188  
  23806026.842   125101515.757    23806027.289    97481709.912    23806026.520  
  23806027.289    93419962.114  
  23358664.827   122750606.420    23358662.146    95649805.482    23358661.664  
                                
  24605243.285   129301428.533    24605244.196   100754365.786    24605243.106  
  24605243.142    96556264.597  
  20494209.554   107697807.176    20494207.160    83920356.496    20494206.570  
  20494211.037    80423695.545  
  21411372.842   112517539.312    21411369.715    87675997.716    21411369.054  
                                
  23216174.521   122001828.824                    95066341.732    23216169.179  
                                
  22367022.825   117539515.845                    91589221.588    22367018.787  
                                
  23082399.886   121298829.982                    94518554.981    23082394.507  
                                
  21916091.741   115169830.340    21916091.437    89742722.576    21916090.651  
  21916091.777    86003441.196  
  19983161.877   106708966.554    19983162.752    82995861.460    19983162.734  
                                
  19773896.873   105405995.567    19773898.303    81982442.386    19773898.338  
                                
  23044263.638   123314518.205    23044264.514    95911289.676    23044264.389  
                                
  19594867.418   104782575.970    19594867.400    81497565.224    19594867.347  
                                
  23520968.698   123603542.761                                                  
  23520969.823    92301357.596  
  23911808.885   125657424.292                                                  
  23911811.333    93835106.214  
  24194653.414   127143767.109                                                  
  24194654.915    94945025.604  
  27112826.079   142478866.738                                                  
  27112829.420   106396567.048  
  23777590.239   124952098.934                                                  
  23777591.955    93308402.233  
 21  9  1  9 43 54.0000000  0 19G 1G 3G 7G 8G14G17G19G21G22G30R13R14
                                R17R24E13E15E21E26E27
  20176702.730   106029303.162    20176702.462    82620231.341    20176702.122  
  20176701.622    79177730.518  
  23805470.168   125098590.440    23805470.633    97479430.440    23805469.846  
  23805470.633    93417777.627  
  23359347.334   122754193.020    23359344.654    95652600.233    23359344.171  
                                
  24605808.143   129304396.871    24605809.054   100756678.774    24605807.964  
  24605808.000    96558481.198  
  20493969.341   107696544.820    20493966.947    83919372.838    20493966.339  
  20493970.806    80422752.877  
  21411107.505   112516144.964    21411104.378    87674911.214    21411103.717  
                                
  23215636.092   121998999.391                    95064136.967    23215630.767  
                                
  22367513.652   117542095.132                    91591231.424    22367509.613  
                                
  23082093.539   121297220.044                    94517300.484    23082088.161  
                                
  21916543.595   115172204.735    21916543.273    89744572.751    21916542.505  
  21916543.631    86005214.289  
  19983641.785   106711529.300    19983642.661    82997854.710    19983642.643  
                                
  19773543.370   105404111.112    19773544.782    81980976.703    19773544.836  
                                
  23043600.894   123310971.784    23043601.770    95908531.351    23043601.645  
                                
  19594654.026   104781434.943    19594654.026    81496677.758    19594653.955  
                                
  23520727.609   123602275.869                                                  
  23520728.752    92300411.540  
  23912100.168   125658954.970                                                  
  23912102.616    93836249.251  
  24194380.554   127142333.249                                                  
  24194382.055    94943954.860  
  27112271.531   142475952.610                                                  
  27112274.873   106394390.912  
  23777831.543   124953366.994                                                  
  23777833.258    93309349.158  
 21  9  1  9 43 55.0000000  0 19G 1G 3G 7G 8G14G17G19G21G22G30R13R14
                                R17R24E13E15E21E26E27
  20176881.902   106030244.639    20176881.634    82620964.959    20176881.295  
  20176880.795    79178433.562  
  23804913.602   125095665.646    23804914.066    97477151.380    23804913.298  
  23804914.066    93415593.514  
  23360029.913   122757780.034    23360027.232    95655395.306    23360026.750  
                                
  24606373.090   129307365.526    24606374.019   100758992.008    24606372.929  
  24606372.947    96560698.020  
  20493729.271   107695283.183    20493726.876    83918389.749    20493726.269  
  20493730.736    80421810.744  
  21410842.275   112514751.172    21410839.148    87673825.145    21410838.487  
                                
  23215097.770   121996170.436                    95061932.589    23215092.445  
                                
  22368004.585   117544675.019                    91593241.726    22368000.529  
                                
  23081787.300   121295610.863                    94516046.577    23081781.921  
                                
  21916995.556   115174579.906    21916995.252    89746423.537    21916994.466  
  21916995.592    86006987.950  
  19984121.908   106714093.045    19984122.783    82999848.734    19984122.748  
                                
  19773190.046   105402227.680    19773191.458    81979511.809    19773191.511  
                                
  23042938.275   123307425.937    23042939.151    95905773.469    23042939.025  
                                
  19594440.831   104780294.853    19594440.813    81495791.021    19594440.759  
                                
  23520486.663   123601009.643                                                  
  23520487.807    92299465.979  
  23912391.558   125660486.251                                                  
  23912394.006    93837392.735  
  24194107.819   127140899.956                                                  
  24194109.302    94942884.549  
  27111717.074   142473038.888                                                  
  27111720.415   106392215.093  
  23778072.953   124954635.674                                                  
  23778074.669    93310296.553  
 21  9  1  9 43 56.0000000  0 19G 1G 3G 7G 8G14G17G19G21G22G30R13R14
                                R17R24E13E15E21E26E27
  20177061.182   106031186.869    20177060.914    82621699.163    20177060.575  
  20177060.092    79179137.176  
  23804357.071   125092741.128    23804357.518    97474872.535    23804356.749  
  23804357.518    93413409.634  
  23360712.545   122761367.315    23360709.883    95658190.586    23360709.400  
                                
  24606938.001   129310334.182    24606938.912   100761305.241    24606937.822  
  24606937.858    96562914.891  
  20493489.272   107694022.040    20493486.895    83917407.037    20493486.288  
  20493490.755    80420868.978  
  21410577.117   112513357.685    21410573.990    87672739.312    21410573.329  
                                
  23214559.483   121993341.713                    95059728.387    23214554.158  
                                
  22368495.590   117547255.265                    91595252.303    22368491.534  
                                
  23081481.204   121294002.236                    94514793.101    23081475.825  
                                
  21917447.642   115176955.624    21917447.339    89748274.743    21917446.552  
  21917447.678    86008762.016  
  19984602.156   106716657.545    19984603.013    83001843.345    19984602.996  
                                
  19772836.847   105400345.028    19772838.259    81978047.522    19772838.312  
                                
  23042275.727   123303880.457    23042276.603    95903015.874    23042276.460  
                                
  19594227.761   104779155.434    19594227.743    81494904.810    19594227.689  
                                
  23520245.788   123599743.857                                                  
  23520246.914    92298520.749  
  23912683.019   125662017.889                                                  
  23912685.467    93838536.497  
  24193835.120   127139467.006                                                  
  24193836.621    94941814.489  
  27111162.634   142470125.365                                                  
  27111165.957   106390039.391  
  23778314.453   124955904.767                                                  
  23778316.169    93311244.255  
 21  9  1  9 43 57.0000000  0 19G 1G 3G 7G 8G14G17G19G21G22G30R13R14
                                R17R24E13E15E21E26E27
  20177240.587   106032129.640    20177240.319    82622433.790    20177239.980  
  20177239.497    79179841.195  
  23803800.576   125089816.745    23803801.041    97472593.794    23803800.272  
  23803801.041    93411225.828  
  23361395.196   122764954.573    23361392.515    95660985.851    23361392.033  
                                
  24607502.841   129313302.661    24607503.752   100763618.339    24607502.662  
  24607502.698    96565131.652  
  20493249.327   107692761.178    20493246.932    83916424.547    20493246.343  
  20493250.810    80419927.434  
  21410311.976   112511964.326    21410308.849    87671653.574    21410308.188  
                                
  23214021.197   121990513.045                    95057524.230    23214015.854  
                                
  22368986.631   117549835.702                    91597263.032    22368982.593  
                                
  23081175.143   121292393.945                    94513539.889    23081169.764  
                                
  21917899.800   115179331.665    21917899.496    89750126.199    21917898.710  
  21917899.836    86010536.338  
  19985082.511   106719222.603    19985083.386    83003838.387    19985083.369  
                                
  19772483.773   105398462.936    19772485.185    81976583.675    19772485.238  
                                
  23041613.180   123300335.108    23041614.055    95900258.383    23041613.930  
                                
  19594014.762   104778016.482    19594014.762    81494018.953    19594014.708  
                                
  23520004.968   123598478.329                                                  
  23520006.093    92297575.717  
  23912974.499   125663549.709                                                  
  23912976.947    93839680.389  
  24193562.475   127138034.209                                                  
  24193563.976    94940744.545  
  27110608.193   142467211.816                                                  
  27110611.517   106387863.701  
  23778556.007   124957174.086                                                  
  23778557.722    93312192.117  
 21  9  1  9 43 58.0000000  0 19G 1G 3G 7G 8G14G17G19G21G22G30R13R14
                                R17R24E13E15E21E26E27
  20177420.117   106033073.048    20177419.849    82623168.912    20177419.492  
  20177419.010    79180545.683  
  23803244.117   125086892.479    23803244.563    97470315.143    23803243.795  
  23803244.563    93409042.134  
  23362077.828   122768541.921    23362075.165    95663781.186    23362074.683  
                                
  24608067.734   129316271.146    24608068.646   100765931.440    24608067.556  
  24608067.591    96567348.354  
  20493009.471   107691500.694    20493007.076    83915442.350    20493006.487  
  20493010.954    80418986.155  
  21410046.854   112510571.126    21410043.727    87670567.966    21410043.066  
                                
  23213482.928   121987684.460                    95055320.142    23213477.603  
                                
  22369477.725   117552416.358                    91599273.931    22369473.687  
                                
  23080869.172   121290786.084                    94512287.018    23080863.793  
                                
  21918352.012   115181708.131    21918351.708    89751977.993    21918350.922  
  21918352.047    86012310.968  
  19985562.973   106721788.271    19985563.849    83005833.905    19985563.813  
                                
  19772130.824   105396581.475    19772132.236    81975120.316    19772132.289  
                                
  23040950.686   123296789.954    23040951.561    95897501.041    23040951.436  
                                
  19593801.870   104776878.076    19593801.870    81493133.531    19593801.817  
                                
  23519764.200   123597213.124                                                  
  23519765.344    92296630.918  
  23913266.050   125665081.776                                                  
  23913268.498    93840824.463  
  24193289.865   127136601.623                                                  
  24193291.366    94939674.750  
  27110053.789   142464298.346                                                  
  27110057.113   106385688.049  
  23778797.614   124958443.675                                                  
  23778799.329    93313140.191  
 21  9  1  9 43 59.0000000  0 19G 1G 3G 7G 8G14G17G19G21G22G30R13R14
                                R17R24E13E15E21E26E27
  20177599.808   106034017.312    20177599.540    82623904.705    20177599.201  
  20177598.700    79181250.818  
  23802687.729   125083968.650    23802688.194    97468036.838    23802687.407  
  23802688.194    93406858.753  
  23362760.550   122772129.634    23362757.887    95666576.803    23362757.405  
                                
  24608632.699   129319239.830    24608633.611   100768244.696    24608632.521  
  24608632.556    96569565.191  
  20492769.740   107690240.812    20492767.328    83914460.626    20492766.738  
  20492771.205    80418045.339  
  21409781.820   112509178.379    21409778.693    87669482.708    21409778.032  
                                
  23212944.749   121984856.277                    95053116.363    23212939.424  
                                
  22369968.891   117554997.529                    91601285.233    22369964.853  
                                
  23080563.343   121289178.869                    94511034.645    23080557.965  
                                
  21918804.384   115184085.248    21918804.080    89753830.287    21918803.294  
  21918804.419    86014086.088  
  19986043.614   106724354.816    19986044.490    83007830.107    19986044.472  
                                
  19771778.036   105394700.895    19771779.448    81973657.643    19771779.501  
                                
  23040288.263   123293245.278    23040289.139    95894744.068    23040289.014  
                                
  19593589.140   104775740.501    19593589.140    81492248.748    19593589.086  
                                
  23519523.540   123595948.491                                                  
  23519524.684    92295686.552  
  23913557.690   125666614.339                                                  
  23913560.138    93841968.909  
  24193017.344   127135169.506                                                  
  24193018.845    94938605.314  
  27109499.438   142461385.169                                                  
  27109502.762   106383512.621  
  23779039.292   124959713.804                                                  
  23779041.025    93314088.662  
 21  9  1  9 44  0.0000000  0 19G 1G 3G 7G 8G14G17G19G21G22G30R13R14
                                R17R24E13E15E21E26E27
  20177779.624   106034962.295    20177779.356    82624641.058    20177778.999  
  20177778.516    79181956.492  
  23802131.395   125081045.077    23802131.859    97465758.726    23802131.073  
  23802131.859    93404675.561  
  23363443.325   122775717.513    23363440.663    95669372.547    23363440.180  
                                
  24609197.575   129322208.453    24609198.468   100770557.909    24609197.378  
  24609197.414    96571782.068  
  20492530.063   107688981.391    20492527.668    83913479.257    20492527.079  
  20492531.546    80417104.857  
  21409516.841   112507785.906    21409513.714    87668397.667    21409513.052  
                                
  23212406.606   121982028.281                    95050912.730    23212401.263  
                                
  22370460.146   117557579.013                    91603296.779    22370456.090  
                                
  23080257.586   121287572.179                    94509782.674    23080252.208  
                                
  21919256.810   115186462.864    21919256.524    89755682.978    21919255.737  
  21919256.863    86015861.580  
  19986524.380   106726922.095    19986525.238    83009826.882    19986525.220  
                                
  19771425.373   105392821.065    19771426.785    81972195.553    19771426.838  
                                
  23039625.912   123289700.891    23039626.806    95891987.321    23039626.663  
                                
  19593376.534   104774603.597    19593376.534    81491364.487    19593376.480  
                                
  23519282.970   123594684.263                                                  
  23519284.113    92294742.481  
  23913849.402   125668147.227                                                  
  23913851.850    93843113.598  
  24192744.877   127133737.686                                                  
  24192746.378    94937536.096  
  27108945.106   142458472.139                                                  
  27108948.447   106381337.317  
  23779281.078   124960984.291                                                  
  23779282.793    93315037.404  
 21  9  1  9 44  1.0000000  0 19G 1G 3G 7G 8G14G17G19G21G22G30R13R14
                                R17R24E13E15E21E26E27
  20177959.619   106035908.159    20177959.351    82625378.092    20177959.011  
  20177958.511    79182662.819  
  23801575.132   125078121.926    23801575.597    97463480.942    23801574.810  
  23801575.597    93402492.693  
  23364126.136   122779305.707    23364123.456    95672168.542    23364122.991  
                                
  24609762.522   129325177.329    24609763.433   100772871.318    24609762.343  
  24609762.379    96573999.077  
  20492290.511   107687722.583    20492288.116    83912498.365    20492287.526  
  20492291.994    80416164.843  
  21409251.950   112506393.895    21409248.823    87667312.981    21409248.162  
                                
  23211868.516   121979200.635                    95048709.367    23211863.191  
                                
  22370951.491   117560160.999                    91605308.714    22370947.435  
                                
  23079951.990   121285966.141                    94508531.211    23079946.594  
                                
  21919709.378   115188841.156    21919709.074    89757536.187    21919708.306  
  21919709.432    86017637.575  
  19987005.325   106729490.248    19987006.183    83011824.331    19987006.165  
                                
  19771072.889   105390942.149    19771074.318    81970734.169    19771074.354  
                                
  23038963.668   123286157.001    23038964.544    95889230.959    23038964.419  
                                
  19593164.071   104773467.499    19593164.071    81490480.860    19593164.018  
                                
  23519042.506   123593420.607                                                  
  23519043.650    92293798.845  
  23914141.203   125669680.632                                                  
  23914143.651    93844258.667  
  24192472.500   127132306.350                                                  
  24192474.001    94936467.239  
  27108390.844   142455559.441                                                  
  27108394.150   106379162.222  
  23779522.935   124962255.330                                                  
  23779524.651    93315986.552  
 21  9  1  9 44  2.0000000  0 19G 1G 3G 7G 8G14G17G19G21G22G30R13R14
                                R17R24E13E15E21E26E27
  20178139.739   106036854.648    20178139.471    82626115.614    20178139.131  
  20178138.631    79183369.610  
  23801018.923   125075198.940    23801019.388    97461203.288    23801018.601  
  23801019.388    93400309.937  
  23364808.965   122782894.015    23364806.285    95674964.628    23364805.820  
                                
  24610327.523   129328146.178    24610328.434   100775184.705    24610327.344  
  24610327.380    96576216.042  
  20492051.048   107686464.139    20492048.653    83911517.764    20492048.064  
  20492052.531    80415225.089  
  21408987.078   112505002.060    21408983.951    87666228.438    21408983.307  
                                
  23211330.462   121976373.103                    95046506.096    23211325.137  
                                
  22371442.871   117562743.214                    91607320.827    22371438.815  
                                
  23079646.448   121284360.563                    94507280.109    23079641.052  
                                
  21920162.054   115191219.861    21920161.750    89759389.721    21920160.964  
  21920162.090    86019413.876  
  19987486.377   106732059.036    19987487.235    83013822.275    19987487.217  
                                
  19770720.547   105389063.882    19770721.959    81969273.297    19770722.012  
                                
  23038301.424   123282613.302    23038302.300    95886474.744    23038302.175  
                                
  19592951.716   104772331.936    19592951.716    81489597.639    19592951.662  
                                
  23518802.097   123592157.269                                                  
  23518803.222    92292855.440  
  23914433.022   125671214.265                                                  
  23914435.470    93845403.919  
  24192200.158   127130875.217                                                  
  24192201.659    94935398.536  
  27107836.565   142452646.781                                                  
  27107839.907   106376987.192  
  23779764.864   124963526.648                                                  
  23779766.597    93316935.908  
 21  9  1  9 44  3.0000000  0 19G 1G 3G 7G 8G14G17G19G21G22G30R13R14
                                R17R24E13E15E21E26E27
  20178319.948   106037801.718    20178319.680    82626853.593    20178319.340  
  20178318.858    79184076.837  
  23800462.714   125072276.068    23800463.161    97458925.720    23800462.392  
  23800463.179    93398127.281  
  23365491.794   122786482.370    23365489.132    95677760.745    23365488.649  
                                
  24610892.434   129331114.912    24610893.363   100777498.005    24610892.273  
  24610892.309    96578432.949  
  20491811.639   107685206.018    20491809.244    83910537.410    20491808.655  
  20491813.122    80414285.585  
  21408722.259   112503610.386    21408719.132    87665144.015    21408718.471  
                                
  23210792.425   121973545.662                    95044302.897    23210787.100  
                                
  22371934.269   117565325.634                    91609333.107    22371930.231  
                                
  23079340.977   121282755.335                    94506029.280    23079335.599  
                                
  21920614.766   115193598.921    21920614.462    89761243.539    21920613.676  
  21920614.802    86021190.451  
  19987967.518   106734628.411    19987968.376    83015820.680    19987968.358  
                                
  19770368.313   105387186.225    19770369.725    81967812.897    19770369.778  
                                
  23037639.234   123279069.752    23037640.110    95883718.652    23037639.985  
                                
  19592739.468   104771196.860    19592739.468    81488714.805    19592739.396  
                                
  23518561.758   123590894.215                                                  
  23518562.884    92291912.253  
  23914724.913   125672748.108                                                  
  23914727.361    93846549.319  
  24191927.870   127129444.257                                                  
  24191929.371    94934329.968  
  27107282.304   142449734.127                                                  
  27107285.627   106374812.167  
  23780006.828   124964798.200                                                  
  23780008.544    93317885.448  
 21  9  1  9 44  4.0000000  0 19G 1G 3G 7G 8G14G17G19G21G22G30R13R14
                                R17R24E13E15E21E26E27
  20178500.282   106038749.298    20178500.014    82627591.965    20178499.657  
  20178499.174    79184784.442  
  23799906.523   125069353.275    23799906.987    97456648.222    23799906.201  
  23799906.987    93395944.659  
  23366174.623   122790070.675    23366171.961    95680556.833    23366171.478  
                                
  24611457.309   129334083.430    24611458.221   100779811.130    24611457.149  
  24611457.166    96580649.715  
  20491572.265   107683948.152    20491569.871    83909557.252    20491569.281  
  20491573.748    80413346.267  
  21408457.440   112502218.797    21408454.313    87664059.660    21408453.652  
                                
  23210254.353   121970718.198                    95042099.683    23210249.028  
                                
  22372425.721   117567908.183                    91611345.479    22372421.665  
                                
  23079035.595   121281150.426                    94504778.702    23079030.199  
                                
  21921067.549   115195978.298    21921067.245    89763097.596    21921066.477  
  21921067.603    86022967.257  
  19988448.785   106737198.317    19988449.642    83017819.496    19988449.624  
                                
  19770016.150   105385309.118    19770017.562    81966352.926    19770017.616  
                                
  23036977.062   123275526.325    23036977.955    95880962.656    23036977.812  
                                
  19592527.291   104770062.228    19592527.273    81487832.311    19592527.219  
                                
  23518321.438   123589631.369                                                  
  23518322.581    92290969.212  
  23915016.821   125674282.090                                                  
  23915019.269    93847694.821  
  24191655.582   127128013.414                                                  
  24191657.083    94933261.475  
  27106728.078   142446821.472                                                  
  27106731.420   106372637.102  
  23780248.828   124966069.928                                                  
  23780250.544    93318835.116  
 21  9  1  9 44  5.0000000  0 19G 1G 3G 7G 8G14G17G19G21G22G30R13R14
                                R17R24E13E15E21E26E27
  20178680.706   106039697.530    20178680.437    82628330.851    20178680.098  
  20178679.616    79185492.539  
  23799350.367   125066430.658    23799350.814    97454370.856    23799350.046  
  23799350.832    93393762.192  
  23366857.488   122793659.148    23366854.825    95683353.053    23366854.343  
                                
  24612022.203   129337051.918    24612023.114   100782124.236    24612022.024  
  24612022.060    96582866.458  
  20491332.981   107682690.676    20491330.587    83908577.401    20491329.997  
  20491334.464    80412407.243  
  21408192.675   112500827.422    21408189.548    87662975.467    21408188.886  
                                
  23209716.335   121967890.886                    95039896.583    23209711.010  
                                
  22372917.226   117570491.017                    91613358.076    22372913.170  
                                
  23078730.250   121279545.949                    94503528.462    23078724.871  
                                
  21921520.404   115198358.106    21921520.100    89764951.995    21921519.332  
  21921520.457    86024744.391  
  19988930.158   106739768.867    19988931.016    83019818.812    19988930.998  
                                
  19769664.148   105383432.676    19769665.560    81964893.468    19769665.614  
                                
  23036314.925   123271983.128    23036315.801    95878206.838    23036315.676  
                                
  19592315.203   104768928.212    19592315.203    81486950.301    19592315.150  
                                
  23518081.207   123588368.878                                                  
  23518082.350    92290026.447  
  23915308.783   125675816.340                                                  
  23915311.231    93848840.531  
  24191383.347   127126582.814                                                  
  24191384.848    94932193.174  
  27106173.817   142443908.868                                                  
  27106177.140   106370462.117  
  23780490.900   124967341.970                                                  
  23780492.616    93319785.015  
 21  9  1  9 44  6.0000000  0 19G 1G 3G 7G 8G14G17G19G21G22G30R13R14
                                R17R24E13E15E21E26E27
  20178861.254   106040646.293    20178860.986    82629070.145    20178860.647  
  20178860.164    79186201.029  
  23798794.230   125063508.129    23798794.694    97452093.563    23798793.908  
  23798794.694    93391579.782  
  23367540.335   122797247.567    23367537.672    95686149.226    23367537.190  
                                
  24612587.078   129340020.288    24612587.990   100784437.254    24612586.900  
  24612586.935    96585083.083  
  20491093.751   107681433.470    20491091.356    83907597.762    20491090.767  
  20491095.234    80411468.423  
  21407927.927   112499436.142    21407924.800    87661891.357    21407924.139  
                                
  23209178.316   121965063.595                    95037693.504    23209172.992  
                                
  22373408.750   117573073.989                    91615370.782    22373404.711  
                                
  23078425.011   121277941.818                    94502278.492    23078419.615  
                                
  21921973.330   115200738.222    21921973.026    89766806.631    21921972.240  
  21921973.366    86026521.750  
  19989411.657   106742339.959    19989412.515    83021818.551    19989412.497  
                                
  19769312.236   105381556.769    19769313.648    81963434.432    19769313.701  
                                
  23035652.806   123268440.012    23035653.682    95875451.083    23035653.557  
                                
  19592103.241   104767794.691    19592103.241    81486068.671    19592103.170  
                                
  23517840.993   123587106.596                                                  
  23517842.119    92289083.836  
  23915600.781   125677350.749                                                  
  23915603.229    93849986.349  
  24191111.131   127125152.326                                                  
  24191112.632    94931124.951  
  27105619.573   142440996.237                                                  
  27105622.897   106368287.089  
  23780732.972   124968614.195                                                  
  23780734.705    93320735.055  
 21  9  1  9 44  7.0000000  0 19G 1G 3G 7G 8G14G17G19G21G22G30R13R14
                                R17R24E13E15E21E26E27
  20179041.928   106041595.722    20179041.660    82629809.957    20179041.320  
  20179040.838    79186910.020  
  23798238.146   125060585.818    23798238.610    97449816.437    23798237.824  
  23798238.610    93389397.521  
  23368223.217   122800836.131    23368220.537    95688945.507    23368220.072  
                                
  24613151.936   129342988.627    24613152.847   100786750.245    24613151.757  
  24613151.793    96587299.684  
  20490854.592   107680176.675    20490852.197    83906618.439    20490851.608  
  20490856.075    80410529.910  
  21407663.215   112498045.111    21407660.088    87660807.434    21407659.427  
                                
  23208640.334   121962236.462                    95035490.541    23208635.009  
                                
  22373900.309   117575657.249                    91617383.711    22373896.270  
                                
  23078119.826   121276338.145                    94501028.874    23078114.447  
                                
  21922426.345   115203118.820    21922426.042    89768661.640    21922425.255  
  21922426.381    86028299.465  
  19989893.263   106744911.720    19989894.121    83023818.807    19989894.103  
                                
  19768960.448   105379681.550    19768961.860    81961975.928    19768961.914  
                                
  23034990.741   123264897.182    23034991.617    95872695.554    23034991.492  
                                
  19591891.386   104766661.780    19591891.386    81485187.518    19591891.314  
                                
  23517600.869   123585844.689                                                  
  23517601.995    92288141.505  
  23915892.796   125678885.439                                                  
  23915895.244    93851132.388  
  24190838.967   127123722.112                                                  
  24190840.468    94930056.933  
  27105065.294   142438083.668                                                  
  27105068.618   106366112.151  
  23780975.151   124969886.756                                                  
  23780976.884    93321685.342  
 21  9  1  9 44  8.0000000  0 19G 1G 3G 7G 8G14G17G19G21G22G30R13R14
                                R17R24E13E15E21E26E27
  20179222.744   106042545.946    20179222.476    82630550.394    20179222.137  
  20179221.654    79187619.601  
  23797682.097   125057663.841    23797682.562    97447539.574    23797681.794  
  23797682.562    93387215.538  
  23368906.153   122804424.976    23368903.491    95691742.009    23368903.026  
                                
  24613716.794   129345957.038    24613717.705   100789063.289    24613716.615  
  24613716.651    96589516.386  
  20490615.522   107678920.426    20490613.128    83905639.546    20490612.538  
  20490617.005    80409591.801  
  21407398.575   112496654.449    21407395.448    87659723.804    21407394.805  
                                
  23208102.405   121959409.597                    95033287.788    23208097.080  
                                
  22374391.975   117578240.928                    91619396.968    22374387.936  
                                
  23077814.784   121274735.062                    94499779.721    23077809.387  
                                
  21922879.450   115205499.987    21922879.164    89770517.097    21922878.378  
  21922879.504    86030077.614  
  19990375.030   106747484.294    19990375.887    83025819.701    19990375.869  
                                
  19768608.804   105377807.155    19768610.216    81960518.068    19768610.269  
                                
  23034328.765   123261354.801    23034329.641    95869940.366    23034329.516  
                                
  19591679.638   104765529.588    19591679.638    81484306.922    19591679.584  
                                
  23517360.835   123584583.284                                                  
  23517361.960    92287199.543  
  23916184.919   125680420.555                                                  
  23916187.385    93852278.741  
  24190566.894   127122292.296                                                  
  24190568.395    94928989.209  
  27104511.104   142435171.372                                                  
  27104514.410   106363937.376  
  23781217.401   124971159.782                                                  
  23781219.116    93322635.974  
 21  9  1  9 44  9.0000000  0 19G 1G 3G 7G 8G14G17G19G21G22G30R13R14
                                R17R24E13E15E21E26E27
  20179403.740   106043497.030    20179403.472    82631291.496    20179403.114  
  20179402.650    79188329.833  
  23797126.139   125054742.266    23797126.603    97445263.020    23797125.835  
  23797126.621    93385033.845  
  23369589.161   122808014.167    23369586.499    95694538.782    23369586.016  
                                
  24614281.705   129348925.659    24614282.616   100791376.499    24614281.526  
  24614281.562    96591733.199  
  20490376.595   107677664.784    20490374.201    83904661.119    20490373.611  
  20490378.078    80408654.140  
  21407134.042   112495264.219    21407130.915    87658640.506    21407130.254  
                                
  23207564.547   121956583.077                    95031085.308    23207559.222  
                                
  22374883.730   117580825.091                    91621410.604    22374879.692  
                                
  23077509.849   121273132.642                    94498531.084    23077504.470  
                                
  21923332.716   115207881.826    21923332.412    89772373.078    21923331.644  
  21923332.752    86031856.253  
  19990856.939   106750057.743    19990857.797    83027821.272    19990857.779  
                                
  19768257.356   105375933.684    19768258.768    81959060.923    19768258.821  
                                
  23033666.879   123257812.850    23033667.754    95867185.518    23033667.611  
                                
  19591468.069   104764398.196    19591468.069    81483426.958    19591468.015  
                                
  23517120.889   123583322.440                                                  
  23517122.033    92286258.005  
  23916477.149   125681956.160                                                  
  23916479.597    93853425.460  
  24190294.891   127120862.932                                                  
  24190296.392    94927921.829  
  27103956.968   142432259.378                                                  
  27103960.274   106361762.833  
  23781459.741   124972433.315                                                  
  23781461.474    93323586.995  
 21  9  1  9 44 10.0000000  0 19G 1G 3G 7G 8G14G17G19G21G22G30R13R14
                                R17R24E13E15E21E26E27
  20179584.878   106044449.024    20179584.610    82632033.309    20179584.271  
  20179583.788    79189040.731  
  23796570.269   125051821.140    23796570.734    97442986.818    23796569.965  
  23796570.751    93382852.478  
  23370272.222   122811603.681    23370269.560    95697335.797    23370269.077  
                                
  24614846.634   129351894.484    24614847.545   100793689.869    24614846.455  
  24614846.491    96593950.197  
  20490137.776   107676409.777    20490135.381    83903683.196    20490134.792  
  20490139.259    80407716.966  
  21406869.581   112493874.467    21406866.454    87657557.585    21406865.810  
                                
  23207026.743   121953756.966                    95028883.143    23207021.418  
                                
  22375375.593   117583409.771                    91623424.638    22375371.537  
                                
  23077205.039   121271530.923                    94497282.996    23077199.661  
                                
  21923786.089   115210264.343    21923785.785    89774229.584    21923785.017  
  21923786.124    86033635.403  
  19991339.045   106752632.104    19991339.903    83029823.552    19991339.885  
                                
  19767906.069   105374061.161    19767907.498    81957604.515    19767907.534  
                                
  23033005.046   123254271.347    23033005.922    95864431.018    23033005.796  
                                
  19591256.660   104763267.671    19591256.660    81482547.658    19591256.607  
                                
  23516881.069   123582062.191                                                  
  23516882.213    92285316.910  
  23916769.468   125683492.285                                                  
  23916771.916    93854572.564  
  24190022.996   127119434.067                                                  
  24190024.497    94926854.819  
  27103402.921   142429347.730                                                  
  27103406.227   106359588.542  
  23781702.205   124973707.423                                                  
  23781703.921    93324538.437  
 21  9  1  9 44 11.0000000  0 19G 1G 3G 7G 8G14G17G19G21G22G30R13R14
                                R17R24E13E15E21E26E27
  20179766.159   106045401.572    20179765.891    82632775.550    20179765.534  
  20179765.051    79189752.054  
  23796014.417   125048900.102    23796014.864    97440710.680    23796014.096  
  23796014.882    93380671.196  
  23370955.284   122815193.213    23370952.621    95700132.830    23370952.139  
                                
  24615411.581   129354863.180    24615412.493   100796003.137    24615411.420  
  24615411.438    96596167.065  
  20489899.010   107675155.074    20489896.615    83902705.503    20489896.026  
  20489900.493    80406780.010  
  21406605.137   112492484.827    21406602.010    87656474.746    21406601.367  
                                
  23206488.957   121950930.916                    95026681.026    23206483.632  
                                
  22375867.456   117585994.621                    91625438.809    22375863.399  
                                
  23076900.319   121269929.559                    94496035.178    23076894.922  
                                
  21924239.515   115212647.200    21924239.229    89776086.356    21924238.443  
  21924239.569    86035414.818  
  19991821.241   106755207.025    19991822.099    83031826.269    19991822.081  
                                
  19767554.889   105372189.213    19767556.301    81956148.553    19767556.354  
                                
  23032343.267   123250729.979    23032344.142    95861676.623    23032344.017  
                                
  19591045.341   104762137.641    19591045.323    81481668.748    19591045.270  
                                
  23516641.303   123580802.186                                                  
  23516642.446    92284375.997  
  23917061.823   125685028.589                                                  
  23917064.271    93855719.804  
  24189751.101   127118005.345                                                  
  24189752.620    94925787.919  
  27102848.838   142426436.062                                                  
  27102852.144   106357414.242  
  23781944.706   124974981.739                                                  
  23781946.421    93325490.035  
 21  9  1  9 44 12.0000000  0 19G 1G 3G 7G 8G14G17G19G21G22G30R13R14
                                R17R24E13E15E21E26E27
  20179947.512   106046354.517    20179947.244    82633518.107    20179946.887  
  20179946.404    79190463.661  
  23795458.548   125045979.032    23795459.012    97438434.524    23795458.226  
  23795459.012    93378489.869  
  23371638.327   122818782.621    23371635.665    95702929.774    23371635.182  
                                
  24615976.457   129357831.592    24615977.368   100798316.183    24615976.296  
  24615976.314    96598383.719  
  20489660.262   107673900.506    20489657.867    83901727.918    20489657.278  
  20489661.745    80405843.156  
  21406340.693   112491095.166    21406337.566    87655391.895    21406336.905  
                                
  23205951.153   121948104.731                    95024478.804    23205945.828  
                                
  22376359.336   117588579.485                    91627452.989    22376355.298  
                                
  23076595.634   121268328.383                    94494787.508    23076590.238  
                                
  21924693.013   115215030.245    21924692.709    89777943.272    21924691.941  
  21924693.067    86037194.363  
  19992303.508   106757782.337    19992304.366    83033829.292    19992304.348  
                                
  19767203.798   105370317.662    19767205.210    81954692.904    19767205.264  
                                
  23031681.487   123247188.604    23031682.363    95858922.218    23031682.238  
                                
  19590834.076   104761007.942    19590834.076    81480790.093    19590834.022  
                                
  23516401.554   123579542.280                                                  
  23516402.680    92283435.161  
  23917354.161   125686564.902                                                  
  23917356.609    93856867.050  
  24189479.242   127116576.609                                                  
  24189480.743    94924721.004  
  27102294.738   142423524.235                                                  
  27102298.044   106355239.826  
  23782187.206   124976256.109                                                  
  23782188.922    93326441.675  
 21  9  1  9 44 13.0000000  0 19G 1G 3G 7G 8G14G17G19G21G22G30R13R14
                                R17R24E13E15E21E26E27
  20180128.972   106047308.198    20180128.704    82634261.235    20180128.364  
  20180127.882    79191175.828  
  23794902.732   125043058.225    23794903.178    97436158.571    23794902.410  
  23794903.196    93376308.761  
  23372321.406   122822372.206    23372318.726    95705726.857    23372318.261  
                                
  24616541.332   129360800.048    24616542.261   100800629.261    24616541.171  
  24616541.189    96600600.416  
  20489421.621   107672646.420    20489419.245    83900750.710    20489418.637  
  20489423.104    80404906.660  
  21406076.303   112489705.807    21406073.176    87654309.278    21406072.533  
                                
  23205413.385   121945278.766                    95022276.754    23205408.078  
                                
  22376851.288   117591164.705                    91629467.446    22376847.250  
                                
  23076291.039   121266727.753                    94493540.264    23076285.642  
                                
  21925146.582   115217413.821    21925146.297    89779800.604    21925145.510  
  21925146.636    86038974.308  
  19992785.936   106760358.418    19992786.794    83035832.908    19992786.776  
                                
  19766852.851   105368446.860    19766854.262    81953237.836    19766854.298  
                                
  23031019.744   123243647.568    23031020.619    95856168.074    23031020.494  
                                
  19590622.953   104759878.901    19590622.935    81479911.948    19590622.882  
                                
  23516161.877   123578282.815                                                  
  23516163.021    92282494.651  
  23917646.587   125688101.585                                                  
  23917649.035    93858014.573  
  24189207.418   127115148.217                                                  
  24189208.919    94923654.345  
  27101740.691   142420612.584                                                  
  27101743.997   106353065.539  
  23782429.778   124977530.886                                                  
  23782431.494    93327393.619  
 21  9  1  9 44 14.0000000  0 19G 1G 3G 7G 8G14G17G19G21G22G30R13R14
                                R17R24E13E15E21E26E27
  20180310.628   106048262.750    20180310.360    82635005.044    20180310.003  
  20180309.538    79191888.645  
  23794347.005   125040137.859    23794347.470    97433882.959    23794346.683  
  23794347.470    93374127.961  
  23373004.539   122825962.181    23373001.876    95708524.238    23373001.412  
                                
  24617106.244   129363768.644    24617107.155   100802942.448    24617106.083  
  24617106.101    96602817.236  
  20489183.105   107671392.950    20489180.711    83899773.978    20489180.121  
  20489184.589    80403970.630  
  21405812.003   112488316.900    21405808.875    87653227.016    21405808.232  
                                
  23204875.706   121942453.183                    95020075.003    23204870.381  
                                
  22377343.330   117593750.415                    91631482.285    22377339.274  
                                
  23075986.568   121265127.792                    94492293.539    23075981.190  
                                
  21925600.277   115219798.058    21925599.991    89781658.448    21925599.205  
  21925600.331    86040754.740  
  19993268.507   106762935.382    19993269.365    83037837.216    19993269.347  
                                
  19766502.064   105366576.960    19766503.476    81951783.467    19766503.529  
                                
  23030358.125   123240107.009    23030359.001    95853414.301    23030358.876  
                                
  19590411.974   104758750.662    19590411.956    81479034.431    19590411.902  
                                
  23515922.325   123577023.931                                                  
  23515923.468    92281554.577  
  23917939.103   125689638.766                                                  
  23917941.551    93859162.468  
  24188935.702   127113720.291                                                  
  24188937.203    94922588.041  
  27101186.644   142417701.209                                                  
  27101189.950   106350891.471  
  23782672.458   124978806.197                                                  
  23782674.191    93328345.964  
 21  9  1  9 44 15.0000000  0 19G 1G 3G 7G 8G14G17G19G21G22G30R13R14
                                R17R24E13E15E21E26E27
  20180492.374   106049217.952    20180492.106    82635749.357    20180491.767  
  20180491.284    79192601.941  
  23793791.314   125037217.658    23793791.761    97431607.477    23793790.993  
  23793791.779    93371947.298  
  23373687.725   122829552.220    23373685.063    95711321.674    23373684.580  
                                
  24617671.137   129366737.203    24617672.048   100805255.608    24617670.958  
  24617670.994    96605034.024  
  20488944.661   107670139.861    20488942.267    83898797.545    20488941.659  
  20488946.126    80403034.884  
  21405547.738   112486928.193    21405544.628    87652144.906    21405543.967  
                                
  23204338.027   121939627.720                    95017873.346    23204332.720  
                                
  22377835.425   117596336.380                    91633497.325    22377831.386  
                                
  23075682.187   121263528.263                    94491047.152    23075676.791  
                                
  21926054.079   115222182.722    21926053.793    89783516.626    21926053.007  
  21926054.132    86042535.496  
  19993751.221   106765512.963    19993752.078    83039841.999    19993752.060  
                                
  19766151.384   105364707.730    19766152.796    81950329.626    19766152.850  
                                
  23029696.507   123236566.660    23029697.383    95850660.692    23029697.257  
                                
  19590201.084   104757623.024    19590201.066    81478157.379    19590201.012  
                                
  23515682.844   123575765.369                                                  
  23515683.970    92280614.740  
  23918231.673   125691176.206                                                  
  23918234.121    93860310.556  
  24188664.004   127112292.599                                                  
  24188665.522    94921521.903  
  27100632.668   142414789.961                                                  
  27100635.974   106348717.478  
  23782915.190   124980081.808                                                  
  23782916.924    93329298.526  
 21  9  1  9 44 16.0000000  0 19G 1G 3G 7G 8G14G17G19G21G22G30R13R14
                                R17R24E13E15E21E26E27
  20180674.281   106050173.825    20180674.013    82636494.195    20180673.673  
  20180673.191    79193315.744  
  23793235.659   125034297.703    23793236.124    97429332.187    23793235.355  
  23793236.142    93369766.803  
  23374370.929   122833142.445    23374368.267    95714119.249    23374367.785  
                                
  24618236.048   129369705.814    24618236.977   100807568.810    24618235.905  
  24618235.923    96607250.804  
  20488706.271   107668887.195    20488703.876    83897821.439    20488703.286  
  20488707.754    80402099.447  
  21405283.526   112485539.744    21405280.399    87651062.993    21405279.756  
                                
  23203800.402   121936802.442                    95015671.835    23203795.077  
                                
  22378327.573   117598922.653                    91635512.600    22378323.535  
                                
  23075377.914   121261929.217                    94489801.140    23075372.517  
                                
  21926507.952   115224567.854    21926507.648    89785375.170    21926506.862  
  21926507.988    86044316.598  
  19994234.042   106768091.242    19994234.899    83041847.325    19994234.881  
                                
  19765800.866   105362839.241    19765802.277    81948876.352    19765802.331  
                                
  23029034.978   123233026.588    23029035.853    95847907.300    23029035.728  
                                
  19589990.318   104756495.992    19589990.318    81477280.799    19589990.265  
                                
  23515443.399   123574507.192                                                  
  23515444.543    92279675.188  
  23918524.296   125692713.945                                                  
  23918526.744    93861458.864  
  24188392.394   127110865.172                                                  
  24188393.895    94920455.970  
  27100078.693   142411878.797                                                  
  27100081.999   106346543.575  
  23783158.013   124981357.750                                                  
  23783159.728    93330251.342  
 21  9  1  9 44 17.0000000  0 19G 1G 3G 7G 8G14G17G19G21G22G30R13R14
                                R17R24E13E15E21E26E27
  20180856.295   106051130.293    20180856.027    82637239.494    20180855.687  
  20180855.205    79194029.990  
  23792680.040   125031377.877    23792680.504    97427057.000    23792679.736  
  23792680.522    93367586.411  
  23375054.116   122836732.689    23375051.453    95716916.842    23375050.989  
                                
  24618800.924   129372674.252    24618801.835   100809881.878    24618800.763  
  24618800.781    96609467.513  
  20488467.951   107667634.863    20488465.557    83896845.596    20488464.967  
  20488469.434    80401164.271  
  21405019.351   112484151.463    21405016.223    87649981.218    21405015.562  
                                
  23203262.794   121933977.246                    95013470.381    23203257.469  
                                
  22378819.776   117601509.143                    91637528.047    22378815.737  
                                
  23075073.694   121260330.568                    94488555.437    23075068.315  
                                
  21926961.914   115226953.373    21926961.611    89787234.016    21926960.824  
  21926961.950    86046097.988  
  19994716.988   106770670.094    19994717.845    83043853.098    19994717.828  
                                
  19765450.472   105360971.383    19765451.884    81947423.573    19765451.919  
                                
  23028373.467   123229486.690    23028374.342    95845154.044    23028374.217  
                                
  19589779.660   104755369.468    19589779.660    81476404.611    19589779.607  
                                
  23515204.044   123573249.312                                                  
  23515205.169    92278735.866  
  23918816.937   125694251.910                                                  
  23918819.403    93862607.348  
  24188120.785   127109437.944                                                  
  24188122.286    94919390.187  
  27099524.682   142408967.663                                                  
  27099527.970   106344369.669  
  23783400.853   124982633.959                                                  
  23783402.586    93331204.355  
 21  9  1  9 44 18.0000000  0 19G 1G 3G 7G 8G14G17G19G21G22G30R13R14
                                R17R24E13E15E21E26E27
  20181038.487   106052087.722    20181038.219    82637985.542    20181037.880  
  20181037.397    79194744.953  
  23792124.510   125028458.555    23792124.974    97424782.209    23792124.206  
  23792124.992    93365406.407  
  23375737.409   122840323.389    23375734.747    95719714.783    23375734.282  
                                
  24619365.889   129375643.034    24619366.818   100812195.215    24619365.746  
  24619365.746    96611684.436  
  20488229.793   107666383.253    20488227.399    83895870.316    20488226.809  
  20488231.276    80400229.621  
  21404755.264   112482763.718    21404752.137    87648899.856    21404751.494  
                                
  23202725.240   121931152.502                    95011269.284    23202719.916  
                                
  22379312.067   117604096.203                    91639543.938    22379308.011  
                                
  23074769.616   121258732.667                    94487310.317    23074764.238  
                                
  21927416.002   115229339.640    21927415.698    89789093.440    21927414.912  
  21927416.038    86047879.936  
  19995200.112   106773249.947    19995200.952    83045859.648    19995200.934  
                                
  19765100.257   105359104.507    19765101.669    81945971.559    19765101.704  
                                
  23027712.045   123225947.357    23027712.920    95842401.232    23027712.795  
                                
  19589569.163   104754243.839    19589569.146    81475529.127    19589569.092  
                                
  23514964.813   123571992.091                                                  
  23514965.939    92277797.033  
  23919109.721   125695790.459                                                  
  23919112.187    93863756.258  
  24187849.319   127108011.280                                                  
  24187850.820    94918324.814  
  27098970.831   142406056.969                                                  
  27098974.137   106342196.084  
  23783643.853   124983910.793                                                  
  23783645.569    93332157.829  
 21  9  1  9 44 19.0000000  0 19G 1G 3G 7G 8G14G17G19G21G22G30R13R14
                                R17R24E13E15E21E26E27
  20181220.823   106053045.910    20181220.555    82638732.182    20181220.215  
  20181219.733    79195460.483  
  23791569.033   125025539.557    23791569.498    97422507.665    23791568.712  
  23791569.516    93363226.629  
  23376420.739   122843914.291    23376418.076    95722512.884    23376417.612  
                                
  24619930.800   129378611.806    24619931.711   100814508.539    24619930.621  
  24619930.657    96613901.414  
  20487991.724   107665132.137    20487989.330    83894895.420    20487988.722  
  20487993.189    80399295.347  
  21404491.249   112481376.296    21404488.122    87647818.748    21404487.479  
                                
  23202187.758   121928328.016                    95009068.384    23202182.451  
                                
  22379804.448   117606683.644                    91641560.126    22379800.392  
                                
  23074465.664   121257135.338                    94486065.648    23074460.286  
                                
  21927870.179   115231726.455    21927869.893    89790953.299    21927869.107  
  21927870.233    86049662.301  
  19995683.380   106775830.546    19995684.238    83047866.783    19995684.220  
                                
  19764750.167   105357238.399    19764751.579    81944520.142    19764751.614  
                                
  23027050.712   123222408.379    23027051.588    95839648.696    23027051.463  
                                
  19589358.791   104753118.886    19589358.774    81474654.158    19589358.720  
                                
  23514725.636   123570735.329                                                  
  23514726.762    92276858.541  
  23919402.576   125697329.386                                                  
  23919405.042    93864905.457  
  24187577.889   127106584.968                                                  
  24187579.390    94917259.715  
  27098416.981   142403146.448                                                  
  27098420.269   106340022.651  
  23783886.890   124985188.041                                                  
  23783888.623    93333111.622  
 21  9  1  9 44 20.0000000  0 19G 1G 3G 7G 8G14G17G19G21G22G30R13R14
                                R17R24E13E15E21E26E27
  20181403.283   106054004.794    20181403.015    82639479.366    20181402.676  
  20181402.193    79196176.537  
  23791013.610   125022620.790    23791014.075    97420233.296    23791013.289  
  23791014.093    93361047.037  
  23377104.104   122847505.381    23377101.441    95725311.134    23377100.977  
                                
  24620495.765   129381580.688    24620496.694   100816821.953    24620495.604  
  24620495.622    96616118.407  
  20487753.709   107663881.463    20487751.314    83893920.867    20487750.725  
  20487755.192    80398361.403  
  21404227.288   112479989.147    21404224.161    87646737.850    21404223.500  
                                
  23201650.312   121925503.703                    95006867.621    23201645.004  
                                
  22380296.883   117609271.402                    91643576.558    22380292.844  
                                
  23074161.784   121255538.505                    94484821.362    23074156.405  
                                
  21928324.481   115234113.758    21928324.195    89792813.531    21928323.409  
  21928324.535    86051445.027  
  19996166.773   106778411.843    19996167.613    83049874.456    19996167.595  
                                
  19764400.220   105355373.024    19764401.632    81943069.297    19764401.685  
                                
  23026389.433   123218869.703    23026390.309    95836896.392    23026390.184  
                                
  19589148.544   104751994.574    19589148.527    81473779.694    19589148.473  
                                
  23514486.567   123569478.965                                                  
  23514487.692    92275920.348  
  23919695.485   125698868.637                                                  
  23919697.951    93866054.904  
  24187306.530   127105158.952                                                  
  24187308.031    94916194.836  
  27097863.149   142400236.065                                                  
  27097866.437   106337849.305  
  23784130.016   124986465.656                                                  
  23784131.731    93334065.690  
 21  9  1  9 44 21.0000000  0 19G 1G 3G 7G 8G14G17G19G21G22G30R13R14
                                R17R24E13E15E21E26E27
  20181585.905   106054964.362    20181585.637    82640227.079    20181585.279  
  20181584.815    79196893.091  
  23790458.241   125019702.249    23790458.688    97417959.115    23790457.919  
  23790458.706    93358867.603  
  23377787.487   122851096.591    23377784.824    95728109.479    23377784.360  
                                
  24621060.748   129384549.540    24621061.695   100819135.344    24621060.605  
  24621060.623    96618335.380  
  20487515.800   107662631.203    20487513.406    83892946.640    20487512.816  
  20487517.284    80397427.765  
  21403963.363   112478602.248    21403960.236    87645657.149    21403959.592  
                                
  23201112.901   121922679.581                    95004667.008    23201107.594  
                                
  22380789.389   117611859.465                    91645593.231    22380785.332  
                                
  23073858.028   121253942.150                    94483577.445    23073852.632  
                                
  21928778.854   115236501.528    21928778.569    89794674.133    21928777.782  
  21928778.908    86053228.104  
  19996650.273   106780993.816    19996651.131    83051882.658    19996651.113  
                                
  19764050.416   105353508.363    19764051.846    81941619.000    19764051.881  
                                
  23025728.190   123215331.302    23025729.066    95834144.305    23025728.923  
                                
  19588938.387   104750870.886    19588938.387    81472905.717    19588938.333  
                                
  23514247.568   123568222.965                                                  
  23514248.694    92274982.426  
  23919988.466   125700408.186                                                  
  23919990.914    93867204.563  
  24187035.206   127103733.201                                                  
  24187036.707    94915130.147  
  27097309.352   142397325.802                                                  
  27097312.640   106335676.057  
  23784373.196   124987743.600                                                  
  23784374.911    93335019.991  
 21  9  1  9 44 22.0000000  0 19G 1G 3G 7G 8G14G17G19G21G22G30R13R14
                                R17R24E13E15E21E26E27
  20181768.580   106055924.481    20181768.312    82640975.224    20181767.972  
  20181767.490    79197610.068  
  23789902.872   125016783.793    23789903.301    97415684.994    23789902.532  
  23789903.336    93356688.256  
  23378470.870   122854687.810    23378468.207    95730907.830    23378467.743  
                                
  24621625.605   129387518.142    24621626.535   100821448.541    24621625.445  
  24621625.480    96620552.249  
  20487277.928   107661381.237    20487275.534    83891972.643    20487274.944  
  20487279.411    80396494.357  
  21403699.473   112477215.460    21403696.364    87644576.533    21403695.703  
                                
  23200575.508   121919855.486                    95002466.417    23200570.183  
                                
  22381281.895   117614447.690                    91647610.032    22381277.838  
                                
  23073554.326   121252346.139                    94482333.800    23073548.930  
                                
  21929233.317   115238889.629    21929233.014    89796534.988    21929232.227  
  21929233.353    86055011.431  
  19997133.916   106783576.338    19997134.756    83053891.286    19997134.738  
                                
  19763700.719   105351644.267    19763702.131    81940169.148    19763702.167  
                                
  23025066.983   123211793.027    23025067.858    95831392.308    23025067.733  
                                
  19588728.354   104749747.692    19588728.337    81472032.121    19588728.283  
                                
  23514008.588   123566967.224                                                  
  23514009.714    92274044.701  
  23920281.446   125701947.909                                                  
  23920283.894    93868354.358  
  24186763.937   127102307.601                                                  
  24186765.438    94914065.578  
  27096755.537   142394415.513                                                  
  27096758.807   106333502.800  
  23784616.411   124989021.760                                                  
  23784618.126    93335974.464  
 21  9  1  9 44 23.0000000  0 19G 1G 3G 7G 8G14G17G19G21G22G30R13R14
                                R17R24E13E15E21E26E27
  20181951.398   106056885.070    20181951.130    82641723.735    20181950.772  
  20181950.308    79198327.384  
  23789347.521   125013865.385    23789347.985    97413410.909    23789347.199  
  23789348.003    93354508.905  
  23379154.253   122858278.939    23379151.590    95733706.109    23379151.125  
                                
  24622190.481   129390486.601    24622191.392   100823761.621    24622190.302  
  24622190.338    96622768.970  
  20487040.127   107660131.493    20487037.733    83890998.817    20487037.143  
  20487041.610    80395561.103  
  21403435.583   112475828.718    21403432.474    87643495.958    21403431.813  
                                
  23200038.097   121917031.349                    95000265.793    23200032.772  
                                
  22381774.436   117617036.014                    91649626.905    22381770.398  
                                
  23073250.642   121250750.406                    94481090.372    23073245.264  
                                
  21929687.798   115241278.000    21929687.494    89798396.057    21929686.708  
  21929687.852    86056794.950  
  19997617.613   106786159.332    19997618.470    83055900.278    19997618.452  
                                
  19763351.112   105349780.660    19763352.524    81938719.678    19763352.577  
                                
  23024405.757   123208254.787    23024406.633    95828640.348    23024406.508  
                                
  19588518.393   104748624.912    19588518.375    81471158.850    19588518.322  
                                
  23513769.661   123565711.647                                                  
  23513770.787    92273107.093  
  23920574.462   125703487.720                                                  
  23920576.928    93869504.217  
  24186492.649   127100882.061                                                  
  24186494.150    94913001.053  
  27096201.687   142391505.130                                                  
  27096204.975   106331329.473  
  23784859.680   124990300.044                                                  
  23784861.395    93336929.027  
 21  9  1  9 44 24.0000000  0 19G 1G 3G 7G 8G14G17G19G21G22G30R13R14
                                R17R24E13E15E21E26E27
  20182134.323   106057846.395    20182134.055    82642472.819    20182133.716  
  20182133.251    79199045.261  
  23788792.223   125010947.264    23788792.687    97411137.047    23788791.901  
  23788792.705    93352329.789  
  23379837.653   122861870.325    23379835.009    95736504.592    23379834.544  
                                
  24622755.428   129393455.183    24622756.339   100826074.802    24622755.267  
  24622755.285    96624985.725  
  20486802.398   107658882.246    20486800.003    83890025.375    20486799.396  
  20486803.863    80394628.219  
  21403171.765   112474442.291    21403168.638    87642415.627    21403167.995  
                                
  23199500.722   121914207.474                    94998065.366    23199495.415  
                                
  22382267.050   117619624.700                    91651644.063    22382263.011  
                                
  23072947.101   121249155.199                    94479847.356    23072941.705  
                                
  21930142.386   115243666.908    21930142.082    89800257.546    21930141.296  
  21930142.440    86058578.868  
  19998101.488   106788743.082    19998102.328    83057909.862    19998102.310  
                                
  19763001.647   105347917.815    19763003.059    81937270.798    19763003.113  
                                
  23023744.621   123204716.891    23023745.497    95825888.654    23023745.372  
                                
  19588308.557   104747502.834    19588308.557    81470286.120    19588308.504  
                                
  23513530.824   123564456.522                                                  
  23513531.968    92272169.824  
  23920867.550   125705027.909                                                  
  23920870.016    93870654.358  
  24186221.451   127099456.873                                                  
  24186222.970    94911936.785  
  27095647.926   142388594.958                                                  
  27095651.196   106329156.277  
  23785103.002   124991578.742                                                  
  23785104.718    93337883.901  
 21  9  1  9 44 25.0000000  0 19G 1G 3G 7G 8G14G17G19G21G22G30R13R14
                                R17R24E13E15E21E26E27
  20182317.373   106058808.298    20182317.105    82643222.352    20182316.766  
  20182316.283    79199763.557  
  23788236.943   125008029.245    23788237.407    97408863.266    23788236.621  
  23788237.425    93350150.756  
  23380521.072   122865461.714    23380518.409    95739303.081    23380517.945  
                                
  24623320.286   129396423.603    24623321.215   100828387.852    24623320.143  
  24623320.161    96627202.393  
  20486564.722   107657633.295    20486562.327    83889052.166    20486561.738  
  20486566.205    80393695.560  
  21402907.947   112473055.996    21402904.838    87641335.397    21402904.176  
                                
  23198963.347   121911383.616                    94995864.955    23198958.039  
                                
  22382759.699   117622213.561                    91653661.357    22382755.660  
                                
  23072643.596   121247560.370                    94478604.630    23072638.217  
                                
  21930597.045   115246056.145    21930596.760    89802119.286    21930595.973  
  21930597.099    86060363.047  
  19998585.435   106791327.399    19998586.292    83059919.887    19998586.257  
                                
  19762652.308   105346055.568    19762653.720    81935822.384    19762653.755  
                                
  23023083.521   123201179.153    23023084.379    95823137.084    23023084.254  
                                
  19588098.811   104746381.260    19588098.793    81469413.790    19588098.739  
                                
  23513292.040   123563201.646                                                  
  23513293.166    92271232.743  
  23921160.674   125706568.277                                                  
  23921163.139    93871804.636  
  24185950.289   127098031.837                                                  
  24185951.790    94910872.635  
  27095094.093   142385684.746                                                  
  27095097.363   106326983.086  
  23785346.378   124992857.666                                                  
  23785348.094    93338838.939  
 21  9  1  9 44 27.0000000  0 19G 1G 3G 7G 8G14G17G19G21G22G30R13R14
                                R17R24E13E15E21E26E27
  20182683.903   106060734.511    20182683.653    82644723.297    20182683.295  
  20182682.831    79201201.965  
  23787126.562   125002194.265    23787127.026    97404316.528    23787126.240  
  23787127.044    93345793.470  
  23381888.070   122872645.335    23381885.408    95744900.713    23381884.943  
                                
  24624450.144   129402360.873    24624451.091   100833014.287    24624450.019  
  24624450.019    96631636.031  
  20486089.709   107655137.047    20486087.315    83887107.041    20486086.725  
  20486091.193    80391831.484  
  21402380.560   112470284.554    21402377.451    87639175.832    21402376.790  
                                
  23197888.811   121905736.836                    94991464.869    23197883.486  
                                
  22383745.229   117627392.560                    91657696.941    22383741.173  
                                
  23072036.996   121244372.535                    94476120.605    23072031.600  
                                
  21931506.704   115250836.437    21931506.400    89805844.190    21931505.614  
  21931506.740    86063932.742  
  19999553.811   106796498.476    19999554.668    83063941.837    19999554.650  
                                
  19761954.076   105342333.648    19761955.488    81932927.560    19761955.523  
                                
  23021761.499   123194104.837    23021762.375    95817634.855    23021762.250  
                                
  19587679.747   104744140.317    19587679.747    81467670.832    19587679.693  
                                
  23512814.741   123560693.426                                                  
  23512815.867    92269359.720  
  23921747.153   125709650.302                                                  
  23921749.619    93874106.148  
  24185408.160   127095182.981                                                  
  24185409.679    94908745.242  
  27093986.696   142379865.142                                                  
  27093989.984   106322637.269  
  23785833.381   124995416.921                                                  
  23785835.114    93340750.067  
 21  9  1  9 44 28.0000000  0 19G 1G 3G 7G 8G14G17G19G21G22G30R13R14
                                R17R24E13E15E21E26E27
  20182867.418   106061698.777    20182867.150    82645474.673    20182866.792  
  20182866.328    79201922.033  
  23786571.496   124999277.270    23786571.943    97402043.548    23786571.175  
  23786571.979    93343615.184  
  23382571.614   122876237.484    23382568.969    95747699.794    23382568.505  
                                
  24625015.037   129405329.543    24625015.949   100835327.534    24625014.877  
  24625014.894    96633852.944  
  20485852.337   107653889.707    20485849.943    83886135.085    20485849.353  
  20485853.821    80390900.022  
  21402116.957   112468899.341    21402113.847    87638096.445    21402113.186  
                                
  23197351.614   121902913.841                    94989265.135    23197346.307  
                                
  22384238.110   117629982.654                    91659715.194    22384234.072  
                                
  23071733.830   121242779.467                    94474879.253    23071728.434  
                                
  21931961.703   115253227.420    21931961.399    89807707.293    21931960.613  
  21931961.756    86065718.218  
  20000038.222   106799085.188    20000039.080    83065953.724    20000039.062  
                                
  19761605.183   105340473.911    19761606.595    81931481.095    19761606.649  
                                
  23021100.596   123190568.262    23021101.471    95814884.192    23021101.346  
                                
  19587470.411   104743020.888    19587470.393    81466800.167    19587470.339  
                                
  23512576.225   123559440.026                                                  
  23512577.351    92268423.740  
  23922040.526   125711191.914                                                  
  23922042.974    93875257.347  
  24185137.212   127093759.104                                                  
  24185138.713    94907681.960  
  27093433.007   142376955.624                                                  
  27093436.277   106320464.584  
  23786077.007   124996697.201                                                  
  23786078.740    93341706.122  
 21  9  1  9 44 29.0000000  0 19G 1G 3G 7G 8G14G17G19G21G22G30R13R14
                                R17R24E13E15E21E26E27
  20183050.986   106062663.403    20183050.718    82646226.330    20183050.361  
  20183049.896    79202642.378  
  23786016.395   124996360.194    23786016.860    97399770.499    23786016.073  
  23786016.878    93341436.845  
  23383255.158   122879829.484    23383252.495    95750498.764    23383252.030  
                                
  24625579.931   129408298.019    24625580.878   100837640.623    24625579.806  
  24625579.824    96636069.610  
  20485615.001   107652642.473    20485612.607    83885163.214    20485612.017  
  20485616.484    80389968.650  
  21401853.353   112467514.076    21401850.244    87637017.016    21401849.582  
                                
  23196814.382   121900090.711                    94987065.294    23196809.075  
                                
  22384730.991   117632572.716                    91661733.424    22384726.935  
                                
  23071430.718   121241186.587                    94473638.052    23071425.322  
                                
  21932416.702   115255618.564    21932416.416    89809570.520    21932415.630  
  21932416.755    86067503.809  
  20000522.687   106801672.263    20000523.545    83067965.896    20000523.527  
                                
  19761256.380   105338614.542    19761257.792    81930034.919    19761257.845  
                                
  23020439.692   123187031.603    23020440.568    95812133.460    23020440.442  
                                
  19587261.129   104741901.801    19587261.129    81465929.764    19587261.075  
                                
  23512337.709   123558186.706                                                  
  23512338.835    92267487.814  
  23922333.882   125712733.518                                                  
  23922336.348    93876408.543  
  24184866.264   127092335.201                                                  
  24184867.765    94906618.654  
  27092879.299   142374045.928                                                  
  27092882.569   106318291.774  
  23786320.651   124997977.506                                                  
  23786322.366    93342662.197  
 21  9  1  9 44 30.0000000  0 19G 1G 3G 7G 8G14G17G19G21G22G30R13R14
                                R17R24E13E15E21E26E27
  20183234.644   106063628.585    20183234.376    82646978.417    20183234.018  
  20183233.554    79203363.128  
  23785461.312   124993443.194    23785461.759    97397497.512    23785460.972  
  23785461.776    93339258.577  
  23383938.701   122883421.472    23383936.039    95753297.711    23383935.574  
                                
  24626144.753   129411266.225    24626145.664   100839953.507    24626144.592  
  24626144.610    96638286.185  
  20485377.718   107651395.532    20485375.324    83884191.574    20485374.734  
  20485379.201    80389037.493  
  21401589.767   112466128.908    21401586.658    87635937.666    21401585.996  
                                
  23196277.168   121897267.607                    94984865.477    23196271.861  
                                
  22385223.891   117635162.953                    91663751.786    22385219.834  
                                
  23071127.659   121239594.030                    94472397.098    23071122.263  
                                
  21932871.808   115258010.043    21932871.504    89811434.014    21932870.736  
  21932871.861    86069289.655  
  20001007.259   106804259.875    20001008.117    83069978.481    20001008.099  
                                
  19760907.666   105336755.721    19760909.078    81928589.170    19760909.113  
                                
  23019778.824   123183495.120    23019779.682    95809382.860    23019779.557  
                                
  19587051.954   104740783.217    19587051.954    81465059.756    19587051.901  
                                
  23512099.265   123556933.614                                                  
  23512100.391    92266552.070  
  23922627.274   125714275.280                                                  
  23922629.740    93877559.865  
  24184595.316   127090911.430                                                  
  24184596.817    94905555.453  
  27092325.628   142371136.214                                                  
  27092328.880   106316118.936  
  23786564.313   124999258.020                                                  
  23786566.046    93343618.427  
 21  9  1  9 44 31.0000000  0 19G 1G 3G 7G 8G14G17G19G21G22G30R13R14
                                R17R24E13E15E21E26E27
  20183418.445   106064594.441    20183418.177    82647731.032    20183417.819  
  20183417.355    79204084.386  
  23784906.264   124990526.440    23784906.729    97395224.716    23784905.943  
  23784906.747    93337080.473  
  23384622.263   122887013.627    23384619.600    95756096.796    23384619.136  
                                
  24626709.628   129414234.549    24626710.558   100842266.484    24626709.485  
  24626709.503    96640502.742  
  20485140.507   107650149.016    20485138.113    83883220.263    20485137.523  
  20485141.990    80388106.653  
  21401326.234   112464744.010    21401323.107    87634858.527    21401322.446  
                                
  23195739.989   121894444.682                    94982665.795    23195734.682  
                                
  22385716.843   117637753.475                    91665770.375    22385712.805  
                                
  23070824.690   121238001.962                    94471156.531    23070819.294  
                                
  21933326.968   115260401.988    21933326.682    89813297.866    21933325.895  
  21933327.021    86071075.846  
  20001491.974   106806848.173    20001492.832    83071991.600    20001492.814  
                                
  19760559.095   105334897.615    19760560.507    81927143.974    19760560.542  
                                
  23019117.992   123179958.930    23019118.850    95806632.483    23019118.724  
                                
  19586842.904   104739665.257    19586842.887    81464190.232    19586842.833  
                                
  23511860.892   123555680.904                                                  
  23511862.018    92265616.603  
  23922920.701   125715817.347                                                  
  23922923.167    93878711.407  
  24184324.440   127089487.944                                                  
  24184325.959    94904492.460  
  27091771.956   142368226.623                                                  
  27091775.208   106313946.194  
  23786808.046   125000538.875                                                  
  23786809.780    93344574.905  
 21  9  1  9 44 32.0000000  0 19G 1G 3G 7G 8G14G17G19G21G22G30R13R14
                                R17R24E13E15E21E26E27
  20183602.388   106065561.148    20183602.120    82648484.311    20183601.781  
  20183601.298    79204806.276  
  23784351.306   124987610.071    23784351.771    97392952.221    23784350.984  
  23784351.788    93334902.669  
  23385305.878   122890606.084    23385303.216    95758896.120    23385302.751  
                                
  24627274.486   129417202.946    24627275.415   100844579.525    24627274.343  
  24627274.361    96642719.413  
  20484903.421   107648903.099    20484901.026    83882249.414    20484900.437  
  20484904.904    80387176.254  
  21401062.774   112463359.531    21401059.647    87633779.712    21401059.003  
                                
  23195202.846   121891622.092                    94980466.375    23195197.539  
                                
  22386209.903   117640344.476                    91667789.336    22386205.865  
                                
  23070521.864   121236410.552                    94469916.467    23070516.467  
                                
  21933782.252   115262794.576    21933781.966    89815162.217    21933781.180  
  21933782.306    86072862.514  
  20001976.832   106809437.327    20001977.690    83074005.386    20001977.672  
                                
  19760210.685   105333040.407    19760212.096    81925699.483    19760212.150  
                                
  23018457.249   123176423.150    23018458.125    95803882.427    23018457.982  
                                
  19586633.962   104738548.055    19586633.962    81463321.294    19586633.908  
                                
  23511622.609   123554428.745                                                  
  23511623.735    92264681.549  
  23923214.253   125717359.896                                                  
  23923216.701    93879863.308  
  24184053.635   127088064.898                                                  
  24184055.136    94903429.793  
  27091218.338   142365317.329                                                  
  27091221.608   106311773.654  
  23787051.905   125001820.246                                                  
  23787053.620    93345531.770  
 21  9  1  9 44 33.0000000  0 19G 1G 3G 7G 8G14G17G19G21G22G30R13R14
                                R17R24E13E15E21E26E27
  20183786.564   106066528.964    20183786.296    82649238.453    20183785.957  
  20183785.492    79205528.991  
  23783796.473   124984694.370    23783796.937    97390680.251    23783796.151  
  23783796.955    93332725.354  
  23385989.601   122894199.120    23385986.938    95761695.890    23385986.473  
                                
  24627839.469   129420171.839    24627840.434   100846892.951    24627839.362  
  24627839.362    96644936.387  
  20484666.495   107647658.024    20484664.101    83881279.229    20484663.511  
  20484667.979    80386246.493  
  21400799.438   112461975.719    21400796.311    87632701.417    21400795.667  
                                
  23194665.847   121888800.110                    94978267.431    23194660.539  
                                
  22386703.088   117642936.190                    91669808.851    22386699.050  
                                
  23070219.198   121234820.022                    94468677.095    23070213.802  
                                
  21934237.734   115265188.053    21934237.430    89817027.264    21934236.662  
  21934237.787    86074649.853  
  20002461.923   106812027.590    20002462.780    83076020.035    20002462.745  
                                
  19759862.489   105331184.357    19759863.901    81924255.885    19759863.936  
                                
  23017796.649   123172888.080    23017797.507    95801132.924    23017797.382  
                                
  19586425.234   104737431.865    19586425.234    81462453.147    19586425.180  
                                
  23511384.486   123553177.391                                                  
  23511385.612    92263747.096  
  23923507.931   125718903.166                                                  
  23923510.396    93881015.748  
  24183782.973   127086642.553                                                  
  24183784.474    94902367.653  
  27090664.809   142362408.569                                                  
  27090668.079   106309601.530  
  23787295.871   125003102.383                                                  
  23787297.604    93346489.206  
 21  9  1  9 44 34.0000000  0 19G 1G 3G 7G 8G14G17G19G21G22G30R13R14
                                R17R24E13E15E21E26E27
  20183970.866   106067497.376    20183970.597    82649993.060    20183970.240  
  20183969.775    79206252.154  
  23783241.657   124981778.823    23783242.122    97388408.391    23783241.336  
  23783242.140    93330548.148  
  23386673.341   122897792.214    23386670.678    95764495.701    23386670.214  
                                
  24628404.416   129423140.573    24628405.363   100849206.243    24628404.291  
  24628404.309    96647153.301  
  20484429.642   107646413.296    20484427.247    83880309.308    20484426.657  
  20484431.125    80385316.983  
  21400536.156   112460592.079    21400533.029    87631623.254    21400532.385  
                                
  23194128.865   121885978.218                    94976068.552    23194123.557  
                                
  22387196.309   117645528.123                    91671828.538    22387192.271  
                                
  23069916.604   121233229.912                    94467438.053    23069911.208  
                                
  21934693.251   115267581.926    21934692.965    89818892.620    21934692.179  
  21934693.305    86076437.472  
  20002947.102   106814618.482    20002947.960    83078035.169    20002947.924  
                                
  19759514.418   105329328.912    19759515.830    81922812.763    19759515.866  
                                
  23017136.049   123169353.178    23017136.925    95798383.558    23017136.782  
                                
  19586216.613   104736316.216    19586216.595    81461585.418    19586216.542  
                                
  23511146.417   123551926.336                                                  
  23511147.543    92262812.867  
  23923801.644   125720446.654                                                  
  23923804.110    93882168.352  
  24183512.346   127085220.405                                                  
  24183513.847    94901305.654  
  27090111.298   142359499.846                                                  
  27090114.551   106307429.428  
  23787539.908   125004384.766                                                  
  23787541.641    93347446.834  
 21  9  1  9 44 35.0000000  0 19G 1G 3G 7G 8G14G17G19G21G22G30R13R14
                                R17R24E13E15E21E26E27
  20184155.274   106068466.583    20184155.006    82650748.289    20184154.666  
  20184154.184    79206975.923  
  23782686.896   124978863.601    23782687.360    97386136.790    23782686.574  
  23782687.378    93328371.210  
  23387357.117   122901385.543    23387354.454    95767295.698    23387354.008  
                                
  24628969.309   129426109.361    24628970.221   100851519.577    24628969.166  
  24628969.184    96649370.321  
  20484192.859   107645169.105    20484190.465    83879339.810    20484189.875  
  20484194.342    80384387.886  
  21400272.927   112459208.810    21400269.800    87630545.384    21400269.157  
                                
  23193591.918   121883156.587                    94973869.882    23193586.611  
                                
  22387689.619   117648120.477                    91673848.555    22387685.581  
                                
  23069614.117   121231640.401                    94466199.472    23069608.721  
                                
  21935148.911   115269976.363    21935148.625    89820758.415    21935147.839  
  21935148.965    86078225.541  
  20003432.461   106817210.159    20003433.301    83080050.917    20003433.283  
                                
  19759166.491   105327474.273    19759167.902    81921370.266    19759167.938  
                                
  23016475.556   123165818.722    23016476.432    95795634.536    23016476.307  
                                
  19586008.117   104735201.308    19586008.099    81460718.271    19586008.046  
                                
  23510908.456   123550675.780                                                  
  23510909.581    92261879.012  
  23924095.446   125721990.573                                                  
  23924097.912    93883321.278  
  24183241.809   127083798.653                                                  
  24183243.310    94900243.963  
  27089557.823   142356591.362                                                  
  27089561.093   106305257.512  
  23787784.035   125005667.625                                                  
  23787785.750    93348404.811  
 21  9  1  9 44 36.0000000  0 19G 1G 3G 7G 8G14G17G19G21G22G30R13R14
                                R17R24E13E15E21E26E27
  20184339.843   106069436.442    20184339.575    82651504.020    20184339.218  
  20184338.753    79207700.162  
  23782132.188   124975948.573    23782132.652    97383865.335    23782131.866  
  23782132.670    93326194.405  
  23388040.929   122904979.007    23388038.266    95770095.795    23388037.819  
                                
  24629534.274   129429078.224    24629535.203   100853832.975    24629534.131  
  24629534.149    96651587.309  
  20483956.184   107643925.312    20483953.789    83878370.619    20483953.200  
  20483957.667    80383459.080  
  21400009.734   112457825.769    21400006.625    87629467.690    21400005.964  
                                
  23193055.026   121880335.124                    94971671.341    23193049.701  
                                
  22388182.983   117650713.088                    91675868.777    22388178.944  
                                
  23069311.738   121230051.341                    94464961.244    23069306.341  
                                
  21935604.643   115272371.239    21935604.357    89822624.555    21935603.570  
  21935604.696    86080013.923  
  20003917.908   106819802.512    20003918.766    83082067.194    20003918.748  
                                
  19758818.688   105325620.310    19758820.100    81919928.295    19758820.153  
                                
  23015815.082   123162284.453    23015815.957    95792885.665    23015815.832  
                                
  19585799.729   104734087.029    19585799.729    81459851.610    19585799.675  
                                
  23510670.530   123549425.561                                                  
  23510671.655    92260945.407  
  23924389.284   125723534.750                                                  
  23924391.750    93884474.393  
  24182971.290   127082377.145                                                  
  24182972.791    94899182.441  
  27089004.366   142353682.945                                                  
  27089007.636   106303085.662  
  23788028.215   125006950.785                                                  
  23788029.930    93349363.013  
 21  9  1  9 44 37.0000000  0 19G 1G 3G 7G 8G14G17G19G21G22G30R13R14
                                R17R24E13E15E21E26E27
  20184524.537   106070407.040    20184524.269    82652260.331    20184523.912  
  20184523.447    79208424.957  
  23781577.533   124973033.855    23781577.998    97381594.127    23781577.212  
  23781578.034    93324017.831  
  23388724.776   122908572.658    23388722.114    95772896.043    23388721.649  
                                
  24630099.275   129432047.147    24630100.222   100856146.421    24630099.150  
  24630099.168    96653804.327  
  20483719.598   107642681.995    20483717.204    83877401.801    20483716.614  
  20483721.063    80382530.629  
  21399746.613   112456443.019    21399743.486    87628390.220    21399742.842  
                                
  23192518.151   121877513.866                    94969472.958    23192512.844  
                                
  22388676.418   117653306.058                    91677889.268    22388672.380  
                                
  23069009.465   121228462.828                    94463723.434    23069004.069  
                                
  21936060.463   115274766.650    21936060.178    89824491.106    21936059.391  
  21936060.517    86081802.699  
  20004403.517   106822395.611    20004404.357    83084084.044    20004404.339  
                                
  19758471.028   105323767.133    19758472.440    81918486.932    19758472.493  
                                
  23015154.678   123158750.487    23015155.554    95790137.027    23015155.429  
                                
  19585591.483   104732973.422    19585591.465    81458985.469    19585591.412  
                                
  23510432.711   123548175.788                                                  
  23510433.836    92260012.133  
  23924683.194   125725079.285                                                  
  23924685.660    93885627.784  
  24182700.860   127080955.971                                                  
  24182702.361    94898121.179  
  27088450.962   142350774.725                                                  
  27088454.215   106300913.941  
  23788272.466   125008234.345                                                  
  23788274.182    93350321.518  
 21  9  1  9 44 38.0000000  0 19G 1G 3G 7G 8G14G17G19G21G22G30R13R14
                                R17R24E13E15E21E26E27
  20184709.374   106071378.325    20184709.106    82653017.178    20184708.749  
  20184708.284    79209150.267  
  23781022.932   124970119.361    23781023.379    97379323.094    23781022.593  
  23781023.415    93321841.427  
  23389408.677   122912166.469    23389406.015    95775696.417    23389405.550  
                                
  24630664.204   129435016.013    24630665.133   100858459.821    24630664.061  
  24630664.079    96656021.370  
  20483483.084   107641439.130    20483480.689    83876433.337    20483480.099  
  20483484.567    80381602.518  
  21399483.527   112455060.556    21399480.418    87627312.976    21399479.757  
                                
  23191981.330   121874692.825                    94967274.745    23191976.023  
                                
  22389169.889   117655899.339                    91679910.006    22389165.851  
                                
  23068707.264   121226874.798                    94462486.009    23068701.868  
                                
  21936516.392   115277162.545    21936516.106    89826358.035    21936515.337  
  21936516.463    86083591.842  
  20004889.251   106824989.422    20004890.108    83086101.458    20004890.090  
                                
  19758123.529   105321914.709    19758124.941    81917046.160    19758124.977  
                                
  23014494.346   123155216.837    23014495.204    95787388.632    23014495.079  
                                
  19585383.345   104731860.428    19585383.327    81458119.814    19585383.273  
                                
  23510194.963   123546926.411                                                  
  23510196.089    92259079.162  
  23924977.175   125726624.149                                                  
  23924979.641    93886781.421  
  24182430.466   127079535.096                                                  
  24182431.967    94897060.134  
  27087897.559   142347866.663                                                  
  27087900.829   106298742.319  
  23788516.790   125009518.269                                                  
  23788518.523    93351280.294  
 21  9  1  9 44 39.0000000  0 19G 1G 3G 7G 8G14G17G19G21G22G30R13R14
                                R17R24E13E15E21E26E27
  20184894.354   106072350.387    20184894.086    82653774.629    20184893.729  
  20184893.264    79209876.160  
  23780468.403   124967205.234    23780468.850    97377052.344    23780468.063  
  23780468.885    93319665.282  
  23390092.614   122915760.604    23390089.952    95778497.043    23390089.505  
                                
  24631229.169   129437984.968    24631230.080   100860773.293    24631229.026  
  24631229.044    96658238.462  
  20483246.676   107640196.796    20483244.282    83875465.282    20483243.674  
  20483248.142    80380674.794  
  21399220.531   112453678.440    21399217.404    87626236.000    21399216.761  
                                
  23191444.526   121871872.040                    94965076.734    23191439.219  
                                
  22389663.449   117658493.021                    91681931.058    22389659.411  
                                
  23068405.189   121225287.361                    94461249.043    23068399.792  
                                
  21936972.427   115279559.009    21936972.141    89828225.412    21936971.355  
  21936972.481    86085381.409  
  20005375.127   106827584.018    20005375.985    83088119.477    20005375.967  
                                
  19757776.173   105320063.085    19757777.585    81915606.006    19757777.621  
                                
  23013834.050   123151683.578    23013834.926    95784640.545    23013834.783  
                                
  19585175.349   104730748.159    19585175.331    81457254.711    19585175.278  
                                
  23509957.288   123545677.510                                                  
  23509958.413    92258146.538  
  23925271.246   125728169.412                                                  
  23925273.694    93887935.349  
  24182160.162   127078114.603                                                  
  24182161.681    94895999.374  
  27087344.227   142344958.789                                                  
  27087347.479   106296570.863  
  23788761.184   125010802.636                                                  
  23788762.918    93352239.395  
 21  9  1  9 44 40.0000000  0 19G 1G 3G 7G 8G14G17G19G21G22G30R13R14
                                R17R24E13E15E21E26E27
  20185079.424   106073322.949    20185079.138    82654532.472    20185078.799  
  20185078.334    79210602.423  
  23779913.856   124964291.121    23779914.320    97374781.611    23779913.534  
  23779914.356    93317489.163  
  23390776.515   122919354.558    23390773.871    95781297.524    23390773.406  
                                
  24631794.134   129440953.790    24631795.063   100863086.661    24631794.009  
  24631794.009    96660455.420  
  20483010.305   107638954.688    20483007.911    83874497.408    20483007.321  
  20483011.788    80379747.253  
  21398957.517   112452296.376    21398954.408    87625159.072    21398953.764  
                                
  23190907.759   121869051.257                    94962878.724    23190902.452  
                                
  22390157.045   117661086.815                    91683952.198    22390153.007  
                                
  23068103.184   121223700.206                    94460012.298    23068097.770  
                                
  21937428.516   115281955.749    21937428.230    89830093.000    21937427.444  
  21937428.587    86087171.178  
  20005861.111   106830179.103    20005861.969    83090137.874    20005861.951  
                                
  19757428.907   105318211.965    19757430.318    81914166.244    19757430.372  
                                
  23013173.790   123148150.388    23013174.665    95781892.508    23013174.540  
                                
  19584967.425   104729636.302    19584967.408    81456389.933    19584967.354  
                                
  23509719.683   123544428.808                                                  
  23509720.809    92257214.062  
  23925565.316   125729714.798                                                  
  23925567.782    93889089.364  
  24181889.875   127076694.186                                                  
  24181891.376    94894938.675  
  27086790.877   142342050.868                                                  
  27086794.129   106294399.357  
  23789005.615   125012087.153                                                  
  23789007.348    93353198.614  
 21  9  1  9 44 41.0000000  0 19G 1G 3G 7G 8G14G17G19G21G22G30R13R14
                                R17R24E13E15E21E26E27
  20185264.636   106074296.203    20185264.368    82655290.847    20185264.011  
  20185263.546    79211329.197  
  23779359.380   124961377.270    23779359.845    97372511.075    23779359.058  
  23779359.880    93315313.226  
  23391460.470   122922948.765    23391457.825    95784098.204    23391457.361  
                                
  24632359.081   129443922.613    24632360.028   100865400.029    24632358.974  
  24632358.974    96662672.378  
  20482774.023   107637713.023    20482771.646    83873529.877    20482771.039  
  20482775.506    80378820.031  
  21398694.574   112450914.585    21398691.465    87624082.352    21398690.822  
                                
  23190371.009   121866230.645                    94960680.851    23190365.702  
                                
  22390650.695   117663680.915                    91685973.572    22390646.639  
                                
  23067801.234   121222113.559                    94458775.950    23067795.837  
                                
  21937884.694   115284352.980    21937884.408    89831960.969    21937883.622  
  21937884.748    86088961.311  
  20006347.220   106832774.891    20006348.060    83092156.825    20006348.042  
                                
  19757081.765   105316361.577    19757083.177    81912727.057    19757083.231  
                                
  23012513.583   123144617.468    23012514.459    95779144.686    23012514.334  
                                
  19584759.627   104728525.078    19584759.609    81455525.651    19584759.555  
                                
  23509482.132   123543180.497                                                  
  23509483.258    92256281.879  
  23925859.440   125731260.487                                                  
  23925861.906    93890243.614  
  24181619.624   127075274.066                                                  
  24181621.143    94893878.195  
  27086237.509   142339143.044                                                  
  27086240.761   106292227.941  
  23789250.134   125013372.022                                                  
  23789251.850    93354158.094  
 21  9  1  9 44 42.0000000  0 19G 1G 3G 7G 8G14G17G19G21G22G30R13R14
                                R17R24E13E15E21E26E27
  20185449.920   106075269.982    20185449.652    82656049.633    20185449.295  
  20185448.830    79212056.377  
  23778804.886   124958463.480    23778805.333    97370240.587    23778804.547  
  23778805.369    93313137.355  
  23392144.425   122926542.912    23392141.762    95786898.841    23392141.298  
                                
  24632923.992   129446891.260    24632924.921   100867713.251    24632923.849  
  24632923.867    96664889.236  
  20482537.794   107636471.628    20482535.418    83872562.556    20482534.810  
  20482539.278    80377893.020  
  21398431.649   112449532.888    21398428.540    87623005.705    21398427.879  
                                
  23189834.277   121863410.044                    94958482.979    23189828.970  
                                
  22391144.345   117666275.149                    91687995.053    22391140.306  
                                
  23067499.372   121220527.237                    94457539.850    23067493.976  
                                
  21938340.926   115286750.500    21938340.622    89833829.167    21938339.854  
  21938340.980    86090751.676  
  20006833.436   106835371.202    20006834.276    83094176.177    20006834.258  
                                
  19756734.749   105314511.760    19756736.160    81911288.309    19756736.214  
                                
  23011853.394   123141084.708    23011854.270    95776396.979    23011854.127  
                                
  19584551.899   104727414.341    19584551.899    81454661.742    19584551.846  
                                
  23509244.635   123541932.409                                                  
  23509245.761    92255349.872  
  23926153.618   125732806.334                                                  
  23926156.066    93891397.978  
  24181349.408   127073854.077                                                  
  24181350.927    94892817.812  
  27085684.176   142336235.220                                                  
  27085687.429   106290056.509  
  23789494.654   125014657.087                                                  
  23789496.387    93355117.717  
 21  9  1  9 44 43.0000000  0 19G 1G 3G 7G 8G14G17G19G21G22G30R13R14
                                R17R24E13E15E21E26E27
  20185635.347   106076244.368    20185635.079    82656808.900    20185634.740  
  20185634.275    79212783.998  
  23778250.446   124955549.851    23778250.893    97367970.225    23778250.107  
  23778250.929    93310961.591  
  23392828.379   122930137.163    23392825.717    95789699.546    23392825.270  
                                
  24633488.903   129449859.824    24633489.833   100870026.413    24633488.778  
  24633488.796    96667106.012  
  20482301.637   107635230.594    20482299.243    83871595.517    20482298.635  
  20482303.103    80376966.271  
  21398168.760   112448151.374    21398165.633    87621929.200    21398164.990  
                                
  23189297.563   121860589.558                    94956285.195    23189292.238  
                                
  22391638.066   117668869.621                    91690016.720    22391634.009  
                                
  23067197.582   121218941.323                    94456304.073    23067192.186  
                                
  21938797.247   115289148.438    21938796.961    89835697.687    21938796.175  
  21938797.301    86092542.342  
  20007319.742   106837968.123    20007320.599    83096196.003    20007320.564  
                                
  19756387.857   105312662.589    19756389.269    81909850.063    19756389.323  
                                
  23011193.277   123137552.173    23011194.134    95773649.449    23011194.009  
                                
  19584344.297   104726304.148    19584344.297    81453798.258    19584344.225  
                                
  23509007.192   123540684.631                                                  
  23509008.299    92254418.090  
  23926447.832   125734352.406                                                  
  23926450.280    93892552.516  
  24181079.229   127072434.286                                                  
  24181080.748    94891757.580  
  27085130.844   142333327.436                                                  
  27085134.096   106287885.117  
  23789739.263   125015942.420                                                  
  23789740.979    93356077.547  
 21  9  1  9 44 44.0000000  0 19G 1G 3G 7G 8G14G17G19G21G22G30R13R14
                                R17R24E13E15E21E26E27
  20185820.881   106077219.374    20185820.613    82657568.643    20185820.256  
  20185819.791    79213512.089  
  23777696.024   124952636.378    23777696.471    97365699.986    23777695.685  
  23777696.507    93308785.957  
  23393512.352   122933731.484    23393509.707    95792500.311    23393509.243  
                                
  24634053.797   129452828.350    24634054.744   100872339.553    24634053.690  
  24634053.690    96669322.747  
  20482065.534   107633989.915    20482063.157    83870628.756    20482062.550  
  20482067.017    80376039.790  
  21397905.889   112446770.035    21397902.780    87620852.828    21397902.137  
                                
  23188760.867   121857769.177                    94954087.496    23188755.542  
                                
  22392131.823   117671464.322                    91692038.565    22392127.784  
                                
  23066895.882   121217355.826                    94455068.623    23066890.485  
                                
  21939253.622   115291546.765    21939253.336    89837566.514    21939252.550  
  21939253.676    86094333.296  
  20007806.190   106840565.668    20007807.048    83098216.318    20007807.012  
                                
  19756041.073   105310814.062    19756042.485    81908412.321    19756042.521  
                                
  23010533.159   123134019.829    23010534.017    95770902.071    23010533.892  
                                
  19584136.802   104725194.491    19584136.784    81452935.194    19584136.730  
                                
  23508769.802   123539437.159                                                  
  23508770.927    92253486.538  
  23926742.081   125735898.717                                                  
  23926744.547    93893707.230  
  24180809.103   127071014.711                                                  
  24180810.604    94890697.504  
  27084577.548   142330419.727                                                  
  27084580.800   106285713.760  
  23789983.890   125017228.022                                                  
  23789985.623    93357037.577  
