     2.11           OBSERVATION DATA    M (MIXED)           RINEX VERSION / TYPE
CONVBIN 2.4.3                           20210901 190754 UTC PGM / RUN BY / DATE 
log: logs/21_09_01_08_42_10_pamm_VZ.rtcm                    COMMENT             
format: RTCM 3, station ID: 1633                            COMMENT             
1633                                                        MARKER NAME         
                                                            MARKER NUMBER       
                                                            OBSERVER / AGENCY   
                    LEICA GR50          4.40/7.701          REC # / TYPE / VERS 
                    GPPNULLANTENNA                          ANT # / TYPE        
   813744.1540 -4753095.0608  4160985.4047                  APPROX POSITION XYZ 
        0.0000        0.0000        0.0000                  ANTENNA: DELTA H/E/N
     1     1                                                WAVELENGTH FACT L1/2
     7    C1    L1    C2    L2    P2    C5    L5            # / TYPES OF OBSERV 
  2021     9     1     8    42   28.0000000     GPS         TIME OF FIRST OBS   
  2021     9     1     9    12   14.0000000     GPS         TIME OF LAST OBS    
                                                            END OF HEADER       
 21  9  1  8 42 28.0000000  0 17G 1G 7G 8G13G14G17G21G30R12R13R14R24
                                E13E15E21E27E30
  20706305.011   108812381.025    20706305.136    84788876.602    20706305.136  
  20706304.028    81256001.655  
  21070275.209   110725044.244    21070272.368    86279241.638    21070272.117  
                                
  23181184.848   121817953.715    23181185.027    94923088.496    23181184.223  
  23181183.490    90967949.110  
  23719787.363   124648324.000                    97128576.563    23719784.504  
                                
  21439339.347   112664495.130    21439337.024    87790511.849    21439336.845  
  21439340.848    84132588.305  
  22093644.125   116102902.066    22093641.462    90469788.858    22093641.141  
                                
  21533668.865   113160212.059                    88176795.704    21533665.076  
                                
  20634153.238   108433213.071    20634152.720    84493407.348    20634152.237  
  20634152.720    80972853.384  
  21594099.970   115351815.708    21594100.524    89718088.649    21594100.649  
                                
  19267307.106   102886344.759    19267307.052    80022711.482    19267307.070  
                                
  21473800.865   114467450.212    21473801.741    89030241.815    21473801.687  
                                
  20753514.720   110978353.672    20753514.184    86316506.232    20753514.201  
                                
  24708173.986   129842328.212                                                  
  24708175.344    96960186.344  
  23640706.376   124232766.544                                                  
  23640708.949    92771244.095  
  25085096.759   131823084.658                                                  
  25085098.117    98439326.616  
  23482354.043   123400628.837                                                  
  23482355.526    92149844.384  
  25879255.465   135996441.136                                                  
  25879257.323   101555810.200  
 21  9  1  8 42 29.0000000  0 17G 1G 7G 8G13G14G17G21G30R12R13R14R24
                                E13E15E21E27E30
  20706006.652   108810813.123    20706006.777    84787654.857    20706006.777  
  20706005.669    81254830.812  
  21070714.376   110727352.085    21070711.535    86281039.940    21070711.284  
                                
  23181770.898   121821033.478    23181771.095    94925488.308    23181770.273  
  23181769.540    90970248.928  
  23719819.778   124648494.327                    97128709.292    23719816.919  
                                
  21438959.987   112662501.501    21438957.664    87788958.374    21438957.486  
  21438961.488    84131099.558  
  22093226.097   116100705.353    22093223.452    90468077.129    22093223.131  
                                
  21533861.886   113161226.384                    88177586.091    21533858.097  
                                
  20634181.703   108433362.672    20634181.185    84493523.918    20634180.703  
  20634181.185    80972965.102  
  21594672.530   115354874.205    21594673.083    89720467.480    21594673.191  
                                
  19267299.440   102886303.824    19267299.386    80022679.639    19267299.404  
                                
  21473171.947   114464097.730    21473172.805    89027634.334    21473172.769  
                                
  20752904.903   110975092.776    20752904.367    86313969.983    20752904.385  
                                
  24707695.936   129839816.075                                                  
  24707697.294    96958310.395  
  23640740.667   124232946.731                                                  
  23640743.258    92771378.655  
  25084743.971   131821230.741                                                  
  25084745.329    98437942.197  
  23482409.401   123400919.829                                                  
  23482410.884    92150061.685  
  25879666.095   135998598.918                                                  
  25879667.953   101557421.533  
 21  9  1  8 42 30.0000000  0 17G 1G 7G 8G13G14G17G21G30R12R13R14R24
                                E13E15E21E27E30
  20705708.382   108809245.658    20705708.490    84786433.456    20705708.507  
  20705707.399    81253660.301  
  21071153.596   110729660.193    21071150.755    86282838.461    21071150.505  
                                
  23182356.949   121824113.049    23182357.127    94927887.976    23182356.323  
  23182355.591    90972548.604  
  23719852.263   124648665.021                    97128842.298    23719849.404  
                                
  21438580.610   112660507.842    21438578.287    87787404.869    21438578.108  
  21438582.111    84129610.783  
  22092808.105   116098508.722    22092805.442    90466365.466    22092805.121  
                                
  21534054.960   113162241.054                    88178376.739    21534051.172  
                                
  20634210.258   108433512.681    20634209.740    84493640.812    20634209.257  
  20634209.740    80973077.117  
  21595245.125   115357932.860    21595245.678    89722846.431    21595245.786  
                                
  19267291.846   102886263.270    19267291.792    80022648.099    19267291.810  
                                
  21472543.011   114460745.177    21472543.887    89025026.789    21472543.833  
                                
  20752295.159   110971832.180    20752294.623    86311433.963    20752294.641  
                                
  24707217.922   129837303.996                                                  
  24707219.280    96956434.484  
  23640774.993   124233127.150                                                  
  23640777.584    92771513.379  
  25084391.147   131819376.671                                                  
  25084392.505    98436557.662  
  23482464.795   123401210.808                                                  
  23482466.278    92150278.973  
  25880076.689   136000756.609                                                  
  25880078.548   101559032.800  
 21  9  1  8 42 31.0000000  0 17G 1G 7G 8G13G14G17G21G30R12R13R14R24
                                E13E15E21E27E30
  20705410.256   108807679.064    20705410.381    84785212.736    20705410.381  
  20705409.273    81252490.446  
  21071592.942   110731968.996    21071590.101    86284637.524    21071589.851  
                                
  23182943.017   121827192.911    23182943.196    94930287.864    23182942.392  
  23182941.659    90974848.503  
  23719884.892   124648836.493                    97128975.917    23719882.015  
                                
  21438201.286   112658514.574    21438198.963    87785851.678    21438198.785  
  21438202.787    84128122.312  
  22092390.184   116096312.610    22092387.522    90464654.215    22092387.200  
                                
  21534248.214   113163256.517                    88179168.009    21534244.426  
                                
  20634238.956   108433663.533    20634238.437    84493758.359    20634237.955  
  20634238.437    80973189.766  
  21595817.827   115360992.102    21595818.381    89725225.842    21595818.488  
                                
  19267284.412   102886223.546    19267284.341    80022617.200    19267284.359  
                                
  21471914.164   114457392.993    21471915.040    89022419.539    21471914.986  
                                
  20751685.575   110968572.335    20751685.039    86308898.524    20751685.057  
                                
  24706739.961   129834792.405                                                  
  24706741.319    96954558.945  
  23640809.480   124233308.247                                                  
  23640812.053    92771648.615  
  25084038.395   131817522.901                                                  
  25084039.753    98435173.351  
  23482520.243   123401502.220                                                  
  23482521.726    92150496.587  
  25880487.355   136002914.641                                                  
  25880489.196   101560644.313  
 21  9  1  8 42 32.0000000  0 17G 1G 7G 8G13G14G17G21G30R12R13R14R24
                                E13E15E21E27E30
  20705112.290   108806113.199    20705112.415    84783992.579    20705112.415  
  20705111.307    81251321.131  
  21072032.413   110734278.349    21072029.572    86286437.019    21072029.321  
                                
  23183529.121   121830272.876    23183529.300    94932687.837    23183528.496  
  23183527.763    90977148.479  
  23719917.664   124649008.654                    97129110.069    23719914.787  
                                
  21437822.052   112656521.550    21437819.729    87784298.672    21437819.550  
  21437823.553    84126634.012  
  22091972.335   116094116.859    22091969.690    90462943.235    22091969.369  
                                
  21534441.575   113164272.593                    88179959.756    21534437.769  
                                
  20634267.778   108433815.059    20634267.260    84493876.426    20634266.778  
  20634267.278    80973302.923  
  21596390.583   115364051.762    21596391.136    89727605.582    21596391.262  
                                
  19267277.086   102886184.505    19267277.032    80022586.835    19267277.050  
                                
  21471285.354   114454041.020    21471286.211    89019812.449    21471286.175  
                                
  20751076.080   110965313.100    20751075.544    86306363.566    20751075.544  
                                
  24706262.090   129832281.151                                                  
  24706263.430    96952683.658  
  23640844.021   124233489.842                                                  
  23640846.594    92771784.224  
  25083685.642   131815669.239                                                  
  25083687.000    98433789.128  
  23482575.744   123401793.901                                                  
  23482577.209    92150714.405  
  25880898.039   136005072.837                                                  
  25880899.880   101562255.955  
 21  9  1  8 42 33.0000000  0 17G 1G 7G 8G13G14G17G21G30R12R13R14R24
                                E13E15E21E27E30
  20704814.413   108804547.890    20704814.538    84782772.856    20704814.538  
  20704813.430    81250152.228  
  21072471.955   110736588.112    21072469.114    86288236.833    21072468.846  
                                
  23184115.225   121833352.803    23184115.404    94935087.780    23184114.599  
  23184113.849    90979448.409  
  23719950.489   124649181.279                    97129244.586    23719947.613  
                                
  21437442.800   112654528.619    21437440.477    87782745.739    21437440.298  
  21437444.301    84125145.778  
  22091554.539   116091921.322    22091551.895    90461232.434    22091551.573  
                                
  21534635.007   113165289.157                    88180751.886    21534631.219  
                                
  20634296.726   108433967.131    20634296.208    84493994.926    20634295.725  
  20634296.208    80973416.476  
  21596963.428   115367111.771    21596963.964    89729985.589    21596964.089  
                                
  19267269.885   102886145.994    19267269.813    80022556.882    19267269.831  
                                
  21470656.543   114450689.152    21470657.400    89017205.443    21470657.365  
                                
  20750466.657   110962054.325    20750466.121    86303828.961    20750466.139  
                                
  24705784.254   129829770.064                                                  
  24705785.612    96950808.506  
  23640878.651   124233671.804                                                  
  23640881.242    92771920.103  
  25083332.908   131813815.560                                                  
  25083334.266    98432404.880  
  23482631.281   123402085.700                                                  
  23482632.746    92150932.303  
  25881308.741   136007231.056                                                  
  25881310.581   101563867.618  
 21  9  1  8 42 34.0000000  0 17G 1G 7G 8G13G14G17G21G30R12R13R14R24
                                E13E15E21E27E30
  20704516.679   108802983.231    20704516.804    84781553.643    20704516.822  
  20704515.714    81248983.813  
  21072911.569   110738898.318    21072908.727    86290036.995    21072908.459  
                                
  23184701.293   121836432.703    23184701.472    94937487.704    23184700.668  
  23184699.935    90981748.350  
  23719983.458   124649354.537                    97129379.574    23719980.581  
                                
  21437063.584   112652535.850    21437061.278    87781192.929    21437061.100  
  21437065.102    84123657.667  
  22091136.815   116089726.067    22091134.153    90459521.848    22091133.831  
                                
  21534828.546   113166306.242                    88181544.420    21534824.758  
                                
  20634325.763   108434119.786    20634325.263    84494113.879    20634324.780  
  20634325.263    80973530.475  
  21597536.326   115370172.141    21597536.880    89732365.877    21597537.005  
                                
  19267262.773   102886108.073    19267262.719    80022527.391    19267262.737  
                                
  21470027.767   114447337.447    21470028.643    89014598.559    21470028.589  
                                
  20749857.342   110958796.022    20749856.806    86301294.725    20749856.806  
                                
  24705306.454   129827259.247                                                  
  24705307.830    96948933.533  
  23640913.353   124233854.198                                                  
  23640915.944    92772056.304  
  25082980.173   131811961.919                                                  
  25082981.531    98431020.672  
  23482686.836   123402377.683                                                  
  23482688.319    92151150.342  
  25881719.460   136009389.358                                                  
  25881721.301   101565479.341  
 21  9  1  8 42 35.0000000  0 17G 1G 7G 8G13G14G17G21G30R12R13R14R24
                                E13E15E21E27E30
  20704219.089   108801419.334    20704219.196    84780335.022    20704219.214  
  20704218.106    81247815.975  
  21073351.307   110741209.161    21073348.484    86291837.650    21073348.216  
                                
  23185287.415   121839512.797    23185287.594    94939887.775    23185286.790  
  23185286.057    90984048.431  
  23720016.551   124649528.480                    97129515.125    23720013.674  
                                
  21436684.421   112650543.362    21436682.116    87779640.339    21436681.919  
  21436685.922    84122169.779  
  22090719.144   116087531.232    22090716.482    90457811.587    22090716.178  
                                
  21535022.229   113167324.024                    88182337.494    21535018.440  
                                
  20634354.961   108434273.185    20634354.443    84494233.405    20634353.961  
  20634354.443    80973645.025  
  21598109.332   115373233.018    21598109.886    89734746.559    21598109.994  
                                
  19267255.822   102886070.905    19267255.768    80022498.479    19267255.786  
                                
  21469399.046   114443986.031    21469399.904    89011991.904    21469399.868  
                                
  20749248.151   110955538.342    20749247.615    86298760.976    20749247.615  
                                
  24704828.744   129824748.812                                                  
  24704830.102    96947058.850  
  23640948.162   124234037.166                                                  
  23640950.753    92772192.945  
  25082627.475   131810108.474                                                  
  25082628.833    98429636.606  
  23482742.462   123402670.001                                                  
  23482743.945    92151368.636  
  25882130.215   136011547.914                                                  
  25882132.074   101567091.238  
 21  9  1  8 42 36.0000000  0 17G 1G 7G 8G13G14G17G21G30R12R13R14R24
                                E13E15E21E27E30
  20703921.551   108799855.784    20703921.659    84779116.671    20703921.677  
  20703920.569    81246648.390  
  21073791.082   110743520.168    21073788.241    86293638.435    21073787.991  
                                
  23185873.501   121842592.636    23185873.662    94942287.652    23185872.858  
  23185872.125    90986348.308  
  23720049.698   124649702.619                    97129650.816    23720046.804  
                                
  21436305.240   112648550.737    21436302.917    87778087.646    21436302.738  
  21436306.741    84120681.786  
  22090301.474   116085336.373    22090298.829    90456101.307    22090298.508  
                                
  21535215.947   113168342.034                    88183130.746    21535212.158  
                                
  20634384.213   108434426.888    20634383.695    84494353.177    20634383.212  
  20634383.695    80973759.804  
  21598682.338   115376293.937    21598682.892    89737127.274    21598683.017  
                                
  19267248.924   102886034.013    19267248.853    80022469.781    19267248.871  
                                
  21468770.306   114440634.455    21468771.164    89009385.120    21468771.128  
                                
  20748638.960   110952280.818    20748638.424    86296227.344    20748638.442  
                                
  24704350.998   129822238.338                                                  
  24704352.356    96945184.144  
  23640983.024   124234220.253                                                  
  23640985.597    92772329.665  
  25082274.722   131808254.766                                                  
  25082276.080    98428252.341  
  23482798.052   123402962.208                                                  
  23482799.535    92151586.838  
  25882540.953   136013706.257                                                  
  25882542.793   101568702.985  
 21  9  1  8 42 37.0000000  0 17G 1G 7G 8G13G14G17G21G30R12R13R14R24
                                E13E15E21E27E30
  20703624.157   108798292.973    20703624.265    84777898.896    20703624.282  
  20703623.175    81245481.352  
  21074230.946   110745831.759    21074228.122    86295439.677    21074227.854  
                                
  23186459.605   121845672.636    23186459.784    94944687.652    23186458.962  
  23186458.229    90988648.302  
  23720082.970   124649877.524                    97129787.114    23720080.093  
                                
  21435926.113   112646558.387    21435923.790    87776535.164    21435923.611  
  21435927.614    84119193.982  
  22089883.893   116083141.913    22089881.230    90454391.339    22089880.909  
                                
  21535409.790   113169360.686                    88183924.504    21535406.002  
                                
  20634413.607   108434581.293    20634413.089    84494473.492    20634412.607  
  20634413.089    80973875.108  
  21599255.434   115379355.312    21599255.988    89739508.344    21599256.095  
                                
  19267242.134   102885997.834    19267242.081    80022441.644    19267242.098  
                                
  21468141.603   114437283.131    21468142.460    89006778.535    21468142.425  
                                
  20748029.894   110949023.886    20748029.358    86293694.174    20748029.376  
                                
  24703873.323   129819728.199                                                  
  24703874.681    96943309.707  
  23641017.958   124234403.887                                                  
  23641020.531    92772466.791  
  25081922.006   131806401.204                                                  
  25081923.346    98426868.187  
  23482853.732   123403254.705                                                  
  23482855.215    92151805.259  
  25882951.708   136015864.793                                                  
  25882953.549   101570314.879  
 21  9  1  8 42 38.0000000  0 17G 1G 7G 8G13G14G17G21G30R12R13R14R24
                                E13E15E21E27E30
  20703326.906   108796730.998    20703327.031    84776681.773    20703327.031  
  20703325.923    81244314.945  
  21074670.953   110748144.002    21074668.129    86297241.434    21074667.861  
                                
  23187045.763   121848752.859    23187045.941    94947087.830    23187045.137  
  23187044.387    90990948.468  
  23720116.403   124650053.150                    97129923.960    23720113.509  
                                
  21435547.040   112644566.387    21435544.734    87774982.958    21435544.538  
  21435548.558    84117706.449  
  22089466.365   116080947.917    22089463.703    90452681.736    22089463.399  
                                
  21535603.794   113170380.084                    88184718.842    21535599.988  
                                
  20634443.145   108434736.508    20634442.627    84494594.439    20634442.144  
  20634442.627    80973991.009  
  21599828.654   115382417.266    21599829.190    89741889.863    21599829.315  
                                
  19267235.505   102885962.442    19267235.451    80022414.120    19267235.469  
                                
  21467512.970   114433932.159    21467513.828    89004172.223    21467513.792  
                                
  20747420.972   110945767.658    20747420.436    86291161.553    20747420.436  
                                
  24703395.773   129817218.521                                                  
  24703397.131    96941435.601  
  23641053.017   124234588.139                                                  
  23641055.590    92772604.381  
  25081569.325   131804547.882                                                  
  25081570.683    98425484.216  
  23482909.466   123403547.589                                                  
  23482910.949    92152023.973  
  25883362.499   136018023.617                                                  
  25883364.357   101571926.985  
 21  9  1  8 42 39.0000000  0 17G 1G 7G 8G13G14G17G21G30R12R13R14R24
                                E13E15E21E27E30
  20703029.834   108795169.895    20703029.959    84775465.334    20703029.977  
  20703028.869    81243149.184  
  21075111.085   110750456.978    21075108.243    86299043.762    21075107.993  
                                
  23187631.956   121851833.346    23187632.135    94949488.205    23187631.330  
  23187630.580    90993248.825  
  23720149.979   124650229.640                    97130061.482    23720147.084  
                                
  21435168.055   112642574.762    21435165.732    87773431.045    21435165.554  
  21435169.556    84116219.201  
  22089048.963   116078754.446    22089046.300    90450972.540    22089045.996  
                                
  21535797.905   113171400.245                    88185513.771    21535794.117  
                                
  20634472.825   108434892.532    20634472.307    84494716.016    20634471.825  
  20634472.325    80974107.525  
  21600401.964   115385479.850    21600402.518    89744271.868    21600402.625  
                                
  19267229.036   102885927.850    19267228.983    80022387.210    19267229.000  
                                
  21466884.410   114430581.585    21466885.267    89001566.224    21466885.232  
                                
  20746812.192   110942512.209    20746811.656    86288629.537    20746811.656  
                                
  24702918.277   129814709.333                                                  
  24702919.635    96939561.846  
  23641088.201   124234773.056                                                  
  23641090.792    92772742.468  
  25081216.715   131802694.849                                                  
  25081218.073    98424100.453  
  23482965.271   123403840.884                                                  
  23482966.754    92152242.988  
  25883773.397   136020182.769                                                  
  25883775.256   101573539.335  
 21  9  1  8 42 40.0000000  0 17G 1G 7G 8G13G14G17G21G30R12R13R14R24
                                E13E15E21E27E30
  20702732.922   108793609.487    20702733.047    84774249.434    20702733.047  
  20702731.939    81241983.948  
  21075551.342   110752770.462    21075548.500    86300846.477    21075548.232  
                                
  23188218.167   121854913.912    23188218.346    94951888.644    23188217.542  
  23188216.791    90995549.246  
  23720183.662   124650406.704                    97130199.456    23720180.768  
                                
  21434789.107   112640583.375    21434786.784    87771879.317    21434786.605  
  21434790.608    84114732.130  
  22088631.632   116076561.313    22088628.969    90449263.605    22088628.647  
                                
  21535992.159   113172421.014                    88186309.179    21535988.371  
                                
  20634502.649   108435049.247    20634502.131    84494838.134    20634501.648  
  20634502.148    80974224.550  
  21600975.363   115388542.860    21600975.917    89746654.209    21600976.024  
                                
  19267222.693   102885893.931    19267222.621    80022360.831    19267222.639  
                                
  21466255.903   114427231.211    21466256.760    88998960.375    21466256.707  
                                
  20746203.520   110939257.387    20746202.983    86286098.009    20746202.983  
                                
  24702440.853   129812200.473                                                  
  24702442.211    96937688.342  
  23641123.493   124234958.472                                                  
  23641126.066    92772880.926  
  25080864.106   131800841.920                                                  
  25080865.464    98422716.770  
  23483021.147   123404134.446                                                  
  23483022.630    92152462.209  
  25884184.295   136022342.086                                                  
  25884186.154   101575151.812  
 21  9  1  8 42 41.0000000  0 17G 1G 7G 8G13G14G17G21G30R12R13R14R24
                                E13E15E21E27E30
  20702436.135   108792049.922    20702436.260    84773034.191    20702436.260  
  20702435.153    81240819.342  
  21075991.706   110755084.635    21075988.882    86302649.727    21075988.614  
                                
  23188804.414   121857994.704    23188804.593    94954289.262    23188803.771  
  23188803.038    90997849.844  
  23720217.506   124650584.526                    97130338.030    23720214.612  
                                
  21434410.230   112638592.358    21434407.907    87770327.873    21434407.729  
  21434411.731    84113245.325  
  22088214.390   116074368.664    22088211.727    90447555.050    22088211.406  
                                
  21536186.538   113173442.519                    88187105.155    21536182.732  
                                
  20634532.615   108435206.756    20634532.115    84494960.864    20634531.614  
  20634532.115    80974342.171  
  21601548.869   115391606.400    21601549.405    89749036.963    21601549.530  
                                
  19267216.474   102885860.811    19267216.421    80022335.071    19267216.438  
                                
  21465627.431   114423881.170    21465628.289    88996354.788    21465628.253  
                                
  20745594.990   110936003.282    20745594.436    86283567.038    20745594.454  
                                
  24701963.535   129809692.042                                                  
  24701964.876    96935815.163  
  23641158.873   124235144.516                                                  
  23641161.464    92773019.857  
  25080511.550   131798989.236                                                  
  25080512.908    98421333.274  
  23483077.077   123404428.390                                                  
  23483078.560    92152681.717  
  25884595.283   136024501.691                                                  
  25884597.123   101576764.503  
 21  9  1  8 42 42.0000000  0 17G 1G 7G 8G13G14G17G21G30R12R13R14R24
                                E13E15E21E27E30
  20702139.492   108790491.046    20702139.617    84771819.482    20702139.617  
  20702138.509    81239655.245  
  21076432.195   110757399.317    21076429.372    86304453.365    21076429.104  
                                
  23189390.697   121861075.567    23189390.875    94956689.931    23189390.071  
  23189389.321    91000150.486  
  23720251.493   124650763.043                    97130477.121    23720248.598  
                                
  21434031.371   112636601.522    21434029.066    87768776.572    21434028.869  
  21434032.890    84111758.671  
  22087797.184   116072176.331    22087794.521    90445846.739    22087794.218  
                                
  21536381.043   113174464.614                    88187901.593    21536377.237  
                                
  20634562.707   108435364.908    20634562.206    84495084.104    20634561.706  
  20634562.206    80974460.276  
  21602122.447   115394670.347    21602122.983    89751420.035    21602123.090  
                                
  19267210.399   102885828.357    19267210.345    80022309.824    19267210.345  
                                
  21464999.013   114420531.317    21464999.889    88993749.349    21464999.835  
                                
  20744986.550   110932749.694    20744986.014    86281036.467    20744986.032  
                                
  24701486.236   129807183.914                                                  
  24701487.594    96933942.223  
  23641194.397   124235331.032                                                  
  23641196.970    92773159.137  
  25080159.012   131797136.636                                                  
  25080160.370    98419949.844  
  23483133.043   123404722.571                                                  
  23483134.526    92152901.393  
  25885006.270   136026661.442                                                  
  25885008.111   101578377.298  
 21  9  1  8 42 43.0000000  0 17G 1G 7G 8G13G14G17G21G30R12R13R14R24
                                E13E15E21E27E30
  20701842.973   108788932.872    20701843.098    84770605.320    20701843.098  
  20701841.990    81238491.673  
  21076872.756   110759714.535    21076869.915    86306257.436    21076869.647  
                                
  23189976.997   121864156.550    23189977.176    94959090.693    23189976.372  
  23189975.621    91002451.201  
  23720285.552   124650942.147                    97130616.682    23720282.657  
                                
  21433652.584   112634610.924    21433650.261    87767225.457    21433650.082  
  21433654.085    84110272.184  
  22087380.067   116069984.360    22087377.423    90444138.709    22087377.101  
                                
  21536575.654   113175487.328                    88188698.512    21536571.866  
                                
  20634592.941   108435523.735    20634592.423    84495207.863    20634591.940  
  20634592.441    80974578.871  
  21602696.096   115397734.759    21602696.650    89753803.464    21602696.757  
                                
  19267204.448   102885796.558    19267204.395    80022285.094    19267204.413  
                                
  21464370.631   114417181.693    21464371.489    88991144.086    21464371.453  
                                
  20744378.217   110929496.658    20744377.681    86278506.328    20744377.681  
                                
  24701009.008   129804676.110                                                  
  24701010.366    96932069.507  
  23641229.974   124235518.051                                                  
  23641232.547    92773298.791  
  25079806.492   131795284.154                                                  
  25079807.850    98418566.495  
  23483189.080   123405017.002                                                  
  23483190.563    92153121.262  
  25885417.294   136028821.348                                                  
  25885419.152   101579990.211  
 21  9  1  8 42 44.0000000  0 17G 1G 7G 8G13G14G17G21G30R12R13R14R24
                                E13E15E21E27E30
  20701546.633   108787375.489    20701546.758    84769391.778    20701546.758  
  20701545.650    81237328.697  
  21077313.442   110762030.360    21077310.600    86308061.987    21077310.350  
                                
  23190563.298   121867237.671    23190563.476    94961491.571    23190562.672  
  23190561.922    91004752.062  
  23720319.806   124651122.029                    97130756.843    23720316.894  
                                
  21433273.850   112632620.649    21433271.545    87765674.598    21433271.348  
  21433275.351    84108785.935  
  22086963.040   116067792.814    22086960.395    90442431.009    22086960.074  
                                
  21536770.391   113176510.728                    88189495.972    21536766.603  
                                
  20634623.300   108435683.316    20634622.782    84495332.212    20634622.300  
  20634622.782    80974698.046  
  21603269.853   115400799.669    21603270.407    89756187.283    21603270.514  
                                
  19267198.641   102885765.511    19267198.569    80022260.949    19267198.587  
                                
  21463742.321   114413832.390    21463743.178    88988539.070    21463743.125  
                                
  20743770.027   110926244.288    20743769.491    86275976.707    20743769.491  
                                
  24700531.887   129802168.704                                                  
  24700533.227    96930197.105  
  23641265.658   124235705.647                                                  
  23641268.250    92773438.886  
  25079454.025   131793431.881                                                  
  25079455.384    98417183.301  
  23483245.189   123405311.791                                                  
  23483246.672    92153341.393  
  25885828.335   136030981.493                                                  
  25885830.193   101581603.310  
 21  9  1  8 42 45.0000000  0 17G 1G 7G 8G13G14G17G21G30R12R13R14R24
                                E13E15E21E27E30
  20701250.490   108785819.255    20701250.615    84768179.130    20701250.615  
  20701249.507    81236166.571  
  21077754.306   110764347.181    21077751.465    86309867.308    21077751.197  
                                
  23191149.723   121870319.358    23191149.902    94963892.883    23191149.080  
  23191148.347    91007053.320  
  23720354.222   124651302.914                    97130897.804    23720351.310  
                                
  21432895.241   112630631.020    21432892.918    87764124.233    21432892.739  
  21432896.742    84107300.179  
  22086546.174   116065602.067    22086543.511    90440723.935    22086543.190  
                                
  21536965.342   113177535.176                    88190294.246    21536961.554  
                                
  20634653.892   108435844.016    20634653.392    84495457.432    20634652.909  
  20634653.392    80974818.040  
  21603843.770   115403865.447    21603844.324    89758571.775    21603844.431  
                                
  19267193.030   102885735.591    19267192.976    80022237.678    19267192.976  
                                
  21463114.135   114410483.775    21463114.993    88985934.592    21463114.957  
                                
  20743161.997   110922992.942    20743161.461    86273447.882    20743161.461  
                                
  24700054.891   129799662.080                                                  
  24700056.250    96928325.267  
  23641301.557   124235894.188                                                  
  23641304.131    92773579.678  
  25079101.648   131791580.150                                                  
  25079103.006    98415800.515  
  23483301.405   123405607.269                                                  
  23483302.888    92153562.040  
  25886239.519   136033142.230                                                  
  25886241.359   101583216.852  
 21  9  1  8 42 46.0000000  0 17G 1G 7G 8G13G14G17G21G30R12R13R14R24
                                E13E15E21E27E30
  20700954.472   108784263.794    20700954.597    84766967.083    20700954.615  
  20700953.489    81235005.031  
  21078195.314   110766664.632    21078192.472    86311673.112    21078192.204  
                                
  23191736.184   121873401.222    23191736.345    94966294.335    23191735.541  
  23191734.791    91009354.713  
  23720388.781   124651484.568                    97131039.343    23720385.868  
                                
  21432516.668   112628641.713    21432514.363    87762574.122    21432514.166  
  21432518.187    84105814.652  
  22086129.343   116063411.730    22086126.698    90439017.177    22086126.377  
                                
  21537160.418   113178560.317                    88191093.057    21537156.612  
                                
  20634684.609   108436005.445    20634684.091    84495583.219    20634683.608  
  20634684.109    80974938.594  
  21604417.812   115406931.729    21604418.348    89760956.656    21604418.456  
                                
  19267187.562   102885706.417    19267187.509    80022214.986    19267187.509  
                                
  21462486.003   114407135.455    21462486.861    88983330.343    21462486.807  
                                
  20742554.093   110919742.244    20742553.557    86270919.562    20742553.557  
                                
  24699577.949   129797155.832                                                  
  24699579.307    96926453.728  
  23641337.528   124236083.299                                                  
  23641340.119    92773720.899  
  25078749.325   131789728.613                                                  
  25078750.683    98414417.876  
  23483357.692   123405903.071                                                  
  23483359.157    92153782.935  
  25886650.739   136035303.213                                                  
  25886652.579   101584830.575  
 21  9  1  8 42 47.0000000  0 17G 1G 7G 8G13G14G17G21G30R12R13R14R24
                                E13E15E21E27E30
  20700658.579   108782708.880    20700658.704    84765755.461    20700658.721  
  20700657.614    81233843.889  
  21078636.357   110768982.412    21078633.516    86313479.179    21078633.248  
                                
  23192322.628   121876483.015    23192322.789    94968695.735    23192321.985  
  23192321.234    91011656.057  
  23720423.429   124651666.701                    97131181.274    23720420.534  
                                
  21432138.130   112626652.445    21432135.807    87761024.045    21432135.629  
  21432139.631    84104329.165  
  22085712.584   116061221.572    22085709.921    90437310.560    22085709.600  
                                
  21537355.583   113179585.886                    88191892.197    21537351.795  
                                
  20634715.415   108436167.374    20634714.915    84495709.395    20634714.432  
  20634714.915    80975059.513  
  21604991.872   115409998.303    21604992.409    89763341.767    21604992.534  
                                
  19267182.201   102885677.728    19267182.148    80022192.671    19267182.148  
                                
  21461857.871   114403787.173    21461858.729    88980726.124    21461858.676  
                                
  20741946.278   110916491.955    20741945.742    86268391.559    20741945.760  
                                
  24699101.079   129794649.740                                                  
  24699102.437    96924582.297  
  23641373.587   124236272.735                                                  
  23641376.161    92773862.361  
  25078396.966   131787877.008                                                  
  25078398.324    98413035.186  
  23483413.998   123406198.966                                                  
  23483415.481    92154003.898  
  25887061.976   136037464.197                                                  
  25887063.817   101586444.286  
 21  9  1  8 42 48.0000000  0 17G 1G 7G 8G13G14G17G21G30R12R13R14R24
                                E13E15E21E27E30
  20700362.864   108781154.749    20700362.989    84764544.450    20700362.989  
  20700361.881    81232683.339  
  21079077.525   110771300.823    21079074.702    86315285.740    21079074.434  
                                
  23192909.125   121879564.987    23192909.286    94971097.269    23192908.482  
  23192907.731    91013957.527  
  23720458.238   124651849.490                    97131323.698    23720455.325  
                                
  21431759.647   112624663.502    21431757.341    87759474.219    21431757.145  
  21431761.165    84102843.909  
  22085295.896   116059031.869    22085293.251    90435604.293    22085292.930  
                                
  21537550.874   113180612.154                    88192691.884    21537547.068  
                                
  20634746.364   108436330.054    20634745.864    84495836.159    20634745.382  
  20634745.882    80975180.993  
  21605566.040   115413065.421    21605566.594    89765727.301    21605566.701  
                                
  19267176.966   102885649.779    19267176.894    80022170.933    19267176.912  
                                
  21461229.793   114400439.190    21461230.651    88978122.134    21461230.597  
                                
  20741338.589   110913242.323    20741338.035    86265864.068    20741338.053  
                                
  24698624.244   129792144.053                                                  
  24698625.584    96922711.163  
  23641409.736   124236462.758                                                  
  23641412.310    92774004.259  
  25078044.660   131786025.603                                                  
  25078046.018    98411652.644  
  23483470.374   123406495.198                                                  
  23483471.857    92154225.108  
  25887473.232   136039625.424                                                  
  25887475.073   101588058.189  
 21  9  1  8 42 49.0000000  0 17G 1G 7G 8G13G14G17G21G30R12R13R14R24
                                E13E15E21E27E30
  20700067.293   108779601.569    20700067.418    84763334.178    20700067.418  
  20700066.310    81231523.494  
  21079518.872   110773620.052    21079516.031    86317092.922    21079515.763  
                                
  23193495.658   121882647.305    23193495.837    94973499.069    23193495.032  
  23193494.282    91016259.252  
  23720493.172   124652033.208                    97131466.859    23720490.277  
                                
  21431381.252   112622675.020    21431378.929    87757924.750    21431378.750  
  21431382.753    84101358.995  
  22084879.315   116056842.738    22084876.653    90433898.480    22084876.331  
                                
  21537746.325   113181639.267                    88193492.227    21537742.537  
                                
  20634777.510   108436493.647    20634776.992    84495963.636    20634776.509  
  20634777.010    80975303.152  
  21606140.368   115416133.209    21606140.904    89768113.354    21606141.011  
                                
  19267171.891   102885622.752    19267171.837    80022149.913    19267171.855  
                                
  21460601.804   114397091.679    21460602.662    88975518.519    21460602.608  
                                
  20740731.042   110909993.497    20740730.506    86263337.208    20740730.506  
                                
  24698147.552   129789638.934                                                  
  24698148.910    96920840.444  
  23641446.046   124236653.503                                                  
  23641448.619    92774146.712  
  25077692.408   131784174.547                                                  
  25077693.766    98410270.362  
  23483526.840   123406791.930                                                  
  23483528.306    92154446.691  
  25887884.595   136041787.041                                                  
  25887886.417   101589672.382  
 21  9  1  8 42 50.0000000  0 17G 1G 7G 8G13G14G17G21G30R12R13R14R24
                                E13E15E21E27E30
  20699771.793   108778048.803    20699771.918    84762124.230    20699771.935  
  20699770.810    81230363.966  
  21079960.237   110775939.529    21079957.396    86318900.306    21079957.146  
                                
  23194082.155   121885729.426    23194082.334    94975900.726    23194081.512  
  23194080.779    91018560.847  
  23720528.195   124652217.277                    97131610.299    23720525.300  
                                
  21431002.858   112620686.491    21431000.553    87756375.247    21431000.356  
  21431004.359    84099874.050  
  22084462.753   116054653.663    22084460.090    90432192.707    22084459.769  
                                
  21537941.830   113182666.696                    88194292.826    21537938.042  
                                
  20634808.692   108436657.621    20634808.191    84496091.405    20634807.709  
  20634808.209    80975425.606  
  21606714.679   115419201.090    21606715.215    89770499.479    21606715.340  
                                
  19267166.923   102885596.091    19267166.852    80022129.175    19267166.870  
                                
  21459973.815   114393744.091    21459974.673    88972914.837    21459974.637  
                                
  20740123.531   110906744.955    20740122.995    86260810.564    20740123.013  
                                
  24697670.824   129787133.846                                                  
  24697672.182    96918969.768  
  23641482.392   124236844.489                                                  
  23641484.965    92774289.320  
  25077340.138   131782323.332                                                  
  25077341.496    98408887.963  
  23483583.307   123407088.635                                                  
  23483584.790    92154668.256  
  25888295.922   136043948.550                                                  
  25888297.762   101591286.491  
 21  9  1  8 42 51.0000000  0 17G 1G 7G 8G13G14G17G21G30R12R13R14R24
                                E13E15E21E27E30
  20699476.400   108776496.368    20699476.525    84760914.541    20699476.525  
  20699475.417    81229204.675  
  21080401.655   110778259.107    21080398.814    86320707.766    21080398.546  
                                
  23194668.616   121888811.263    23194668.777    94978302.156    23194667.973  
  23194667.222    91020862.214  
  23720563.272   124652401.583                    97131753.914    23720560.359  
                                
  21430624.427   112618697.783    21430622.105    87754825.602    21430621.926  
  21430625.928    84098388.981  
  22084046.190   116052464.573    22084043.528    90430486.923    22084043.206  
                                
  21538137.407   113183694.358                    88195093.599    21538133.601  
                                
  20634839.980   108436821.879    20634839.480    84496219.399    20634838.980  
  20634839.480    80975548.263  
  21607289.007   115422268.977    21607289.543    89772885.613    21607289.668  
                                
  19267161.974   102885569.701    19267161.902    80022108.652    19267161.920  
                                
  21459345.791   114390396.315    21459346.648    88970311.010    21459346.595  
                                
  20739516.073   110903496.602    20739515.537    86258284.069    20739515.537  
                                
  24697194.115   129784628.692                                                  
  24697195.473    96917099.030  
  23641518.737   124237035.574                                                  
  23641521.311    92774432.016  
  25076987.814   131780471.839                                                  
  25076989.172    98407505.355  
  23483639.737   123407385.211                                                  
  23483641.220    92154889.725  
  25888707.177   136046109.816                                                  
  25888709.018   101592900.434  
 21  9  1  8 42 52.0000000  0 17G 1G 7G 8G13G14G17G21G30R12R13R14R24
                                E13E15E21E27E30
  20699181.096   108774944.573    20699181.221    84759705.352    20699181.221  
  20699180.113    81228045.870  
  21080843.145   110780579.179    21080840.304    86322515.618    21080840.054  
                                
  23195255.078   121891893.133    23195255.238    94980703.617    23195254.434  
  23195253.684    91023163.617  
  23720598.456   124652586.498                    97131898.001    23720595.543  
                                
  21430245.997   112616709.248    21430243.692    87753276.090    21430243.496  
  21430247.516    84096904.036  
  22083629.663   116050275.759    22083627.001    90428781.356    22083626.679  
                                
  21538333.055   113184722.568                    88195894.801    21538329.267  
                                
  20634871.340   108436986.751    20634870.840    84496347.871    20634870.358  
  20634870.840    80975671.381  
  21607863.389   115425337.255    21607863.943    89775272.044    21607864.050  
                                
  19267157.131   102885543.917    19267157.078    80022088.595    19267157.078  
                                
  21458717.784   114387048.674    21458718.641    88967707.288    21458718.588  
                                
  20738908.723   110900248.773    20738908.187    86255757.978    20738908.187  
                                
  24696717.458   129782123.789                                                  
  24696718.816    96915228.502  
  23641555.172   124237227.082                                                  
  23641557.763    92774575.029  
  25076635.491   131778620.408                                                  
  25076636.831    98406122.790  
  23483696.203   123407681.983                                                  
  23483697.686    92155111.341  
  25889118.487   136048271.181                                                  
  25889120.309   101594514.441  
 21  9  1  8 42 53.0000000  0 17G 1G 7G 8G13G14G17G21G30R12R13R14R24
                                E13E15E21E27E30
  20698885.936   108773393.521    20698886.061    84758496.737    20698886.061  
  20698884.953    81226887.612  
  21081284.760   110782899.861    21081281.937    86324323.935    21081281.669  
                                
  23195841.557   121894975.151    23195841.735    94983105.194    23195840.931  
  23195840.163    91025465.120  
  23720633.783   124652772.063                    97132042.593    23720630.870  
                                
  21429867.656   112614720.972    21429865.334    87751726.786    21429865.155  
  21429869.157    84095419.286  
  22083213.226   116048087.327    22083210.563    90427076.081    22083210.242  
                                
  21538528.846   113185751.415                    88196696.503    21538525.057  
                                
  20634902.843   108437152.319    20634902.343    84496476.884    20634901.861  
  20634902.343    80975795.019  
  21608437.878   115428406.051    21608438.432    89777658.884    21608438.539  
                                
  19267152.450   102885518.828    19267152.378    80022069.079    19267152.396  
                                
  21458089.813   114383701.300    21458090.670    88965103.775    21458090.635  
                                
  20738301.462   110897001.545    20738300.926    86253232.359    20738300.926  
                                
  24696240.838   129779619.237                                                  
  24696242.178    96913358.225  
  23641591.732   124237419.139                                                  
  23641594.323    92774718.444  
  25076283.203   131776769.108                                                  
  25076284.561    98404740.326  
  23483752.758   123407979.046                                                  
  23483754.224    92155333.170  
  25889529.831   136050432.766                                                  
  25889531.672   101596128.596  
 21  9  1  8 42 54.0000000  0 17G 1G 7G 8G13G14G17G21G30R12R13R14R24
                                E13E15E21E27E30
  20698590.882   108771842.996    20698591.007    84757288.541    20698591.007  
  20698589.900    81225729.759  
  21081726.429   110785220.872    21081723.606    86326132.513    21081723.338  
                                
  23196428.036   121898057.094    23196428.197    94985506.704    23196427.393  
  23196426.642    91027766.575  
  23720669.164   124652958.081                    97132187.542    23720666.251  
                                
  21429489.298   112612732.760    21429486.993    87750177.530    21429486.796  
  21429490.817    84093934.582  
  22082796.788   116045899.079    22082794.143    90425370.953    22082793.822  
                                
  21538724.708   113186780.708                    88197498.549    21538720.902  
                                
  20634934.454   108437318.394    20634933.953    84496606.293    20634933.471  
  20634933.953    80975919.034  
  21609012.403   115431475.114    21609012.957    89780045.939    21609013.082  
                                
  19267147.821   102885494.230    19267147.768    80022049.950    19267147.786  
                                
  21457461.877   114380354.013    21457462.735    88962500.327    21457462.699  
                                
  20737694.309   110893754.720    20737693.755    86250707.048    20737693.773  
                                
  24695764.289   129777114.864                                                  
  24695765.629    96911488.065  
  23641628.346   124237611.524                                                  
  23641630.919    92774862.108  
  25075930.897   131774917.756                                                  
  25075932.255    98403357.823  
  23483809.296   123408276.191                                                  
  23483810.761    92155555.066  
  25889941.158   136052594.330                                                  
  25889942.999   101597742.753  
 21  9  1  8 42 55.0000000  0 17G 1G 7G 8G13G14G17G21G30R12R13R14R24
                                E13E15E21E27E30
  20698295.918   108770292.935    20698296.044    84756080.699    20698296.044  
  20698294.936    81224572.240  
  21082168.169   110787542.188    21082165.328    86327941.333    21082165.078  
                                
  23197014.497   121901138.905    23197014.658    94987908.114    23197013.854  
  23197013.104    91030067.909  
  23720704.669   124653144.554                    97132332.843    23720701.757  
                                
  21429110.957   112610744.507    21429108.634    87748628.239    21429108.455  
  21429112.458    84092449.850  
  22082380.404   116043710.917    22082377.759    90423665.894    22082377.438  
                                
  21538920.642   113187810.344                    88198300.861    21538916.854  
                                
  20634966.118   108437484.871    20634965.617    84496736.014    20634965.135  
  20634965.635    80976043.354  
  21609586.981   115434544.319    21609587.535    89782433.094    21609587.642  
                                
  19267143.301   102885470.027    19267143.247    80022031.123    19267143.265  
                                
  21456833.942   114377006.707    21456834.782    88959896.868    21456834.746  
                                
  20737087.173   110890508.185    20737086.637    86248181.969    20737086.637  
                                
  24695287.704   129774610.530                                                  
  24695289.062    96909617.954  
  23641664.995   124237804.141                                                  
  23641667.569    92775005.946  
  25075578.574   131773066.257                                                  
  25075579.932    98401975.210  
  23483865.834   123408573.337                                                  
  23483867.299    92155776.958  
  25890352.468   136054755.775                                                  
  25890354.308   101599356.834  
 21  9  1  8 42 56.0000000  0 17G 1G 7G 8G13G14G17G21G30R12R13R14R24
                                E13E15E21E27E30
  20698001.151   108768743.884    20698001.276    84754873.644    20698001.276  
  20698000.168    81223415.483  
  21082610.070   110789864.314    21082607.229    86329750.772    21082606.961  
                                
  23197601.012   121904221.108    23197601.173    94990309.832    23197600.369  
  23197599.618    91032369.559  
  23720740.300   124653331.874                    97132478.812    23720737.370  
                                
  21428732.705   112608756.805    21428730.383    87747079.381    21428730.204  
  21428734.206    84090965.525  
  22081964.127   116041523.406    22081961.483    90421961.340    22081961.161  
                                
  21539116.754   113188840.902                    88199103.895    21539112.948  
                                
  20634998.014   108437652.340    20634997.513    84496866.509    20634997.031  
  20634997.513    80976168.410  
  21610161.685   115437614.255    21610162.239    89784820.820    21610162.364  
                                
  19267138.958   102885446.813    19267138.887    80022013.068    19267138.905  
                                
  21456206.078   114373659.917    21456206.936    88957293.806    21456206.900  
                                
  20736480.234   110887262.551    20736479.680    86245657.585    20736479.698  
                                
  24694811.298   129772106.849                                                  
  24694812.656    96907748.316  
  23641701.806   124237997.577                                                  
  23641704.379    92775150.390  
  25075226.322   131771215.195                                                  
  25075227.680    98400592.924  
  23483922.496   123408871.054                                                  
  23483923.979    92155999.286  
  25890763.866   136056917.706                                                  
  25890765.689   101600971.264  
 21  9  1  8 42 57.0000000  0 17G 1G 7G 8G13G14G17G21G30R12R13R14R24
                                E13E15E21E27E30
  20697706.419   108767195.085    20697706.527    84753666.790    20697706.544  
  20697705.437    81222258.923  
  21083051.989   110792186.586    21083049.148    86331560.331    21083048.880  
                                
  23198187.474   121907302.957    23198187.634    94992711.272    23198186.830  
  23198186.080    91034670.938  
  23720776.003   124653519.456                    97132624.970    23720773.090  
                                
  21428354.436   112606768.887    21428352.113    87745530.351    21428351.934  
  21428355.937    84089481.032  
  22081547.851   116039335.801    22081545.188    90420256.713    22081544.884  
                                
  21539312.903   113189871.618                    88199907.048    21539309.097  
                                
  20635029.910   108437820.023    20635029.410    84496997.171    20635028.927  
  20635029.428    80976293.625  
  21610736.370   115440684.159    21610736.924    89787208.523    21610737.031  
                                
  19267134.634   102885423.799    19267134.580    80021995.168    19267134.580  
                                
  21455578.179   114370312.856    21455579.036    88954690.541    21455579.001  
                                
  20735873.294   110884017.052    20735872.758    86243133.311    20735872.758  
                                
  24694334.803   129769603.011                                                  
  24694336.143    96905878.571  
  23641738.616   124238191.060                                                  
  23641741.189    92775294.874  
  25074874.016   131769363.793                                                  
  25074875.374    98399210.381  
  23483979.105   123409168.578                                                  
  23483980.589    92156221.461  
  25891175.211   136059079.362                                                  
  25891177.034   101602585.478  
 21  9  1  8 42 58.0000000  0 17G 1G 7G 8G13G14G17G21G30R12R13R14R24
                                E13E15E21E27E30
  20697411.813   108765646.976    20697411.938    84752460.473    20697411.938  
  20697410.830    81221102.861  
  21083493.997   110794509.317    21083491.156    86333370.246    21083490.906  
                                
  23198773.935   121910384.870    23198774.096    94995112.761    23198773.292  
  23198772.541    91036972.373  
  23720811.794   124653707.633                    97132771.611    23720808.882  
                                
  21427976.167   112604781.141    21427973.844    87743981.463    21427973.665  
  21427977.668    84087996.685  
  22081131.627   116037148.510    22081128.983    90418552.330    22081128.661  
                                
  21539509.140   113190902.915                    88200710.657    21539505.352  
                                
  20635061.931   108437988.340    20635061.431    84497128.323    20635060.949  
  20635061.449    80976419.321  
  21611311.145   115443754.462    21611311.699    89789596.538    21611311.806  
                                
  19267130.453   102885401.429    19267130.399    80021977.771    19267130.399  
                                
  21454950.297   114366965.964    21454951.155    88952087.401    21454951.119  
                                
  20735266.480   110880772.096    20735265.926    86240609.458    20735265.944  
                                
  24693858.415   129767099.486                                                  
  24693859.773    96904009.049  
  23641775.515   124238385.001                                                  
  23641778.106    92775439.702  
  25074521.711   131767512.467                                                  
  25074523.069    98397827.899  
  23484035.768   123409466.333                                                  
  23484037.233    92156443.808  
  25891586.592   136061241.132                                                  
  25891588.414   101604199.796  
 21  9  1  8 42 59.0000000  0 17G 1G 7G 8G13G14G17G21G30R12R13R14R24
                                E13E15E21E27E30
  20697117.367   108764099.638    20697117.492    84751254.751    20697117.510  
  20697116.384    81219947.375  
  21083936.112   110796832.696    21083933.271    86335180.683    21083933.021  
                                
  23199360.432   121913466.960    23199360.593    94997514.389    23199359.789  
  23199359.038    91039273.933  
  23720847.747   124653896.512                    97132918.787    23720844.816  
                                
  21427597.951   112602793.695    21427595.646    87742432.804    21427595.449  
  21427599.452    84086512.558  
  22080715.476   116034961.654    22080712.831    90416848.284    22080712.509  
                                
  21539705.521   113191934.882                    88201514.788    21539701.733  
                                
  20635094.113   108438157.406    20635093.613    84497260.064    20635093.131  
  20635093.613    80976545.567  
  21611886.027   115446825.308    21611886.563    89791984.974    21611886.689  
                                
  19267126.396   102885379.798    19267126.343    80021960.950    19267126.343  
                                
  21454322.487   114363619.359    21454323.344    88949484.488    21454323.309  
                                
  20734659.791   110877527.776    20734659.237    86238086.099    20734659.237  
                                
  24693382.080   129764596.340                                                  
  24693383.420    96902139.819  
  23641812.540   124238579.517                                                  
  23641815.113    92775584.958  
  25074169.458   131765661.329                                                  
  25074170.817    98396445.554  
  23484092.466   123409764.406                                                  
  23484093.950    92156666.395  
  25891998.008   136063403.142                                                  
  25891999.831   101605814.275  
 21  9  1  8 43  0.0000000  0 17G 1G 7G 8G13G14G17G21G30R12R13R14R24
                                E13E15E21E27E30
  20696823.046   108762553.011    20696823.171    84750049.591    20696823.171  
  20696822.064    81218792.437  
  21084378.335   110799156.620    21084375.512    86336991.535    21084375.244  
                                
  23199946.965   121916549.155    23199947.126    94999916.099    23199946.322  
  23199945.553    91041575.577  
  23720883.806   124654086.030                    97133066.457    23720880.876  
                                
  21427219.825   112600806.513    21427217.520    87740884.353    21427217.323  
  21427221.326    84085028.616  
  22080299.413   116032775.143    22080296.751    90415144.507    22080296.429  
                                
  21539902.026   113192967.476                    88202319.403    21539898.220  
                                
  20635126.403   108438327.149    20635125.902    84497392.332    20635125.420  
  20635125.920    80976672.319  
  21612460.981   115449896.607    21612461.535    89794373.763    21612461.642  
                                
  19267122.483   102885358.872    19267122.430    80021944.671    19267122.430  
                                
  21453694.730   114360273.009    21453695.588    88946881.771    21453695.534  
                                
  20734053.174   110874284.012    20734052.620    86235563.173    20734052.638  
                                
  24692905.817   129762093.525                                                  
  24692907.157    96900270.843  
  23641849.654   124238774.537                                                  
  23641852.245    92775730.590  
  25073817.224   131763810.317                                                  
  25073818.582    98395063.305  
  23484149.254   123410062.751                                                  
  23484150.737    92156889.187  
  25892409.478   136065565.332                                                  
  25892411.301   101607428.898  
 21  9  1  8 43  1.0000000  0 17G 1G 7G 8G13G14G17G21G30R12R13R14R24
                                E13E15E21E27E30
  20696528.904   108761007.202    20696529.029    84748845.067    20696529.029  
  20696527.922    81217638.095  
  21084820.683   110801481.144    21084817.859    86338802.841    21084817.609  
                                
  23200533.533   121919631.555    23200533.694    95002317.972    23200532.890  
  23200532.122    91043877.363  
  23720920.009   124654276.317                    97133214.732    23720917.079  
                                
  21426841.734   112598819.636    21426839.411    87739336.137    21426839.232  
  21426843.235    84083544.912  
  22079883.405   116030589.079    22079880.760    90413441.081    22079880.438  
                                
  21540098.639   113194000.783                    88203124.577    21540094.851  
                                
  20635158.871   108438497.661    20635158.370    84497525.198    20635157.888  
  20635158.388    80976799.649  
  21613036.024   115452968.422    21613036.578    89796762.952    21613036.685  
                                
  19267118.713   102885338.714    19267118.641    80021928.996    19267118.659  
                                
  21453067.027   114356927.001    21453067.885    88944279.319    21453067.849  
                                
  20733446.699   110871040.917    20733446.163    86233040.763    20733446.163  
                                
  24692429.625   129759591.136                                                  
  24692430.983    96898402.178  
  23641886.875   124238970.153                                                  
  23641889.466    92775876.671  
  25073465.026   131761959.510                                                  
  25073466.384    98393681.215  
  23484206.096   123410361.452                                                  
  23484207.579    92157112.243  
  25892820.984   136067727.768                                                  
  25892822.806   101609043.704  
 21  9  1  8 43  2.0000000  0 17G 1G 7G 8G13G14G17G21G30R12R13R14R24
                                E13E15E21E27E30
  20696234.852   108759462.018    20696234.977    84747641.026    20696234.977  
  20696233.869    81216484.226  
  21085263.102   110803806.142    21085260.279    86340614.523    21085260.028  
                                
  23201120.084   121922713.947    23201120.245    95004719.835    23201119.441  
  23201118.672    91046179.162  
  23720956.337   124654467.168                    97133363.445    23720953.424  
                                
  21426463.661   112596832.918    21426461.356    87737788.045    21426461.160  
  21426465.162    84082061.323  
  22079467.467   116028403.282    22079464.805    90411737.862    22079464.483  
                                
  21540295.377   113195034.598                    88203930.145    21540291.589  
                                
  20635191.410   108438668.751    20635190.910    84497658.513    20635190.427  
  20635190.928    80976927.420  
  21613611.139   115456040.566    21613611.675    89799152.402    21613611.800  
                                
  19267115.050   102885319.138    19267114.996    80021913.770    19267114.996  
                                
  21452439.360   114353581.119    21452440.217    88941676.963    21452440.182  
                                
  20732840.314   110867798.329    20732839.760    86230518.753    20732839.778  
                                
  24691953.470   129757088.979                                                  
  24691954.810    96896533.688  
  23641924.186   124239166.189                                                  
  23641926.759    92776023.064  
  25073112.827   131760108.745                                                  
  25073114.185    98392299.150  
  23484262.955   123410660.334                                                  
  23484264.438    92157335.434  
  25893232.490   136069890.292                                                  
  25893234.330   101610658.578  
 21  9  1  8 43  3.0000000  0 17G 1G 7G 8G13G14G17G21G30R12R13R14R24
                                E13E15E21E27E30
  20695940.978   108757917.606    20695941.085    84746437.590    20695941.103  
  20695939.995    81215330.931  
  21085705.646   110806131.749    21085702.823    86342426.691    21085702.573  
                                
  23201706.688   121925796.529    23201706.849    95007121.845    23201706.045  
  23201705.277    91048481.079  
  23720992.772   124654658.688                    97133512.672    23720989.859  
                                
  21426085.660   112594846.475    21426083.355    87736240.167    21426083.158  
  21426087.179    84080577.948  
  22079051.602   116026217.901    22079048.957    90410034.968    22079048.635  
                                
  21540492.240   113196069.103                    88204736.253    21540488.434  
                                
  20635224.111   108438840.586    20635223.610    84497792.410    20635223.128  
  20635223.628    80977055.734  
  21614186.325   115459113.202    21614186.861    89801542.232    21614186.968  
                                
  19267111.512   102885300.305    19267111.458    80021899.117    19267111.458  
                                
  21451811.728   114350235.507    21451812.568    88939074.823    21451812.532  
                                
  20732234.071   110864556.401    20732233.517    86227997.256    20732233.517  
                                
  24691477.403   129754587.215                                                  
  24691478.743    96894665.490  
  23641961.585   124239362.788                                                  
  23641964.159    92776169.875  
  25072760.683   131758258.150                                                  
  25072762.041    98390917.212  
  23484319.921   123410959.527                                                  
  23484321.387    92157558.860  
  25893644.049   136072053.036                                                  
  25893645.872   101612273.612  
 21  9  1  8 43  4.0000000  0 17G 1G 7G 8G13G14G17G21G30R12R13R14R24
                                E13E15E21E27E30
  20695647.140   108756373.558    20695647.265    84745234.436    20695647.265  
  20695646.157    81214177.904  
  21086148.244   110808457.537    21086145.421    86344238.986    21086145.153  
                                
  23202293.221   121928878.838    23202293.382    95009523.649    23202292.578  
  23202291.809    91050782.813  
  23721029.278   124654850.501                    97133662.153    23721026.365  
                                
  21425707.641   112592859.941    21425705.336    87734692.219    21425705.139  
  21425709.142    84079094.488  
  22078635.736   116024032.526    22078633.073    90408332.085    22078632.770  
                                
  21540689.139   113197103.866                    88205542.561    21540685.351  
                                
  20635256.882   108439012.744    20635256.382    84497926.560    20635255.900  
  20635256.382    80977184.287  
  21614761.528   115462185.912    21614762.082    89803932.115    21614762.190  
                                
  19267108.045   102885281.811    19267107.991    80021884.735    19267107.991  
                                
  21451184.079   114346889.798    21451184.936    88936472.598    21451184.901  
                                
  20731627.847   110861314.733    20731627.293    86225475.963    20731627.293  
                                
  24691001.319   129752085.439                                                  
  24691002.677    96892797.283  
  23641999.039   124239559.543                                                  
  23642001.612    92776316.800  
  25072408.484   131756407.332                                                  
  25072409.860    98389535.099  
  23484376.816   123411258.642                                                  
  23484378.299    92157782.222  
  25894055.573   136074215.581                                                  
  25894057.395   101613888.512  
 21  9  1  8 43  5.0000000  0 17G 1G 7G 8G13G14G17G21G30R12R13R14R24
                                E13E15E21E27E30
  20695353.444   108754830.173    20695353.569    84744031.798    20695353.587  
  20695352.462    81213025.376  
  21086590.913   110810783.829    21086588.090    86346051.687    21086587.822  
                                
  23202879.790   121931961.218    23202879.950    95011925.506    23202879.146  
  23202878.378    91053084.592  
  23721065.892   124655042.910                    97133812.075    23721062.979  
                                
  21425329.639   112590873.578    21425327.334    87733144.403    21425327.138  
  21425331.140    84077611.167  
  22078219.942   116021847.466    22078217.279    90406629.438    22078216.975  
                                
  21540886.163   113198139.195                    88206349.311    21540882.375  
                                
  20635289.761   108439185.536    20635289.279    84498061.201    20635288.796  
  20635289.279    80977313.318  
  21615336.840   115465259.031    21615337.376    89806322.324    21615337.483  
                                
  19267104.703   102885263.917    19267104.650    80021870.818    19267104.650  
                                
  21450556.483   114343544.270    21450557.323    88933870.523    21450557.287  
                                
  20731021.730   110858073.590    20731021.176    86222955.079    20731021.194  
                                
  24690525.324   129749583.951                                                  
  24690526.664    96890929.273  
  23642036.564   124239756.750                                                  
  23642039.137    92776464.065  
  25072056.304   131754556.587                                                  
  25072057.662    98388153.051  
  23484433.783   123411557.973                                                  
  23484435.248    92158005.745  
  25894467.114   136076378.273                                                  
  25894468.937   101615503.505  
 21  9  1  8 43  6.0000000  0 17G 1G 7G 8G13G14G17G21G30R12R13R14R24
                                E13E15E21E27E30
  20695059.910   108753287.637    20695060.035    84742829.822    20695060.035  
  20695058.927    81211873.480  
  21087033.743   110813110.812    21087030.938    86347864.911    21087030.670  
                                
  23203466.376   121935043.800    23203466.537    95014327.521    23203465.733  
  23203464.947    91055386.516  
  23721102.666   124655236.149                    97133962.649    23721099.736  
                                
  21424951.710   112588887.576    21424949.404    87731596.869    21424949.208  
  21424953.211    84076128.118  
  22077804.219   116019662.889    22077801.574    90404927.169    22077801.253  
                                
  21541083.312   113199175.263                    88207156.640    21541079.524  
                                
  20635322.801   108439359.118    20635322.301    84498196.461    20635321.818  
  20635322.319    80977442.943  
  21615912.240   115468332.737    21615912.776    89808712.987    21615912.883  
                                
  19267101.487   102885246.834    19267101.433    80021857.529    19267101.451  
                                
  21449928.941   114340199.107    21449929.798    88931268.725    21449929.763  
                                
  20730415.755   110854833.135    20730415.201    86220434.722    20730415.201  
                                
  24690049.400   129747082.912                                                  
  24690050.740    96889061.618  
  23642074.196   124239954.596                                                  
  23642076.787    92776611.809  
  25071704.159   131752706.088                                                  
  25071705.517    98386771.190  
  23484490.838   123411857.700                                                  
  23484492.304    92158229.569  
  25894878.745   136078541.266                                                  
  25894880.567   101617118.716  
 21  9  1  8 43  7.0000000  0 17G 1G 7G 8G13G14G17G21G30R12R13R14R24
                                E13E15E21E27E30
  20694766.501   108751745.710    20694766.626    84741628.320    20694766.626  
  20694765.518    81210722.048  
  21087476.645   110815438.225    21087473.822    86349678.475    21087473.554  
                                
  23204052.980   121938126.412    23204053.141    95016729.553    23204052.337  
  23204051.551    91057688.466  
  23721139.548   124655429.843                    97134113.577    23721136.617  
                                
  21424573.815   112586901.735    21424571.510    87730049.458    21424571.314  
  21424575.334    84074645.178  
  22077388.567   116017478.562    22077385.923    90403225.098    22077385.601  
                                
  21541280.568   113200211.843                    88207964.364    21541276.762  
                                
  20635355.930   108439533.295    20635355.448    84498332.181    20635354.948  
  20635355.448    80977573.012  
  21616487.694   115471406.805    21616488.248    89811103.933    21616488.337  
                                
  19267098.414   102885230.309    19267098.360    80021844.673    19267098.360  
                                
  21449301.416   114336854.047    21449302.256    88928667.013    21449302.220  
                                
  20729809.852   110851593.136    20729809.298    86217914.728    20729809.298  
                                
  24689573.494   129744582.087                                                  
  24689574.835    96887194.128  
  23642111.935   124240152.853                                                  
  23642114.509    92776759.861  
  25071352.014   131750855.613                                                  
  25071353.372    98385389.344  
  23484547.894   123412157.595                                                  
  23484549.377    92158453.517  
  25895290.340   136080704.298                                                  
  25895292.145   101618733.985  
 21  9  1  8 43  8.0000000  0 17G 1G 7G 8G13G14G17G21G30R12R13R14R24
                                E13E15E21E27E30
  20694473.180   108750204.406    20694473.306    84740427.304    20694473.306  
  20694472.198    81209571.076  
  21087919.618   110817766.094    21087916.795    86351492.403    21087916.527  
                                
  23204639.585   121941209.047    23204639.745    95019131.609    23204638.941  
  23204638.155    91059990.434  
  23721176.519   124655624.177                    97134264.999    23721173.588  
                                
  21424195.939   112584916.008    21424193.634    87728502.143    21424193.438  
  21424197.458    84073162.337  
  22076972.952   116015294.496    22076970.289    90401523.231    22076969.986  
                                
  21541477.931   113201248.950                    88208772.499    21541474.143  
                                
  20635389.185   108439708.050    20635388.684    84498468.356    20635388.202  
  20635388.702    80977703.513  
  21617063.237   115474481.224    21617063.773    89813495.150    21617063.881  
                                
  19267095.412   102885214.344    19267095.358    80021832.256    19267095.358  
                                
  21448673.910   114333509.102    21448674.767    88926065.390    21448674.732  
                                
  20729204.057   110848353.635    20729203.503    86215395.114    20729203.503  
                                
  24689097.642   129742081.517                                                  
  24689098.983    96885326.815  
  23642149.728   124240351.518                                                  
  23642152.302    92776908.212  
  25070999.887   131749005.174                                                  
  25071001.263    98384007.520  
  23484604.986   123412457.660                                                  
  23484606.469    92158677.591  
  25895701.989   136082867.438                                                  
  25895703.793   101620349.306  
 21  9  1  8 43  9.0000000  0 17G 1G 7G 8G13G14G17G21G30R12R13R14R24
                                E13E15E21E27E30
  20694180.057   108748663.982    20694180.182    84739226.974    20694180.200  
  20694179.092    81208420.751  
  21088362.734   110820094.673    21088359.911    86353306.876    21088359.643  
                                
  23205226.225   121944291.926    23205226.386    95021533.850    23205225.581  
  23205224.813    91062292.592  
  23721213.651   124655819.315                    97134417.059    23721210.720  
                                
  21423818.152   112582930.678    21423815.829    87726955.133    21423815.651  
  21423819.653    84071679.787  
  22076557.426   116013110.953    22076554.781    90399821.768    22076554.459  
                                
  21541675.438   113202286.838                    88209581.243    21541671.632  
                                
  20635422.618   108439883.633    20635422.117    84498605.174    20635421.635  
  20635422.135    80977834.626  
  21617638.870   115477556.232    21617639.406    89815886.822    21617639.513  
                                
  19267092.588   102885199.205    19267092.535    80021820.481    19267092.535  
                                
  21448046.475   114330164.547    21448047.315    88923464.069    21448047.279  
                                
  20728598.386   110845114.894    20728597.850    86212876.095    20728597.850  
                                
  24688621.897   129739581.441                                                  
  24688623.256    96883459.862  
  23642187.664   124240550.844                                                  
  23642190.237    92777057.057  
  25070647.814   131747155.001                                                  
  25070649.189    98382625.900  
  23484662.185   123412758.142                                                  
  23484663.650    92158901.977  
  25896113.673   136085030.890                                                  
  25896115.478   101621964.871  
 21  9  1  8 43 10.0000000  0 17G 1G 7G 8G13G14G17G21G30R12R13R14R24
                                E13E15E21E27E30
  20693887.094   108747124.368    20693887.219    84738027.270    20693887.219  
  20693886.112    81207271.043  
  21088805.975   110822423.880    21088803.152    86355121.835    21088802.884  
                                
  23205812.936   121947375.013    23205813.097    95023936.260    23205812.293  
  23205811.507    91064594.893  
  23721250.908   124656015.131                    97134569.638    23721247.977  
                                
  21423440.419   112580945.699    21423438.096    87725408.394    21423437.917  
  21423441.920    84070197.498  
  22076142.007   116010927.861    22076139.362    90398120.658    22076139.040  
                                
  21541873.069   113203325.436                    88210390.538    21541869.263  
                                
  20635456.176   108440060.005    20635455.675    84498742.605    20635455.193  
  20635455.693    80977966.332  
  21618214.610   115480631.740    21618215.146    89818278.887    21618215.235  
                                
  19267089.908   102885184.847    19267089.854    80021809.312    19267089.854  
                                
  21447419.129   114326820.361    21447419.969    88920863.034    21447419.933  
                                
  20727992.859   110841876.848    20727992.305    86210357.615    20727992.305  
                                
  24688146.224   129737081.769                                                  
  24688147.582    96881593.239  
  23642225.707   124240750.777                                                  
  23642228.281    92777206.355  
  25070295.794   131745305.063                                                  
  25070297.152    98381244.448  
  23484719.419   123413058.999                                                  
  23484720.902    92159126.641  
  25896525.429   136087194.635                                                  
  25896527.252   101623580.643  
 21  9  1  8 43 11.0000000  0 17G 1G 7G 8G13G14G17G21G30R12R13R14R24
                                E13E15E21E27E30
  20693594.203   108745585.323    20693594.328    84736828.016    20693594.328  
  20693593.220    81206121.754  
  21089249.288   110824753.500    21089246.464    86356937.124    21089246.196  
                                
  23206399.612   121950458.038    23206399.773    95026338.615    23206398.969  
  23206398.182    91066897.150  
  23721288.290   124656211.528                    97134722.670    23721285.359  
                                
  21423062.704   112578960.797    21423060.381    87723861.715    21423060.202  
  21423064.205    84068715.268  
  22075726.623   116008744.980    22075723.961    90396419.712    22075723.639  
                                
  21542070.808   113204364.510                    88211200.206    21542067.019  
                                
  20635489.823   108440236.899    20635489.323    84498880.444    20635488.840  
  20635489.340    80978098.433  
  21618790.403   115483707.552    21618790.940    89820671.188    21618791.047  
                                
  19267087.299   102885170.976    19267087.245    80021798.525    19267087.245  
                                
  21446791.766   114323476.265    21446792.605    88918262.070    21446792.587  
                                
  20727387.403   110838639.235    20727386.849    86207839.476    20727386.849  
                                
  24687670.604   129734582.294                                                  
  24687671.944    96879726.748  
  23642263.822   124240951.079                                                  
  23642266.395    92777355.927  
  25069943.756   131743455.087                                                  
  25069945.132    98379862.979  
  23484776.689   123413359.971                                                  
  23484778.172    92159351.395  
  25896937.149   136089358.353                                                  
  25896938.954   101625196.431  
 21  9  1  8 43 12.0000000  0 17G 1G 7G 8G13G14G17G21G30R12R13R14R24
                                E13E15E21E27E30
  20693301.455   108744046.838    20693301.580    84735629.200    20693301.580  
  20693300.472    81204972.886  
  21089692.672   110827083.514    21089689.849    86358752.716    21089689.581  
                                
  23206986.270   121953540.990    23206986.431    95028740.918    23206985.627  
  23206984.840    91069199.357  
  23721325.743   124656408.353                    97134876.040    23721322.813  
                                
  21422685.006   112576975.966    21422682.683    87722315.095    21422682.487  
  21422686.507    84067233.096  
  22075311.258   116006562.285    22075308.613    90394718.915    22075308.292  
                                
  21542268.618   113205404.026                    88212010.219    21542264.829  
                                
  20635523.578   108440414.304    20635523.095    84499018.684    20635522.595  
  20635523.095    80978230.913  
  21619366.251   115486783.663    21619366.787    89823063.714    21619366.876  
                                
  19267084.815   102885157.647    19267084.744    80021788.158    19267084.762  
                                
  21446164.456   114320132.231    21446165.295    88915661.154    21446165.260  
                                
  20726782.036   110835402.028    20726781.482    86205321.651    20726781.482  
                                
  24687194.985   129732082.965                                                  
  24687196.343    96877860.375  
  23642301.990   124241151.701                                                  
  23642304.581    92777505.749  
  25069591.719   131741605.082                                                  
  25069593.077    98378481.477  
  23484833.995   123413661.039                                                  
  23484835.478    92159576.221  
  25897348.905   136091522.092                                                  
  25897350.710   101626812.212  
 21  9  1  8 43 13.0000000  0 17G 1G 7G 8G13G14G17G21G30R12R13R14R24
                                E13E15E21E27E30
  20693008.796   108742508.944    20693008.921    84734430.838    20693008.921  
  20693007.813    81203824.454  
  21090136.145   110829413.926    21090133.322    86360568.620    21090133.054  
                                
  23207572.928   121956623.931    23207573.089    95031143.209    23207572.284  
  23207571.498    91071501.555  
  23721363.304   124656605.715                    97135029.824    23721360.373  
                                
  21422307.326   112574991.263    21422305.021    87720768.574    21422304.825  
  21422308.827    84065751.004  
  22074895.964   116004379.833    22074893.319    90393018.305    22074892.998  
                                
  21542466.517   113206444.033                    88212820.611    21542462.729  
                                
  20635557.457   108440592.282    20635556.975    84499157.363    20635556.492  
  20635556.975    80978363.814  
  21619942.151   115489860.087    21619942.687    89825456.490    21619942.795  
                                
  19267082.403   102885144.860    19267082.349    80021778.216    19267082.349  
                                
  21445537.128   114316788.280    21445537.968    88913060.304    21445537.932  
                                
  20726176.758   110832165.290    20726176.187    86202804.188    20726176.187  
                                
  24686719.418   129729583.872                                                  
  24686720.759    96875994.166  
  23642340.248   124241352.720                                                  
  23642342.821    92777655.863  
  25069239.681   131739755.070                                                  
  25069241.039    98377099.975  
  23484891.319   123413962.254                                                  
  23484892.784    92159801.152  
  25897760.679   136093685.908                                                  
  25897762.466   101628428.040  
 21  9  1  8 43 14.0000000  0 17G 1G 7G 8G13G14G17G21G30R12R13R14R24
                                E13E15E21E27E30
  20692716.280   108740971.783    20692716.405    84733233.050    20692716.423  
  20692715.315    81202676.576  
  21090579.708   110831744.911    21090576.903    86362384.977    21090576.635  
                                
  23208159.621   121959707.003    23208159.782    95033545.601    23208158.978  
  23208158.192    91073803.853  
  23721400.990   124656803.731                    97135184.118    23721398.059  
                                
  21421929.700   112573006.819    21421927.395    87719222.251    21421927.199  
  21421931.201    84064269.107  
  22074480.723   116002197.765    22074478.079    90391317.990    22074477.757  
                                
  21542664.560   113207484.691                    88213631.512    21542660.753  
                                
  20635591.462   108440770.972    20635590.979    84499296.600    20635590.497  
  20635590.979    80978497.241  
  21620518.159   115492936.944    21620518.695    89827849.601    21620518.785  
                                
  19267080.151   102885132.781    19267080.080    80021768.818    19267080.098  
                                
  21444909.872   114313444.571    21444910.711    88910459.641    21444910.676  
                                
  20725571.570   110828929.164    20725571.016    86200287.203    20725571.016  
                                
  24686243.924   129727085.110                                                  
  24686245.264    96874128.221  
  23642378.613   124241554.275                                                  
  23642381.186    92777806.377  
  25068887.661   131737905.209                                                  
  25068889.019    98375718.585  
  23484948.679   123414263.763                                                  
  23484950.144    92160026.307  
  25898172.470   136095849.902                                                  
  25898174.275   101630044.001  
 21  9  1  8 43 15.0000000  0 17G 1G 7G 8G13G14G17G21G30R12R13R14R24
                                E13E15E21E27E30
  20692423.907   108739435.309    20692424.032    84732035.798    20692424.032  
  20692422.925    81201529.213  
  21091023.378   110834076.416    21091020.555    86364201.740    21091020.287  
                                
  23208746.333   121962790.184    23208746.494    95035948.079    23208745.690  
  23208744.903    91076106.229  
  23721438.800   124657002.388                    97135338.902    23721435.870  
                                
  21421552.110   112571022.569    21421549.805    87717676.082    21421549.608  
  21421553.611    84062787.364  
  22074065.537   116000015.991    22074062.892    90389617.909    22074062.570  
                                
  21542862.691   113208525.921                    88214442.858    21542858.885  
                                
  20635625.574   108440950.273    20635625.091    84499436.315    20635624.609  
  20635625.091    80978631.138  
  21621094.221   115496014.185    21621094.757    89830243.008    21621094.846  
                                
  19267077.989   102885121.331    19267077.936    80021759.915    19267077.936  
                                
  21444282.633   114310101.058    21444283.473    88907859.133    21444283.437  
                                
  20724966.507   110825693.599    20724965.953    86197770.653    20724965.953  
                                
  24685768.483   129724586.673                                                  
  24685769.841    96872262.499  
  23642417.049   124241756.295                                                  
  23642419.622    92777957.234  
  25068535.659   131736055.429                                                  
  25068537.017    98374337.256  
  23485006.110   123414565.504                                                  
  23485007.593    92160251.628  
  25898584.280   136098014.019                                                  
  25898586.067   101631660.067  
 21  9  1  8 43 16.0000000  0 17G 1G 7G 8G13G14G17G21G30R12R13R14R24
                                E13E15E21E27E30
  20692131.677   108737899.712    20692131.802    84730839.226    20692131.802  
  20692130.695    81200382.504  
  21091467.173   110836408.618    21091464.350    86366019.034    21091464.082  
                                
  23209333.098   121965873.641    23209333.259    95038350.773    23209332.455  
  23209331.651    91078408.806  
  23721476.754   124657201.872                    97135494.360    23721473.824  
                                
  21421174.609   112569038.708    21421172.286    87716130.215    21421172.090  
  21421176.110    84061305.912  
  22073650.457   115997834.757    22073647.813    90387918.248    22073647.491  
                                
  21543061.002   113209567.926                    88215254.810    21543057.196  
                                
  20635659.847   108441130.424    20635659.364    84499576.691    20635658.882  
  20635659.364    80978765.669  
  21621670.407   115499092.050    21621670.944    89832636.903    21621671.033  
                                
  19267076.006   102885110.712    19267075.952    80021751.654    19267075.970  
                                
  21443655.466   114306757.958    21443656.306    88905258.945    21443656.270  
                                
  20724361.587   110822458.790    20724361.016    86195254.690    20724361.016  
                                
  24685293.131   129722088.712                                                  
  24685294.471    96870397.136  
  23642455.610   124241958.980                                                  
  23642458.201    92778108.592  
  25068183.693   131734205.943                                                  
  25068185.069    98372956.140  
  23485063.612   123414867.667                                                  
  23485065.077    92160477.272  
  25898996.161   136100178.477                                                  
  25898997.966   101633276.383  
 21  9  1  8 43 17.0000000  0 17G 1G 7G 8G13G14G17G21G30R12R13R14R24
                                E13E15E21E27E30
  20691839.644   108736364.989    20691839.769    84729643.341    20691839.769  
  20691838.661    81199236.440  
  21091911.129   110838741.508    21091908.306    86367836.868    21091908.038  
                                
  23209919.917   121968957.347    23209920.078    95040753.663    23209919.273  
  23209918.469    91080711.569  
  23721514.851   124657402.101                    97135650.385    23721511.920  
                                
  21420797.144   112567055.247    21420794.839    87714584.661    21420794.642  
  21420798.663    84059824.751  
  22073235.503   115995654.019    22073232.840    90386218.974    22073232.519  
                                
  21543259.419   113210610.683                    88216067.347    21543255.613  
                                
  20635694.316   108441311.404    20635693.816    84499717.716    20635693.333  
  20635693.834    80978900.812  
  21622246.701   115502170.514    21622247.237    89835031.260    21622247.327  
                                
  19267074.183   102885100.923    19267074.130    80021744.042    19267074.130  
                                
  21443028.388   114303415.219    21443029.228    88902659.041    21443029.193  
                                
  20723756.792   110819224.685    20723756.238    86192739.278    20723756.238  
                                
  24684817.886   129719591.242                                                  
  24684819.226    96868532.133  
  23642494.315   124242162.317                                                  
  23642496.888    92778260.436  
  25067831.799   131732356.713                                                  
  25067833.174    98371575.230  
  23485121.186   123415170.250                                                  
  23485122.651    92160703.224  
  25899408.113   136102343.241                                                  
  25899409.900   101634892.936  
 21  9  1  8 43 18.0000000  0 17G 1G 7G 8G13G14G17G21G30R12R13R14R24
                                E13E15E21E27E30
  20691547.682   108734830.704    20691547.807    84728447.796    20691547.807  
  20691546.699    81198090.714  
  21092355.103   110841074.679    21092352.279    86369654.928    21092352.011  
                                
  23210506.700   121972040.883    23210506.860    95043156.418    23210506.056  
  23210505.252    91083014.207  
  23721553.037   124657602.779                    97135806.746    23721550.107  
                                
  21420419.714   112565071.760    21420417.391    87713039.083    21420417.195  
  21420421.215    84058343.576  
  22072820.530   115993473.386    22072817.868    90384519.780    22072817.564  
                                
  21543457.908   113211653.806                    88216880.168    21543454.120  
                                
  20635728.821   108441492.791    20635728.321    84499859.054    20635727.838  
  20635728.339    80979036.265  
  21622823.049   115505249.163    21622823.585    89837425.762    21622823.674  
                                
  19267072.414   102885091.533    19267072.361    80021736.736    19267072.361  
                                
  21442401.293   114300072.441    21442402.133    88900059.103    21442402.097  
                                
  20723152.051   110815990.897    20723151.479    86190224.107    20723151.479  
                                
  24684342.642   129717093.832                                                  
  24684344.000    96866667.189  
  23642533.055   124242365.906                                                  
  23642535.628    92778412.463  
  25067479.886   131730507.359                                                  
  25067481.244    98370194.215  
  23485178.760   123415472.829                                                  
  23485180.243    92160929.181  
  25899820.048   136104507.924                                                  
  25899821.835   101636509.420  
 21  9  1  8 43 19.0000000  0 17G 1G 7G 8G13G14G17G21G30R12R13R14R24
                                E13E15E21E27E30
  20691255.827   108733297.050    20691255.952    84727252.737    20691255.952  
  20691254.844    81196945.447  
  21092799.166   110843408.258    21092796.342    86371473.303    21092796.074  
                                
  23211093.447   121975124.375    23211093.590    95045559.137    23211092.804  
  23211092.000    91085316.830  
  23721591.330   124657803.962                    97135963.516    23721588.400  
                                
  21420042.285   112563088.392    21420039.980    87711493.605    21420039.783  
  21420043.804    84056862.492  
  22072405.612   115991292.994    22072402.949    90382820.773    22072402.628  
                                
  21543656.505   113212697.416                    88217693.373    21543652.699  
                                
  20635763.433   108441674.747    20635762.951    84500000.841    20635762.468  
  20635762.951    80979172.146  
  21623399.432   115508328.135    21623399.968    89839820.520    21623400.057  
                                
  19267070.770   102885082.704    19267070.717    80021729.867    19267070.717  
                                
  21441774.215   114296729.786    21441775.037    88897459.257    21441775.019  
                                
  20722547.399   110812757.599    20722546.845    86187709.320    20722546.845  
                                
  24683867.451   129714596.643                                                  
  24683868.791    96864802.416  
  23642571.866   124242569.891                                                  
  23642574.457    92778564.794  
  25067127.956   131728658.008                                                  
  25067129.331    98368813.212  
  23485236.370   123415775.573                                                  
  23485237.853    92161155.256  
  25900232.000   136106672.691                                                  
  25900233.787   101638125.951  
 21  9  1  8 43 20.0000000  0 17G 1G 7G 8G13G14G17G21G30R12R13R14R24
                                E13E15E21E27E30
  20690964.098   108731764.021    20690964.223    84726058.173    20690964.223  
  20690963.115    81195800.659  
  21093243.336   110845742.371    21093240.513    86373292.097    21093240.245  
                                
  23211680.230   121978207.929    23211680.391    95047961.906    23211679.587  
  23211678.782    91087619.475  
  23721629.695   124658005.673                    97136120.705    23721626.765  
                                
  21419664.891   112561105.192    21419662.568    87709948.252    21419662.389  
  21419666.392    84055381.531  
  22071990.747   115989112.901    22071988.084    90381121.999    22071987.780  
                                
  21543855.208   113213741.587                    88218507.012    21543851.402  
                                
  20635798.189   108441857.322    20635797.706    84500143.103    20635797.224  
  20635797.724    80979308.474  
  21623975.905   115511407.497    21623976.423    89842215.577    21623976.530  
                                
  19267069.233   102885074.471    19267069.180    80021723.461    19267069.198  
                                
  21441147.173   114293387.297    21441147.995    88894859.541    21441147.960  
                                
  20721942.872   110809524.845    20721942.300    86185194.955    20721942.300  
                                
  24683392.313   129712099.712                                                  
  24683393.672    96862937.816  
  23642610.767   124242774.302                                                  
  23642613.358    92778717.436  
  25066776.061   131726808.712                                                  
  25066777.437    98367432.238  
  23485294.015   123416078.508                                                  
  23485295.481    92161381.474  
  25900643.935   136108837.515                                                  
  25900645.722   101639742.554  
 21  9  1  8 43 21.0000000  0 17G 1G 7G 8G13G14G17G21G30R12R13R14R24
                                E13E15E21E27E30
  20690672.547   108730231.881    20690672.672    84724864.295    20690672.689  
  20690671.582    81194656.519  
  21093687.631   110848077.145    21093684.808    86375111.397    21093684.540  
                                
  23212267.066   121981291.741    23212267.227    95050364.881    23212266.441  
  23212265.637    91089922.320  
  23721668.239   124658208.258                    97136278.569    23721665.308  
                                
  21419287.587   112559122.391    21419285.264    87708403.212    21419285.067  
  21419289.088    84053900.866  
  22071575.989   115986933.316    22071573.326    90379423.621    22071573.005  
                                
  21544054.073   113214786.523                    88219321.249    21544050.267  
                                
  20635833.087   108442040.725    20635832.604    84500286.016    20635832.122  
  20635832.622    80979445.435  
  21624552.466   115514487.441    21624553.003    89844611.092    21624553.110  
                                
  19267067.840   102885067.073    19267067.786    80021717.707    19267067.786  
                                
  21440520.221   114290045.215    21440521.043    88892260.147    21440521.007  
                                
  20721338.470   110806292.863    20721337.916    86182681.194    20721337.916  
                                
  24682917.248   129709603.274                                                  
  24682918.588    96861073.597  
  23642649.793   124242979.384                                                  
  23642652.384    92778870.584  
  25066424.202   131724959.699                                                  
  25066425.578    98366051.475  
  23485351.750   123416381.872                                                  
  23485353.233    92161608.007  
  25901055.959   136111002.692                                                  
  25901057.746   101641359.394  
 21  9  1  8 43 22.0000000  0 17G 1G 7G 8G13G14G17G21G30R12R13R14R24
                                E13E15E21E27E30
  20690381.121   108728700.410    20690381.246    84723670.944    20690381.264  
  20690380.156    81193512.895  
  21094132.034   110850412.467    21094129.229    86376931.117    21094128.943  
                                
  23212853.903   121984375.614    23212854.064    95052767.897    23212853.260  
  23212852.456    91092225.214  
  23721706.907   124658411.434                    97136436.892    23721703.959  
                                
  21418910.300   112557139.781    21418907.995    87706858.319    21418907.798  
  21418911.819    84052420.345  
  22071161.302   115984754.045    22071158.640    90377725.486    22071158.336  
                                
  21544253.026   113215832.047                    88220135.940    21544249.220  
                                
  20635868.110   108442224.759    20635867.610    84500429.419    20635867.127  
  20635867.628    80979582.868  
  21625129.118   115517567.758    21625129.654    89847006.898    21625129.743  
                                
  19267066.589   102885060.310    19267066.535    80021712.447    19267066.535  
                                
  21439893.286   114286703.325    21439894.108    88889660.903    21439894.072  
                                
  20720734.176   110803061.401    20720733.622    86180167.833    20720733.622  
                                
  24682442.253   129707107.130                                                  
  24682443.593    96859209.588  
  23642688.908   124243184.934                                                  
  23642691.499    92779024.081  
  25066072.379   131723110.767                                                  
  25066073.737    98364670.788  
  23485409.521   123416685.458                                                  
  23485411.004    92161834.713  
  25901467.983   136113167.969                                                  
  25901469.752   101642976.341  
 21  9  1  8 43 23.0000000  0 17G 1G 7G 8G13G14G17G21G30R12R13R14R24
                                E13E15E21E27E30
  20690089.820   108727169.622    20690089.927    84722478.122    20690089.945  
  20690088.837    81192369.775  
  21094576.526   110852748.255    21094573.703    86378751.203    21094573.435  
                                
  23213440.757   121987459.552    23213440.918    95055170.966    23213440.114  
  23213439.310    91094528.155  
  23721745.701   124658615.208                    97136595.667    23721742.752  
                                
  21418533.049   112555157.373    21418530.744    87705313.586    21418530.548  
  21418534.568    84050939.984  
  22070746.652   115982575.109    22070744.007    90376027.611    22070743.685  
                                
  21544452.087   113216878.151                    88220951.088    21544448.281  
                                
  20635903.259   108442409.454    20635902.776    84500573.337    20635902.294  
  20635902.794    80979720.786  
  21625705.823   115520648.489    21625706.359    89849403.027    21625706.448  
                                
  19267065.427   102885054.197    19267065.374    80021707.693    19267065.374  
                                
  21439266.387   114283361.645    21439267.209    88887061.819    21439267.191  
                                
  20720129.970   110799830.435    20720129.416    86177654.861    20720129.416  
                                
  24681967.295   129704611.267                                                  
  24681968.635    96857345.801  
  23642728.113   124243390.956                                                  
  23642730.686    92779177.928  
  25065720.556   131721261.921                                                  
  25065721.914    98363290.161  
  23485467.345   123416989.279                                                  
  23485468.828    92162061.592  
  25901880.078   136115333.419                                                  
  25901881.865   101644593.384  
 21  9  1  8 43 24.0000000  0 17G 1G 7G 8G13G14G17G21G30R12R13R14R24
                                E13E15E21E27E30
  20689798.644   108725639.536    20689798.769    84721285.847    20689798.787  
  20689797.679    81191227.178  
  21095021.107   110855084.590    21095018.284    86380571.732    21095018.016  
                                
  23214027.648   121990543.619    23214027.809    95057574.128    23214027.004  
  23214026.200    91096831.183  
  23721784.602   124658819.633                    97136754.951    23721781.653  
                                
  21418155.870   112553175.212    21418153.565    87703769.044    21418153.368  
  21418157.389    84049459.790  
  22070332.090   115980396.504    22070329.428    90374329.997    22070329.106  
                                
  21544651.255   113217924.842                    88221766.694    21544647.467  
                                
  20635938.532   108442594.799    20635938.032    84500717.760    20635937.549  
  20635938.049    80979859.194  
  21626282.617   115523729.671    21626283.153    89851799.500    21626283.242  
                                
  19267064.409   102885048.743    19267064.355    80021703.451    19267064.373  
                                
  21438639.542   114280020.162    21438640.364    88884462.886    21438640.328  
                                
  20719525.854   110796600.007    20719525.301    86175142.299    20719525.301  
                                
  24681492.425   129702115.741                                                  
  24681493.783    96855482.257  
  23642767.407   124243597.464                                                  
  23642769.980    92779332.137  
  25065368.732   131719413.189                                                  
  25065370.090    98361909.610  
  23485525.205   123417293.349                                                  
  23485526.688    92162288.658  
  25902292.174   136117499.009                                                  
  25902293.943   101646210.553  
 21  9  1  8 43 25.0000000  0 17G 1G 7G 8G13G14G17G21G30R12R13R14R24
                                E13E15E21E27E30
  20689507.629   108724110.231    20689507.754    84720094.181    20689507.772  
  20689506.664    81190085.166  
  21095465.814   110857421.532    21095462.990    86382392.737    21095462.722  
                                
  23214614.538   121993627.833    23214614.699    95059977.407    23214613.895  
  23214613.090    91099134.332  
  23721823.628   124659024.727                    97136914.767    23721820.679  
                                
  21417778.726   112551193.324    21417776.403    87702224.716    21417776.207  
  21417780.227    84047979.809  
  22069917.583   115978218.321    22069914.938    90372632.712    22069914.616  
                                
  21544850.566   113218972.214                    88222582.824    21544846.760  
                                
  20635973.930   108442780.884    20635973.448    84500862.763    20635972.966  
  20635973.466    80979998.149  
  21626859.518   115526811.336    21626860.054    89854196.352    21626860.144  
                                
  19267063.533   102885044.011    19267063.480    80021699.768    19267063.480  
                                
  21438012.732   114276678.965    21438013.554    88881864.177    21438013.537  
                                
  20718921.881   110793370.238    20718921.310    86172630.259    20718921.310  
                                
  24681017.610   129699620.589                                                  
  24681018.950    96853618.992  
  23642806.808   124243804.534                                                  
  23642809.381    92779486.769  
  25065016.963   131717564.634                                                  
  25065018.339    98360529.195  
  23485583.118   123417597.737                                                  
  23485584.601    92162515.965  
  25902704.305   136119664.814                                                  
  25902706.074   101647827.879  
 21  9  1  8 43 26.0000000  0 17G 1G 7G 8G13G14G17G21G30R12R13R14R24
                                E13E15E21E27E30
  20689216.721   108722581.457    20689216.847    84718902.928    20689216.864  
  20689215.739    81188943.547  
  21095910.574   110859758.796    21095907.750    86384213.980    21095907.482  
                                
  23215201.446   121996711.968    23215201.607    95062380.631    23215200.803  
  23215199.999    91101437.409  
  23721862.743   124659230.315                    97137074.963    23721859.812  
                                
  21417401.601   112549211.480    21417399.278    87700680.424    21417399.081  
  21417403.102    84046499.869  
  22069503.128   115976040.312    22069500.466    90370935.559    22069500.162  
                                
  21545049.967   113220020.027                    88223399.306    21545046.161  
                                
  20636009.454   108442967.465    20636008.972    84501008.149    20636008.471  
  20636008.972    80980137.481  
  21627436.455   115529893.251    21627436.991    89856593.396    21627437.081  
                                
  19267062.747   102885039.777    19267062.693    80021696.472    19267062.693  
                                
  21437385.941   114273337.821    21437386.763    88879265.507    21437386.745  
                                
  20718317.980   110790140.917    20718317.408    86170118.567    20718317.408  
                                
  24680542.830   129697125.597                                                  
  24680544.188    96851755.853  
  23642846.281   124244011.932                                                  
  23642848.854    92779641.647  
  25064665.193   131715716.016                                                  
  25064666.569    98359148.729  
  23485641.067   123417902.218                                                  
  23485642.551    92162743.333  
  25903116.472   136121830.640                                                  
  25903118.258   101649445.199  
 21  9  1  8 43 27.0000000  0 17G 1G 7G 8G13G14G17G21G30R12R13R14R24
                                E13E15E21E27E30
  20688925.903   108721053.287    20688926.028    84717712.149    20688926.046  
  20688924.938    81187802.386  
  21096355.441   110862096.554    21096352.618    86386035.612    21096352.349  
                                
  23215788.318   121999796.067    23215788.461    95064783.825    23215787.657  
  23215786.853    91103740.490  
  23721901.965   124659436.442                    97137235.586    23721899.017  
                                
  21417024.493   112547229.788    21417022.170    87699136.248    21417021.991  
  21417025.994    84045020.025  
  22069088.710   115973862.544    22069086.065    90369238.597    22069085.744  
                                
  21545249.439   113221068.350                    88224216.181    21545245.633  
                                
  20636045.049   108443154.616    20636044.567    84501153.983    20636044.084  
  20636044.585    80980277.236  
  21628013.464   115532975.471    21628013.982    89858990.678    21628014.089  
                                
  19267062.050   102885036.109    19267061.997    80021693.620    19267061.997  
                                
  21436759.185   114269996.785    21436760.007    88876666.923    21436759.971  
                                
  20717714.186   110786912.128    20717713.614    86167607.287    20717713.614  
                                
  24680068.086   129694630.826                                                  
  24680069.444    96849892.866  
  23642885.825   124244219.729                                                  
  23642888.398    92779796.813  
  25064313.424   131713867.419                                                  
  25064314.782    98357768.286  
  23485699.035   123418206.849                                                  
  23485700.518    92162970.817  
  25903528.621   136123996.491                                                  
  25903530.390   101651062.569  
 21  9  1  8 43 28.0000000  0 17G 1G 7G 8G13G14G17G21G30R12R13R14R24
                                E13E15E21E27E30
  20688635.263   108719525.921    20688635.389    84716521.994    20688635.389  
  20688634.281    81186661.822  
  21096800.415   110864434.922    21096797.592    86387857.717    21096797.324  
                                
  23216375.262   122002880.398    23216375.423    95067187.198    23216374.619  
  23216373.797    91106043.713  
  23721941.331   124659643.274                    97137396.756    23721938.383  
                                
  21416647.439   112545248.390    21416645.116    87697592.304    21416644.937  
  21416648.957    84043540.423  
  22068674.381   115971685.227    22068671.719    90367541.982    22068671.415  
                                
  21545449.072   113222117.374                    88225033.602    21545445.265  
                                
  20636080.805   108443342.532    20636080.323    84501300.411    20636079.840  
  20636080.341    80980417.559  
  21628590.562   115536058.201    21628591.080    89861388.359    21628591.187  
                                
  19267061.514   102885033.202    19267061.460    80021691.356    19267061.460  
                                
  21436132.482   114266656.088    21436133.286    88874068.601    21436133.269  
                                
  20717110.499   110783684.023    20717109.945    86165096.540    20717109.945  
                                
  24679593.413   129692136.454                                                  
  24679594.753    96848030.197  
  23642925.476   124244428.107                                                  
  23642928.049    92779952.427  
  25063961.672   131712019.031                                                  
  25063963.048    98356387.996  
  23485757.073   123418511.835                                                  
  23485758.556    92163198.566  
  25903940.805   136126162.607                                                  
  25903942.592   101652680.118  
 21  9  1  8 43 29.0000000  0 17G 1G 7G 8G13G14G17G21G30R12R13R14R24
                                E13E15E21E27E30
  20688344.767   108717999.336    20688344.892    84715332.447    20688344.892  
  20688343.784    81185521.838  
  21097245.497   110866773.889    21097242.674    86389680.286    21097242.406  
                                
  23216962.206   122005964.888    23216962.385    95069590.694    23216961.580  
  23216960.758    91108347.057  
  23721980.839   124659850.848                    97137558.490    23721977.873  
                                
  21416270.438   112543267.294    21416268.133    87696048.593    21416267.936  
  21416271.957    84042061.033  
  22068260.123   115969508.300    22068257.479    90365845.682    22068257.157  
                                
  21545648.811   113223167.067                    88225851.547    21545645.005  
                                
  20636116.722   108443531.170    20636116.239    84501447.399    20636115.757  
  20636116.239    80980558.427  
  21629167.749   115539141.465    21629168.285    89863786.451    21629168.375  
                                
  19267061.103   102885031.016    19267061.049    80021689.661    19267061.067  
                                
  21435505.816   114263315.667    21435506.638    88871470.499    21435506.602  
                                
  20716506.955   110780456.520    20716506.383    86162586.256    20716506.383  
                                
  24679118.829   129689642.469                                                  
  24679120.170    96846167.814  
  23642965.235   124244637.057                                                  
  23642967.808    92780108.457  
  25063609.974   131710170.807                                                  
  25063611.350    98355007.826  
  23485815.183   123418817.138                                                  
  23485816.648    92163426.554  
  25904353.062   136128328.935                                                  
  25904354.831   101654297.830  
 21  9  1  8 43 30.0000000  0 17G 1G 7G 8G13G14G17G21G30R12R13R14R24
                                E13E15E21E27E30
  20688054.413   108716473.488    20688054.538    84714143.476    20688054.538  
  20688053.430    81184382.405  
  21097690.704   110869113.439    21097687.880    86391503.315    21097687.612  
                                
  23217549.221   122009049.527    23217549.382    95071994.307    23217548.578  
  23217547.756    91110650.515  
  23722020.455   124660059.112                    97137720.778    23722017.507  
                                
  21415893.527   112541286.488    21415891.221    87694505.110    21415891.025  
  21415895.045    84040581.847  
  22067845.937   115967331.776    22067843.293    90364149.689    22067842.971  
                                
  21545848.694   113224217.388                    88226669.977    21545844.870  
                                
  20636152.746   108443720.521    20636152.263    84501594.948    20636151.781  
  20636152.263    80980699.826  
  21629745.044   115542225.233    21629745.580    89866184.937    21629745.669  
                                
  19267060.817   102885029.546    19267060.764    80021688.515    19267060.764  
                                
  21434879.221   114259975.506    21434880.043    88868872.598    21434880.007  
                                
  20715903.500   110777229.588    20715902.928    86160076.422    20715902.928  
                                
  24678644.318   129687148.892                                                  
  24678645.676    96844305.712  
  23643005.101   124244846.536                                                  
  23643007.674    92780264.886  
  25063258.311   131708322.744                                                  
  25063259.669    98353627.783  
  23485873.329   123419122.740                                                  
  23485874.794    92163654.762  
  25904765.336   136130495.467                                                  
  25904767.105   101655915.698  
 21  9  1  8 43 31.0000000  0 17G 1G 7G 8G13G14G17G21G30R12R13R14R24
                                E13E15E21E27E30
  20687764.238   108714948.569    20687764.345    84712955.228    20687764.363  
  20687763.255    81183243.668  
  21098136.035   110871453.718    21098133.212    86393326.899    21098132.944  
                                
  23218136.254   122012134.448    23218136.415    95074398.139    23218135.611  
  23218134.789    91112954.188  
  23722060.231   124660268.174                    97137883.675    23722057.283  
                                
  21415516.669   112539306.099    21415514.364    87692961.948    21415514.167  
  21415518.188    84039102.983  
  22067431.876   115965155.812    22067429.214    90362454.128    22067428.910  
                                
  21546048.720   113225268.546                    88227489.061    21546044.914  
                                
  20636188.931   108443910.747    20636188.466    84501743.176    20636187.984  
  20636188.466    80980841.878  
  21630322.445   115545309.639    21630322.982    89868583.915    21630323.071  
                                
  19267060.710   102885028.967    19267060.656    80021688.065    19267060.674  
                                
  21434252.697   114256635.794    21434253.519    88866275.039    21434253.483  
                                
  20715300.188   110774003.418    20715299.616    86157567.176    20715299.616  
                                
  24678169.895   129684655.782                                                  
  24678171.235    96842443.991  
  23643045.092   124245056.725                                                  
  23643047.665    92780421.845  
  25062906.685   131706475.004                                                  
  25062908.061    98352247.975  
  23485931.564   123419428.806                                                  
  23485933.047    92163883.315  
  25905177.663   136132662.364                                                  
  25905179.432   101657533.846  
 21  9  1  8 43 32.0000000  0 17G 1G 7G 8G13G14G17G21G30R12R13R14R24
                                E13E15E21E27E30
  20687474.170   108713424.279    20687474.295    84711767.472    20687474.313  
  20687473.205    81182105.390  
  21098581.474   110873794.442    21098578.633    86395150.840    21098578.365  
                                
  23218723.305   122015219.396    23218723.466    95076801.988    23218722.662  
  23218721.858    91115257.876  
  23722100.133   124660477.775                    97138046.991    23722097.167  
                                
  21415139.829   112537325.863    21415137.524    87691418.911    21415137.327  
  21415141.348    84037624.233  
  22067017.851   115962980.109    22067015.189    90360758.778    22067014.885  
                                
  21546248.853   113226320.217                    88228308.547    21546245.047  
                                
  20636225.276   108444101.568    20636224.794    84501891.865    20636224.311  
  20636224.794    80980984.367  
  21630899.919   115548394.352    21630900.437    89870983.139    21630900.544  
                                
  19267060.710   102885028.955    19267060.656    80021688.056    19267060.674  
                                
  21433626.209   114253296.228    21433627.031    88863677.601    21433626.995  
                                
  20714696.965   110770777.767    20714696.412    86155058.335    20714696.412  
                                
  24677695.508   129682162.933                                                  
  24677696.866    96840582.442  
  23643085.172   124245267.318                                                  
  23643087.745    92780579.106  
  25062555.076   131704627.299                                                  
  25062556.452    98350868.191  
  23485989.853   123419735.054                                                  
  23485991.336    92164112.007  
  25905590.045   136134829.366                                                  
  25905591.832   101659152.053  
 21  9  1  8 43 33.0000000  0 17G 1G 7G 8G13G14G17G21G30R12R13R14R24
                                E13E15E21E27E30
  20687184.245   108711900.798    20687184.370    84710580.342    20687184.370  
  20687183.262    81180967.733  
  21099027.038   110876135.844    21099024.197    86396975.312    21099023.929  
                                
  23219310.374   122018304.546    23219310.535    95079205.998    23219309.749  
  23219308.927    91117561.726  
  23722140.177   124660688.199                    97138210.958    23722137.211  
                                
  21414763.061   112535345.947    21414760.738    87689876.117    21414760.541  
  21414764.562    84036145.737  
  22066603.915   115960804.867    22066601.253    90359063.784    22066600.949  
                                
  21546449.129   113227372.604                    88229128.587    21546445.305  
                                
  20636261.711   108444293.161    20636261.229    84502041.156    20636260.746  
  20636261.247    80981127.445  
  21631477.481   115551479.591    21631478.017    89873382.771    21631478.107  
                                
  19267060.853   102885029.746    19267060.799    80021688.670    19267060.817  
                                
  21432999.775   114249956.981    21433000.597    88861080.409    21433000.561  
                                
  20714093.904   110767552.851    20714093.332    86152550.069    20714093.332  
                                
  24677221.229   129679670.536                                                  
  24677222.587    96838721.234  
  23643125.341   124245478.528                                                  
  23643127.932    92780736.828  
  25062203.521   131702779.820                                                  
  25062204.897    98349488.587  
  23486048.195   123420041.672                                                  
  23486049.678    92164340.972  
  25906002.444   136136996.609                                                  
  25906004.213   101660770.457  
 21  9  1  8 43 34.0000000  0 17G 1G 7G 8G13G14G17G21G30R12R13R14R24
                                E13E15E21E27E30
  20686894.481   108710378.040    20686894.588    84709393.774    20686894.606  
  20686893.498    81179830.612  
  21099472.674   110878477.766    21099469.833    86398800.186    21099469.565  
                                
  23219897.497   122021389.793    23219897.657    95081610.091    23219896.853  
  23219896.031    91119865.648  
  23722180.329   124660899.218                    97138375.397    23722177.381  
                                
  21414386.364   112533366.289    21414384.041    87688333.524    21414383.844  
  21414387.865    84034667.412  
  22066190.051   115958629.998    22066187.388    90357369.078    22066187.084  
                                
  21546649.495   113228425.622                    88229949.116    21546645.688  
                                
  20636298.289   108444485.438    20636297.824    84502190.980    20636297.324  
  20636297.824    80981271.028  
  21632055.151   115554565.304    21632055.669    89875782.767    21632055.759  
                                
  19267061.139   102885031.213    19267061.085    80021689.814    19267061.103  
                                
  21432373.376   114246617.950    21432374.180    88858483.390    21432374.144  
                                
  20713490.931   110764328.552    20713490.378    86150042.281    20713490.360  
                                
  24676747.020   129677178.485                                                  
  24676748.378    96836860.280  
  23643165.636   124245690.243                                                  
  23643168.227    92780894.926  
  25061851.984   131700932.473                                                  
  25061853.359    98348109.071  
  23486106.591   123420348.556                                                  
  23486108.074    92164570.141  
  25906414.932   136139164.054                                                  
  25906416.719   101662389.002  
 21  9  1  8 43 35.0000000  0 17G 1G 7G 8G13G14G17G21G30R12R13R14R24
                                E13E15E21E27E30
  20686604.824   108708855.871    20686604.949    84708207.669    20686604.949  
  20686603.841    81178693.923  
  21099918.417   110880820.125    21099915.593    86400625.391    21099915.325  
                                
  23220484.583   122024475.001    23220484.744    95084014.150    23220483.940  
  23220483.118    91122169.538  
  23722220.588   124661110.736                    97138540.214    23722217.622  
                                
  21414009.667   112531386.745    21414007.344    87686791.020    21414007.147  
  21414011.168    84033189.175  
  22065776.222   115956455.340    22065773.560    90355674.542    22065773.256  
                                
  21546849.967   113229479.110                    88230770.017    21546846.161  
                                
  20636335.010   108444678.255    20636334.527    84502341.229    20636334.045  
  20636334.527    80981415.017  
  21632632.857   115557651.342    21632633.393    89878183.015    21632633.482  
                                
  19267061.496   102885033.220    19267061.443    80021691.377    19267061.460  
                                
  21431746.995   114243279.036    21431747.817    88855886.455    21431747.781  
                                
  20712888.066   110761104.702    20712887.495    86147534.840    20712887.495  
                                
  24676272.812   129674686.583                                                  
  24676274.170    96834999.462  
  23643206.002   124245902.339                                                  
  23643208.575    92781053.312  
  25061500.446   131699085.103                                                  
  25061501.822    98346729.545  
  23486165.023   123420655.573                                                  
  23486166.506    92164799.405  
  25906827.349   136141331.511                                                  
  25906829.136   101664007.564  
 21  9  1  8 43 36.0000000  0 17G 1G 7G 8G13G14G17G21G30R12R13R14R24
                                E13E15E21E27E30
  20686315.275   108707334.265    20686315.400    84707022.000    20686315.400  
  20686314.292    81177557.659  
  21100364.231   110883162.827    21100361.408    86402450.871    21100361.122  
                                
  23221071.688   122027560.178    23221071.849    95086418.177    23221071.045  
  23221070.223    91124473.395  
  23722260.954   124661322.817                    97138705.463    23722257.988  
                                
  21413632.970   112529407.269    21413630.665    87685248.569    21413630.468  
  21413634.489    84031710.997  
  22065362.447   115954280.899    22065359.784    90353980.177    22065359.463  
                                
  21547050.529   113230533.058                    88231591.271    21547046.723  
                                
  20636371.784   108444871.608    20636371.320    84502491.895    20636370.819  
  20636371.320    80981559.400  
  21633210.616   115560737.657    21633211.152    89880583.480    21633211.241  
                                
  19267061.979   102885035.760    19267061.925    80021693.351    19267061.943  
                                
  21431120.650   114239940.199    21431121.454    88853289.577    21431121.436  
                                
  20712285.273   110757881.279    20712284.701    86145027.733    20712284.701  
                                
  24675798.658   129672194.893                                                  
  24675800.016    96833138.780  
  23643246.440   124246114.772                                                  
  23643249.013    92781211.947  
  25061148.873   131697237.701                                                  
  25061150.249    98345349.996  
  23486223.455   123420962.698                                                  
  23486224.938    92165028.752  
  25907239.838   136143498.994                                                  
  25907241.607   101665626.133  
 21  9  1  8 43 37.0000000  0 17G 1G 7G 8G13G14G17G21G30R12R13R14R24
                                E13E15E21E27E30
  20686025.850   108705813.335    20686025.975    84705836.861    20686025.975  
  20686024.867    81176421.900  
  21100810.135   110885506.061    21100807.311    86404276.761    21100807.043  
                                
  23221658.757   122030645.383    23221658.918    95088822.233    23221658.114  
  23221657.292    91126777.306  
  23722301.427   124661535.459                    97138871.145    23722298.461  
                                
  21413256.327   112527427.995    21413254.022    87683706.278    21413253.825  
  21413257.846    84030232.966  
  22064948.708   115952106.757    22064946.063    90352286.041    22064945.741  
                                
  21547251.180   113231587.581                    88232412.980    21547247.374  
                                
  20636408.702   108445065.587    20636408.219    84502643.047    20636407.737  
  20636408.219    80981704.256  
  21633788.464   115563824.336    21633789.000    89882984.228    21633789.090  
                                
  19267062.586   102885038.945    19267062.533    80021695.830    19267062.533  
                                
  21430494.341   114236601.562    21430495.145    88850692.861    21430495.109  
                                
  20711682.568   110754658.363    20711681.997    86142521.020    20711681.997  
                                
  24675324.557   129669703.494                                                  
  24675325.915    96831278.315  
  23643286.931   124246327.687                                                  
  23643289.522    92781370.938  
  25060797.354   131695390.392                                                  
  25060798.730    98343970.508  
  23486281.958   123421270.052                                                  
  23486283.441    92165258.272  
  25907652.291   136145666.598                                                  
  25907654.078   101667244.809  
 21  9  1  8 43 38.0000000  0 17G 1G 7G 8G13G14G17G21G30R12R13R14R24
                                E13E15E21E27E30
  20685736.568   108704293.123    20685736.694    84704652.281    20685736.694  
  20685735.586    81175286.672  
  21101256.110   110887849.834    21101253.286    86406103.094    21101253.018  
                                
  23222245.897   122033730.753    23222246.058    95091226.415    23222245.254  
  23222244.432    91129081.296  
  23722342.026   124661748.755                    97139037.347    23722339.060  
                                
  21412879.737   112525448.962    21412877.432    87682164.169    21412877.236  
  21412881.256    84028755.110  
  22064535.058   115949932.997    22064532.413    90350592.201    22064532.091  
                                
  21547451.975   113232642.721                    88233235.169    21547448.168  
                                
  20636445.744   108445260.258    20636445.280    84502794.739    20636444.797  
  20636445.280    80981849.625  
  21634366.366   115566911.433    21634366.902    89885385.301    21634366.992  
                                
  19267063.301   102885042.818    19267063.247    80021698.840    19267063.265  
                                
  21429868.050   114233263.154    21429868.854    88848096.324    21429868.836  
                                
  20711079.971   110751436.000    20711079.400    86140014.740    20711079.400  
                                
  24674850.527   129667212.423                                                  
  24674851.885    96829418.093  
  23643327.547   124246541.089                                                  
  23643330.138    92781530.299  
  25060445.852   131693543.206                                                  
  25060447.228    98342591.109  
  23486340.497   123421577.673                                                  
  23486341.980    92165487.989  
  25908064.833   136147834.392                                                  
  25908066.602   101668863.607  
 21  9  1  8 43 39.0000000  0 17G 1G 7G 8G13G14G17G21G30R12R13R14R24
                                E13E15E21E27E30
  20685447.394   108702773.516    20685447.519    84703468.174    20685447.519  
  20685446.411    81174151.905  
  21101702.210   110890194.041    21101699.369    86407929.756    21101699.101  
                                
  23222833.020   122036816.097    23222833.181    95093630.584    23222832.394  
  23222831.554    91131385.291  
  23722382.678   124661962.559                    97139203.957    23722379.712  
                                
  21412503.165   112523470.049    21412500.842    87680622.164    21412500.646  
  21412504.684    84027277.359  
  22064121.461   115947759.457    22064118.799    90348898.536    22064118.477  
                                
  21547652.858   113233698.368                    88234057.751    21547649.052  
                                
  20636482.894   108445455.490    20636482.411    84502946.870    20636481.929  
  20636482.429    80981995.415  
  21634944.340   115569998.879    21634944.876    89887786.652    21634944.965  
                                
  19267064.141   102885047.252    19267064.087    80021702.291    19267064.105  
                                
  21429241.812   114229924.856    21429242.616    88845499.868    21429242.580  
                                
  20710477.446   110748214.096    20710476.892    86137508.822    20710476.874  
                                
  24674376.534   129664721.563                                                  
  24674377.892    96827558.051  
  23643368.235   124246754.907                                                  
  23643370.826    92781689.966  
  25060094.351   131691696.030                                                  
  25060095.727    98341211.733  
  23486399.054   123421885.456                                                  
  23486400.537    92165717.824  
  25908477.357   136150002.239                                                  
  25908479.144   101670482.452  
 21  9  1  8 43 40.0000000  0 17G 1G 7G 8G13G14G17G21G30R12R13R14R24
                                E13E15E21E27E30
  20685158.380   108701254.707    20685158.488    84702284.689    20685158.506  
  20685157.398    81173017.732  
  21102148.399   110892538.862    21102145.576    86409756.893    21102145.308  
                                
  23223420.160   122039901.611    23223420.321    95096034.882    23223419.517  
  23223418.695    91133689.415  
  23722423.509   124662177.132                    97139371.161    23722420.542  
                                
  21412126.647   112521491.447    21412124.324    87679080.392    21412124.128  
  21412128.148    84025799.834  
  22063707.936   115945586.363    22063705.274    90347205.218    22063704.952  
                                
  21547853.885   113234754.711                    88234880.875    21547850.061  
                                
  20636520.204   108445651.473    20636519.722    84503099.584    20636519.239  
  20636519.722    80982141.773  
  21635522.438   115573086.859    21635522.974    89890188.407    21635523.064  
                                
  19267065.106   102885052.417    19267065.052    80021706.306    19267065.070  
                                
  21428615.610   114226586.856    21428616.414    88842903.645    21428616.396  
                                
  20709875.063   110744992.889    20709874.509    86135003.438    20709874.491  
                                
  24673902.629   129662231.138                                                  
  24673903.987    96825698.305  
  23643409.048   124246969.301                                                  
  23643411.621    92781850.070  
  25059742.867   131689849.056                                                  
  25059744.243    98339832.497  
  23486457.700   123422193.579                                                  
  23486459.183    92165947.916  
  25908889.917   136152170.295                                                  
  25908891.686   101672101.479  
 21  9  1  8 43 41.0000000  0 17G 1G 7G 8G13G14G17G21G30R12R13R14R24
                                E13E15E21E27E30
  20684869.492   108699736.653    20684869.617    84701101.787    20684869.635  
  20684868.527    81171884.115  
  21102594.714   110894884.270    21102591.873    86411584.495    21102591.605  
                                
  23224007.354   122042987.251    23224007.515    95098439.277    23224006.711  
  23224005.889    91135993.636  
  23722464.482   124662392.380                    97139538.891    23722461.498  
                                
  21411750.165   112519513.110    21411747.860    87677538.835    21411747.663  
  21411751.684    84024322.512  
  22063294.483   115943413.653    22063291.820    90345512.203    22063291.499  
                                
  21548055.018   113235811.690                    88235704.496    21548051.194  
                                
  20636557.622   108445848.166    20636557.140    84503252.849    20636556.657  
  20636557.158    80982288.652  
  21636100.591   115576175.298    21636101.127    89892590.520    21636101.216  
                                
  19267066.196   102885058.291    19267066.142    80021710.875    19267066.160  
                                
  21427989.461   114223249.129    21427990.265    88840307.633    21427990.230  
                                
  20709272.806   110741772.347    20709272.234    86132498.570    20709272.234  
                                
  24673428.761   129659741.041                                                  
  24673430.119    96823838.835  
  23643449.932   124247184.223                                                  
  23643452.505    92782010.563  
  25059391.437   131688002.228                                                  
  25059392.813    98338453.375  
  23486516.382   123422501.998                                                  
  23486517.865    92166178.231  
  25909302.531   136154338.594                                                  
  25909304.318   101673720.643  
 21  9  1  8 43 42.0000000  0 17G 1G 7G 8G13G14G17G21G30R12R13R14R24
                                E13E15E21E27E30
  20684580.729   108698219.205    20684580.854    84699919.358    20684580.872  
  20684579.764    81170750.961  
  21103041.118   110897230.103    21103038.277    86413412.420    21103038.009  
                                
  23224594.512   122046072.894    23224594.673    95100843.681    23224593.887  
  23224593.047    91138297.850  
  23722505.545   124662608.144                    97139707.014    23722502.561  
                                
  21411373.736   112517534.904    21411371.413    87675997.376    21411371.216  
  21411375.237    84022845.283  
  22062881.065   115941241.184    22062878.403    90343819.367    22062878.099  
                                
  21548256.259   113236869.186                    88236528.521    21548252.435  
                                
  20636595.147   108446045.432    20636594.682    84503406.562    20636594.200  
  20636594.682    80982435.956  
  21636678.832   115579264.053    21636679.368    89894992.881    21636679.458  
                                
  19267067.411   102885064.729    19267067.357    80021715.884    19267067.375  
                                
  21427363.349   114219911.543    21427364.153    88837711.730    21427364.117  
                                
  20708670.637   110738552.298    20708670.066    86129994.088    20708670.066  
                                
  24672954.964   129657251.182                                                  
  24672956.322    96821979.518  
  23643490.906   124247399.544                                                  
  23643493.497    92782171.353  
  25059039.989   131686155.422                                                  
  25059041.365    98337074.261  
  23486575.099   123422810.567                                                  
  23486576.582    92166408.656  
  25909715.162   136156506.943                                                  
  25909716.949   101675339.872  
 21  9  1  8 43 43.0000000  0 17G 1G 7G 8G13G14G17G21G30R12R13R14R24
                                E13E15E21E27E30
  20684292.054   108696702.189    20684292.180    84698737.263    20684292.197  
  20684291.090    81169618.120  
  21103487.575   110899576.207    21103484.734    86415240.543    21103484.466  
                                
  23225181.671   122049158.372    23225181.831    95103247.950    23225181.027  
  23225180.187    91140601.936  
  23722546.662   124662824.260                    97139875.414    23722543.678  
                                
  21410997.289   112515556.666    21410994.966    87674455.892    21410994.770  
  21410998.808    84021368.021  
  22062467.683   115939068.797    22062465.021    90342126.603    22062464.699  
                                
  21548457.554   113237927.002                    88237352.788    21548453.730  
                                
  20636632.779   108446243.096    20636632.297    84503560.586    20636631.814  
  20636632.315    80982583.561  
  21637257.074   115582352.985    21637257.610    89897395.380    21637257.699  
                                
  19267068.680   102885071.551    19267068.644    80021721.188    19267068.644  
                                
  21426737.200   114216573.903    21426738.004    88835115.786    21426737.986  
                                
  20708068.523   110735332.533    20708067.951    86127489.823    20708067.951  
                                
  24672481.149   129654761.362                                                  
  24672482.507    96820120.247  
  23643531.915   124247615.088                                                  
  23643534.488    92782332.315  
  25058688.541   131684308.453                                                  
  25058689.917    98335695.034  
  23486633.817   123423119.130                                                  
  23486635.300    92166639.074  
  25910127.776   136158675.201                                                  
  25910129.563   101676959.006  
 21  9  1  8 43 44.0000000  0 17G 1G 7G 8G13G14G17G21G30R12R13R14R24
                                E13E15E21E27E30
  20684003.488   108695185.734    20684003.613    84697555.614    20684003.631  
  20684002.523    81168485.702  
  21103934.087   110901922.653    21103931.245    86417068.943    21103930.977  
                                
  23225768.793   122052243.772    23225768.954    95105652.153    23225768.168  
  23225767.328    91142905.951  
  23722587.886   124663040.881                    97140044.203    23722584.902  
                                
  21410620.860   112513578.490    21410618.537    87672914.458    21410618.341  
  21410622.379    84019890.809  
  22062054.301   115936896.616    22062051.639    90340433.989    22062051.335  
                                
  21548658.938   113238985.255                    88238177.408    21548655.114  
                                
  20636670.483   108446441.257    20636670.000    84503714.995    20636669.518  
  20636670.000    80982731.542  
  21637835.387   115585442.176    21637835.923    89899798.087    21637836.012  
                                
  19267070.055   102885078.875    19267070.002    80021726.880    19267070.020  
                                
  21426111.088   114213236.313    21426111.892    88832519.890    21426111.874  
                                
  20707466.480   110732113.161    20707465.908    86124985.873    20707465.908  
                                
  24672007.423   129652271.740                                                  
  24672008.799    96818261.097  
  23643572.996   124247830.967                                                  
  23643575.587    92782493.523  
  25058337.057   131682461.435                                                  
  25058338.433    98334315.761  
  23486692.552   123423427.784                                                  
  23486694.035    92166869.565  
  25910540.372   136160843.421                                                  
  25910542.159   101678578.140  
 21  9  1  8 43 45.0000000  0 17G 1G 7G 8G13G14G17G21G30R12R13R14R24
                                E13E15E21E27E30
  20683715.117   108693670.306    20683715.242    84696374.761    20683715.242  
  20683714.135    81167354.053  
  21104380.776   110904270.018    21104377.935    86418898.056    21104377.667  
                                
  23226356.023   122055329.570    23226356.184    95108056.671    23226355.379  
  23226354.540    91145210.281  
  23722629.306   124663258.450                    97140213.723    23722626.322  
                                
  21410244.521   112511600.857    21410242.198    87671373.445    21410242.001  
  21410246.040    84018414.014  
  22061641.080   115934725.098    22061638.417    90338741.897    22061638.114  
                                
  21548860.500   113240044.465                    88239002.766    21548856.676  
                                
  20636708.383   108446640.426    20636707.918    84503870.197    20636707.436  
  20636707.918    80982880.270  
  21638413.843   115588532.118    21638414.379    89902201.373    21638414.468  
                                
  19267071.628   102885087.194    19267071.574    80021733.353    19267071.592  
                                
  21425485.064   114209899.289    21425485.868    88829924.427    21425485.850  
                                
  20706864.615   110728894.716    20706864.043    86122482.637    20706864.043  
                                
  24671533.769   129649782.732                                                  
  24671535.127    96816402.437  
  23643614.238   124248047.673                                                  
  23643616.829    92782655.349  
  25057985.663   131680614.863                                                  
  25057987.039    98332936.831  
  23486751.413   123423737.034                                                  
  23486752.896    92167100.494  
  25910953.057   136163012.140                                                  
  25910954.844   101680197.640  
 21  9  1  8 43 46.0000000  0 17G 1G 7G 8G13G14G17G21G30R12R13R14R24
                                E13E15E21E27E30
  20683426.908   108692155.831    20683427.033    84695194.653    20683427.051  
  20683425.943    81166223.119  
  21104827.609   110906618.129    21104824.768    86420727.757    21104824.500  
                                
  23226943.270   122058415.692    23226943.431    95110461.439    23226942.627  
  23226941.787    91147514.874  
  23722670.887   124663476.896                    97140383.934    23722667.903  
                                
  21409868.289   112509623.731    21409865.984    87669832.827    21409865.769  
  21409869.807    84016937.582  
  22061227.966   115932554.181    22061225.304    90337050.276    22061225.000  
                                
  21549062.224   113241104.511                    88239828.772    21549058.400  
                                
  20636746.462   108446840.515    20636745.980    84504026.107    20636745.497  
  20636745.997    80983029.689  
  21638992.424   115591622.747    21638992.960    89904605.195    21638993.049  
                                
  19267073.361   102885096.444    19267073.308    80021740.545    19267073.325  
                                
  21424859.166   114206562.759    21424859.952    88827329.352    21424859.934  
                                
  20706262.894   110725677.082    20706262.340    86119980.036    20706262.322  
                                
  24671060.240   129647294.326                                                  
  24671061.598    96814544.201  
  23643655.622   124248265.127                                                  
  23643658.196    92782817.734  
  25057634.358   131678768.661                                                  
  25057635.734    98331558.172  
  23486810.345   123424046.780                                                  
  23486811.846    92167331.800  
  25911365.849   136165181.290                                                  
  25911367.636   101681817.449  
 21  9  1  8 43 47.0000000  0 17G 1G 7G 8G13G14G17G21G30R12R13R14R24
                                E13E15E21E27E30
  20683138.859   108690642.101    20683138.984    84694015.126    20683139.002  
  20683137.894    81165092.738  
  21105274.549   110908966.800    21105271.708    86422557.886    21105271.440  
                                
  23227530.571   122061501.992    23227530.732    95112866.353    23227529.946  
  23227529.106    91149819.563  
  23722712.576   124663696.044                    97140554.699    23722709.592  
                                
  21409492.092   112507646.837    21409489.787    87668292.391    21409489.590  
  21409493.611    84015461.333  
  22060814.941   115930383.637    22060812.279    90335358.941    22060811.957  
                                
  21549264.054   113242165.197                    88240655.285    21549260.248  
                                
  20636784.666   108447041.301    20636784.183    84504182.560    20636783.701  
  20636784.201    80983179.623  
  21639571.059   115594713.835    21639571.613    89907009.375    21639571.684  
                                
  19267075.220   102885106.397    19267075.166    80021748.284    19267075.184  
                                
  21424233.286   114203226.497    21424234.072    88824734.482    21424234.054  
                                
  20705661.297   110722460.052    20705660.726    86117477.901    20705660.726  
                                
  24670586.764   129644806.251                                                  
  24670588.140    96812686.236  
  23643697.096   124248483.104                                                  
  23643699.687    92782980.505  
  25057283.053   131676922.593                                                  
  25057284.429    98330179.619  
  23486869.348   123424356.813                                                  
  23486870.831    92167563.318  
  25911778.659   136167350.593                                                  
  25911780.446   101683437.402  
 21  9  1  8 43 48.0000000  0 17G 1G 7G 8G13G14G17G21G30R12R13R14R24
                                E13E15E21E27E30
  20682851.007   108689129.493    20682851.132    84692836.472    20682851.150  
  20682850.042    81163963.200  
  21105721.668   110911316.442    21105718.827    86424388.778    21105718.559  
                                
  23228117.980   122064588.797    23228118.141    95115271.655    23228117.354  
  23228116.515    91152124.647  
  23722754.479   124663916.224                    97140726.277    23722751.477  
                                
  21409116.038   112505670.603    21409113.716    87666752.468    21409113.519  
  21409117.557    84013985.574  
  22060402.042   115928213.862    22060399.379    90333668.207    22060399.076  
                                
  21549466.081   113243226.907                    88241482.593    21549462.258  
                                
  20636823.084   108447243.165    20636822.602    84504339.858    20636822.119  
  20636822.620    80983330.372  
  21640149.890   115597805.797    21640150.426    89909414.230    21640150.515  
                                
  19267077.292   102885117.427    19267077.239    80021756.867    19267077.257  
                                
  21423607.512   114199890.854    21423608.316    88822140.093    21423608.281  
                                
  20705059.898   110719244.028    20705059.326    86114976.552    20705059.326  
                                
  24670113.432   129642318.907                                                  
  24670114.790    96810828.808  
  23643738.767   124248702.002                                                  
  23643741.340    92783143.965  
  25056931.855   131675077.063                                                  
  25056933.231    98328801.461  
  23486928.477   123424667.530                                                  
  23486929.978    92167795.347  
  25912191.559   136169520.488                                                  
  25912193.363   101685057.777  
 21  9  1  8 43 49.0000000  0 17G 1G 7G 8G13G14G17G21G30R12R13R14R24
                                E13E15E21E27E30
  20682563.459   108687618.317    20682563.566    84691658.930    20682563.584  
  20682562.476    81162834.715  
  21106169.019   110913667.314    21106166.178    86426220.633    21106165.910  
                                
  23228705.531   122067676.406    23228705.692    95117677.580    23228704.906  
  23228704.066    91154430.325  
  23722796.632   124664137.740                    97140898.891    23722793.630  
                                
  21408740.146   112503695.318    21408737.841    87665213.285    21408737.626  
  21408741.665    84012510.516  
  22059989.339   115926045.131    22059986.676    90331978.287    22059986.355  
                                
  21549668.377   113244289.937                    88242310.922    21549664.553  
                                
  20636861.753   108447446.425    20636861.288    84504498.241    20636860.806  
  20636861.288    80983482.151  
  21640728.936   115600898.871    21640729.472    89911819.957    21640729.561  
                                
  19267079.615   102885129.865    19267079.580    80021766.538    19267079.580  
                                
  21422981.936   114196556.146    21422982.740    88819546.429    21422982.704  
                                
  20704458.730   110716029.303    20704458.158    86112476.208    20704458.158  
                                
  24669640.313   129639832.631                                                  
  24669641.671    96808972.154  
  23643780.634   124248922.092                                                  
  23643783.207    92783308.327  
  25056580.836   131673232.357                                                  
  25056582.212    98327423.923  
  23486987.784   123424979.213                                                  
  23486989.267    92168028.097  
  25912604.655   136171691.276                                                  
  25912606.442   101686678.811  
 21  9  1  8 43 50.0000000  0 17G 1G 7G 8G13G14G17G21G30R12R13R14R24
                                E13E15E21E27E30
  20682276.089   108686108.220    20682276.214    84690482.234    20682276.214  
  20682275.106    81161707.050  
  21106616.531   110916019.098    21106613.690    86428053.199    21106613.422  
                                
  23229293.172   122070764.478    23229293.333    95120083.875    23229292.546  
  23229291.707    91156736.353  
  23722838.963   124664360.256                    97141072.274    23722835.979  
                                
  21408364.378   112501720.619    21408362.073    87663674.558    21408361.858  
  21408365.897    84011035.905  
  22059576.797   115923877.137    22059574.134    90330288.943    22059573.813  
                                
  21549870.851   113245353.933                    88243140.009    21549867.027  
                                
  20636900.636   108447650.716    20636900.171    84504657.428    20636899.689  
  20636900.171    80983634.705  
  21641308.124   115603992.751    21641308.660    89914226.303    21641308.750  
                                
  19267082.135   102885143.328    19267082.099    80021777.012    19267082.099  
                                
  21422356.466   114193222.024    21422357.253    88816953.225    21422357.235  
                                
  20703857.741   110712815.531    20703857.169    86109976.607    20703857.152  
                                
  24669167.320   129637347.039                                                  
  24669168.696    96807116.032  
  23643822.698   124249143.061                                                  
  23643825.271    92783473.337  
  25056229.871   131671388.136                                                  
  25056231.265    98326046.745  
  23487047.217   123425291.520                                                  
  23487048.700    92168261.314  
  25913017.822   136173862.556                                                  
  25913019.609   101688300.230  
 21  9  1  8 43 51.0000000  0 17G 1G 7G 8G13G14G17G21G30R12R13R14R24
                                E13E15E21E27E30
  20681988.845   108684598.775    20681988.970    84689306.043    20681988.988  
  20681987.880    81160579.865  
  21107064.150   110918371.349    21107061.309    86429886.124    21107061.041  
                                
  23229880.813   122073852.569    23229880.973    95122490.179    23229880.169  
  23229879.329    91159042.403  
  23722881.438   124664583.400                    97141246.155    23722878.436  
                                
  21407988.646   112499746.093    21407986.341    87662135.969    21407986.127  
  21407990.165    84009561.418  
  22059164.290   115921709.434    22059161.628    90328599.826    22059161.306  
                                
  21550073.432   113246418.480                    88243969.531    21550069.608  
                                
  20636939.626   108447855.605    20636939.144    84504817.082    20636938.661  
  20636939.162    80983787.707  
  21641887.366   115607087.013    21641887.920    89916632.949    21641887.992  
                                
  19267084.780   102885157.426    19267084.726    80021787.977    19267084.744  
                                
  21421731.015   114189888.099    21421731.819    88814360.172    21421731.783  
                                
  20703256.842   110709602.296    20703256.270    86107477.422    20703256.270  
                                
  24668694.381   129634861.699                                                  
  24668695.757    96805260.092  
  23643864.815   124249364.463                                                  
  23643867.388    92783638.669  
  25055878.941   131669543.970                                                  
  25055880.317    98324669.608  
  23487106.685   123425604.030                                                  
  23487108.186    92168494.684  
  25913431.043   136176033.981                                                  
  25913432.848   101689921.737  
 21  9  1  8 43 52.0000000  0 17G 1G 7G 8G13G14G17G21G30R12R13R14R24
                                E13E15E21E27E30
  20681701.689   108683089.750    20681701.815    84688130.179    20681701.832  
  20681700.725    81159452.991  
  21107511.822   110920723.849    21107508.981    86431719.239    21107508.695  
                                
  23230468.418   122076940.465    23230468.578    95124896.332    23230467.774  
  23230466.934    91161348.293  
  23722923.949   124664806.873                    97141420.285    23722920.947  
                                
  21407612.878   112497771.503    21407610.573    87660597.325    21407610.377  
  21407614.397    84008086.888  
  22058751.802   115919541.780    22058749.139    90326910.743    22058748.836  
                                
  21550276.066   113247483.339                    88244799.289    21550272.242  
                                
  20636978.688   108448060.878    20636978.223    84504977.033    20636977.741  
  20636978.223    80983940.998  
  21642466.644   115610181.409    21642467.198    89919039.697    21642467.288  
                                
  19267087.496   102885171.885    19267087.442    80021799.223    19267087.460  
                                
  21421105.599   114186554.120    21421106.385    88811767.078    21421106.349  
                                
  20702655.996   110706389.315    20702655.424    86104978.437    20702655.424  
                                
  24668221.424   129632376.371                                                  
  24668222.800    96803404.185  
  23643906.986   124249586.063                                                  
  23643909.559    92783804.152  
  25055527.958   131667699.622                                                  
  25055529.351    98323292.335  
  23487166.153   123425916.502                                                  
  23487167.636    92168728.019  
  25913844.229   136178205.264                                                  
  25913846.034   101691543.142  
 21  9  1  8 43 53.0000000  0 17G 1G 7G 8G13G14G17G21G30R12R13R14R24
                                E13E15E21E27E30
  20681414.641   108681581.250    20681414.767    84686954.724    20681414.784  
  20681413.677    81158326.518  
  21107959.549   110923076.713    21107956.707    86433552.640    21107956.439  
                                
  23231056.022   122080028.271    23231056.165    95127302.414    23231055.379  
  23231054.539    91163654.133  
  23722966.566   124665030.778                    97141594.749    23722963.582  
                                
  21407237.146   112495796.956    21407234.823    87659058.717    21407234.627  
  21407238.665    84006612.391  
  22058339.331   115917374.306    22058336.669    90325221.802    22058336.365  
                                
  21550478.773   113248548.637                    88245629.392    21550474.949  
                                
  20637017.839   108448266.654    20637017.374    84505137.373    20637016.892  
  20637017.374    80984094.659  
  21643045.976   115613276.071    21643046.512    89921446.658    21643046.601  
                                
  19267090.283   102885186.842    19267090.247    80021810.854    19267090.247  
                                
  21420480.147   114183220.180    21420480.934    88809174.013    21420480.916  
                                
  20702055.221   110703176.734    20702054.667    86102479.760    20702054.650  
                                
  24667748.520   129629891.219                                                  
  24667749.878    96801548.387  
  23643949.210   124249807.993                                                  
  23643951.784    92783969.878  
  25055177.010   131665855.224                                                  
  25055178.386    98321915.028  
  23487225.639   123426229.056                                                  
  23487227.122    92168961.421  
  25914257.379   136180376.504                                                  
  25914259.183   101693164.533  
 21  9  1  8 43 54.0000000  0 17G 1G 7G 8G13G14G17G21G30R12R13R14R24
                                E13E15E21E27E30
  20681127.683   108680073.269    20681127.808    84685779.672    20681127.826  
  20681126.718    81157200.426  
  21108407.346   110925429.912    21108404.505    86435386.287    21108404.237  
                                
  23231643.592   122083116.009    23231643.753    95129708.440    23231642.966  
  23231642.126    91165959.894  
  23723009.273   124665255.145                    97141769.583    23723006.289  
                                
  21406861.415   112493822.448    21406859.109    87657520.135    21406858.895  
  21406862.933    84005137.914  
  22057926.914   115915206.978    22057924.252    90323532.973    22057923.930  
                                
  21550681.568   113249614.329                    88246459.803    21550677.744  
                                
  20637057.097   108448472.887    20637056.632    84505298.076    20637056.150  
  20637056.632    80984248.659  
  21643625.343   115616370.938    21643625.879    89923853.782    21643625.969  
                                
  19267093.178   102885202.270    19267093.124    80021822.854    19267093.142  
                                
  21419854.714   114179886.249    21419855.500    88806580.953    21419855.464  
                                
  20701454.554   110699964.535    20701453.982    86099981.386    20701453.964  
                                
  24667275.634   129627406.184                                                  
  24667277.010    96799692.679  
  23643991.506   124250030.213                                                  
  23643994.080    92784135.822  
  25054826.009   131664010.736                                                  
  25054827.385    98320537.648  
  23487285.125   123426541.671                                                  
  23487286.608    92169194.868  
  25914670.564   136182547.720                                                  
  25914672.369   101694785.893  
 21  9  1  8 43 55.0000000  0 17G 1G 7G 8G13G14G17G21G30R12R13R14R24
                                E13E15E21E27E30
  20680840.796   108678565.728    20680840.939    84684604.965    20680840.939  
  20680839.831    81156074.661  
  21108855.216   110927783.360    21108852.374    86437220.136    21108852.106  
                                
  23232231.125   122086203.554    23232231.286    95132114.318    23232230.500  
  23232229.660    91168265.535  
  23723052.034   124665479.865                    97141944.690    23723049.032  
                                
  21406485.665   112491847.890    21406483.342    87655981.518    21406483.145  
  21406487.184    84003663.404  
  22057514.497   115913039.715    22057511.835    90321844.196    22057511.513  
                                
  21550884.435   113250680.350                    88247290.467    21550880.611  
                                
  20637096.409   108448679.510    20637095.944    84505459.081    20637095.462  
  20637095.944    80984402.956  
  21644204.729   115619465.943    21644205.265    89926261.012    21644205.336  
                                
  19267096.144   102885218.086    19267096.091    80021835.153    19267096.108  
                                
  21419229.262   114176552.237    21419230.048    88803987.837    21419230.013  
                                
  20700853.905   110696752.674    20700853.333    86097483.271    20700853.333  
                                
  24666802.748   129624921.202                                                  
  24666804.124    96797837.009  
  23644033.820   124250252.653                                                  
  23644036.393    92784301.930  
  25054474.972   131662166.086                                                  
  25054476.348    98319160.143  
  23487344.593   123426854.264                                                  
  23487346.094    92169428.295  
  25915083.696   136184718.795                                                  
  25915085.483   101696407.166  
 21  9  1  8 43 56.0000000  0 17G 1G 7G 8G13G14G17G21G30R12R13R14R24
                                E13E15E21E27E30
  20680554.034   108677058.751    20680554.159    84683430.697    20680554.177  
  20680553.069    81154949.325  
  21109303.138   110930137.216    21109300.297    86439054.308    21109300.029  
                                
  23232818.659   122089291.060    23232818.819    95134520.167    23232818.015  
  23232817.176    91170571.142  
  23723094.884   124665705.067                    97142120.183    23723091.882  
                                
  21406109.933   112489873.432    21406107.628    87654442.977    21406107.431  
  21406111.469    84002188.971  
  22057102.116   115910872.674    22057099.453    90320155.596    22057099.132  
                                
  21551087.392   113251746.849                    88248121.505    21551083.568  
                                
  20637135.828   108448886.688    20637135.363    84505620.514    20637134.881  
  20637135.363    80984557.663  
  21644784.167   115622561.251    21644784.703    89928668.477    21644784.775  
                                
  19267099.200   102885234.427    19267099.146    80021847.862    19267099.164  
                                
  21418603.811   114173218.321    21418604.597    88801394.789    21418604.579  
                                
  20700253.345   110693541.264    20700252.791    86094985.508    20700252.773  
                                
  24666329.916   129622436.393                                                  
  24666331.274    96795981.485  
  23644076.224   124250475.462                                                  
  23644078.815    92784468.316  
  25054123.935   131660321.415                                                  
  25054125.329    98317782.635  
  23487404.115   123427166.988                                                  
  23487405.616    92169661.823  
  25915496.863   136186889.943                                                  
  25915498.650   101698028.463  
 21  9  1  8 43 57.0000000  0 17G 1G 7G 8G13G14G17G21G30R12R13R14R24
                                E13E15E21E27E30
  20680267.361   108675552.317    20680267.486    84682256.850    20680267.504  
  20680266.396    81153824.388  
  21109751.133   110932491.436    21109748.291    86440888.767    21109748.006  
                                
  23233406.174   122092378.502    23233406.335    95136925.968    23233405.549  
  23233404.709    91172876.693  
  23723137.823   124665930.752                    97142296.039    23723134.821  
                                
  21405734.219   112487899.035    21405731.914    87652904.486    21405731.699  
  21405735.738    84000714.580  
  22056689.788   115908705.813    22056687.126    90318467.132    22056686.804  
                                
  21551290.402   113252813.779                    88248952.877    21551286.578  
                                
  20637175.354   108449094.350    20637174.890    84505782.329    20637174.407  
  20637174.890    80984712.733  
  21645363.660   115625656.817    21645364.196    89931076.141    21645364.267  
                                
  19267102.363   102885251.277    19267102.309    80021860.968    19267102.327  
                                
  21417978.395   114169884.473    21417979.181    88798801.801    21417979.145  
                                
  20699652.874   110690330.232    20699652.302    86092488.041    20699652.285  
                                
  24665857.102   129619951.755                                                  
  24665858.478    96794126.078  
  23644118.680   124250698.592                                                  
  23644121.253    92784634.938  
  25053772.898   131658476.689                                                  
  25053774.274    98316405.080  
  23487463.636   123427479.791                                                  
  23487465.119    92169895.410  
  25915909.995   136189061.033                                                  
  25915911.800   101699649.753  
 21  9  1  8 43 58.0000000  0 17G 1G 7G 8G13G14G17G21G30R12R13R14R24
                                E13E15E21E27E30
  20679980.795   108674046.408    20679980.920    84681083.414    20679980.938  
  20679979.830    81152699.846  
  21110199.180   110934845.991    21110196.339    86442723.487    21110196.053  
                                
  23233993.672   122095465.832    23233993.833    95139331.680    23233993.029  
  23233992.189    91175182.178  
  23723180.869   124666156.907                    97142472.257    23723177.867  
                                
  21405358.522   112485924.671    21405356.199    87651366.020    21405356.003  
  21405360.041    83999240.223  
  22056277.478   115906539.110    22056274.816    90316778.797    22056274.494  
                                
  21551493.519   113253881.117                    88249784.569    21551489.695  
                                
  20637214.952   108449302.491    20637214.487    84505944.516    20637214.005  
  20637214.487    80984868.167  
  21645943.188   115628752.654    21645943.724    89933484.019    21645943.813  
                                
  19267105.597   102885268.602    19267105.561    80021874.443    19267105.561  
                                
  21417352.997   114166550.681    21417353.783    88796208.854    21417353.747  
                                
  20699052.475   110687119.553    20699051.903    86089990.849    20699051.885  
                                
  24665384.305   129617467.257                                                  
  24665385.663    96792270.755  
  23644161.209   124250922.033                                                  
  23644163.782    92784801.793  
  25053421.843   131656631.895                                                  
  25053423.219    98315027.470  
  23487523.194   123427792.674                                                  
  23487524.695    92170129.052  
  25916323.181   136191232.158                                                  
  25916324.985   101701271.017  
 21  9  1  8 43 59.0000000  0 17G 1G 7G 8G13G14G17G21G30R12R13R14R24
                                E13E15E21E27E30
  20679694.301   108672540.810    20679694.426    84679910.223    20679694.444  
  20679693.336    81151575.536  
  21110647.282   110937200.698    21110644.441    86444558.319    21110644.155  
                                
  23234581.116   122098552.880    23234581.277    95141737.170    23234580.491  
  23234579.651    91177487.430  
  23723223.934   124666383.291                    97142648.660    23723220.932  
                                
  21404982.773   112483950.139    21404980.450    87649827.427    21404980.253  
  21404984.292    83997765.735  
  22055865.151   115904372.352    22055862.488    90315090.409    22055862.166  
                                
  21551696.672   113254948.669                    88250616.428    21551692.848  
                                
  20637254.621   108449510.913    20637254.157    84506106.928    20637253.674  
  20637254.157    80985023.807  
  21646522.752   115631848.520    21646523.288    89935891.906    21646523.359  
                                
  19267108.885   102885286.177    19267108.849    80021888.110    19267108.867  
                                
  21416727.545   114163216.738    21416728.332    88793615.787    21416728.296  
                                
  20698452.076   110683909.051    20698451.504    86087493.791    20698451.504  
                                
  24664911.509   129614982.698                                                  
  24664912.885    96790415.394  
  23644203.737   124251145.576                                                  
  23644206.310    92784968.721  
  25053070.753   131654786.819                                                  
  25053072.128    98313649.652  
  23487582.698   123428105.416                                                  
  23487584.199    92170362.595  
  25916736.277   136193403.013                                                  
  25916738.081   101702892.110  
 21  9  1  8 44  0.0000000  0 17G 1G 7G 8G13G14G17G21G30R12R13R14R24
                                E13E15E21E27E30
  20679407.932   108671035.919    20679408.057    84678737.581    20679408.075  
  20679406.967    81150451.751  
  21111095.473   110939555.907    21111092.632    86446393.535    21111092.346  
                                
  23235168.578   122101640.002    23235168.739    95144142.725    23235167.953  
  23235167.113    91179792.746  
  23723267.141   124666610.309                    97142825.557    23723264.121  
                                
  21404607.059   112481975.839    21404604.753    87648289.011    21404604.557  
  21404608.595    83996291.414  
  22055452.894   115902205.928    22055450.232    90313402.289    22055449.910  
                                
  21551899.950   113256016.815                    88251448.751    21551896.108  
                                
  20637294.398   108449719.992    20637293.933    84506269.844    20637293.451  
  20637293.933    80985179.939  
  21647102.387   115634944.775    21647102.905    89938300.101    21647102.995  
                                
  19267112.316   102885304.420    19267112.262    80021902.299    19267112.280  
                                
  21416102.147   114159882.985    21416102.934    88791022.866    21416102.898  
                                
  20697851.802   110680699.121    20697851.230    86084997.180    20697851.212  
                                
  24664438.784   129612498.435                                                  
  24664440.160    96788560.260  
  23644246.372   124251369.609                                                  
  23644248.963    92785136.018  
  25052719.662   131652941.841                                                  
  25052721.038    98312271.914  
  23487642.255   123428418.404                                                  
  23487643.738    92170596.322  
  25917149.391   136195574.009                                                  
  25917151.195   101704513.313  
 21  9  1  8 44  1.0000000  0 17G 1G 7G 8G13G14G17G21G30R12R13R14R24
                                E13E15E21E27E30
  20679121.653   108669531.527    20679121.778    84677565.327    20679121.796  
  20679120.688    81149328.344  
  21111543.717   110941911.450    21111540.876    86448229.019    21111540.590  
                                
  23235756.004   122104726.980    23235756.165    95146548.162    23235755.379  
  23235754.521    91182097.964  
  23723310.420   124666837.717                    97143002.756    23723307.400  
                                
  21404231.380   112480001.551    21404229.057    87646750.605    21404228.861  
  21404232.899    83994817.117  
  22055040.656   115900039.653    22055037.994    90311714.280    22055037.672  
                                
  21552103.263   113257085.353                    88252281.378    21552099.439  
                                
  20637334.281   108449929.544    20637333.817    84506433.132    20637333.334  
  20637333.835    80985336.421  
  21647682.040   115638041.211    21647682.577    89940708.443    21647682.648  
                                
  19267115.818   102885323.128    19267115.764    80021916.852    19267115.782  
                                
  21415476.732   114156549.203    21415477.518    88788429.929    21415477.482  
                                
  20697251.599   110677489.559    20697251.009    86082500.856    20697251.009  
                                
  24663966.059   129610014.298                                                  
  24663967.435    96786705.228  
  23644289.061   124251593.936                                                  
  23644291.635    92785303.531  
  25052368.554   131651096.786                                                  
  25052369.929    98310894.109  
  23487701.830   123428731.448                                                  
  23487703.331    92170830.089  
  25917562.522   136197744.985                                                  
  25917564.345   101706134.493  
 21  9  1  8 44  2.0000000  0 17G 1G 7G 8G13G14G17G21G30R12R13R14R24
                                E13E15E21E27E30
  20678835.445   108668027.558    20678835.570    84676393.399    20678835.588  
  20678834.480    81148205.252  
  21111992.015   110944267.211    21111989.174    86450064.670    21111988.906  
                                
  23236343.431   122107813.782    23236343.591    95148953.460    23236342.787  
  23236341.947    91184403.039  
  23723353.770   124667065.539                    97143180.272    23723350.750  
                                
  21403855.666   112478027.207    21403853.361    87645212.155    21403853.164  
  21403857.203    83993342.763  
  22054628.453   115897873.426    22054625.773    90310026.311    22054625.451  
                                
  21552306.666   113258154.196                    88253114.241    21552302.842  
                                
  20637374.219   108450139.460    20637373.754    84506596.702    20637373.272  
  20637373.772    80985493.178  
  21648261.729   115641137.776    21648262.265    89943116.877    21648262.337  
                                
  19267119.374   102885342.179    19267119.338    80021931.672    19267119.338  
                                
  21414851.316   114153215.340    21414852.102    88785836.927    21414852.066  
                                
  20696651.450   110674280.296    20696650.878    86080004.767    20696650.878  
                                
  24663493.334   129607530.176                                                  
  24663494.710    96784850.199  
  23644331.786   124251818.454                                                  
  23644334.377    92785471.192  
  25052017.427   131649251.546                                                  
  25052018.803    98309516.175  
  23487761.388   123429044.451                                                  
  23487762.871    92171063.822  
  25917975.601   136199915.793                                                  
  25917977.405   101707755.558  
 21  9  1  8 44  3.0000000  0 17G 1G 7G 8G13G14G17G21G30R12R13R14R24
                                E13E15E21E27E30
  20678549.308   108666523.882    20678549.433    84675221.705    20678549.451  
  20678548.343    81147082.375  
  21112440.313   110946623.112    21112437.472    86451900.446    21112437.204  
                                
  23236930.750   122110900.247    23236930.910    95151358.493    23236930.124  
  23236929.284    91186707.873  
  23723397.156   124667293.510                    97143357.922    23723394.118  
                                
  21403479.916   112476052.667    21403477.611    87643673.554    21403477.415  
  21403481.453    83991868.268  
  22054216.197   115895707.131    22054213.535    90308338.287    22054213.213  
                                
  21552510.105   113259223.228                    88253947.250    21552506.281  
                                
  20637414.227   108450349.637    20637413.763    84506760.474    20637413.280  
  20637413.763    80985650.126  
  21648841.418   115644234.376    21648841.954    89945525.340    21648842.026  
                                
  19267122.983   102885361.487    19267122.948    80021946.689    19267122.948  
                                
  21414225.846   114149881.293    21414226.615    88783243.774    21414226.579  
                                
  20696051.337   110671071.242    20696050.765    86077508.836    20696050.747  
                                
  24663020.609   129605045.960                                                  
  24663021.985    96782995.109  
  23644374.529   124252043.051                                                  
  23644377.102    92785638.913  
  25051666.230   131647405.989                                                  
  25051667.605    98308137.999  
  23487820.927   123429357.295                                                  
  23487822.428    92171297.440  
  25918388.661   136202086.366                                                  
  25918390.484   101709376.434  
 21  9  1  8 44  4.0000000  0 17G 1G 7G 8G13G14G17G21G30R12R13R14R24
                                E13E15E21E27E30
  20678263.368   108665021.209    20678263.493    84674050.790    20678263.511  
  20678262.403    81145960.250  
  21112888.772   110948979.817    21112885.931    86453736.852    21112885.645  
                                
  23237518.176   122113987.128    23237518.337    95153763.855    23237517.533  
  23237516.693    91189013.007  
  23723440.703   124667522.450                    97143536.314    23723437.683  
                                
  21403104.292   112474078.652    21403101.969    87642135.356    21403101.772  
  21403105.810    83990394.175  
  22053804.102   115893541.487    22053801.439    90306650.777    22053801.118  
                                
  21552713.705   113260293.172                    88254780.975    21552709.863  
                                
  20637454.397   108450560.782    20637453.932    84506925.003    20637453.450  
  20637453.932    80985807.800  
  21649421.232   115647331.719    21649421.769    89947934.391    21649421.858  
                                
  19267126.790   102885381.763    19267126.736    80021962.457    19267126.754  
                                
  21413600.484   114146547.787    21413601.270    88780651.052    21413601.235  
                                
  20695451.384   110667863.089    20695450.813    86075013.606    20695450.813  
                                
  24662547.991   129602562.372                                                  
  24662549.367    96781140.491  
  23644417.415   124252268.437                                                  
  23644420.006    92785807.225  
  25051315.103   131645560.864                                                  
  25051316.497    98306760.146  
  23487880.556   123429670.700                                                  
  23487882.057    92171531.476  
  25918801.775   136204257.394                                                  
  25918803.598   101710997.648  
 21  9  1  8 44  5.0000000  0 17G 1G 7G 8G13G14G17G21G30R12R13R14R24
                                E13E15E21E27E30
  20677977.624   108663519.640    20677977.749    84672880.738    20677977.767  
  20677976.659    81144838.950  
  21113337.428   110951337.444    21113334.569    86455573.966    21113334.301  
                                
  23238105.674   122117074.485    23238105.852    95156169.585    23238105.048  
  23238104.208    91191318.494  
  23723484.500   124667752.458                    97143715.532    23723481.462  
                                
  21402728.756   112472105.258    21402726.451    87640597.647    21402726.237  
  21402730.275    83988920.537  
  22053392.131   115891376.569    22053389.451    90304963.827    22053389.129  
                                
  21552917.501   113261364.099                    88255615.463    21552913.659  
                                
  20637494.781   108450772.966    20637494.316    84507090.341    20637493.834  
  20637494.316    80985966.251  
  21650001.225   115650429.895    21650001.761    89950344.081    21650001.851  
                                
  19267130.774   102885403.099    19267130.739    80021979.049    19267130.739  
                                
  21412975.265   114143214.919    21412976.033    88778058.819    21412975.998  
                                
  20694851.629   110664655.868    20694851.057    86072519.101    20694851.057  
                                
  24662075.498   129600079.488                                                  
  24662076.874    96779286.389  
  23644460.479   124252494.709                                                  
  23644463.052    92785976.193  
  25050964.084   131643716.228                                                  
  25050965.460    98305382.660  
  23487940.310   123429984.742                                                  
  23487941.811    92171765.988  
  25919215.032   136206428.980                                                  
  25919216.872   101712619.277  
 21  9  1  8 44  6.0000000  0 17G 1G 7G 8G13G14G17G21G30R12R13R14R24
                                E13E15E21E27E30
  20677692.006   108662018.758    20677692.131    84671711.222    20677692.149  
  20677691.041    81143718.164  
  21113786.172   110953695.611    21113783.331    86457411.489    21113783.045  
                                
  23238693.207   122120161.915    23238693.368    95158575.372    23238692.564  
  23238691.724    91193624.040  
  23723528.368   124667983.015                    97143895.177    23723525.330  
                                
  21402353.274   112470132.071    21402350.951    87639060.101    21402350.755  
  21402354.793    83987447.050  
  22052980.233   115889211.985    22052977.552    90303277.141    22052977.231  
                                
  21553121.387   113262435.621                    88256450.416    21553117.563  
                                
  20637535.290   108450985.813    20637534.808    84507256.194    20637534.325  
  20637534.825    80986125.191  
  21650581.289   115653528.461    21650581.826    89952754.077    21650581.897  
                                
  19267134.884   102885425.063    19267134.849    80021996.133    19267134.849  
                                
  21412350.064   114139882.270    21412350.832    88775466.759    21412350.814  
                                
  20694251.962   110661449.169    20694251.390    86070025.002    20694251.372  
                                
  24661603.113   129597596.930                                                  
  24661604.489    96777432.524  
  23644503.615   124252721.460                                                  
  23644506.188    92786145.522  
  25050613.083   131641871.687                                                  
  25050614.459    98304005.243  
  23488000.136   123430299.018                                                  
  23488001.619    92172000.675  
  25919628.289   136208600.680                                                  
  25919630.129   101714241.010  
 21  9  1  8 44  7.0000000  0 17G 1G 7G 8G13G14G17G21G30R12R13R14R24
                                E13E15E21E27E30
  20677406.530   108660518.509    20677406.655    84670542.195    20677406.673  
  20677405.565    81142597.848  
  21114235.007   110956054.197    21114232.183    86459249.335    21114231.897  
                                
  23239280.723   122123249.363    23239280.901    95160981.171    23239280.097  
  23239279.257    91195929.593  
  23723572.344   124668214.149                    97144075.273    23723569.306  
                                
  21401977.811   112468159.036    21401975.505    87637522.671    21401975.291  
  21401979.329    83985973.678  
  22052568.369   115887047.668    22052565.689    90301590.662    22052565.367  
                                
  21553325.397   113263507.660                    88257285.771    21553321.573  
                                
  20637575.906   108451199.242    20637575.442    84507422.502    20637574.941  
  20637575.442    80986284.570  
  21651161.407   115656627.370    21651161.943    89955164.335    21651162.015  
                                
  19267139.101   102885447.618    19267139.066    80022013.673    19267139.083  
                                
  21411724.898   114136549.765    21411725.684    88772874.810    21411725.648  
                                
  20693652.403   110658242.964    20693651.813    86067531.286    20693651.813  
                                
  24661130.727   129595114.613                                                  
  24661132.121    96775578.835  
  23644546.858   124252948.615                                                  
  23644549.431    92786315.155  
  25050262.082   131640027.189                                                  
  25050263.475    98302627.859  
  23488059.961   123430613.480                                                  
  23488061.462    92172235.500  
  25920041.563   136210772.465                                                  
  25920043.404   101715862.800  
 21  9  1  8 44  8.0000000  0 17G 1G 7G 8G13G14G17G21G30R12R13R14R24
                                E13E15E21E27E30
  20677121.144   108659018.842    20677121.287    84669373.623    20677121.287  
  20677120.179    81141477.965  
  21114683.912   110958413.200    21114681.071    86461087.519    21114680.785  
                                
  23239868.238   122126336.757    23239868.399    95163386.929    23239867.595  
  23239866.755    91198235.126  
  23723616.445   124668445.801                    97144255.783    23723613.407  
                                
  21401602.382   112466186.106    21401600.077    87635985.323    21401599.881  
  21401603.919    83984500.389  
  22052156.560   115884883.579    22052153.880    90299904.360    22052153.558  
                                
  21553529.497   113264580.189                    88258121.506    21553525.673  
                                
  20637616.612   108451413.219    20637616.147    84507589.235    20637615.665  
  20637616.147    80986444.355  
  21651741.597   115659726.571    21651742.133    89957574.825    21651742.204  
                                
  19267143.444   102885470.712    19267143.408    80022031.635    19267143.426  
                                
  21411099.750   114133217.331    21411100.519    88770282.917    21411100.483  
                                
  20693052.897   110655037.239    20693052.325    86065037.949    20693052.307  
                                
  24660658.413   129592632.483                                                  
  24660659.789    96773725.294  
  23644590.137   124253176.158                                                  
  23644592.728    92786485.069  
  25049911.080   131638182.674                                                  
  25049912.474    98301250.463  
  23488119.840   123430928.070                                                  
  23488121.341    92172470.424  
  25920454.838   136212944.289                                                  
  25920456.679   101717484.619  
 21  9  1  8 44  9.0000000  0 17G 1G 7G 8G13G14G17G21G30R12R13R14R24
                                E13E15E21E27E30
  20676835.883   108657519.820    20676836.026    84668205.558    20676836.044  
  20676834.936    81140358.563  
  21115132.907   110960772.658    21115130.066    86462926.062    21115129.780  
                                
  23240455.736   122129424.179    23240455.915    95165792.718    23240455.111  
  23240454.271    91200540.664  
  23723660.617   124668677.971                    97144436.700    23723657.579  
                                
  21401226.990   112464213.335    21401224.667    87634448.099    21401224.470  
  21401228.509    83983027.209  
  22051744.786   115882719.755    22051742.106    90298218.261    22051741.802  
                                
  21553733.687   113265653.241                    88258957.652    21553729.863  
                                
  20637657.460   108451627.789    20637656.996    84507756.437    20637656.496  
  20637656.996    80986604.588  
  21652321.822   115662826.128    21652322.376    89959985.587    21652322.447  
                                
  19267147.875   102885494.385    19267147.839    80022050.048    19267147.839  
                                
  21410474.620   114129885.051    21410475.389    88767691.142    21410475.353  
                                
  20692453.498   110651832.066    20692452.927    86062545.035    20692452.909  
                                
  24660186.117   129590150.600                                                  
  24660187.511    96771871.942  
  23644633.523   124253404.112                                                  
  23644636.114    92786655.299  
  25049560.097   131636338.200                                                  
  25049561.473    98299873.092  
  23488179.737   123431242.849                                                  
  23488181.238    92172705.485  
  25920868.149   136215116.215                                                  
  25920869.989   101719106.496  
 21  9  1  8 44 10.0000000  0 17G 1G 7G 8G13G14G17G21G30R12R13R14R24
                                E13E15E21E27E30
  20676550.783   108656021.500    20676550.908    84667038.036    20676550.926  
  20676549.818    81139239.698  
  21115581.991   110963132.659    21115579.150    86464765.017    21115578.882  
                                
  23241043.270   122132511.682    23241043.430    95168198.561    23241042.626  
  23241041.786    91202846.289  
  23723704.932   124668910.849                    97144618.167    23723701.876  
                                
  21400851.615   112462240.796    21400849.310    87632911.055    21400849.096  
  21400853.134    83981554.213  
  22051333.102   115880556.286    22051330.421    90296532.441    22051330.118  
                                
  21553938.001   113266726.906                    88259794.272    21553934.177  
                                
  20637698.398   108451843.019    20637697.934    84507924.151    20637697.433  
  20637697.934    80986765.321  
  21652902.154   115665926.129    21652902.708    89962396.698    21652902.779  
                                
  19267152.432   102885518.711    19267152.396    80022068.970    19267152.396  
                                
  21409849.526   114126553.007    21409850.312    88765099.552    21409850.277  
                                
  20691854.243   110648627.491    20691853.671    86060052.590    20691853.653  
                                
  24659713.892   129587669.057                                                  
  24659715.286    96770018.846  
  23644676.998   124253632.568                                                  
  23644679.589    92786825.897  
  25049209.114   131634493.850                                                  
  25049210.490    98298495.821  
  23488239.688   123431557.891                                                  
  23488241.171    92172940.744  
  25921281.477   136217288.294                                                  
  25921283.335   101720728.505  
 21  9  1  8 44 11.0000000  0 17G 1G 7G 8G13G14G17G21G30R12R13R14R24
                                E13E15E21E27E30
  20676265.754   108654523.672    20676265.879    84665870.900    20676265.897  
  20676264.789    81138121.180  
  21116031.147   110965492.974    21116028.324    86466604.226    21116028.038  
                                
  23241630.803   122135599.080    23241630.964    95170604.325    23241630.160  
  23241629.320    91205151.791  
  23723749.337   124669144.123                    97144799.942    23723746.281  
                                
  21400476.259   112460268.248    21400473.936    87631374.003    21400473.739  
  21400477.778    83980081.200  
  22050921.417   115878392.937    22050918.755    90294846.714    22050918.433  
                                
  21554142.387   113267800.934                    88260631.182    21554138.545  
                                
  20637739.461   108452058.692    20637738.979    84508092.208    20637738.497  
  20637738.997    80986926.369  
  21653482.522   115669026.300    21653483.058    89964807.945    21653483.147  
                                
  19267157.078   102885543.506    19267157.024    80022088.254    19267157.042  
                                
  21409224.468   114123220.972    21409225.236    88762507.972    21409225.200  
                                
  20691255.023   110645423.214    20691254.433    86057560.377    20691254.433  
                                
  24659241.704   129585187.594                                                  
  24659243.079    96768165.797  
  23644720.509   124253861.279                                                  
  23644723.100    92786996.690  
  25048858.130   131632649.379                                                  
  25048859.506    98297118.452  
  23488299.639   123431872.951                                                  
  23488301.140    92173176.014  
  25921694.805   136219460.296                                                  
  25921696.646   101722350.453  
 21  9  1  8 44 12.0000000  0 17G 1G 7G 8G13G14G17G21G30R12R13R14R24
                                E13E15E21E27E30
  20675980.725   108653025.885    20675980.850    84664703.795    20675980.868  
  20675979.760    81137002.705  
  21116480.267   110967853.130    21116477.426    86468443.302    21116477.140  
                                
  23242218.194   122138685.891    23242218.354    95173009.628    23242217.550  
  23242216.710    91207456.882  
  23723793.705   124669377.329                    97144981.661    23723790.650  
                                
  21400100.813   112458295.278    21400098.490    87629836.625    21400098.293  
  21400102.331    83978607.884  
  22050509.697   115876229.281    22050507.035    90293160.750    22050506.713  
                                
  21554346.755   113268874.916                    88261468.048    21554342.931  
                                
  20637780.489   108452274.382    20637780.024    84508260.279    20637779.524  
  20637780.024    80987087.437  
  21654062.818   115672126.205    21654063.354    89967218.982    21654063.426  
                                
  19267161.706   102885568.285    19267161.670    80022107.527    19267161.670  
                                
  21408599.284   114119888.505    21408600.053    88759916.055    21408600.017  
                                
  20690655.785   110642218.806    20690655.214    86055068.057    20690655.196  
                                
  24658769.425   129582705.811                                                  
  24658770.819    96766312.521  
  23644764.020   124254089.849                                                  
  23644766.611    92787167.371  
  25048507.040   131630804.371                                                  
  25048508.416    98295740.687  
  23488359.518   123432187.624                                                  
  23488361.019    92173410.997  
  25922108.044   136221631.814                                                  
  25922109.903   101723972.035  
 21  9  1  8 44 13.0000000  0 17G 1G 7G 8G13G14G17G21G30R12R13R14R24
                                E13E15E21E27E30
  20675695.893   108651529.038    20675696.018    84663537.421    20675696.036  
  20675694.928    81135884.931  
  21116929.548   110970214.064    21116926.707    86470282.990    21116926.421  
                                
  23242805.656   122141773.021    23242805.816    95175415.184    23242805.030  
  23242804.190    91209762.206  
  23723838.253   124669611.413                    97145164.050    23723835.197  
                                
  21399725.456   112456322.756    21399723.133    87628299.593    21399722.936  
  21399726.975    83977134.893  
  22050098.066   115874066.190    22050095.404    90291475.223    22050095.082  
                                
  21554551.302   113269949.722                    88262305.557    21554547.460  
                                
  20637821.713   108452490.962    20637821.248    84508429.040    20637820.748  
  20637821.248    80987249.168  
  21654643.258   115675226.767    21654643.794    89969630.530    21654643.865  
                                
  19267166.512   102885593.950    19267166.459    80022127.489    19267166.477  
                                
  21407974.208   114116556.473    21407974.976    88757324.480    21407974.941  
                                
  20690056.691   110639015.186    20690056.101    86052576.353    20690056.083  
                                
  24658297.272   129580224.567                                                  
  24658298.666    96764459.632  
  23644807.656   124254319.120                                                  
  23644810.229    92787338.580  
  25048156.003   131628959.694                                                  
  25048157.379    98294363.168  
  23488419.504   123432502.766                                                  
  23488420.987    92173646.332  
  25922521.337   136223803.696                                                  
  25922523.195   101725593.895  
 21  9  1  8 44 14.0000000  0 17G 1G 7G 8G13G14G17G21G30R12R13R14R24
                                E13E15E21E27E30
  20675411.222   108650033.156    20675411.347    84662371.801    20675411.365  
  20675410.257    81134767.885  
  21117378.972   110972575.779    21117376.148    86472123.290    21117375.863  
                                
  23243393.189   122144860.510    23243393.350    95177821.026    23243392.546  
  23243391.706    91212067.816  
  23723882.961   124669846.425                    97145347.183    23723879.905  
                                
  21399350.189   112454350.739    21399347.883    87626762.961    21399347.669  
  21399351.725    83975662.288  
  22049686.561   115871903.728    22049683.898    90289790.189    22049683.577  
                                
  21554755.991   113271025.400                    88263143.752    21554752.149  
                                
  20637863.115   108452708.487    20637862.650    84508598.542    20637862.150  
  20637862.650    80987411.610  
  21655223.822   115678328.065    21655224.376    89972042.651    21655224.448  
                                
  19267171.516   102885620.569    19267171.462    80022148.195    19267171.480  
                                
  21407349.221   114113224.929    21407349.989    88754733.279    21407349.954  
                                
  20689457.757   110635812.441    20689457.167    86050085.334    20689457.149  
                                
  24657825.190   129577743.905                                                  
  24657826.584    96762607.206  
  23644851.417   124254549.172                                                  
  23644854.008    92787510.376  
  25047805.037   131627115.396                                                  
  25047806.431    98292985.946  
  23488479.562   123432818.448                                                  
  23488481.045    92173882.067  
  25922934.701   136225976.004                                                  
  25922936.560   101727216.092  
 21  9  1  8 44 15.0000000  0 17G 1G 7G 8G13G14G17G21G30R12R13R14R24
                                E13E15E21E27E30
  20675126.657   108648537.785    20675126.782    84661206.576    20675126.800  
  20675125.692    81133651.207  
  21117828.467   110974937.845    21117825.626    86473963.850    21117825.340  
                                
  23243980.687   122147947.861    23243980.848    95180226.752    23243980.061  
  23243979.222    91214373.303  
  23723927.777   124670081.844                    97145530.621    23723924.721  
                                
  21398974.921   112452378.725    21398972.616    87625226.327    21398972.420  
  21398976.458    83974189.684  
  22049275.091   115869741.382    22049272.428    90288105.245    22049272.107  
                                
  21554960.770   113272101.468                    88263982.247    21554956.928  
                                
  20637904.571   108452926.467    20637904.107    84508768.394    20637903.624  
  20637904.124    80987574.380  
  21655804.441   115681429.567    21655804.977    89974454.930    21655805.066  
                                
  19267176.573   102885647.623    19267176.537    80022169.233    19267176.537  
                                
  21406724.216   114109893.367    21406724.985    88752142.068    21406724.949  
                                
  20688858.912   110632610.088    20688858.322    86047594.612    20688858.305  
                                
  24657353.180   129575263.366                                                  
  24657354.574    96760754.851  
  23644895.232   124254779.488                                                  
  23644897.823    92787682.368  
  25047454.072   131625271.004                                                  
  25047455.448    98291608.636  
  23488539.655   123433134.156                                                  
  23488541.138    92174117.830  
  25923348.047   136228148.256                                                  
  25923349.906   101728838.228  
 21  9  1  8 44 16.0000000  0 17G 1G 7G 8G13G14G17G21G30R12R13R14R24
                                E13E15E21E27E30
  20674842.218   108647043.009    20674842.343    84660041.818    20674842.361  
  20674841.253    81132534.983  
  21118278.016   110977300.285    21118275.175    86475804.721    21118274.889  
                                
  23244568.202   122151035.191    23244568.363    95182632.466    23244567.559  
  23244566.719    91216678.773  
  23723972.681   124670317.782                    97145714.474    23723969.608  
                                
  21398599.690   112450406.820    21398597.367    87623689.775    21398597.170  
  21398601.208    83972717.162  
  22048863.656   115867579.278    22048860.976    90286420.488    22048860.672  
                                
  21555165.621   113273178.024                    88264821.121    21555161.779  
                                
  20637946.170   108453144.981    20637945.706    84508938.667    20637945.205  
  20637945.706    80987737.561  
  21656385.094   115684531.360    21656385.648    89976867.439    21656385.720  
                                
  19267181.737   102885675.235    19267181.701    80022190.711    19267181.719  
                                
  21406099.265   114106561.927    21406100.015    88749550.951    21406099.980  
                                
  20688260.139   110629408.229    20688259.549    86045104.278    20688259.532  
                                
  24656881.188   129572783.041                                                  
  24656882.599    96758902.650  
  23644939.154   124255010.183                                                  
  23644941.728    92787854.642  
  25047103.089   131623426.604                                                  
  25047104.465    98290231.326  
  23488599.749   123433450.014                                                  
  23488601.250    92174353.694  
  25923761.447   136230320.561                                                  
  25923763.306   101730460.404  
 21  9  1  8 44 17.0000000  0 17G 1G 7G 8G13G14G17G21G30R12R13R14R24
                                E13E15E21E27E30
  20674557.922   108645549.017    20674558.047    84658877.666    20674558.065  
  20674556.957    81131419.342  
  21118727.708   110979663.358    21118724.867    86477646.081    21118724.581  
                                
  23245155.718   122154122.677    23245155.879    95185038.295    23245155.093  
  23245154.253    91218984.374  
  23724017.694   124670554.451                    97145898.903    23724014.638  
                                
  21398224.494   112448435.246    21398222.189    87622153.482    21398221.992  
  21398226.030    83971244.874  
  22048452.311   115865417.593    22048449.631    90284736.056    22048449.309  
                                
  21555370.614   113274255.254                    88265660.519    21555366.772  
                                
  20637987.877   108453364.251    20637987.412    84509109.525    20637986.930  
  20637987.412    80987901.304  
  21656965.856   115687633.655    21656966.392    89979280.335    21656966.481  
                                
  19267187.044   102885703.590    19267187.008    80022212.762    19267187.026  
                                
  21405474.332   114103230.815    21405475.100    88746960.090    21405475.064  
                                
  20687661.509   110626207.037    20687660.919    86042614.464    20687660.901  
                                
  24656409.285   129570303.106                                                  
  24656410.696    96757050.755  
  23644983.148   124255241.450                                                  
  23644985.739    92788027.339  
  25046752.141   131621582.397                                                  
  25046753.517    98288854.163  
  23488659.914   123433766.204                                                  
  23488661.415    92174589.807  
  25924174.865   136232493.115                                                  
  25924176.723   101732082.768  
 21  9  1  8 44 18.0000000  0 17G 1G 7G 8G13G14G17G21G30R12R13R14R24
                                E13E15E21E27E30
  20674273.805   108644055.937    20674273.930    84657714.227    20674273.948  
  20674272.840    81130304.378  
  21119177.489   110982027.144    21119174.648    86479488.002    21119174.362  
                                
  23245743.305   122157210.462    23245743.466    95187444.359    23245742.662  
  23245741.822    91221290.174  
  23724062.884   124670791.924                    97146083.952    23724059.811  
                                
  21397849.387   112446464.078    21397847.082    87620617.511    21397846.886  
  21397850.924    83969772.902  
  22048041.056   115863256.466    22048038.376    90283052.068    22048038.072  
                                
  21555575.751   113275333.285                    88266500.546    21555571.909  
                                
  20638029.779   108453584.394    20638029.315    84509281.062    20638028.832  
  20638029.315    80988065.692  
  21657546.724   115690736.565    21657547.260    89981693.711    21657547.349  
                                
  19267192.530   102885732.827    19267192.494    80022235.504    19267192.512  
                                
  21404849.523   114099900.131    21404850.274    88744369.558    21404850.238  
                                
  20687063.004   110623006.628    20687062.414    86040125.259    20687062.396  
                                
  24655937.471   129567823.700                                                  
  24655938.883    96755199.235  
  23645027.284   124255473.412                                                  
  23645029.875    92788200.555  
  25046401.265   131619738.516                                                  
  25046402.641    98287477.235  
  23488720.186   123434082.846                                                  
  23488721.669    92174826.260  
  25924588.354   136234666.018                                                  
  25924590.230   101733705.382  
 21  9  1  8 44 19.0000000  0 17G 1G 7G 8G13G14G17G21G30R12R13R14R24
                                E13E15E21E27E30
  20673989.812   108642563.647    20673989.937    84656551.406    20673989.955  
  20673988.847    81129190.009  
  21119627.431   110984391.529    21119624.590    86481330.368    21119624.304  
                                
  23246330.910   122160298.388    23246331.071    95189850.539    23246330.267  
  23246329.427    91223596.104  
  23724108.218   124671030.096                    97146269.522    23724105.145  
                                
  21397474.352   112444493.223    21397472.047    87619081.771    21397471.850  
  21397475.889    83968301.153  
  22047629.890   115861095.749    22047627.209    90281368.393    22047626.888  
                                
  21555781.030   113276411.988                    88267341.094    21555777.188  
                                
  20638071.807   108453805.270    20638071.343    84509453.171    20638070.842  
  20638071.343    80988230.629  
  21658127.699   115693839.981    21658128.236    89984107.479    21658128.307  
                                
  19267198.141   102885762.819    19267198.105    80022258.831    19267198.123  
                                
  21404224.733   114096569.736    21404225.501    88741779.244    21404225.466  
                                
  20686464.624   110619806.851    20686464.034    86037636.546    20686464.034  
                                
  24655465.729   129565344.680                                                  
  24655467.140    96753348.030  
  23645071.546   124255705.946                                                  
  23645074.137    92788374.199  
  25046050.424   131617894.813                                                  
  25046051.800    98286100.442  
  23488780.494   123434399.819                                                  
  23488781.995    92175062.963  
  25925001.897   136236839.138                                                  
  25925003.755   101735328.171  
 21  9  1  8 44 20.0000000  0 17G 1G 7G 8G13G14G17G21G30R12R13R14R24
                                E13E15E21E27E30
  20673705.999   108641072.122    20673706.124    84655389.177    20673706.142  
  20673705.034    81128076.206  
  21120077.480   110986756.518    21120074.639    86483173.205    21120074.353  
                                
  23246918.569   122163386.469    23246918.729    95192256.836    23246917.925  
  23246917.085    91225902.136  
  23724153.677   124671268.966                    97146455.652    23724150.603  
                                
  21397099.371   112442522.644    21397097.066    87617546.261    21397096.869  
  21397100.907    83966829.619  
  22047218.795   115858935.443    22047216.115    90279685.037    22047215.793  
                                
  21555986.416   113277491.358                    88268182.161    21555982.575  
                                
  20638113.978   108454026.873    20638113.514    84509625.851    20638113.031  
  20638113.514    80988396.110  
  21658708.764   115696943.919    21658709.300    89986521.651    21658709.372  
                                
  19267203.894   102885793.544    19267203.841    80022282.729    19267203.859  
                                
  21403600.032   114093239.642    21403600.782    88739189.171    21403600.747  
                                
  20685866.369   110616607.701    20685865.779    86035148.318    20685865.761  
                                
  24654994.040   129562866.046                                                  
  24654995.470    96751497.102  
  23645115.897   124255939.021                                                  
  23645118.488    92788548.252  
  25045699.602   131616051.290                                                  
  25045700.978    98284723.783  
  23488840.873   123434717.109                                                  
  23488842.374    92175299.901  
  25925415.440   136239012.473                                                  
  25925417.316   101736951.120  
 21  9  1  8 44 21.0000000  0 17G 1G 7G 8G13G14G17G21G30R12R13R14R24
                                E13E15E21E27E30
  20673422.274   108639581.185    20673422.399    84654227.412    20673422.417  
  20673421.309    81126962.851  
  21120527.601   110989121.913    21120524.760    86485016.374    21120524.474  
                                
  23247506.191   122166474.527    23247506.352    95194663.113    23247505.548  
  23247504.708    91228208.163  
  23724199.243   124671508.355                    97146642.187    23724196.169  
                                
  21396724.389   112440552.176    21396722.084    87616010.832    21396721.870  
  21396725.926    83965358.170  
  22046807.754   115856775.367    22046805.073    90278001.863    22046804.752  
                                
  21556191.892   113278571.211                    88269023.603    21556188.068  
                                
  20638156.274   108454249.026    20638155.810    84509798.955    20638155.309  
  20638155.810    80988562.006  
  21659289.883   115700048.180    21659290.419    89988936.074    21659290.508  
                                
  19267209.755   102885824.823    19267209.720    80022307.055    19267209.738  
                                
  21402975.331   114089909.672    21402976.081    88736599.197    21402976.046  
                                
  20685268.203   110613408.981    20685267.614    86032660.427    20685267.596  
                                
  24654522.423   129560387.605                                                  
  24654523.835    96749646.327  
  23645160.319   124256172.491                                                  
  23645162.910    92788722.593  
  25045348.797   131614207.761                                                  
  25045350.173    98283347.121  
  23488901.271   123435034.540                                                  
  23488902.772    92175536.941  
  25925829.018   136241185.861                                                  
  25925830.877   101738574.102  
 21  9  1  8 44 22.0000000  0 17G 1G 7G 8G13G14G17G21G30R12R13R14R24
                                E13E15E21E27E30
  20673138.657   108638090.846    20673138.800    84653066.111    20673138.800  
  20673137.692    81125849.933  
  21120977.793   110991487.712    21120974.952    86486859.857    21120974.666  
                                
  23248093.832   122169562.606    23248094.011    95197069.406    23248093.207  
  23248092.367    91230514.176  
  23724244.898   124671748.290                    97146829.142    23724241.825  
                                
  21396349.444   112438581.829    21396347.138    87614475.492    21396346.942  
  21396350.980    83963886.805  
  22046396.748   115854615.524    22046394.068    90276318.865    22046393.746  
                                
  21556397.493   113279651.549                    88269865.422    21556393.652  
                                
  20638198.624   108454471.724    20638198.159    84509972.486    20638197.677  
  20638198.159    80988728.311  
  21659871.055   115703152.715    21659871.609    89991350.710    21659871.680  
                                
  19267215.724   102885856.658    19267215.670    80022331.817    19267215.688  
                                
  21402350.648   114086579.822    21402351.416    88734009.311    21402351.362  
                                
  20684670.092   110610210.739    20684669.502    86030172.908    20684669.502  
                                
  24654050.824   129557909.390                                                  
  24654052.253    96747795.700  
  23645204.813   124256406.320                                                  
  23645207.404    92788897.210  
  25044997.993   131612364.220                                                  
  25044999.369    98281970.453  
  23488961.704   123435352.109                                                  
  23488963.187    92175774.085  
  25926242.615   136243359.286                                                  
  25926244.491   101740197.117  
 21  9  1  8 44 23.0000000  0 17G 1G 7G 8G13G14G17G21G30R12R13R14R24
                                E13E15E21E27E30
  20672855.183   108636601.114    20672855.308    84651905.282    20672855.326  
  20672854.218    81124737.480  
  21121428.057   110993853.951    21121425.215    86488703.684    21121424.930  
                                
  23248681.473   122172650.638    23248681.634    95199475.666    23248680.847  
  23248679.990    91232820.175  
  23724290.661   124671988.754                    97147016.516    23724287.569  
                                
  21395974.534   112436611.614    21395972.228    87612940.262    21395972.032  
  21395976.070    83962415.541  
  22045985.779   115852455.944    22045983.098    90274636.077    22045982.795  
                                
  21556603.166   113280732.385                    88270707.635    21556599.324  
                                
  20638241.134   108454695.006    20638240.670    84510146.470    20638240.169  
  20638240.670    80988895.041  
  21660452.299   115706257.569    21660452.852    89993765.594    21660452.924  
                                
  19267221.781   102885889.065    19267221.746    80022357.023    19267221.746  
                                
  21401726.018   114083250.067    21401726.769    88731419.499    21401726.733  
                                
  20684072.105   110607012.981    20684071.515    86027685.767    20684071.515  
                                
  24653579.278   129555431.395                                                  
  24653580.708    96745945.252  
  23645249.378   124256640.557                                                  
  23645251.969    92789072.126  
  25044647.170   131610520.703                                                  
  25044648.546    98280593.801  
  23489022.173   123435669.845                                                  
  23489023.674    92176011.355  
  25926656.211   136245532.785                                                  
  25926658.087   101741820.182  
 21  9  1  8 44 24.0000000  0 17G 1G 7G 8G13G14G17G21G30R12R13R14R24
                                E13E15E21E27E30
  20672571.834   108635112.123    20672571.959    84650745.028    20672571.977  
  20672570.869    81123625.560  
  21121878.463   110996220.766    21121875.604    86490547.957    21121875.318  
                                
  23249269.131   122175738.789    23249269.292    95201882.016    23249268.488  
  23249267.648    91235126.263  
  23724336.531   124672229.883                    97147204.414    23724333.457  
                                
  21395599.641   112434641.640    21395597.336    87611405.217    21395597.140  
  21395601.178    83960944.458  
  22045574.898   115850296.724    22045572.218    90272953.567    22045571.896  
                                
  21556808.963   113281813.847                    88271550.332    21556805.139  
                                
  20638283.734   108454918.969    20638283.269    84510320.988    20638282.787  
  20638283.269    80989062.288  
  21661033.614   115709362.858    21661034.168    89996180.828    21661034.239  
                                
  19267227.982   102885922.163    19267227.928    80022382.766    19267227.946  
                                
  21401101.389   114079920.529    21401102.157    88728829.859    21401102.103  
                                
  20683474.243   110603815.868    20683473.653    86025199.119    20683473.635  
                                
  24653107.786   129552953.743                                                  
  24653109.216    96744095.053  
  23645294.069   124256875.304                                                  
  23645296.660    92789247.424  
  25044296.383   131608677.318                                                  
  25044297.759    98279217.245  
  23489082.677   123435987.843                                                  
  23489084.178    92176248.827  
  25927069.861   136247706.463                                                  
  25927071.737   101743443.370  
 21  9  1  8 44 25.0000000  0 17G 1G 7G 8G13G14G17G21G30R12R13R14R24
                                E13E15E21E27E30
  20672288.663   108633624.017    20672288.788    84649585.463    20672288.806  
  20672287.698    81122514.312  
  21122328.977   110998588.273    21122326.118    86492392.775    21122325.832  
                                
  23249856.861   122178827.246    23249857.022    95204288.606    23249856.218  
  23249855.378    91237432.565  
  23724382.561   124672471.787                    97147392.906    23724379.488  
                                
  21395224.857   112432672.085    21395222.551    87609870.499    21395222.355  
  21395226.393    83959473.682  
  22045164.125   115848138.026    22045161.445    90271271.463    22045161.123  
                                
  21557014.904   113282896.089                    88272393.635    21557011.062  
                                
  20638326.530   108455143.780    20638326.066    84510496.166    20638325.565  
  20638326.066    80989230.164  
  21661615.036   115712468.751    21661615.590    89998596.525    21661615.661  
                                
  19267234.343   102885956.115    19267234.308    80022409.173    19267234.325  
                                
  21400476.866   114076591.417    21400477.617    88726240.554    21400477.563  
                                
  20682876.506   110600619.525    20682875.917    86022713.075    20682875.899  
                                
  24652636.419   129550476.596                                                  
  24652637.831    96742245.233  
  23645338.867   124257110.731                                                  
  23645341.458    92789423.229  
  25043945.668   131606834.229                                                  
  25043947.044    98277840.912  
  23489143.289   123436306.292                                                  
  23489144.790    92176486.626  
  25927483.565   136249880.473                                                  
  25927485.441   101745066.821  
 21  9  1  8 44 26.0000000  0 17G 1G 7G 8G13G14G17G21G30R12R13R14R24
                                E13E15E21E27E30
  20672005.618   108632136.618    20672005.761    84648426.454    20672005.779  
  20672004.671    81121403.588  
  21122779.598   111000956.288    21122776.739    86494237.981    21122776.453  
                                
  23250444.556   122181915.756    23250444.716    95206695.235    23250443.930  
  23250443.073    91239738.935  
  23724428.735   124672714.361                    97147581.922    23724425.643  
                                
  21394850.125   112430702.744    21394847.820    87608335.948    21394847.606  
  21394851.644    83958003.066  
  22044753.388   115845979.663    22044750.708    90269589.624    22044750.404  
                                
  21557220.969   113283978.918                    88273237.398    21557217.145  
                                
  20638369.416   108455369.251    20638368.951    84510671.858    20638368.469  
  20638368.951    80989398.536  
  21662196.547   115715575.054    21662197.101    90001012.539    21662197.173  
                                
  19267240.812   102885990.725    19267240.776    80022436.094    19267240.794  
                                
  21399852.362   114073262.531    21399853.112    88723651.416    21399853.076  
                                
  20682278.877   110597423.720    20682278.287    86020227.446    20682278.269  
                                
  24652165.088   129547999.757                                                  
  24652166.517    96740395.650  
  23645383.754   124257346.632                                                  
  23645386.345    92789599.388  
  25043594.953   131604991.246                                                  
  25043596.329    98276464.654  
  23489203.936   123436624.985                                                  
  23489205.419    92176724.611  
  25927897.286   136252054.632                                                  
  25927899.162   101746690.381  
 21  9  1  8 44 27.0000000  0 17G 1G 7G 8G13G14G17G21G30R12R13R14R24
                                E13E15E21E27E30
  20671722.734   108630650.071    20671722.859    84647268.103    20671722.877  
  20671721.769    81120293.514  
  21123230.344   111003324.995    21123227.503    86496083.725    21123227.217  
                                
  23251032.339   122185004.516    23251032.500    95209102.065    23251031.696  
  23251030.856    91242045.476  
  23724475.033   124672957.720                    97147771.558    23724471.942  
                                
  21394475.430   112428733.788    21394473.125    87606801.699    21394472.910  
  21394476.966    83956532.746  
  22044342.758   115843821.816    22044340.078    90267908.187    22044339.774  
                                
  21557427.178   113285062.510                    88274081.756    21557423.336  
                                
  20638412.480   108455595.550    20638412.016    84510848.192    20638411.533  
  20638412.016    80989567.529  
  21662778.166   115718681.961    21662778.702    90003429.028    21662778.792  
                                
  19267247.441   102886026.150    19267247.406    80022463.644    19267247.423  
                                
  21399227.964   114069934.050    21399228.715    88721062.593    21399228.679  
                                
  20681681.372   110594228.622    20681680.783    86017742.370    20681680.765  
                                
  24651693.864   129545523.426                                                  
  24651695.293    96738546.431  
  23645428.766   124257583.192                                                  
  23645431.357    92789776.043  
  25043244.309   131603148.532                                                  
  25043245.685    98275088.606  
  23489264.655   123436944.095                                                  
  23489266.156    92176962.907  
  25928311.061   136254229.105                                                  
  25928312.938   101748314.187  
 21  9  1  8 44 28.0000000  0 17G 1G 7G 8G13G14G17G21G30R12R13R14R24
                                E13E15E21E27E30
  20671440.010   108629164.313    20671440.135    84646110.373    20671440.153  
  20671439.045    81119184.015  
  21123681.215   111005694.286    21123678.356    86497929.926    21123678.070  
                                
  23251620.141   122188093.448    23251620.302    95211509.023    23251619.498  
  23251618.658    91244352.149  
  23724521.475   124673201.749                    97147961.705    23724518.384  
                                
  21394100.806   112426765.119    21394098.501    87605267.671    21394098.304  
  21394102.342    83955062.645  
  22043932.217   115841664.383    22043929.537    90266227.069    22043929.215  
                                
  21557633.494   113286146.763                    88274926.630    21557629.652  
                                
  20638455.688   108455822.571    20638455.223    84511025.094    20638454.741  
  20638455.223    80989737.060  
  21663359.857   115721789.368    21663360.411    90005845.899    21663360.500  
                                
  19267254.231   102886062.302    19267254.178    80022491.765    19267254.196  
                                
  21398603.603   114066605.864    21398604.353    88718474.001    21398604.318  
                                
  20681083.993   110591034.200    20681083.403    86015257.819    20681083.403  
                                
  24651222.694   129543047.447                                                  
  24651224.123    96736697.497  
  23645473.885   124257820.308                                                  
  23645476.476    92789953.111  
  25042893.665   131601306.001                                                  
  25042895.059    98273712.683  
  23489325.446   123437263.521                                                  
  23489326.929    92177201.442  
  25928724.872   136256403.790                                                  
  25928726.748   101749938.136  
 21  9  1  8 44 29.0000000  0 17G 1G 7G 8G13G14G17G21G30R12R13R14R24
                                E13E15E21E27E30
  20671157.393   108627679.171    20671157.519    84644953.120    20671157.536  
  20671156.429    81118074.981  
  21124132.158   111008064.065    21124129.317    86499776.509    21124129.013  
                                
  23252207.960   122191182.410    23252208.121    95213916.004    23252207.317  
  23252206.477    91246658.830  
  23724568.024   124673446.353                    97148152.313    23724564.932  
                                
  21393726.199   112424796.600    21393723.894    87603733.760    21393723.698  
  21393727.736    83953592.641  
  22043521.712   115839507.194    22043519.032    90264546.149    22043518.728  
                                
  21557839.917   113287231.531                    88275771.907    21557836.093  
                                
  20638499.002   108456050.181    20638498.538    84511202.453    20638498.037  
  20638498.538    80989907.024  
  21663941.654   115724897.131    21663942.208    90008263.045    21663942.280  
                                
  19267261.093   102886099.032    19267261.057    80022520.333    19267261.075  
                                
  21397979.277   114063277.808    21397980.028    88715885.513    21397979.992  
                                
  20680486.721   110587840.299    20680486.131    86012773.675    20680486.113  
                                
  24650751.577   129540571.727                                                  
  24650753.024    96734848.731  
  23645519.076   124258057.836                                                  
  23645521.667    92790130.485  
  25042543.057   131599463.487                                                  
  25042544.451    98272336.782  
  23489386.272   123437583.112                                                  
  23489387.755    92177440.097  
  25929138.754   136258578.583                                                  
  25929140.631   101751562.154  
 21  9  1  8 44 30.0000000  0 17G 1G 7G 8G13G14G17G21G30R12R13R14R24
                                E13E15E21E27E30
  20670874.902   108626194.692    20670875.045    84643796.383    20670875.063  
  20670873.955    81116966.437  
  21124583.190   111010434.260    21124580.349    86501623.407    21124580.063  
                                
  23252795.762   122194271.348    23252795.905    95216322.971    23252795.118  
  23252794.279    91248965.513  
  23724614.680   124673691.494                    97148343.331    23724611.571  
                                
  21393351.647   112422828.249    21393349.342    87602199.980    21393349.145  
  21393353.184    83952122.768  
  22043111.296   115837350.304    22043108.598    90262865.451    22043108.294  
                                
  21558046.447   113288316.840                    88276617.602    21558042.605  
                                
  20638542.424   108456278.390    20638541.977    84511380.278    20638541.477  
  20638541.959    80990077.438  
  21664523.487   115728005.278    21664524.041    90010680.493    21664524.131  
                                
  19267268.098   102886136.353    19267268.062    80022549.363    19267268.080  
                                
  21397354.969   114059949.905    21397355.720    88713297.144    21397355.684  
                                
  20679889.538   110584646.922    20679888.949    86010289.941    20679888.931  
                                
  24650280.496   129538096.246                                                  
  24650281.925    96733000.174  
  23645564.374   124258295.791                                                  
  23645566.965    92790308.174  
  25042192.449   131597621.026                                                  
  25042193.825    98270960.919  
  23489447.116   123437902.908                                                  
  23489448.599    92177678.904  
  25929552.601   136260753.443                                                  
  25929554.495   101753186.236  
 21  9  1  8 44 31.0000000  0 17G 1G 7G 8G13G14G17G21G30R12R13R14R24
                                E13E15E21E27E30
  20670592.536   108624710.850    20670592.661    84642640.143    20670592.679  
  20670591.571    81115858.375  
  21125034.311   111012804.919    21125031.470    86503470.676    21125031.184  
                                
  23253383.581   122197360.354    23253383.742    95218729.991    23253382.938  
  23253382.098    91251272.236  
  23724661.425   124673937.204                    97148534.794    23724658.334  
                                
  21392977.112   112420860.061    21392974.807    87600666.327    21392974.611  
  21392978.649    83950653.015  
  22042700.898   115835193.696    22042698.218    90261184.981    22042697.896  
                                
  21558253.066   113289402.686                    88277463.713    21558249.242  
                                
  20638585.989   108456507.213    20638585.524    84511558.583    20638585.024  
  20638585.506    80990248.314  
  21665105.410   115731113.765    21665105.964    90013098.207    21665106.053  
                                
  19267275.192   102886174.280    19267275.156    80022578.859    19267275.174  
                                
  21396730.697   114056622.156    21396731.448    88710708.890    21396731.412  
                                
  20679292.463   110581454.040    20679291.873    86007806.588    20679291.855  
                                
  24649809.486   129535621.045                                                  
  24649810.934    96731151.807  
  23645609.743   124258534.177                                                  
  23645612.334    92790486.191  
  25041841.859   131595778.624                                                  
  25041843.234    98269585.103  
  23489507.996   123438222.895                                                  
  23489509.497    92177917.857  
  25929966.483   136262928.407                                                  
  25929968.377   101754810.395  
 21  9  1  8 44 32.0000000  0 17G 1G 7G 8G13G14G17G21G30R12R13R14R24
                                E13E15E21E27E30
  20670310.312   108623227.703    20670310.437    84641484.444    20670310.455  
  20670309.347    81114750.835  
  21125485.558   111015176.123    21125482.699    86505318.361    21125482.413  
                                
  23253971.418   122200449.416    23253971.561    95221137.050    23253970.775  
  23253969.917    91253578.994  
  23724708.331   124674183.610                    97148726.801    23724705.222  
                                
  21392602.613   112418892.091    21392600.308    87599132.841    21392600.112  
  21392604.150    83949183.423  
  22042290.572   115833037.419    22042287.892    90259504.765    22042287.570  
                                
  21558459.829   113290489.112                    88278310.284    21558455.987  
                                
  20638629.643   108456736.678    20638629.178    84511737.390    20638628.678  
  20638629.160    80990419.668  
  21665687.386   115734222.640    21665687.940    90015516.224    21665688.029  
                                
  19267282.411   102886212.856    19267282.375    80022608.865    19267282.393  
                                
  21396106.461   114053294.621    21396107.211    88708120.801    21396107.175  
                                
  20678695.459   110578261.701    20678694.869    86005323.658    20678694.869  
                                
  24649338.548   129533146.161                                                  
  24649339.995    96729303.670  
  23645655.184   124258773.038                                                  
  23645657.775    92790664.561  
  25041491.268   131593936.313                                                  
  25041492.644    98268209.351  
  23489568.947   123438543.122                                                  
  23489570.430    92178156.991  
  25930380.384   136265103.487                                                  
  25930382.260   101756434.663  
 21  9  1  8 44 33.0000000  0 17G 1G 7G 8G13G14G17G21G30R12R13R14R24
                                E13E15E21E27E30
  20670028.250   108621745.434    20670028.375    84640329.427    20670028.393  
  20670027.285    81113643.942  
  21125936.894   111017547.973    21125934.052    86507166.554    21125933.767  
                                
  23254559.273   122203538.697    23254559.434    95223544.287    23254558.630  
  23254557.790    91255885.943  
  23724755.345   124674430.723                    97148919.347    23724752.253  
                                
  21392228.204   112416924.508    21392225.898    87597599.655    21392225.702  
  21392229.740    83947714.119  
  22041880.353   115830881.653    22041877.655    90257824.945    22041877.351  
                                
  21558666.716   113291576.308                    88279157.445    21558662.874  
                                
  20638673.475   108456966.973    20638673.011    84511916.838    20638672.510  
  20638672.993    80990591.642  
  21666269.505   115737332.094    21666270.059    90017934.690    21666270.131  
                                
  19267289.809   102886252.264    19267289.773    80022639.511    19267289.773  
                                
  21395482.313   114049967.512    21395483.064    88705533.047    21395483.028  
                                
  20678098.615   110575070.082    20678098.026    86002841.291    20678098.008  
                                
  24648867.664   129530671.722                                                  
  24648869.093    96727455.875  
  23645700.768   124259012.550                                                  
  23645703.359    92790843.418  
  25041140.750   131592094.286                                                  
  25041142.143    98266833.803  
  23489629.952   123438863.770                                                  
  23489631.453    92178396.431  
  25930794.355   136267278.929                                                  
  25930796.249   101758059.161  
 21  9  1  8 44 34.0000000  0 17G 1G 7G 8G13G14G17G21G30R12R13R14R24
                                E13E15E21E27E30
  20669746.312   108620263.966    20669746.455    84639175.039    20669746.455  
  20669745.365    81112537.655  
  21126388.372   111019920.489    21126385.531    86509015.265    21126385.227  
                                
  23255147.182   122206628.205    23255147.343    95225951.698    23255146.557  
  23255145.699    91258193.028  
  23724802.519   124674678.628                    97149112.540    23724799.410  
                                
  21391853.848   112414957.236    21391851.525    87596066.716    21391851.328  
  21391855.384    83946245.061  
  22041470.205   115828726.324    22041467.507    90256145.466    22041467.203  
                                
  21558873.729   113292664.187                    88280005.145    21558869.887  
                                
  20638717.415   108457198.023    20638716.951    84512096.879    20638716.468  
  20638716.951    80990764.186  
  21666851.696   115740442.037    21666852.250    90020353.539    21666852.321  
                                
  19267297.314   102886292.427    19267297.278    80022670.749    19267297.296  
                                
  21394858.220   114046640.704    21394858.970    88702945.532    21394858.935  
                                
  20677501.915   110571879.171    20677501.325    86000359.471    20677501.308  
                                
  24648396.868   129528197.727                                                  
  24648398.316    96725608.424  
  23645746.459   124259252.665                                                  
  23645749.050    92791022.722  
  25040790.267   131590252.462                                                  
  25040791.642    98265458.417  
  23489691.046   123439184.760                                                  
  23489692.547    92178636.133  
  25931208.363   136269454.591                                                  
  25931210.257   101759683.850  
 21  9  1  8 44 35.0000000  0 17G 1G 7G 8G13G14G17G21G30R12R13R14R24
                                E13E15E21E27E30
  20669464.536   108618783.082    20669464.661    84638021.105    20669464.679  
  20669463.571    81111431.793  
  21126839.923   111022293.393    21126837.081    86510864.283    21126836.778  
                                
  23255735.091   122209717.645    23255735.252    95228359.053    23255734.448  
  23255733.608    91260500.084  
  23724849.782   124674926.973                    97149306.054    23724846.673  
                                
  21391479.509   112412990.070    21391477.186    87594533.860    21391476.990  
  21391481.028    83944776.074  
  22041060.093   115826571.212    22041057.413    90254466.161    22041057.091  
                                
  21559080.831   113293752.539                    88280853.213    21559076.989  
                                
  20638761.498   108457429.621    20638761.033    84512277.343    20638760.551  
  20638761.033    80990937.124  
  21667433.922   115743552.278    21667434.476    90022772.616    21667434.566  
                                
  19267304.944   102886333.141    19267304.908    80022702.413    19267304.926  
                                
  21394234.144   114043314.000    21394234.895    88700358.095    21394234.841  
                                
  20676905.268   110568688.750    20676904.679    85997878.030    20676904.661  
                                
  24647926.127   129525723.931                                                  
  24647927.574    96723761.107  
  23645792.222   124259493.122                                                  
  23645794.813    92791202.287  
  25040439.748   131588410.608                                                  
  25040441.142    98264083.009  
  23489752.140   123439505.871                                                  
  23489753.641    92178875.931  
  25931622.406   136271630.288                                                  
  25931624.300   101761308.563  
 21  9  1  8 44 36.0000000  0 17G 1G 7G 8G13G14G17G21G30R12R13R14R24
                                E13E15E21E27E30
  20669182.831   108617302.864    20669182.956    84636867.689    20669182.974  
  20669181.866    81110326.445  
  21127291.544   111024666.778    21127288.703    86512713.681    21127288.417  
                                
  23256323.018   122212807.138    23256323.160    95230766.453    23256322.356  
  23256321.517    91262807.179  
  23724897.171   124675175.958                    97149500.061    23724894.062  
                                
  21391105.207   112411023.101    21391102.902    87593001.154    21391102.705  
  21391106.744    83943307.233  
  22040650.053   115824416.417    22040647.372    90252787.097    22040647.051  
                                
  21559288.058   113294841.451                    88281701.714    21559284.216  
                                
  20638805.706   108457661.857    20638805.241    84512458.306    20638804.741  
  20638805.224    80991110.550  
  21668016.238   115746662.934    21668016.810    90025192.019    21668016.881  
                                
  19267312.681   102886374.476    19267312.645    80022734.562    19267312.663  
                                
  21393610.087   114039987.472    21393610.837    88697770.796    21393610.801  
                                
  20676308.765   110565498.905    20676308.175    85995397.039    20676308.157  
                                
  24647455.421   129523250.423                                                  
  24647456.886    96721914.004  
  23645838.056   124259734.055                                                  
  23645840.664    92791382.202  
  25040089.283   131586568.855                                                  
  25040090.676    98262707.678  
  23489813.306   123439827.225                                                  
  23489814.807    92179115.899  
  25932036.431   136273806.117                                                  
  25932038.307   101762933.366  
 21  9  1  8 44 37.0000000  0 17G 1G 7G 8G13G14G17G21G30R12R13R14R24
                                E13E15E21E27E30
  20668901.340   108615823.597    20668901.483    84635715.013    20668901.501  
  20668900.393    81109221.793  
  21127743.345   111027040.923    21127740.486    86514563.659    21127740.200  
                                
  23256910.980   122215896.971    23256911.141    95233174.118    23256910.337  
  23256909.497    91265114.507  
  23724944.703   124675425.853                    97149694.791    23724941.593  
                                
  21390730.994   112409056.592    21390728.689    87591468.811    21390728.492  
  21390732.531    83941838.734  
  22040240.120   115822262.183    22040237.421    90251108.473    22040237.118  
                                
  21559495.410   113295931.197                    88282550.869    21559491.568  
                                
  20638850.057   108457894.987    20638849.592    84512639.963    20638849.092  
  20638849.574    80991284.637  
  21668598.697   115749774.267    21668599.251    90027611.945    21668599.340  
                                
  19267320.615   102886416.720    19267320.579    80022767.419    19267320.579  
                                
  21392986.136   114036661.414    21392986.887    88695183.864    21392986.833  
                                
  20675712.404   110562309.890    20675711.814    85992916.694    20675711.796  
                                
  24646984.840   129520777.475                                                  
  24646986.306    96720067.318  
  23645884.050   124259975.710                                                  
  23645886.641    92791562.658  
  25039738.871   131584727.438                                                  
  25039740.265    98261332.590  
  23489874.543   123440149.061                                                  
  23489876.044    92179356.228  
  25932450.563   136275982.333                                                  
  25932452.458   101764558.470  
 21  9  1  8 44 38.0000000  0 17G 1G 7G 8G13G14G17G21G30R12R13R14R24
                                E13E15E21E27E30
  20668619.974   108614344.975    20668620.117    84634562.838    20668620.117  
  20668619.009    81108117.634  
  21128195.216   111029415.534    21128192.375    86516414.010    21128192.072  
                                
  23257498.960   122218986.769    23257499.103    95235581.750    23257498.299  
  23257497.459    91267421.839  
  23724992.342   124675676.234                    97149889.903    23724989.214  
                                
  21390356.817   112407090.250    21390354.494    87589936.595    21390354.297  
  21390358.353    83940370.362  
  22039830.240   115820108.236    22039827.542    90249430.071    22039827.238  
                                
  21559702.887   113297021.482                    88283400.440    21559699.046  
                                
  20638894.533   108458128.716    20638894.068    84512822.090    20638893.586  
  20638894.068    80991459.175  
  21669181.209   115752885.949    21669181.763    90030032.138    21669181.852  
                                
  19267328.620   102886459.563    19267328.584    80022800.739    19267328.602  
                                
  21392362.203   114033335.513    21392362.954    88692597.055    21392362.918  
                                
  20675116.133   110559121.355    20675115.543    85990436.720    20675115.525  
                                
  24646514.295   129518304.762                                                  
  24646515.761    96718220.827  
  23645930.099   124260217.784                                                  
  23645932.708    92791743.430  
  25039388.495   131582886.078                                                  
  25039389.871    98259957.548  
  23489935.834   123440471.084                                                  
  23489937.335    92179596.698  
  25932864.714   136278158.661                                                  
  25932866.626   101766183.628  
 21  9  1  8 44 39.0000000  0 17G 1G 7G 8G13G14G17G21G30R12R13R14R24
                                E13E15E21E27E30
  20668338.734   108612867.125    20668338.877    84633411.269    20668338.877  
  20668337.787    81107014.040  
  21128647.213   111031790.735    21128644.354    86518264.814    21128644.068  
                                
  23258086.958   122222076.761    23258087.101    95237989.536    23258086.315  
  23258085.457    91269729.289  
  23725040.141   124675927.373                    97150085.578    23725037.014  
                                
  21389982.675   112405124.193    21389980.370    87588404.600    21389980.173  
  21389984.212    83938902.205  
  22039420.432   115817954.697    22039417.733    90247751.986    22039417.430  
                                
  21559910.490   113298112.419                    88284250.520    21559906.648  
                                
  20638939.152   108458363.175    20638938.705    84513004.785    20638938.205  
  20638938.687    80991634.260  
  21669763.811   115755998.097    21669764.382    90032452.697    21669764.454  
                                
  19267336.786   102886503.131    19267336.751    80022834.628    19267336.768  
                                
  21391738.342   114030009.928    21391739.075    88690010.491    21391739.039  
                                
  20674519.968   110555933.430    20674519.379    85987957.228    20674519.361  
                                
  24646043.840   129515832.457                                                  
  24646045.305    96716374.619  
  23645976.272   124260460.422                                                  
  23645978.881    92791924.621  
  25039038.120   131581044.888                                                  
  25039039.495    98258582.636  
  23489997.160   123440793.434                                                  
  23489998.661    92179837.413  
  25933278.864   136280335.176                                                  
  25933280.758   101767808.965  
 21  9  1  8 44 40.0000000  0 17G 1G 7G 8G13G14G17G21G30R12R13R14R24
                                E13E15E21E27E30
  20668057.672   108611390.047    20668057.797    84632260.301    20668057.815  
  20668056.707    81105911.027  
  21129099.300   111034166.532    21129096.458    86520116.085    21129096.155  
                                
  23258674.992   122225166.885    23258675.153    95240397.427    23258674.349  
  23258673.509    91272036.845  
  23725088.066   124676179.211                    97150281.812    23725084.939  
                                
  21389608.605   112403158.412    21389606.282    87586872.825    21389606.085  
  21389610.142    83937434.251  
  22039010.695   115815801.534    22039008.015    90246074.197    22039007.693  
                                
  21560118.217   113299204.002                    88285101.104    21560114.375  
                                
  20638983.896   108458598.345    20638983.431    84513188.034    20638982.931  
  20638983.431    80991809.872  
  21670346.502   115759110.712    21670347.073    90034873.618    21670347.145  
                                
  19267345.078   102886547.412    19267345.042    80022869.068    19267345.060  
                                
  21391114.517   114026684.617    21391115.267    88687424.138    21391115.214  
                                
  20673923.929   110552746.132    20673923.339    85985478.218    20673923.322  
                                
  24645573.473   129513360.528                                                  
  24645574.921    96714528.686  
  23646022.553   124260703.597                                                  
  23646025.162    92792106.213  
  25038687.779   131579203.865                                                  
  25038689.155    98257207.839  
  23490058.576   123441116.082                                                  
  23490060.077    92180078.354  
  25933693.104   136282511.932                                                  
  25933695.016   101769434.443  
 21  9  1  8 44 41.0000000  0 17G 1G 7G 8G13G14G17G21G30R12R13R14R24
                                E13E15E21E27E30
  20667776.699   108609913.536    20667776.842    84631109.766    20667776.842  
  20667775.752    81104808.433  
  21129551.475   111036542.693    21129548.634    86521967.629    21129548.330  
                                
  23259263.008   122228256.953    23259263.151    95242805.270    23259262.347  
  23259261.507    91274344.374  
  23725136.080   124676431.515                    97150478.408    23725132.971  
                                
  21389234.535   112401192.734    21389232.230    87585341.125    21389232.033  
  21389236.089    83935966.370  
  22038601.012   115813648.606    22038598.332    90244396.588    22038598.010  
                                
  21560326.034   113300296.057                    88285952.056    21560322.192  
                                
  20639028.747   108458834.051    20639028.300    84513371.700    20639027.800  
  20639028.283    80991985.888  
  21670929.246   115762223.620    21670929.818    90037294.768    21670929.889  
                                
  19267353.476   102886592.226    19267353.440    80022903.922    19267353.458  
                                
  21390490.691   114023359.366    21390491.442    88684837.834    21390491.406  
                                
  20673327.979   110549559.273    20673327.390    85982999.550    20673327.372  
                                
  24645103.071   129510888.762                                                  
  24645104.519    96712682.903  
  23646068.905   124260947.130                                                  
  23646071.496    92792288.072  
  25038337.439   131577362.809                                                  
  25038338.833    98255833.032  
  23490119.992   123441438.848                                                  
  23490121.475    92180319.379  
  25934107.308   136284688.668                                                  
  25934109.220   101771059.938  
 21  9  1  8 44 42.0000000  0 17G 1G 7G 8G13G14G17G21G30R12R13R14R24
                                E13E15E21E27E30
  20667495.888   108608437.781    20667496.013    84629959.829    20667496.031  
  20667494.923    81103706.406  
  21130003.758   111038919.426    21130000.917    86523819.634    21130000.613  
                                
  23259851.060   122231347.177    23259851.220    95245213.236    23259850.416  
  23259849.576    91276652.000  
  23725184.237   124676684.496                    97150675.537    23725181.110  
                                
  21388860.536   112399227.325    21388858.231    87583809.640    21388858.034  
  21388862.073    83934498.697  
  22038191.400   115811496.073    22038188.702    90242719.290    22038188.398  
                                
  21560533.958   113301388.763                    88286803.513    21560530.116  
                                
  20639073.759   108459070.480    20639073.295    84513555.930    20639072.794  
  20639073.277    80992162.440  
  21671512.080   115765337.015    21671512.652    90039716.299    21671512.723  
                                
  19267361.982   102886637.742    19267361.946    80022939.325    19267361.964  
                                
  21389866.937   114020034.409    21389867.688    88682251.756    21389867.652  
                                
  20672732.155   110546373.089    20672731.565    85980521.407    20672731.547  
                                
  24644632.794   129508417.379                                                  
  24644634.242    96710837.389  
  23646115.347   124261191.211                                                  
  23646117.956    92792470.340  
  25037987.135   131575521.930                                                  
  25037988.529    98254458.345  
  23490181.461   123441761.925                                                  
  23490182.962    92180560.637  
  25934521.583   136286865.639                                                  
  25934523.495   101772685.600  
 21  9  1  8 44 43.0000000  0 17G 1G 7G 8G13G14G17G21G30R12R13R14R24
                                E13E15E21E27E30
  20667215.183   108606962.742    20667215.308    84628810.451    20667215.326  
  20667214.218    81102604.918  
  21130456.148   111041296.705    21130453.289    86525672.054    21130453.003  
                                
  23260439.129   122234437.477    23260439.272    95247621.262    23260438.468  
  23260437.628    91278959.696  
  23725232.501   124676938.115                    97150873.145    23725229.374  
                                
  21388486.573   112397262.152    21388484.268    87582278.339    21388484.071  
  21388488.110    83933031.197  
  22037781.842   115809343.875    22037779.162    90241042.253    22037778.840  
                                
  21560742.007   113302482.062                    88287655.437    21560738.165  
                                
  20639118.861   108459307.580    20639118.396    84513740.681    20639117.914  
  20639118.396    80992339.491  
  21672095.003   115768450.844    21672095.557    90042138.165    21672095.647  
                                
  19267370.648   102886683.934    19267370.612    80022975.249    19267370.630  
                                
  21389243.237   114016709.685    21389243.987    88679665.864    21389243.934  
                                
  20672136.419   110543187.511    20672135.830    85978043.737    20672135.812  
                                
  24644162.571   129505946.330                                                  
  24644164.036    96708992.132  
  23646161.878   124261435.774                                                  
  23646164.487    92792652.968  
  25037636.849   131573681.174                                                  
  25037638.242    98253083.747  
  23490243.002   123442085.260                                                  
  23490244.485    92180802.089  
  25934935.859   136289042.753                                                  
  25934937.753   101774311.365  
 21  9  1  8 44 44.0000000  0 17G 1G 7G 8G13G14G17G21G30R12R13R14R24
                                E13E15E21E27E30
  20666934.640   108605488.519    20666934.765    84627661.701    20666934.782  
  20666933.675    81101504.047  
  21130908.645   111043674.626    21130905.804    86527524.976    21130905.501  
                                
  23261027.216   122237527.982    23261027.359    95250029.451    23261026.573  
  23261025.715    91281267.545  
  23725280.908   124677192.487                    97151071.367    23725277.781  
                                
  21388112.682   112395297.321    21388110.377    87580747.302    21388110.180  
  21388114.218    83931563.954  
  22037372.392   115807192.135    22037369.693    90239365.572    22037369.390  
                                
  21560950.181   113303576.077                    88288507.912    21560946.339  
                                
  20639164.123   108459545.444    20639163.658    84513926.031    20639163.176  
  20639163.658    80992517.121  
  21672678.016   115771565.226    21672678.588    90044560.459    21672678.659  
                                
  19267379.440   102886730.910    19267379.404    80023011.787    19267379.404  
                                
  21388619.590   114013385.305    21388620.341    88677080.233    21388620.305  
                                
  20671540.827   110540002.607    20671540.237    85975566.590    20671540.219  
                                
  24643692.419   129503475.715                                                  
  24643693.884    96707147.190  
  23646208.534   124261680.959                                                  
  23646211.143    92792836.061  
  25037286.598   131571840.620                                                  
  25037287.992    98251709.313  
  23490304.597   123442408.971                                                  
  23490306.098    92181043.819  
  25935350.206   136291220.155                                                  
  25935352.100   101775937.343  
 21  9  1  8 44 45.0000000  0 17G 1G 7G 8G13G14G17G21G30R12R13R14R24
                                E13E15E21E27E30
  20666654.275   108604015.159    20666654.400    84626513.631    20666654.418  
  20666653.310    81100403.810  
  21131361.286   111046053.199    21131358.427    86529378.414    21131358.123  
                                
  23261615.375   122240618.725    23261615.518    95252437.822    23261614.714  
  23261613.874    91283575.574  
  23725329.459   124677447.623                    97151270.188    23725326.331  
                                
  21387738.844   112393332.852    21387736.539    87579216.546    21387736.342  
  21387740.398    83930096.984  
  22036963.030   115805040.891    22036960.332    90237689.276    22036960.028  
                                
  21561158.534   113304670.838                    88289360.970    21561154.692  
                                
  20639209.546   108459784.129    20639209.099    84514112.020    20639208.599  
  20639209.081    80992695.360  
  21673261.136   115774680.189    21673261.708    90046983.204    21673261.797  
                                
  19267388.392   102886778.688    19267388.356    80023048.948    19267388.374  
                                
  21387996.015   114010061.301    21387996.747    88674494.899    21387996.712  
                                
  20670945.360   110536818.379    20670944.770    85973089.968    20670944.752  
                                
  24643222.375   129501005.567                                                  
  24643223.840    96705302.592  
  23646255.315   124261926.780                                                  
  23646257.924    92793019.625  
  25036936.401   131570000.334                                                  
  25036937.777    98250335.073  
  23490366.280   123442733.075                                                  
  23490367.781    92181285.847  
  25935764.606   136293397.853                                                  
  25935766.500   101777563.546  
 21  9  1  8 44 46.0000000  0 17G 1G 7G 8G13G14G17G21G30R12R13R14R24
                                E13E15E21E27E30
  20666374.070   108602542.609    20666374.195    84625366.187    20666374.213  
  20666373.105    81099304.174  
  21131814.015   111048432.415    21131811.174    86531232.348    21131810.870  
                                
  23262203.570   122243709.653    23262203.713    95254846.337    23262202.909  
  23262202.069    91285883.719  
  23725378.152   124677703.492                    97151469.562    23725375.025  
                                
  21387365.077   112391368.699    21387362.772    87577686.036    21387362.576  
  21387366.632    83928630.247  
  22036553.740   115802890.099    22036551.060    90236013.334    22036550.738  
                                
  21561366.994   113305766.279                    88290214.563    21561363.152  
                                
  20639255.130   108460023.562    20639254.665    84514298.591    20639254.165  
  20639254.647    80992874.155  
  21673844.363   115777795.665    21673844.935    90049406.350    21673845.024  
                                
  19267397.470   102886827.248    19267397.434    80023086.714    19267397.452  
                                
  21387372.493   114006737.630    21387373.244    88671909.819    21387373.190  
                                
  20670350.017   110533634.787    20670349.428    85970613.841    20670349.410  
                                
  24642752.384   129498535.823                                                  
  24642753.849    96703458.304  
  23646302.203   124262173.166                                                  
  23646304.812    92793203.614  
  25036586.257   131568160.250                                                  
  25036587.651    98248960.986  
  23490428.018   123443057.516                                                  
  23490429.501    92181528.122  
  25936179.060   136295575.792                                                  
  25936180.954   101779189.929  
 21  9  1  8 44 47.0000000  0 17G 1G 7G 8G13G14G17G21G30R12R13R14R24
                                E13E15E21E27E30
  20666093.920   108601070.540    20666094.063    84624219.122    20666094.063  
  20666092.973    81098204.902  
  21132266.816   111050811.909    21132263.975    86533086.499    21132263.671  
                                
  23262791.729   122246800.434    23262791.872    95257254.740    23262791.068  
  23262790.228    91288191.774  
  23725426.916   124677959.790                    97151669.272    23725423.789  
                                
  21386991.329   112389404.570    21386989.006    87576155.546    21386988.809  
  21386992.866    83927163.529  
  22036144.486   115800739.424    22036141.806    90234337.481    22036141.484  
                                
  21561575.507   113306862.120                    88291068.460    21561571.666  
                                
  20639300.767   108460263.454    20639300.303    84514485.517    20639299.802  
  20639300.285    80993053.295  
  21674427.626   115780911.315    21674428.197    90051829.630    21674428.269  
                                
  19267406.654   102886876.255    19267406.618    80023124.830    19267406.636  
                                
  21386748.989   114003413.971    21386749.740    88669324.756    21386749.686  
                                
  20669754.747   110530451.583    20669754.157    85968138.013    20669754.139  
                                
  24642282.428   129496066.189                                                  
  24642283.894    96701614.111  
  23646349.145   124262419.838                                                  
  23646351.754    92793387.819  
  25036236.078   131566320.072                                                  
  25036237.472    98247586.818  
  23490489.773   123443382.010                                                  
  23490491.256    92181770.439  
  25936593.496   136297753.669                                                  
  25936595.391   101780816.279  
 21  9  1  8 44 48.0000000  0 17G 1G 7G 8G13G14G17G21G30R12R13R14R24
                                E13E15E21E27E30
  20665813.894   108599598.911    20665814.019    84623072.398    20665814.019  
  20665812.929    81097105.962  
  21132719.671   111053191.688    21132716.830    86534940.882    21132716.526  
                                
  23263379.852   122249891.057    23263379.995    95259663.015    23263379.191  
  23263378.351    91290499.700  
  23725475.734   124678216.419                    97151869.266    23725472.607  
                                
  21386617.563   112387440.394    21386615.240    87574625.019    21386615.043  
  21386619.099    83925696.772  
  22035735.232   115798588.840    22035732.533    90232661.701    22035732.230  
                                
  21561784.110   113307958.286                    88291922.615    21561780.268  
                                
  20639346.494   108460503.738    20639346.030    84514672.752    20639345.529  
  20639346.012    80993232.726  
  21675010.888   115784027.089    21675011.478    90054253.006    21675011.550  
                                
  19267415.910   102886925.637    19267415.875    80023163.241    19267415.893  
                                
  21386125.468   114000090.253    21386126.200    88666739.644    21386126.147  
                                
  20669159.512   110527268.716    20669158.922    85965662.452    20669158.904  
                                
  24641812.491   129493596.618                                                  
  24641813.956    96699769.943  
  23646396.123   124262666.722                                                  
  23646398.732    92793572.183  
  25035885.863   131564479.727                                                  
  25035887.257    98246212.535  
  23490551.511   123443706.484                                                  
  23490552.994    92182012.743  
  25937007.915   136299931.446                                                  
  25937009.809   101782442.524  
 21  9  1  8 44 49.0000000  0 17G 1G 7G 8G13G14G17G21G30R12R13R14R24
                                E13E15E21E27E30
  20665533.994   108598128.092    20665534.137    84621926.310    20665534.137  
  20665533.047    81096007.630  
  21133172.633   111055572.057    21133169.774    86536795.717    21133169.488  
                                
  23263967.993   122252981.832    23263968.136    95262071.414    23263967.350  
  23263966.492    91292807.751  
  23725524.713   124678473.779                    97152069.799    23725521.586  
                                
  21386243.850   112385476.541    21386241.545    87573094.748    21386241.348  
  21386245.387    83924230.265  
  22035326.067   115796438.691    22035323.386    90230986.262    22035323.065  
                                
  21561992.838   113309055.124                    88292777.299    21561988.979  
                                
  20639392.364   108460744.779    20639391.899    84514860.576    20639391.399  
  20639391.881    80993412.729  
  21675594.276   115787143.371    21675594.866    90056676.785    21675594.937  
                                
  19267425.292   102886975.801    19267425.256    80023202.255    19267425.274  
                                
  21385502.000   113996766.853    21385502.750    88664154.775    21385502.696  
                                
  20668564.437   110524086.548    20668563.848    85963187.430    20668563.830  
                                
  24641342.625   129491127.450                                                  
  24641344.090    96697926.090  
  23646443.226   124262914.202                                                  
  23646445.835    92793756.989  
  25035535.702   131562639.590                                                  
  25035537.095    98244838.409  
  23490613.320   123444031.310                                                  
  23490614.821    92182255.308  
  25937422.387   136302109.467                                                  
  25937424.299   101784068.970  
 21  9  1  8 44 50.0000000  0 17G 1G 7G 8G13G14G17G21G30R12R13R14R24
                                E13E15E21E27E30
  20665254.201   108596657.675    20665254.326    84620780.531    20665254.326  
  20665253.236    81094909.592  
  21133625.666   111057952.696    21133622.825    86538650.746    21133622.521  
                                
  23264556.116   122256072.399    23264556.259    95264479.643    23264555.473  
  23264554.615    91295115.644  
  23725573.746   124678731.453                    97152270.568    23725570.619  
                                
  21385870.137   112383512.614    21385867.814    87571564.418    21385867.618  
  21385871.674    83922763.694  
  22034916.920   115794288.585    22034914.239    90229310.858    22034913.918  
                                
  21562201.602   113310152.279                    88293632.220    21562197.760  
                                
  20639438.287   108460986.191    20639437.823    84515048.691    20639437.340  
  20639437.823    80993593.003  
  21676177.682   115790259.813    21676178.254    90059100.685    21676178.343  
                                
  19267434.762   102887026.311    19267434.726    80023241.543    19267434.744  
                                
  21384878.514   113993443.378    21384879.264    88661569.855    21384879.210  
                                
  20667969.417   110520904.684    20667968.827    85960712.645    20667968.809  
                                
  24640872.759   129488658.311                                                  
  24640874.242    96696082.257  
  23646490.364   124263161.872                                                  
  23646492.973    92793941.933  
  25035185.505   131560799.268                                                  
  25035186.898    98243464.143  
  23490675.129   123444356.089                                                  
  23490676.630    92182497.840  
  25937836.805   136304287.341                                                  
  25937838.717   101785695.298  
 21  9  1  8 44 51.0000000  0 17G 1G 7G 8G13G14G17G21G30R12R13R14R24
                                E13E15E21E27E30
  20664974.515   108595187.983    20664974.658    84619635.319    20664974.658  
  20664973.568    81093812.092  
  21134078.789   111060333.857    21134075.948    86540506.187    21134075.644  
                                
  23265144.257   122259163.092    23265144.418    95266887.982    23265143.614  
  23265142.756    91297423.616  
  23725622.921   124678989.799                    97152471.883    23725619.777  
                                
  21385496.460   112381548.923    21385494.155    87570034.269    21385493.958  
  21385497.997    83921297.299  
  22034507.844   115792138.835    22034505.146    90227635.725    22034504.842  
                                
  21562410.509   113311250.036                    88294487.620    21562406.667  
                                
  20639484.354   108461228.277    20639483.907    84515237.328    20639483.407  
  20639483.889    80993773.780  
  21676761.159   115793376.692    21676761.731    90061524.923    21676761.820  
                                
  19267444.340   102887077.504    19267444.304    80023281.359    19267444.322  
                                
  21384255.099   113990120.112    21384255.832    88658985.095    21384255.778  
                                
  20667374.503   110517723.385    20667373.914    85958238.304    20667373.896  
                                
  24640402.982   129486189.525                                                  
  24640404.448    96694238.665  
  23646537.592   124263410.039                                                  
  23646540.201    92794127.250  
  25034835.307   131558959.061                                                  
  25034836.701    98242089.962  
  23490736.991   123444681.129                                                  
  23490738.474    92182740.565  
  25938251.277   136306465.395                                                  
  25938253.189   101787321.758  
 21  9  1  8 44 52.0000000  0 17G 1G 7G 8G13G14G17G21G30R12R13R14R24
                                E13E15E21E27E30
  20664694.954   108593718.890    20664695.079    84618490.573    20664695.079  
  20664693.989    81092715.048  
  21134532.001   111062715.423    21134529.160    86542361.946    21134528.856  
                                
  23265732.398   122262253.753    23265732.541    95269296.290    23265731.737  
  23265730.879    91299731.580  
  23725672.186   124679248.661                    97152673.585    23725669.041  
                                
  21385122.783   112379585.354    21385120.478    87568504.218    21385120.281  
  21385124.338    83919831.004  
  22034098.804   115789989.328    22034096.124    90225960.785    22034095.802  
                                
  21562619.505   113312348.297                    88295343.408    21562615.645  
                                
  20639530.545   108461470.929    20639530.080    84515426.407    20639529.580  
  20639530.063    80993954.981  
  21677344.708   115796493.856    21677345.280    90063949.387    21677345.369  
                                
  19267454.025   102887129.260    19267454.007    80023321.607    19267454.007  
                                
  21383631.667   113986797.004    21383632.399    88656400.455    21383632.364  
                                
  20666779.661   110514542.513    20666779.072    85955764.295    20666779.054  
                                
  24639933.224   129483720.935                                                  
  24639934.689    96692395.248  
  23646584.874   124263658.592                                                  
  23646587.482    92794312.863  
  25034485.146   131557118.874                                                  
  25034486.522    98240715.794  
  23490798.872   123445006.330                                                  
  23490800.373    92182983.408  
  25938665.731   136308643.469                                                  
  25938667.625   101788948.255  
