     2.11           OBSERVATION DATA    M (MIXED)           RINEX VERSION / TYPE
CONVBIN 2.4.3                           20210902 202205 UTC PGM / RUN BY / DATE 
log: logs/21_09_02_07_47_05_gacc_SW.rtcm                    COMMENT             
format: RTCM 3, station ID: 1921                            COMMENT             
1921                                                        MARKER NAME         
                                                            MARKER NUMBER       
                                                            OBSERVER / AGENCY   
                    SWFT                                    REC # / TYPE / VERS 
                    NULL                                    ANT # / TYPE        
   735718.1790 -5325111.8987  3421118.2203                  APPROX POSITION XYZ 
        0.0000        0.0000        0.0000                  ANTENNA: DELTA H/E/N
     1     1                                                WAVELENGTH FACT L1/2
     5    C1    L1    P2    L2    C2                        # / TYPES OF OBSERV 
  2021     9     2     7    47   10.0000000     GPS         TIME OF FIRST OBS   
  2021     9     2     8    17    8.0000000     GPS         TIME OF LAST OBS    
                                                            END OF HEADER       
 21  9  2  7 47 10.0000000  0 12G 1G 7G 8G14G17G21E 2E 3E 8E25E30E36
  21633951.751   113687138.423    21633954.968    88587368.329                  
  20090691.814   105577312.903    20090691.117    82268039.449                  
  22080562.052   116034096.980    22080564.357    90416169.667                  
  22918819.666   120439221.383    22918819.845    93848748.833                  
  22970932.938   120713070.160    22970932.938    94062132.727                  
  21413837.713   112530480.094    21413836.748    87686089.816                  
  24219107.547   127272248.124                                                  
  27123814.402   142536584.386                                                  
  24746676.477   130044653.694                                                  
  24518217.927   128844094.133                                                  
  26907817.673   141401506.272                                                  
  24349253.288   127956138.735                                                  
 21  9  2  7 47 11.0000000  0 12G 1G 7G 8G14G17G21E 2E 3E 8E25E30E36
  21633438.124   113684439.241    21633441.323    88585265.070                  
  20090663.956   105577166.548    20090663.277    82267925.406                  
  22081097.783   116036912.267    22081100.106    90418363.399                  
  22918423.439   120437139.324    22918423.635    93847126.445                  
  22970418.346   120710365.934    22970418.346    94060025.538                  
  21413794.953   112530255.301    21413793.952    87685914.653                  
  24218911.024   127271215.386                                                  
  27124298.206   142539126.734                                                  
  24746914.582   130045904.881                                                  
  24518340.473   128844738.147                                                  
  26907458.166   141399617.066                                                  
  24348904.217   127954304.421                                                  
 21  9  2  7 47 12.0000000  0 16G 1G 7G 8G14G17G21C24C25C26C34E 2E 3
                                E 8E25E30E36
  21632924.586   113681740.502    21632927.767    88583162.157                  
  20090636.223   105577020.785    20090635.544    82267811.824                  
  22081633.568   116039727.741    22081635.856    90420557.273                  
  22918027.264   120435057.321    22918027.443    93845504.105                  
  22969903.826   120707662.039    22969903.826    94057918.605                  
  21413752.299   112530031.124    21413751.299    87685739.972                  
                 115138888.023                   115138888.023    22111207.355  
                 122477396.859                   122477396.859    23520493.024  
                 126698659.366                   126698659.366    24331145.303  
                 116132288.711                   116132288.711    22301984.746  
  24218714.518   127270182.701                                                  
  27124781.974   142541669.090                                                  
  24747152.740   130047156.415                                                  
  24518463.036   128845382.294                                                  
  26907098.659   141397727.800                                                  
  24348555.235   127952470.508                                                  
 21  9  2  7 47 13.0000000  0 17G 1G 7G 8G14G17G21G30C24C25C26C34E 2
                                E 3E 8E25E30E36
  21632411.102   113679042.218    21632414.301    88581059.598                  
  20090608.598   105576875.609    20090607.919    82267698.700                  
  22082169.353   116042543.406    22082171.658    90422751.297                  
  22917631.072   120432975.386    22917631.251    93843881.820                  
  22969389.341   120704958.465    22969389.341    94055811.926                  
  21413709.753   112529807.583    21413708.753    87685565.782                  
  21337926.566   112131526.244    21337928.424    87375206.643                  
                 115139300.362                   115139300.362    22111286.533  
                 122475179.660                   122475179.660    23520067.223  
                 126701008.715                   126701008.715    24331596.478  
                 116130591.122                   116130591.122    22301658.743  
  24218517.995   127269150.051                                                  
  27125265.778   142544211.458                                                  
  24747390.952   130048408.300                                                  
  24518585.636   128846026.543                                                  
  26906739.117   141395838.479                                                  
  24348206.342   127950636.985                                                  
 21  9  2  7 47 14.0000000  0 17G 1G 7G 8G14G17G21G30C24C25C26C34E 2
                                E 3E 8E25E30E36
  21631897.725   113676344.354    21631900.923    88578957.368                  
  20090581.079   105576731.017    20090580.400    82267586.031                  
  22082705.191   116045359.264    22082707.497    90424945.473                  
  22917234.898   120430893.518    22917235.095    93842259.585                  
  22968874.927   120702255.204    22968874.927    94053705.489                  
  21413667.332   112529584.665    21413666.332    87685392.082                  
  21337520.331   112129391.550    21337522.208    87373543.246                  
                 115139713.054                   115139713.054    22111365.800  
                 122472962.601                   122472962.601    23519641.458  
                 126703358.296                   126703358.296    24332047.688  
                 116128893.984                   116128893.984    22301332.813  
  24218321.507   127268117.439                                                  
  27125749.582   142546753.820                                                  
  24747629.253   130049660.532                                                  
  24518708.253   128846670.901                                                  
  26906379.574   141393949.108                                                  
  24347857.503   127948803.844                                                  
 21  9  2  7 47 15.0000000  0 17G 1G 7G 8G14G17G21G30C24C25C26C34E 2
                                E 3E 8E25E30E36
  21631384.419   113673646.939    21631387.618    88576855.484                  
  20090553.686   105576586.965    20090553.007    82267473.753                  
  22083241.083   116048175.378    22083243.389    90427139.879                  
  22916838.760   120428811.680    22916838.939    93840637.359                  
  22968360.585   120699552.275    22968360.585    94051599.312                  
  21413625.018   112529362.333    21413624.036    87685218.827                  
  21337114.204   112127257.270    21337116.063    87371880.173                  
                 115140126.094                   115140126.094    22111445.120  
                 122470745.684                   122470745.684    23519215.729  
                 126705708.110                   126705708.110    24332498.935  
                 116127197.296                   116127197.296    22301006.989  
  24218125.019   127267084.974                                                  
  27126233.385   142549296.200                                                  
  24747867.608   130050913.028                                                  
  24518830.906   128847315.356                                                  
  26906020.031   141392059.731                                                  
  24347508.736   127946971.040                                                  
 21  9  2  7 47 16.0000000  0 18G 1G 7G 8G 9G14G17G21G30C24C25C26C34
                                E 2E 3E 8E25E30E36
  21630871.203   113670949.981    21630874.402    88574753.956                  
  20090526.400   105576443.558    20090525.703    82267362.008                  
  22083776.993   116050991.636    22083779.298    90429334.363                  
  23968727.834   125956475.800    23968730.246    98147893.331                  
  22916442.622   120426729.941    22916442.800    93839015.228                  
  22967846.279   120696849.665    22967846.279    94049493.383                  
  21413582.847   112529140.659    21413581.865    87685046.094                  
  21336708.149   112125123.386    21336710.007    87370217.406                  
                 115140539.477                   115140539.477    22111524.495  
                 122468528.903                   122468528.903    23518790.017  
                 126708058.156                   126708058.156    24332950.235  
                 116125501.065                   116125501.065    22300681.236  
  24217928.531   127266052.456                                                  
  27126717.171   142551838.568                                                  
  24748106.034   130052165.938                                                  
  24518953.559   128847959.928                                                  
  26905660.489   141390170.225                                                  
  24347160.039   127945138.671                                                  
 21  9  2  7 47 17.0000000  0 18G 1G 7G 8G 9G14G17G21G30C24C25C26C34
                                E 2E 3E 8E25E30E36
  21630358.076   113668253.452    21630361.257    88572652.762                  
  20090499.221   105576300.739    20090498.542    82267250.720                  
  22084312.939   116053808.099    22084315.262    90431529.008                  
  23969326.947   125959624.122    23969329.341    98150346.563                  
  22916046.483   120424648.261    22916046.680    93837393.137                  
  22967332.062   120694147.379    22967332.062    94047387.703                  
  21413540.784   112528919.604    21413539.801    87684873.839                  
  21336302.164   112122989.921    21336304.005    87368554.964                  
                 115140953.207                   115140953.207    22111603.958  
                 122466312.265                   122466312.265    23518364.341  
                 126710408.432                   126710408.432    24333401.606  
                 116123805.285                   116123805.285    22300355.574  
  24217732.061   127265019.976                                                  
  27127200.975   142554380.938                                                  
  24748344.514   130053419.194                                                  
  24519076.248   128848604.618                                                  
  26905300.928   141388280.687                                                  
  24346811.433   127943306.689                                                  
 21  9  2  7 47 18.0000000  0 18G 1G 7G 8G 9G14G17G21G30C24C25C26C34
                                E 2E 3E 8E25E30E36
  21629845.021   113665557.372    21629848.219    88570551.923                  
  20090472.168   105576158.512    20090471.453    82267139.891                  
  22084848.938   116056624.750    22084851.261    90433723.801                  
  23969926.041   125962772.460    23969928.436    98152799.817                  
  22915650.363   120422566.648    22915650.559    93835771.101                  
  22966817.881   120691445.415    22966817.881    94045282.274                  
  21413498.845   112528699.172    21413497.845    87684702.073                  
  21335896.252   112120856.862    21335898.092    87366892.840                  
                 115141367.288                   115141367.288    22111683.475  
                 122464095.767                   122464095.767    23517938.683  
                 126712758.941                   126712758.941    24333852.978  
                 116122109.958                   116122109.958    22300030.018  
  24217535.592   127263987.543                                                  
  27127684.779   142556923.333                                                  
  24748583.084   130054672.808                                                  
  24519198.936   128849249.413                                                  
  26904941.332   141386391.087                                                  
  24346462.897   127941475.091                                                  
 21  9  2  7 47 19.0000000  0 18G 1G 7G 8G 9G14G17G21G30C24C25C26C34
                                E 2E 3E 8E25E30E36
  21629332.055   113662861.734    21629335.253    88568451.426                  
  20090445.203   105576016.860    20090444.524    82267029.516                  
  22085384.955   116059441.594    22085387.278    90435918.742                  
  23970525.154   125965920.812    23970527.566    98155253.074                  
  22915254.260   120420485.106    22915254.457    93834149.120                  
  22966303.771   120688743.765    22966303.771    94043177.097                  
  21413456.996   112528479.367    21413456.013    87684530.801                  
  21335490.428   112118724.213    21335492.269    87365231.036                  
                 115141781.715                   115141781.715    22111763.064  
                 122461879.411                   122461879.411    23517513.061  
                 126715109.683                   126715109.683    24334304.421  
                 116120415.082                   116120415.082    22299704.516  
  24217339.139   127262955.148                                                  
  27128168.583   142559465.715                                                  
  24748821.707   130055926.753                                                  
  24519321.661   128849894.320                                                  
  26904581.736   141384501.434                                                  
  24346114.434   127939643.890                                                  
 21  9  2  7 47 20.0000000  0 18G 1G 7G 8G 9G14G17G21G30C24C25C26C34
                                E 2E 3E 8E25E30E36
  21628819.178   113660166.540    21628822.377    88566351.273                  
  20090418.364   105575875.804    20090417.685    82266919.602                  
  22085921.044   116062258.624    22085923.349    90438113.832                  
  23971124.284   125969069.187    23971126.679    98157706.356                  
  22914858.157   120418403.622    22914858.354    93832527.183                  
  22965789.733   120686042.447    22965789.733    94041072.171                  
  21413415.308   112528260.187    21413414.307    87684360.007                  
  21335084.676   112116591.973    21335086.517    87363569.552                  
                 115142196.491                   115142196.491    22111842.724  
                 122459663.192                   122459663.192    23517087.439  
                 126717460.657                   126717460.657    24334755.900  
                 116118720.659                   116118720.659    22299379.139  
  24217142.705   127261922.800                                                  
  27128652.386   142562008.113                                                  
  24749060.383   130057181.042                                                  
  24519444.421   128850539.341                                                  
  26904222.140   141382611.711                                                  
  24345766.041   127937813.067                                                  
 21  9  2  7 47 21.0000000  0 18G 1G 7G 8G 9G14G17G21G30C24C25C26C34
                                E 2E 3E 8E25E30E36
  21628306.373   113657471.789    21628309.572    88564251.469                  
  20090391.614   105575735.335    20090390.935    82266810.146                  
  22086457.132   116065075.864    22086459.437    90440309.082                  
  23971723.397   125972217.578    23971725.791    98160159.649                  
  22914462.073   120416322.200    22914462.287    93830905.298                  
  22965275.767   120683341.445    22965275.767    94038967.495                  
  21413373.708   112528041.629    21413372.726    87684189.702                  
  21334678.996   112114460.140    21334680.836    87361908.383                  
                 115142611.613                   115142611.613    22111922.438  
                 122457447.112                   122457447.112    23516661.888  
                 126719811.860                   126719811.860    24335207.414  
                 116117026.687                   116117026.687    22299053.815  
  24216946.253   127260890.497                                                  
  27129136.172   142564550.513                                                  
  24749299.131   130058435.683                                                  
  24519567.181   128851184.456                                                  
  26903862.544   141380721.938                                                  
  24345417.720   127935982.640                                                  
 21  9  2  7 47 22.0000000  0 18G 1G 7G 8G 9G14G17G21G30C24C25C26C34
                                E 2E 3E 8E25E30E36
  21627793.675   113654777.482    21627796.873    88562152.008                  
  20090365.007   105575595.453    20090364.328    82266701.144                  
  22086993.274   116067893.293    22086995.580    90442504.481                  
  23972322.527   125975365.986    23972324.922    98162612.950                  
  22914066.024   120414240.840    22914066.202    93829283.461                  
  22964761.836   120680640.773    22964761.836    94036863.077                  
  21413332.234   112527823.691    21413331.234    87684019.878                  
  21334273.405   112112328.724    21334275.245    87360247.535                  
                 115143027.082                   115143027.082    22112002.223  
                 122455231.172                   122455231.172    23516236.319  
                 126722163.297                   126722163.297    24335659.000  
                 116115333.172                   116115333.172    22298728.599  
  24216749.819   127259858.234                                                  
  27129619.994   142567092.922                                                  
  24749537.933   130059690.668                                                  
  24519689.959   128851829.700                                                  
  26903502.912   141378832.112                                                  
  24345069.489   127934152.595                                                  
 21  9  2  7 47 23.0000000  0 18G 1G 7G 8G 9G14G17G21G30C24C25C26C34
                                E 2E 3E 8E25E30E36
  21627281.066   113652083.626    21627284.247    88560052.898                  
  20090338.507   105575456.169    20090337.828    82266592.609                  
  22087529.435   116070710.918    22087531.758    90444700.036                  
  23972921.640   125978514.411    23972924.034    98165066.266                  
  22913669.957   120412159.547    22913670.135    93827661.672                  
  22964247.976   120677940.417    22964247.976    94034758.906                  
  21413290.886   112527606.386    21413289.903    87683850.554                  
  21333867.885   112110197.698    21333869.726    87358586.995                  
                 115143442.902                   115143442.902    22112082.080  
                 122453015.375                   122453015.375    23515810.804  
                 126724514.960                   126724514.960    24336110.604  
                 116113640.105                   116113640.105    22298403.454  
  24216553.403   127258826.027                                                  
  27130103.798   142569635.328                                                  
  24749776.842   130060945.993                                                  
  24519812.755   128852475.044                                                  
  26903143.280   141376942.222                                                  
  24344721.293   127932322.943                                                  
 21  9  2  7 47 24.0000000  0 18G 1G 7G 8G 9G14G17G21G30C24C25C26C34
                                E 2E 3E 8E25E30E36
  21626768.511   113649390.204    21626771.692    88557954.130                  
  20090312.097   105575317.470    20090311.418    82266484.532                  
  22088065.666   116073528.754    22088067.971    90446895.750                  
  23973520.788   125981662.842    23973523.183    98167519.593                  
  22913273.926   120410078.319    22913274.104    93826039.938                  
  22963734.188   120675240.390    22963734.188    94032654.984                  
  21413249.644   112527389.692    21413248.661    87683681.704                  
  21333462.437   112108067.083    21333464.278    87356926.778                  
                 115143859.068                   115143859.068    22112162.008  
                 122450799.720                   122450799.720    23515385.325  
                 126726866.865                   126726866.865    24336562.261  
                 116111947.491                   116111947.491    22298078.417  
  24216356.987   127257793.853                                                  
  27130587.602   142572177.746                                                  
  24750015.786   130062201.669                                                  
  24519935.605   128853120.499                                                  
  26902783.648   141375052.285                                                  
  24344373.204   127930493.672                                                  
 21  9  2  7 47 25.0000000  0 18G 1G 7G 8G 9G14G17G21G30C24C25C26C34
                                E 2E 3E 8E25E30E36
  21626256.063   113646697.226    21626259.262    88555855.707                  
  20090285.812   105575179.360    20090285.133    82266376.913                  
  22088601.915   116076346.773    22088604.221    90449091.606                  
  23974119.901   125984811.294    23974122.295    98169972.926                  
  22912877.877   120407997.153    22912878.073    93824418.245                  
  22963220.436   120672540.680    22963220.436    94030551.316                  
  21413208.545   112527173.646    21413207.544    87683513.352                  
  21333057.078   112105936.876    21333058.919    87355266.874                  
                 115144275.583                   115144275.583    22112241.972  
                 122448584.204                   122448584.204    23514959.846  
                 126729218.993                   126729218.993    24337013.955  
                 116110255.331                   116110255.331    22297753.469  
  24216160.588   127256761.731                                                  
  27131071.423   142574720.173                                                  
  24750254.802   130063457.684                                                  
  24520058.436   128853766.063                                                  
  26902423.980   141373162.297                                                  
  24344025.187   127928664.789                                                  
 21  9  2  7 47 26.0000000  0 18G 1G 7G 8G 9G14G17G21G30C24C25C26C34
                                E 2E 3E 8E25E30E36
  21625743.687   113644004.696    21625746.886    88553757.632                  
  20090259.651   105575041.837    20090258.972    82266269.753                  
  22089138.201   116079164.964    22089140.524    90451287.602                  
  23974719.031   125987959.767    23974721.444    98172426.285                  
  22912481.863   120405916.054    22912482.060    93822796.614                  
  22962706.755   120669841.301    22962706.755    94028447.907                  
  21413167.536   112526958.207    21413166.535    87683345.480                  
  21332651.773   112103807.086    21332653.631    87353607.300                  
                 115144692.441                   115144692.441    22112322.043  
                 122446368.825                   122446368.825    23514534.402  
                 126731571.354                   126731571.354    24337465.701  
                 116108563.624                   116108563.624    22297428.574  
  24215964.172   127255729.656                                                  
  27131555.227   142577262.591                                                  
  24750493.872   130064714.056                                                  
  24520181.322   128854411.747                                                  
  26902064.312   141371272.251                                                  
  24343677.242   127926836.305                                                  
 21  9  2  7 47 27.0000000  0 18G 1G 7G 8G 9G14G17G21G30C24C25C26C34
                                E 2E 3E 8E25E30E36
  21625231.400   113641312.612    21625234.599    88551659.907                  
  20090233.598   105574904.898    20090232.919    82266163.052                  
  22089674.521   116081983.367    22089676.844    90453483.762                  
  23975318.180   125991108.257    23975320.574    98174879.657                  
  22912085.868   120403835.028    22912086.047    93821175.036                  
  22962193.146   120667142.254    22962193.146    94026344.753                  
  21413126.651   112526743.394    21413125.686    87683178.093                  
  21332246.575   112101677.706    21332248.416    87351948.043                  
                 115145109.651                   115145109.651    22112402.167  
                 122444153.589                   122444153.589    23514108.994  
                 126733923.948                   126733923.948    24337917.502  
                 116106872.368                   116106872.368    22297103.804  
  24215767.791   127254697.625                                                  
  27132039.049   142579805.032                                                  
  24750733.013   130065970.775                                                  
  24520304.207   128855057.546                                                  
  26901704.645   141369382.150                                                  
  24343329.368   127925008.208                                                  
 21  9  2  7 47 28.0000000  0 18G 1G 7G 8G 9G14G17G21G30C24C25C26C34
                                E 2E 3E 8E25E30E36
  21624719.202   113638620.972    21624722.401    88549562.520                  
  20090207.653   105574768.552    20090206.956    82266056.806                  
  22090210.878   116084801.981    22090213.201    90455680.082                  
  23975917.328   125994256.770    23975919.723    98177333.039                  
  22911689.855   120401754.052    22911690.033    93819553.492                  
  22961679.608   120664443.524    22961679.608    94024241.844                  
  21413085.892   112526529.203    21413084.927    87683011.191                  
  21331841.449   112099548.723    21331843.307    87350289.095                  
                 115145527.210                   115145527.210    22112482.364  
                 122441938.495                   122441938.495    23513683.604  
                 126736276.774                   126736276.774    24338369.338  
                 116105181.566                   116105181.566    22296779.106  
  24215571.393   127253665.624                                                  
  27132522.835   142582347.464                                                  
  24750972.226   130067227.828                                                  
  24520427.128   128855703.456                                                  
  26901344.959   141367491.983                                                  
  24342981.565   127923180.496                                                  
 21  9  2  7 47 29.0000000  0 18G 1G 7G 8G 9G14G17G21G30C24C25C26C34
                                E 2E 3E 8E25E30E36
  21624207.076   113635929.778    21624210.275    88547465.488                  
  20090181.814   105574632.789    20090181.135    82265951.015                  
  22090747.306   116087620.794    22090749.593    90457876.558                  
  23976516.459   125997405.275    23976518.853    98179786.417                  
  22911293.877   120399673.141    22911294.056    93817932.007                  
  22961166.106   120661745.108    22961166.106    94022139.183                  
  21413045.258   112526315.634    21413044.257    87682844.773                  
  21331436.394   112097420.156    21331438.234    87348630.474                  
                 115145945.112                   115145945.112    22112562.596  
                 122439723.538                   122439723.538    23513258.232  
                 126738629.833                   126738629.833    24338821.228  
                 116103491.214                   116103491.214    22296454.480  
  24215375.048   127252633.684                                                  
  27133006.656   142584889.914                                                  
  24751211.492   130068485.230                                                  
  24520550.049   128856349.469                                                  
  26900985.256   141365601.776                                                  
  24342633.816   127921353.171                                                  
 21  9  2  7 47 30.0000000  0 18G 1G 7G 8G 9G14G17G21G30C24C25C26C34
                                E 2E 3E 8E25E30E36
  21623695.039   113633239.023    21623698.238    88545368.797                  
  20090156.100   105574497.626    20090155.421    82265845.692                  
  22091283.734   116090439.804    22091286.039    90460073.192                  
  23977115.607   126000553.824    23977118.001    98182239.836                  
  22910897.899   120397592.297    22910898.096    93816310.570                  
  22960652.675   120659047.021    22960652.675    94020036.777                  
  21413004.749   112526102.684    21413003.748    87682678.836                  
  21331031.428   112095292.000    21331033.268    87346972.168                  
                 115146363.366                   115146363.366    22112642.917  
                 122437508.726                   122437508.726    23512832.914  
                 126740983.122                   126740983.122    24339273.135  
                 116101801.319                   116101801.319    22296129.943  
  24215178.685   127251601.776                                                  
  27133490.460   142587432.368                                                  
  24751450.847   130069742.976                                                  
  24520673.006   128856995.591                                                  
  26900625.552   141363711.513                                                  
  24342286.174   127919526.242                                                  
 21  9  2  7 47 31.0000000  0 18G 1G 7G 8G 9G14G17G21G30C24C25C26C34
                                E 2E 3E 8E25E30E36
  21623183.092   113630548.724    21623186.308    88543272.457                  
  20090130.476   105574363.043    20090129.797    82265740.825                  
  22091820.198   116093259.017    22091822.521    90462269.976                  
  23977714.755   126003702.378    23977717.168    98184693.251                  
  22910501.940   120395511.515    22910502.136    93814689.184                  
  22960139.298   120656349.259    22960139.298    94017934.625                  
  21412964.347   112525890.367    21412963.346    87682513.399                  
  21330626.516   112093164.249    21330628.356    87345314.180                  
                 115146781.969                   115146781.969    22112723.327  
                 122435294.054                   122435294.054    23512407.613  
                 126743336.640                   126743336.640    24339725.096  
                 116100111.875                   116100111.875    22295805.495  
  24214982.323   127250569.921                                                  
  27133974.282   142589974.821                                                  
  24751690.257   130071001.071                                                  
  24520795.980   128857641.824                                                  
  26900265.849   141361821.191                                                  
  24341938.604   127917699.703                                                  
 21  9  2  7 47 32.0000000  0 18G 1G 7G 8G 9G14G17G21G30C24C25C26C34
                                E 2E 3E 8E25E30E36
  21622671.234   113627858.862    21622674.414    88541176.465                  
  20090104.995   105574229.050    20090104.298    82265636.415                  
  22092356.715   116096078.435    22092359.038    90464466.925                  
  23978313.904   126006850.950    23978316.316    98187146.684                  
  22910105.998   120393430.806    22910106.177    93813067.848                  
  22959625.992   120653651.808    22959625.992    94015832.720                  
  21412924.034   112525678.668    21412923.052    87682348.438                  
  21330221.693   112091036.909    21330223.552    87343656.513                  
                 115147200.917                   115147200.917    22112803.756  
                 122433079.521                   122433079.521    23511982.348  
                 126745690.394                   126745690.394    24340177.111  
                 116098422.884                   116098422.884    22295481.154  
  24214785.960   127249538.116                                                  
  27134458.104   142592517.274                                                  
  24751929.719   130072259.509                                                  
  24520918.973   128858288.171                                                  
  26899906.127   141359930.805                                                  
  24341591.087   127915873.552                                                  
 21  9  2  7 47 33.0000000  0 18G 1G 7G 8G 9G14G17G21G30C24C25C26C34
                                E 2E 3E 8E25E30E36
  21622159.465   113625169.449    21622162.645    88539080.816                  
  20090079.603   105574095.653    20090078.924    82265532.469                  
  22092893.286   116098898.047    22092895.591    90466664.028                  
  23978913.052   126009999.531    23978915.464    98189600.126                  
  22909710.056   120391350.156    22909710.253    93811446.566                  
  22959112.758   120650954.684    22959112.758    94013731.062                  
  21412883.883   112525467.601    21412882.900    87682183.969                  
  21329816.960   112088909.977    21329818.800    87341999.161                  
                 115147620.215                   115147620.215    22112884.292  
                 122430865.128                   122430865.128    23511557.083  
                 126748044.375                   126748044.375    24340629.180  
                 116096734.347                   116096734.347    22295156.885  
  24214589.615   127248506.344                                                  
  27134941.907   142595059.730                                                  
  24752169.254   130073518.293                                                  
  24521041.983   128858934.627                                                  
  26899546.388   141358040.374                                                  
  24341243.659   127914047.782                                                  
 21  9  2  7 47 34.0000000  0 18G 1G 7G 8G 9G14G17G21G30C24C25C26C34
                                E 2E 3E 8E25E30E36
  21621647.767   113622480.476    21621650.966    88536985.513                  
  20090054.336   105573962.852    20090053.640    82265428.985                  
  22093429.875   116101717.840    22093432.180    90468861.269                  
  23979512.218   126013148.133    23979514.613    98192053.579                  
  22909314.132   120389269.562    22909314.329    93809825.324                  
  22958599.578   120648257.878    22958599.560    94011629.655                  
  21412843.838   112525257.157    21412842.838    87682019.984                  
  21329412.298   112086783.447    21329414.138    87340342.124                  
                 115148039.859                   115148039.859    22112964.881  
                 122428650.880                   122428650.880    23511131.854  
                 126750398.591                   126750398.591    24341081.284  
                 116095046.260                   116095046.260    22294832.723  
  24214393.306   127247474.624                                                  
  27135425.711   142597602.194                                                  
  24752408.859   130074777.421                                                  
  24521165.011   128859581.204                                                  
  26899186.613   141356149.874                                                  
  24340896.304   127912222.400                                                  
 21  9  2  7 47 35.0000000  0 18G 1G 7G 8G 9G14G17G21G30C24C25C26C34
                                E 2E 3E 8E25E30E36
  21621136.159   113619791.958    21621139.340    88534890.563                  
  20090029.177   105573830.637    20090028.480    82265325.961                  
  22093966.500   116104537.854    22093968.823    90471058.683                  
  23980111.384   126016296.749    23980113.797    98194507.046                  
  22908918.226   120387189.049    22908918.423    93808204.146                  
  22958086.433   120645561.399    22958086.433    94009528.505                  
  21412803.901   112525047.327    21412802.918    87681856.484                  
  21329007.725   112084657.336    21329009.566    87338685.417                  
                 115148459.852                   115148459.852    22113045.542  
                 122426436.769                   122426436.769    23510706.661  
                 126752753.040                   126752753.040    24341533.424  
                 116093358.630                   116093358.630    22294508.615  
  24214196.979   127246442.945                                                  
  27135909.533   142600144.671                                                  
  24752648.537   130076036.898                                                  
  24521288.075   128860227.874                                                  
  26898826.856   141354259.332                                                  
  24340549.019   127910397.413                                                  
 21  9  2  7 47 36.0000000  0 18G 1G 7G 8G 9G14G17G21G30C24C25C26C34
                                E 2E 3E 8E25E30E36
  21620624.623   113617103.868    21620627.821    88532795.950                  
  20090004.124   105573698.995    20090003.445    82265223.383                  
  22094503.160   116107358.047    22094505.483    90473256.235                  
  23980710.568   126019445.374    23980712.963    98196960.520                  
  22908522.320   120385108.590    22908522.517    93806583.008                  
  22957573.378   120642865.307    22957573.378    94007427.672                  
  21412764.107   112524838.124    21412763.106    87681693.469                  
  21328603.206   112082531.628    21328605.047    87337029.021                  
                 115148880.190                   115148880.190    22113126.256  
                 122424222.800                   122424222.800    23510281.503  
                 126755107.715                   126755107.715    24341985.617  
                 116091671.448                   116091671.448    22294184.614  
  24214000.652   127245411.305                                                  
  27136393.354   142602687.148                                                  
  24752888.285   130077296.710                                                  
  24521411.157   128860874.659                                                  
  26898467.099   141352368.722                                                  
  24340201.806   127908572.811                                                  
 21  9  2  7 47 37.0000000  0 18G 1G 7G 8G 9G14G17G21G30C24C25C26C34
                                E 2E 3E 8E25E30E36
  21620113.176   113614416.230    21620116.374    88530701.683                  
  20089979.179   105573567.946    20089978.500    82265121.266                  
  22095039.856   116110178.433    22095042.179    90475453.937                  
  23981309.717   126022594.028    23981312.111    98199414.015                  
  22908126.432   120383028.195    22908126.646    93804961.922                  
  22957060.376   120640169.465    22957060.376    94005327.016                  
  21412724.402   112524629.544    21412723.419    87681530.937                  
  21328198.777   112080406.333    21328200.617    87335372.944                  
                 115149300.884                   115149300.884    22113207.042  
                 122422008.971                   122422008.971    23509856.363  
                 126757462.624                   126757462.624    24342437.864  
                 116089984.720                   116089984.720    22293860.702  
  24213804.361   127244379.714                                                  
  27136877.176   142605229.621                                                  
  24753128.088   130078556.871                                                  
  24521534.257   128861521.558                                                  
  26898107.324   141350478.063                                                  
  24339854.665   127906748.603                                                  
 21  9  2  7 47 38.0000000  0 18G 1G 7G 8G 9G14G17G21G30C24C25C26C34
                                E 2E 3E 8E25E30E36
  21619601.818   113611729.038    21619605.016    88528607.769                  
  20089954.359   105573437.500    20089953.680    82265019.621                  
  22095576.606   116112999.016    22095578.911    90477651.794                  
  23981908.883   126025742.683    23981911.295    98201867.517                  
  22907730.562   120380947.868    22907730.758    93803340.887                  
  22956547.446   120637473.954    22956547.446    94003226.617                  
  21412684.840   112524421.597    21412683.839    87681368.903                  
  21327794.419   112078281.446    21327796.259    87333717.191                  
                 115149721.918                   115149721.918    22113287.899  
                 122419795.288                   122419795.288    23509431.241  
                 126759817.765                   126759817.765    24342890.147  
                 116088298.445                   116088298.445    22293536.862  
  24213608.052   127243348.167                                                  
  27137360.998   142607772.098                                                  
  24753367.943   130079817.378                                                  
  24521657.374   128862168.572                                                  
  26897747.514   141348587.339                                                  
  24339507.595   127904924.778                                                  
 21  9  2  7 47 39.0000000  0 18G 1G 7G 8G 9G14G17G21G30C24C25C26C34
                                E 2E 3E 8E25E30E36
  21619090.567   113609042.298    21619093.766    88526514.208                  
  20089929.664   105573307.636    20089928.967    82264918.426                  
  22096113.374   116115819.790    22096115.697    90479849.802                  
  23982508.067   126028891.352    23982510.462    98204321.020                  
  22907334.691   120378867.605    22907334.906    93801719.903                  
  22956034.551   120634778.765    22956034.551    94001126.469                  
  21412645.385   112524214.257    21412644.384    87681207.339                  
  21327390.132   112076156.973    21327392.008    87332061.755                  
                 115150143.306                   115150143.306    22113368.828  
                 122417581.741                   122417581.741    23509006.155  
                 126762173.138                   126762173.138    24343342.466  
                 116086612.626                   116086612.626    22293213.128  
  24213411.778   127242316.668                                                  
  27137844.819   142610314.595                                                  
  24753607.889   130081078.228                                                  
  24521780.545   128862815.691                                                  
  26897387.721   141346696.574                                                  
  24339160.614   127903101.347                                                  
 21  9  2  7 47 40.0000000  0 18G 1G 7G 8G 9G14G17G21G30C24C25C26C34
                                E 2E 3E 8E25E30E36
  21618579.388   113606355.987    21618582.569    88524420.980                  
  20089905.059   105573178.359    20089904.362    82264817.695                  
  22096650.195   116118640.766    22096652.500    90482047.965                  
  23983107.233   126032040.050    23983109.646    98206774.551                  
  22906938.857   120376787.401    22906939.053    93800098.970                  
  22955521.746   120632083.897    22955521.746    93999026.573                  
  21412606.037   112524007.564    21412605.055    87681046.277                  
  21326985.953   112074032.910    21326987.793    87330406.641                  
                 115150565.038                   115150565.038    22113449.828  
                 122415368.339                   122415368.339    23508581.087  
                 126764528.741                   126764528.741    24343794.838  
                 116084927.259                   116084927.259    22292889.467  
  24213215.505   127241285.212                                                  
  27138328.641   142612857.089                                                  
  24753847.888   130082339.413                                                  
  24521903.699   128863462.922                                                  
  26897027.892   141344805.733                                                  
  24338813.705   127901278.301                                                  
 21  9  2  7 47 41.0000000  0 18G 1G 7G 8G 9G14G17G21G30C24C25C26C34
                                E 2E 3E 8E25E30E36
  21618068.281   113603670.148    21618071.461    88522328.114                  
  20089880.560   105573049.684    20089879.881    82264717.426                  
  22097187.034   116121461.919    22097189.357    90484246.265                  
  23983706.417   126035188.760    23983708.812    98209228.090                  
  22906543.022   120374707.273    22906543.219    93798478.086                  
  22955008.994   120629389.352    22955008.976    93996926.930                  
  21412566.833   112523801.492    21412565.832    87680885.704                  
  21326581.845   112071909.253    21326583.685    87328751.843                  
                 115150987.121                   115150987.121    22113530.882  
                 122413155.077                   122413155.077    23508156.054  
                 126766884.577                   126766884.577    24344247.246  
                 116083242.345                   116083242.345    22292565.895  
  24213019.214   127240253.803                                                  
  27138812.463   142615399.577                                                  
  24754087.940   130083600.961                                                  
  24522026.888   128864110.270                                                  
  26896668.082   141342914.851                                                  
  24338466.867   127899455.653                                                  
 21  9  2  7 47 42.0000000  0 18G 1G 7G 8G 9G14G17G21G30C24C25C26C34
                                E 2E 3E 8E25E30E36
  21617557.262   113600984.743    21617560.461    88520235.593                  
  20089856.187   105572921.578    20089855.508    82264617.605                  
  22097723.944   116124283.265    22097726.232    90486444.719                  
  23984305.601   126038337.488    23984307.996    98211681.644                  
  22906147.205   120372627.198    22906147.384    93796857.251                  
  22954496.296   120626695.126    22954496.296    93994827.531                  
  21412527.735   112523596.031    21412526.735    87680725.604                  
  21326177.808   112069786.003    21326179.649    87327097.363                  
                 115151409.550                   115151409.550    22113612.008  
                 122410941.958                   122410941.958    23507731.040  
                 126769240.646                   126769240.646    24344699.707  
                 116081557.884                   116081557.884    22292242.394  
  24212822.958   127239222.439                                                  
  27139296.284   142617942.074                                                  
  24754328.064   130084862.845                                                  
  24522150.077   128864757.723                                                  
  26896308.235   141341023.913                                                  
  24338120.101   127897633.378                                                  
 21  9  2  7 47 43.0000000  0 18G 1G 7G 8G 9G14G17G21G30C24C25C26C34
                                E 2E 3E 8E25E30E36
  21617046.315   113598299.784    21617049.514    88518143.418                  
  20089831.921   105572794.085    20089831.242    82264518.257                  
  22098260.855   116127104.807    22098263.160    90488643.321                  
  23984904.786   126041486.227    23984907.198    98214135.207                  
  22905751.389   120370547.200    22905751.585    93795236.473                  
  22953983.652   120624001.226    22953983.652    93992728.390                  
  21412488.763   112523391.206    21412487.762    87680566.003                  
  21325773.825   112067663.165    21325775.684    87325443.203                  
                 115151832.329                   115151832.329    22113693.186  
                 122408728.978                   122408728.978    23507306.061  
                 126771596.941                   126771596.941    24345152.204  
                 116079873.874                   116079873.874    22291919.018  
  24212626.703   127238191.121                                                  
  27139780.106   142620484.583                                                  
  24754568.259   130086125.065                                                  
  24522273.320   128865405.292                                                  
  26895948.407   141339132.919                                                  
  24337773.406   127895811.509                                                  
 21  9  2  7 47 44.0000000  0 18G 1G 7G 8G 9G14G17G21G30C24C25C26C34
                                E 2E 3E 8E25E30E36
  21616535.476   113595615.281    21616538.674    88516051.597                  
  20089807.780   105572667.173    20089807.101    82264419.363                  
  22098797.819   116129926.567    22098800.124    90490842.093                  
  23985503.987   126044634.987    23985506.382    98216588.786                  
  22905355.572   120368467.251    22905355.786    93793615.734                  
  22953471.097   120621307.649    22953471.079    93990629.497                  
  21412449.898   112523187.001    21412448.897    87680406.880                  
  21325369.932   112065540.737    21325371.808    87323789.363                  
                 115152255.456                   115152255.456    22113774.437  
                 122406516.137                   122406516.137    23506881.117  
                 126773953.472                   126773953.472    24345604.755  
                 116078190.315                   116078190.315    22291595.696  
  24212430.465   127237159.844                                                  
  27140263.928   142623027.074                                                  
  24754808.526   130087387.635                                                  
  24522396.562   128866052.968                                                  
  26895588.543   141337241.867                                                  
  24337426.783   127893990.020                                                  
 21  9  2  7 47 45.0000000  0 18G 1G 7G 8G 9G14G17G21G30C24C25C26C34
                                E 2E 3E 8E25E30E36
  21616024.725   113592931.220    21616027.924    88513960.121                  
  20089783.746   105572540.848    20089783.067    82264320.930                  
  22099334.819   116132748.512    22099337.124    90493041.011                  
  23986103.154   126047783.759    23986105.584    98219042.372                  
  22904959.809   120366387.375    22904959.987    93791995.051                  
  22952958.578   120618614.386    22952958.578    93988530.855                  
  21412411.158   112522983.415    21412410.157    87680248.241                  
  21324966.146   112063418.723    21324967.986    87322135.843                  
                 115152678.929                   115152678.929    22113855.759  
                 122404303.443                   122404303.443    23506456.192  
                 126776310.229                   126776310.229    24346057.342  
                 116076507.216                   116076507.216    22291272.481  
  24212234.228   127236128.609                                                  
  27140747.732   142625569.583                                                  
  24755048.847   130088650.551                                                  
  24522519.841   128866700.754                                                  
  26895228.678   141335350.759                                                  
  24337080.249   127892168.922                                                  
 21  9  2  7 47 46.0000000  0 18G 1G 7G 8G 9G14G17G21G30C24C25C26C34
                                E 2E 3E 8E25E30E36
  21615514.047   113590247.593    21615517.245    88511868.983                  
  20089759.819   105572415.112    20089759.122    82264222.952                  
  22099871.855   116135570.676    22099874.160    90495240.098                  
  23986702.356   126050932.531    23986704.768    98221495.965                  
  22904564.028   120364307.562    22904564.224    93790374.417                  
  22952446.148   120615921.460    22952446.148    93986432.469                  
  21412372.525   112522780.418    21412371.542    87680090.067                  
  21324562.413   112061297.122    21324564.253    87320482.653                  
                 115153102.755                   115153102.755    22113937.152  
                 122402090.887                   122402090.887    23506031.302  
                 126778667.223                   126778667.223    24346509.982  
                 116074824.567                   116074824.567    22290949.338  
  24212038.008   127235097.417                                                  
  27141231.553   142628112.098                                                  
  24755289.239   130089913.802                                                  
  24522643.119   128867348.645                                                  
  26894868.796   141333459.589                                                  
  24336733.786   127890348.214                                                  
 21  9  2  7 47 47.0000000  0 18G 1G 7G 8G 9G14G17G21G30C24C25C26C34
                                E 2E 3E 8E25E30E36
  21615003.457   113587564.425    21615006.638    88509778.202                  
  20089736.000   105572289.970    20089735.321    82264125.441                  
  22100408.926   116138393.008    22100411.249    90497439.320                  
  23987301.558   126054081.332    23987303.952    98223949.574                  
  22904168.265   120362227.812    22904168.461    93788753.836                  
  22951933.735   120613228.851    22951933.735    93984334.337                  
  21412334.017   112522578.068    21412333.034    87679932.386                  
  21324158.752   112059175.933    21324160.592    87318829.778                  
                 115153526.926                   115153526.926    22114018.617  
                 122399878.471                   122399878.471    23505606.413  
                 126781024.445                   126781024.445    24346962.658  
                 116073142.371                   116073142.371    22290626.302  
  24211841.788   127234066.272                                                  
  27141715.393   142630654.613                                                  
  24755529.684   130091177.411                                                  
  24522766.433   128867996.656                                                  
  26894508.914   141331568.375                                                  
  24336387.377   127888527.894                                                  
 21  9  2  7 47 48.0000000  0 18G 1G 7G 8G 9G14G17G21G30C24C25C26C34
                                E 2E 3E 8E25E30E36
  21614492.957   113584881.708    21614496.138    88507687.774                  
  20089712.305   105572165.411    20089711.609    82264028.382                  
  22100946.033   116141215.531    22100948.338    90499638.688                  
  23987900.760   126057230.148    23987903.154    98226403.194                  
  22903772.501   120360148.125    22903772.698    93787133.300                  
  22951421.413   120610536.565    22951421.413    93982236.449                  
  21412295.635   112522376.339    21412294.634    87679775.200                  
  21323755.198   112057055.151    21323757.038    87317177.219                  
                 115153951.446                   115153951.446    22114100.136  
                 122397666.204                   122397666.204    23505181.577  
                 126783381.904                   126783381.904    24347415.388  
                 116071460.630                   116071460.630    22290303.337  
  24211645.568   127233035.175                                                  
  27142199.214   142633197.136                                                  
  24755770.201   130092441.354                                                  
  24522889.765   128868644.773                                                  
  26894149.014   141329677.102                                                  
  24336041.058   127886707.966                                                  
 21  9  2  7 47 49.0000000  0 18G 1G 7G 8G 9G14G17G21G30C24C25C26C34
                                E 2E 3E 8E25E30E36
  21613982.528   113582199.423    21613985.727    88505597.684                  
  20089688.700   105572041.445    20089688.021    82263931.785                  
  22101483.176   116144038.262    22101485.499    90501838.219                  
  23988499.961   126060378.972    23988502.356    98228856.824                  
  22903376.756   120358068.499    22903376.953    93785512.812                  
  22950909.161   120607844.602    22950909.161    93980138.816                  
  21412257.359   112522175.241    21412256.376    87679618.496                  
  21323351.697   112054934.775    21323353.538    87315524.977                  
                 115154376.318                   115154376.318    22114181.743  
                 122395454.073                   122395454.073    23504756.759  
                 126785739.586                   126785739.586    24347868.153  
                 116069779.339                   116069779.339    22289980.461  
  24211449.367   127232004.112                                                  
  27142683.036   142635739.657                                                  
  24756010.808   130093705.632                                                  
  24523013.115   128869292.999                                                  
  26893789.114   141327785.765                                                  
  24335694.828   127884888.426                                                  
 21  9  2  7 47 50.0000000  0 18G 1G 7G 8G 9G14G17G21G30C24C25C26C34
                                E 2E 3E 8E25E30E36
  21613472.207   113579517.583    21613475.388    88503507.939                  
  20089665.221   105571918.078    20089664.542    82263835.653                  
  22102020.354   116146861.172    22102022.677    90504037.887                  
  23989099.163   126063527.823    23989101.576    98231310.472                  
  22902981.047   120355988.949    22902981.243    93783892.384                  
  22950396.964   120605152.965    22950396.964    93978041.438                  
  21412219.227   112521974.757    21412218.226    87679462.276                  
  21322948.286   112052814.818    21322950.127    87313873.062                  
                 115154801.536                   115154801.536    22114263.405  
                 122393242.087                   122393242.087    23504331.976  
                 126788097.504                   126788097.504    24348320.954  
                 116068098.504                   116068098.504    22289657.675  
  24211253.165   127230973.108                                                  
  27143166.876   142638282.177                                                  
  24756251.432   130094970.271                                                  
  24523136.501   128869941.350                                                  
  26893429.196   141325894.384                                                  
  24335348.633   127883069.274                                                  
 21  9  2  7 47 51.0000000  0 18G 1G 7G 8G 9G14G17G21G30C24C25C26C34
                                E 2E 3E 8E25E30E36
  21612961.939   113576836.193    21612965.138    88501418.544                  
  20089641.866   105571795.298    20089641.187    82263739.980                  
  22102557.587   116149684.273    22102559.892    90506237.710                  
  23989698.383   126066676.689    23989700.778    98233764.133                  
  22902585.319   120353909.461    22902585.516    93782271.999                  
  22949884.820   120602461.650    22949884.820    93975944.310                  
  21412181.183   112521774.909    21412180.201    87679306.551                  
  21322544.947   112050695.263    21322546.805    87312221.461                  
                 115155227.103                   115155227.103    22114345.120  
                 122391030.253                   122391030.253    23503907.212  
                 126790455.651                   126790455.651    24348773.827  
                 116066418.120                   116066418.120    22289334.979  
  24211056.981   127229942.149                                                  
  27143650.697   142640824.701                                                  
  24756492.163   130096235.250                                                  
  24523259.904   128870589.802                                                  
  26893069.261   141324002.944                                                  
  24335002.546   127881250.523                                                  
 21  9  2  7 47 52.0000000  0 18G 1G 7G 8G 9G14G17G21G30C24C25C26C34
                                E 2E 3E 8E25E30E36
  21612451.779   113574155.257    21612454.959    88499329.503                  
  20089618.618   105571673.102    20089617.921    82263644.762                  
  22103094.837   116152507.570    22103097.160    90508437.680                  
  23990297.585   126069825.552    23990299.980    98236217.792                  
  22902189.628   120351830.032    22902189.824    93780651.669                  
  22949372.747   120599770.655    22949372.747    93973847.433                  
  21412143.283   112521575.681    21412142.283    87679151.308                  
  21322141.678   112048576.121    21322143.537    87310570.185                  
                 115155653.016                   115155653.016    22114426.906  
                 122388818.550                   122388818.550    23503482.483  
                 126792814.032                   126792814.032    24349226.717  
                 116064738.190                   116064738.190    22289012.353  
  24210860.797   127228911.224                                                  
  27144134.519   142643367.236                                                  
  24756732.949   130097500.569                                                  
  24523383.325   128871238.368                                                  
  26892709.325   141322111.446                                                  
  24334656.512   127879432.145                                                  
 21  9  2  7 47 53.0000000  0 18G 1G 7G 8G 9G14G17G21G30C24C25C26C34
                                E 2E 3E 8E25E30E36
  21611941.707   113571474.785    21611944.888    88497240.821                  
  20089595.478   105571551.504    20089594.781    82263550.011                  
  22103632.140   116155331.073    22103634.445    90510637.812                  
  23990896.805   126072974.429    23990899.199    98238671.465                  
  22901793.936   120349750.673    22901794.115    93779031.387                  
  22948860.728   120597079.992    22948860.728    93971750.812                  
  21412105.472   112521377.077    21412104.472    87678996.554                  
  21321738.500   112046457.388    21321740.340    87308919.219                  
                 115156079.280                   115156079.280    22114508.764  
                 122386606.989                   122386606.989    23503057.772  
                 126795172.641                   126795172.641    24349679.679  
                 116063058.714                   116063058.714    22288689.835  
  24210664.648   127227880.355                                                  
  27144618.359   142645909.765                                                  
  24756973.805   130098766.235                                                  
  24523506.765   128871887.039                                                  
  26892349.353   141320219.883                                                  
  24334310.568   127877614.169                                                  
 21  9  2  7 47 54.0000000  0 18G 1G 7G 8G 9G14G17G21G30C24C25C26C34
                                E 2E 3E 8E25E30E36
  21611431.708   113568794.742    21611434.906    88495152.480                  
  20089572.445   105571430.485    20089571.766    82263455.707                  
  22104169.462   116158154.784    22104171.785    90512838.106                  
  23991496.025   126076123.327    23991498.419    98241125.152                  
  22901398.262   120347671.372    22901398.459    93777411.155                  
  22948348.763   120594389.637    22948348.763    93969654.429                  
  21412067.805   112521179.105    21412066.822    87678842.290                  
  21321335.392   112044339.062    21321337.233    87307268.578                  
                 115156505.891                   115156505.891    22114590.694  
                 122384395.570                   122384395.570    23502633.097  
                 126797531.484                   126797531.484    24350132.659  
                 116061379.697                   116061379.697    22288367.407  
  24210468.482   127226849.519                                                  
  27145102.180   142648452.303                                                  
  24757214.697   130100032.238                                                  
  24523630.222   128872535.828                                                  
  26891989.400   141318328.279                                                  
  24333964.695   127875796.575                                                  
 21  9  2  7 47 55.0000000  0 18G 1G 7G 8G 9G14G17G21G30C24C25C26C34
                                E 2E 3E 8E25E30E36
  21610921.797   113566115.153    21610924.978    88493064.489                  
  20089549.519   105571310.064    20089548.840    82263361.875                  
  22104706.837   116160978.692    22104709.160    90515038.552                  
  23992095.245   126079272.239    23992097.639    98243578.848                  
  22901002.606   120345592.137    22901002.785    93775790.969                  
  22947836.869   120591699.622    22947836.869    93967558.312                  
  21412030.262   112520981.763    21412029.261    87678688.513                  
  21320932.374   112042221.145    21320934.215    87305618.255                  
                 115156932.851                   115156932.851    22114672.677  
                 122382184.294                   122382184.294    23502208.439  
                 126799890.559                   126799890.559    24350585.692  
                 116059701.124                   116059701.124    22288045.032  
  24210272.316   127225818.735                                                  
  27145586.020   142650994.847                                                  
  24757455.679   130101298.593                                                  
  24523753.697   128873184.720                                                  
  26891629.446   141316436.607                                                  
  24333618.876   127873979.380                                                  
 21  9  2  7 47 56.0000000  0 18G 1G 7G 8G 9G14G17G21G30C24C25C26C34
                                E 2E 3E 8E25E30E36
  21610411.958   113563436.005    21610415.157    88490976.841                  
  20089526.718   105571190.227    20089526.039    82263268.496                  
  22105244.248   116163802.770    22105246.553    90517239.132                  
  23992694.447   126082421.155    23992696.859    98246032.546                  
  22900606.933   120343512.968    22900607.147    93774170.843                  
  22947325.046   120589009.918    22947325.029    93965462.441                  
  21411992.826   112520785.032    21411991.825    87678535.218                  
  21320529.428   112040103.650    21320531.286    87303968.254                  
                 115157360.160                   115157360.160    22114754.732  
                 122379973.155                   122379973.155    23501783.818  
                 126802249.864                   126802249.864    24351038.779  
                 116058023.012                   116058023.012    22287722.782  
  24210076.186   127224787.984                                                  
  27146069.841   142653537.380                                                  
  24757696.732   130102565.286                                                  
  24523877.207   128873833.723                                                  
  26891269.457   141314544.891                                                  
  24333273.164   127872162.563                                                  
 21  9  2  7 47 57.0000000  0 18G 1G 7G 8G 9G14G17G21G30C24C25C26C34
                                E 2E 3E 8E25E30E36
  21609902.226   113560757.317    21609905.425    88488889.547                  
  20089504.042   105571070.973    20089503.345    82263175.571                  
  22105781.677   116166627.038    22105784.000    90519439.863                  
  23993293.684   126085570.085    23993296.079    98248486.262                  
  22900211.295   120341433.859    22900211.491    93772550.757                  
  22946813.260   120586320.540    22946813.260    93963366.824                  
  21411955.498   112520588.934    21411954.497    87678382.415                  
  21320126.553   112037986.554    21320128.393    87302318.573                  
                 115157787.820                   115157787.820    22114836.875  
                 122377762.164                   122377762.164    23501359.214  
                 126804609.398                   126804609.398    24351491.902  
                 116056345.347                   116056345.347    22287400.603  
  24209880.038   127223757.288                                                  
  27146553.681   142656079.930                                                  
  24757937.839   130103832.314                                                  
  24524000.718   128874482.846                                                  
  26890909.467   141312653.096                                                  
  24332927.506   127870346.142                                                  
 21  9  2  7 47 58.0000000  0 18G 1G 7G 8G 9G14G17G21G30C24C25C26C34
                                E 2E 3E 8E25E30E36
  21609392.584   113558079.075    21609395.765    88486802.605                  
  20089481.456   105570952.316    20089480.759    82263083.109                  
  22106319.159   116169451.512    22106321.482    90521640.749                  
  23993892.904   126088719.027    23993895.299    98250939.981                  
  22899815.657   120339354.808    22899815.853    93770930.718                  
  22946301.562   120583631.488    22946301.545    93961271.456                  
  21411918.294   112520393.465    21411917.312    87678230.101                  
  21319723.767   112035869.877    21319725.626    87300669.215                  
                 115158215.824                   115158215.824    22114919.055  
                 122375551.312                   122375551.312    23500934.646  
                 126806969.163                   126806969.163    24351945.060  
                 116054668.141                   116054668.141    22287078.514  
  24209683.925   127222726.628                                                  
  27147037.503   142658622.462                                                  
  24758179.017   130105099.696                                                  
  24524124.264   128875132.070                                                  
  26890549.460   141310761.257                                                  
  24332581.919   127868530.109                                                  
 21  9  2  7 47 59.0000000  0 18G 1G 7G 8G 9G14G17G21G30C24C25C26C34
                                E 2E 3E 8E25E30E36
  21608882.995   113555401.271    21608886.194    88484716.007                  
  20089458.976   105570834.254    20089458.297    82262991.117                  
  22106856.677   116172276.160    22106858.982    90523841.773                  
  23994492.124   126091868.004    23994494.536    98253393.727                  
  22899420.054   120337275.837    22899420.233    93769310.738                  
  22945789.901   120580942.753    22945789.901    93959176.345                  
  21411881.216   112520198.614    21411880.233    87678078.269                  
  21319321.053   112033753.612    21319322.894    87299020.175                  
                 115158644.179                   115158644.179    22115001.342  
                 122373340.606                   122373340.606    23500510.096  
                 126809329.160                   126809329.160    24352398.272  
                 116052991.386                   116052991.386    22286756.514  
  24209487.795   127221696.032                                                  
  27147521.342   142661165.023                                                  
  24758420.267   130106367.413                                                  
  24524247.829   128875781.419                                                  
  26890189.435   141308869.375                                                  
  24332236.421   127866714.460                                                  
 21  9  2  7 48  0.0000000  0 18G 1G 7G 8G 9G14G17G21G30C24C25C26C34
                                E 2E 3E 8E25E30E36
  21608373.514   113552723.921    21608376.712    88482629.763                  
  20089436.622   105570716.777    20089435.943    82262899.574                  
  22107394.213   116175101.001    22107396.536    90526042.946                  
  23995091.362   126095016.975    23995093.756    98255847.473                  
  22899024.452   120335196.927    22899024.648    93767690.808                  
  22945278.329   120578254.361    22945278.329    93957081.491                  
  21411844.263   112520004.389    21411843.280    87677926.929                  
  21318918.428   112031637.763    21318920.269    87297371.462                  
                 115159072.887                   115159072.887    22115083.665  
                 122371130.040                   122371130.040    23500085.582  
                 126811689.392                   126811689.392    24352851.538  
                 116051315.085                   116051315.085    22286434.604  
  24209291.682   127220665.465                                                  
  27148005.164   142663707.570                                                  
  24758661.552   130107635.476                                                  
  24524371.429   128876430.871                                                  
  26889829.428   141306977.421                                                  
  24331890.995   127864899.219                                                  
 21  9  2  7 48  1.0000000  0 18G 1G 7G 8G 9G14G17G21G30C24C25C26C34
                                E 2E 3E 8E25E30E36
  21607864.121   113550047.023    21607867.320    88480543.868                  
  20089414.375   105570599.886    20089413.696    82262808.488                  
  22107931.820   116177926.044    22107934.125    90528244.281                  
  23995690.581   126098165.964    23995692.994    98258301.231                  
  22898628.867   120333118.078    22898629.046    93766070.931                  
  22944766.792   120575566.271    22944766.774    93954986.876                  
  21411807.417   112519810.786    21411806.434    87677776.065                  
  21318515.857   112029522.313    21318517.715    87295723.059                  
                 115159501.937                   115159501.937    22115166.059  
                 122368919.616                   122368919.616    23499661.103  
                 126814049.851                   126814049.851    24353304.839  
                 116049639.237                   116049639.237    22286112.765  
  24209095.587   127219634.946                                                  
  27148489.003   142666250.120                                                  
  24758902.927   130108903.880                                                  
  24524495.029   128877080.429                                                  
  26889469.385   141305085.418                                                  
  24331545.640   127863084.356                                                  
 21  9  2  7 48  2.0000000  0 18G 1G 7G 8G 9G14G17G21G30C24C25C26C34
                                E 2E 3E 8E25E30E36
  21607354.818   113547370.566    21607357.999    88478458.317                  
  20089392.253   105570483.594    20089391.574    82262717.870                  
  22108469.446   116180751.284    22108471.769    90530445.766                  
  23996289.819   126101314.974    23996292.231    98260755.000                  
  22898233.283   120331039.294    22898233.462    93764451.094                  
  22944255.345   120572878.519    22944255.327    93952892.528                  
  21411770.696   112519617.820    21411769.713    87677625.704                  
  21318113.393   112027407.286    21318115.234    87294074.984                  
                 115159931.339                   115159931.339    22115248.524  
                 122366709.337                   122366709.337    23499236.642  
                 126816410.540                   126816410.540    24353758.176  
                 116047963.849                   116047963.849    22285791.015  
  24208899.493   127218604.473                                                  
  27148972.843   142668792.676                                                  
  24759144.355   130110172.632                                                  
  24524618.665   128877730.104                                                  
  26889109.324   141303193.356                                                  
  24331200.357   127861269.881                                                  
 21  9  2  7 48  3.0000000  0 18G 1G 7G 8G 9G14G17G21G30C24C25C26C34
                                E 2E 3E 8E25E30E36
  21606845.587   113544694.551    21606848.786    88476373.113                  
  20089370.239   105570367.891    20089369.560    82262627.711                  
  22109007.107   116183576.729    22109009.412    90532647.414                  
  23996889.057   126104463.992    23996891.451    98263208.780                  
  22897837.717   120328960.569    22897837.895    93762831.313                  
  22943743.916   120570191.086    22943743.916    93950798.423                  
  21411734.101   112519425.458    21411733.100    87677475.809                  
  21317711.001   112025292.667    21317712.841    87292427.235                  
                 115160361.090                   115160361.090    22115331.043  
                 122364499.198                   122364499.198    23498812.199  
                 126818771.462                   126818771.462    24354211.585  
                 116046288.906                   116046288.906    22285469.355  
  24208703.398   127217574.047                                                  
  27149456.665   142671335.235                                                  
  24759385.855   130111441.732                                                  
  24524742.300   128878379.891                                                  
  26888749.263   141301301.241                                                  
  24330855.146   127859455.805                                                  
 21  9  2  7 48  4.0000000  0 18G 1G 7G 8G 9G14G17G21G30C24C25C26C34
                                E 2E 3E 8E25E30E36
  21606336.445   113542019.000    21606339.644    88474288.266                  
  20089348.331   105570252.776    20089347.634    82262538.015                  
  22109544.803   116186402.371    22109547.126    90534849.211                  
  23997488.294   126107613.025    23997490.725    98265662.575                  
  22897442.168   120326881.920    22897442.347    93761211.587                  
  22943232.576   120567503.980    22943232.576    93948704.573                  
  21411697.612   112519233.730    21411696.611    87677326.413                  
  21317308.680   112023178.461    21317310.520    87290779.798                  
                 115160791.191                   115160791.191    22115413.634  
                 122362289.205                   122362289.205    23498387.792  
                 126821132.616                   126821132.616    24354665.011  
                 116044614.422                   116044614.422    22285147.802  
  24208507.339   127216543.665                                                  
  27149940.504   142673877.796                                                  
  24759627.444   130112711.165                                                  
  24524865.972   128879029.792                                                  
  26888389.203   141299409.074                                                  
  24330510.005   127857642.117                                                  
 21  9  2  7 48  5.0000000  0 18G 1G 7G 8G 9G14G17G21G30C24C25C26C34
                                E 2E 3E 8E25E30E36
  21605827.374   113539343.890    21605830.573    88472203.766                  
  20089326.531   105570138.253    20089325.852    82262448.776                  
  22110082.536   116189228.192    22110084.859    90537051.149                  
  23998087.532   126110762.058    23998089.962    98268116.366                  
  22897046.619   120324803.333    22897046.798    93759591.906                  
  22942721.325   120564817.196    22942721.307    93946610.976                  
  21411661.249   112519042.633    21411660.266    87677177.509                  
  21316906.448   112021064.664    21316908.288    87289132.683                  
                 115161221.637                   115161221.637    22115496.296  
                 122360079.350                   122360079.350    23497963.421  
                 126823494.000                   126823494.000    24355118.491  
                 116042940.392                   116042940.392    22284826.320  
  24208311.262   127215513.325                                                  
  27150424.344   142676420.358                                                  
  24759869.051   130113980.942                                                  
  24524989.661   128879679.802                                                  
  26888029.124   141297516.845                                                  
  24330164.937   127855828.812                                                  
 21  9  2  7 48  6.0000000  0 18G 1G 7G 8G 9G14G17G21G30C24C25C26C34
                                E 2E 3E 8E25E30E36
  21605318.429   113536669.246    21605321.627    88470119.628                  
  20089304.856   105570024.332    20089304.177    82262360.009                  
  22110620.322   116192054.216    22110622.627    90539253.246                  
  23998686.788   126113911.117    23998689.182    98270570.190                  
  22896651.088   120322724.816    22896651.285    93757972.280                  
  22942210.092   120562130.702    22942210.092    93944517.593                  
  21411624.992   112518852.122    21411623.992    87677029.055                  
  21316504.252   112018951.277    21316506.128    87287485.890                  
                 115161652.446                   115161652.446    22115579.047  
                 122357869.642                   122357869.642    23497539.067  
                 126825855.605                   126825855.605    24355572.025  
                 116041266.809                   116041266.809    22284504.928  
  24208115.203   127214483.008                                                  
  27150908.165   142678962.952                                                  
  24760110.766   130115251.059                                                  
  24525113.386   128880329.926                                                  
  26887669.027   141295624.560                                                  
  24329819.957   127854015.901                                                  
 21  9  2  7 48  7.0000000  0 18G 1G 7G 8G 9G14G17G21G30C24C25C26C34
                                E 2E 3E 8E25E30E36
  21604809.537   113533995.051    21604812.718    88468035.840                  
  20089283.288   105569910.977    20089282.591    82262271.680                  
  22111158.126   116194880.430    22111160.431    90541455.493                  
  23999286.043   126117060.179    23999288.438    98273024.003                  
  22896255.557   120320646.370    22896255.754    93756352.714                  
  22941698.949   120559444.570    22941698.949    93942424.505                  
  21411588.861   112518662.249    21411587.878    87676881.097                  
  21316102.181   112016838.310    21316104.021    87285839.422                  
                 115162083.590                   115162083.590    22115661.835  
                 122355660.076                   122355660.076    23497114.731  
                 126828217.454                   126828217.454    24356025.576  
                 116039593.683                   116039593.683    22284183.625  
  24207919.145   127213452.732                                                  
  27151392.005   142681505.505                                                  
  24760352.498   130116521.494                                                  
  24525237.111   128880980.155                                                  
  26887308.913   141293732.195                                                  
  24329475.067   127852203.395                                                  
 21  9  2  7 48  8.0000000  0 18G 1G 7G 8G 9G14G17G21G30C24C25C26C34
                                E 2E 3E 8E25E30E36
  21604300.734   113531321.269    21604303.915    88465952.376                  
  20089261.845   105569798.236    20089261.148    82262183.828                  
  22111695.984   116197706.841    22111698.289    90543657.891                  
  23999885.281   126120209.265    23999887.675    98275477.836                  
  22895860.062   120318567.941    22895860.241    93754733.159                  
  22941187.841   120556758.740    22941187.841    93940331.645                  
  21411552.873   112518473.085    21411551.872    87676733.699                  
  21315700.182   112014725.759    21315702.022    87284193.277                  
                 115162515.086                   115162515.086    22115744.693  
                 122353450.649                   122353450.649    23496690.431  
                 126830579.533                   126830579.533    24356479.199  
                 116037921.011                   116037921.011    22283862.394  
  24207723.121   127212422.585                                                  
  27151875.844   142684048.105                                                  
  24760594.337   130117792.356                                                  
  24525360.872   128881630.500                                                  
  26886948.816   141291839.837                                                  
  24329130.213   127850391.241                                                  
 21  9  2  7 48  9.0000000  0 18G 1G 7G 8G 9G14G17G21G30C24C25C26C34
                                E 2E 3E 8E25E30E36
  21603792.021   113528647.960    21603795.220    88463869.278                  
  20089240.492   105569686.069    20089239.795    82262096.425                  
  22112233.859   116200533.443    22112236.182    90545860.433                  
  24000484.536   126123358.348    24000486.949    98277931.669                  
  22895464.567   120316489.618    22895464.764    93753113.687                  
  22940676.823   120554073.247    22940676.805    93938239.054                  
  21411516.974   112518284.465    21411515.973    87676586.722                  
  21315298.236   112012613.605    21315300.094    87282547.442                  
                 115162946.931                   115162946.931    22115827.623  
                 122351241.368                   122351241.368    23496266.185  
                 126832941.835                   126832941.835    24356932.858  
                 116036248.798                   116036248.798    22283541.288  
  24207527.080   127211392.414                                                  
  27152359.666   142686590.669                                                  
  24760836.248   130119063.501                                                  
  24525484.633   128882280.952                                                  
  26886588.702   141289947.370                                                  
  24328785.466   127848579.501                                                  
 21  9  2  7 48 10.0000000  0 18G 1G 7G 8G 9G14G17G21G30C24C25C26C34
                                E 2E 3E 8E25E30E36
  21603283.397   113525975.109    21603286.578    88461786.535                  
  20089219.263   105569574.507    20089218.584    82262009.496                  
  22112771.788   116203360.235    22112774.093    90548063.128                  
  24001083.774   126126507.448    24001086.204    98280385.511                  
  22895069.072   120314411.348    22895069.287    93751494.258                  
  22940165.840   120551388.077    22940165.840    93936146.718                  
  21411481.200   112518096.487    21411480.217    87676440.246                  
  21314896.397   112010501.876    21314898.238    87280901.937                  
                 115163379.125                   115163379.125    22115910.625  
                 122349032.232                   122349032.232    23495841.939  
                 126835304.376                   126835304.376    24357386.553  
                 116034577.036                   116034577.036    22283220.217  
  24207331.057   127210362.306                                                  
  27152843.506   142689133.243                                                  
  24761078.195   130120334.991                                                  
  24525608.448   128882931.523                                                  
  26886228.552   141288054.868                                                  
  24328440.755   127846768.160                                                  
 21  9  2  7 48 11.0000000  0 18G 1G 7G 8G 9G14G17G21G30C24C25C26C34
                                E 2E 3E 8E25E30E36
  21602774.845   113523302.698    21602778.043    88459704.137                  
  20089198.142   105569463.524    20089197.463    82261923.015                  
  22113309.735   116206187.206    22113312.040    90550265.968                  
  24001683.048   126129656.563    24001685.442    98282839.362                  
  22894673.613   120312333.145    22894673.792    93749874.879                  
  22939654.947   120548703.236    22939654.911    93934054.634                  
  21411445.552   112517909.131    21411444.569    87676294.254                  
  21314494.612   112008390.552    21314496.488    87279256.749                  
                 115163811.665                   115163811.665    22115993.698  
                 122346823.235                   122346823.235    23495417.728  
                 126837667.144                   126837667.144    24357840.301  
                 116032905.727                   116032905.727    22282899.271  
  24207135.034   127209332.226                                                  
  27153327.345   142691675.804                                                  
  24761320.213   130121606.819                                                  
  24525732.262   128883582.195                                                  
  26885868.420   141286162.296                                                  
  24328096.168   127844957.195                                                  
 21  9  2  7 48 12.0000000  0 18G 1G 7G 8G 9G14G17G21G30C24C25C26C34
                                E 2E 3E 8E25E30E36
  21602266.400   113520630.739    21602269.580    88457622.091                  
  20089177.146   105569353.142    20089176.467    82261837.001                  
  22113847.718   116209014.380    22113850.041    90552468.958                  
  24002282.303   126132805.675    24002284.698    98285293.218                  
  22894278.154   120310255.007    22894278.332    93748255.550                  
  22939144.072   120546018.714    22939144.072    93931962.797                  
  21411410.028   112517722.404    21411409.027    87676148.754                  
  21314092.934   112006279.636    21314094.775    87277611.882                  
                 115164244.559                   115164244.559    22116076.825  
                 122344614.382                   122344614.382    23494993.535  
                 126840030.148                   126840030.148    24358294.085  
                 116031234.872                   116031234.872    22282578.397  
  24206939.046   127208302.208                                                  
  27153811.185   142694218.378                                                  
  24761562.302   130122878.997                                                  
  24525856.094   128884232.989                                                  
  26885508.251   141284269.676                                                  
  24327751.618   127843146.634                                                  
 21  9  2  7 48 13.0000000  0 18G 1G 7G 8G 9G14G17G21G30C24C25C26C34
                                E 2E 3E 8E25E30E36
  21601758.026   113517959.226    21601761.225    88455540.394                  
  20089156.239   105569243.337    20089155.560    82261751.442                  
  22114385.754   116211841.715    22114388.059    90554672.079                  
  24002881.559   126135954.805    24002883.953    98287747.086                  
  22893882.712   120308176.930    22893882.909    93746636.270                  
  22938633.303   120543334.518    22938633.303    93929871.218                  
  21411374.594   112517536.301    21411373.629    87676003.739                  
  21313691.328   112004169.146    21313693.169    87275967.344                  
                 115164677.797                   115164677.797    22116160.023  
                 122342405.676                   122342405.676    23494569.378  
                 126842393.378                   126842393.378    24358747.922  
                 116029564.473                   116029564.473    22282257.613  
  24206743.041   127207272.226                                                  
  27154295.006   142696760.954                                                  
  24761804.463   130124151.514                                                  
  24525979.962   128884883.887                                                  
  26885148.101   141282376.992                                                  
  24327407.139   127841336.452                                                  
 21  9  2  7 48 14.0000000  0 18G 1G 7G 8G 9G14G17G21G30C24C25C26C34
                                E 2E 3E 8E25E30E36
  21601249.742   113515288.168    21601252.922    88453459.046                  
  20089135.458   105569134.144    20089134.779    82261666.355                  
  22114923.826   116214669.247    22114926.113    90556875.348                  
  24003480.814   126139103.950    24003483.227    98290200.964                  
  22893487.288   120306098.918    22893487.467    93745017.040                  
  22938122.589   120540650.645    22938122.553    93927779.886                  
  21411339.320   112517350.820    21411338.320    87675859.207                  
  21313289.775   112002059.063    21313291.634    87274323.122                  
                 115165111.386                   115165111.386    22116243.275  
                 122340197.110                   122340197.110    23494145.239  
                 126844756.841                   126844756.841    24359201.795  
                 116027894.529                   116027894.529    22281936.917  
  24206547.036   127206242.290                                                  
  27154778.846   142699303.527                                                  
  24762046.678   130125424.372                                                  
  24526103.866   128885534.895                                                  
  26884787.915   141280484.261                                                  
  24327062.767   127839526.669                                                  
 21  9  2  7 48 15.0000000  0 18G 1G 7G 8G 9G14G17G21G30C24C25C26C34
                                E 2E 3E 8E25E30E36
  21600741.547   113512617.559    21600744.727    88451378.058                  
  20089114.801   105569025.575    20089114.122    82261581.777                  
  22115461.916   116217496.972    22115464.221    90559078.770                  
  24004080.088   126142253.129    24004082.500    98292654.875                  
  22893091.865   120304020.968    22893092.044    93743397.860                  
  22937611.928   120537967.051    22937611.892    93925688.758                  
  21411304.136   112517165.968    21411303.135    87675715.168                  
  21312888.312   111999949.362    21312890.188    87272679.187                  
                 115165545.327                   115165545.327    22116326.616  
                 122337988.687                   122337988.687    23493721.136  
                 126847120.534                   126847120.534    24359655.722  
                 116026225.034                   116026225.034    22281616.311  
  24206351.066   127205212.366                                                  
  27155262.685   142701846.124                                                  
  24762288.964   130126697.530                                                  
  24526227.752   128886186.093                                                  
  26884427.747   141278591.433                                                  
  24326718.449   127837717.365                                                  
 21  9  2  7 48 16.0000000  0 18G 1G 7G 8G 9G14G17G21G30C24C25C26C34
                                E 2E 3E 8E25E30E36
  21600233.423   113509947.410    21600236.622    88449297.421                  
  20089094.234   105568917.555    20089093.555    82261497.606                  
  22116000.042   116220324.892    22116002.365    90561282.344                  
  24004679.361   126145402.294    24004681.756    98295108.765                  
  22892696.459   120301943.085    22892696.638    93741778.730                  
  22937101.303   120535283.815    22937101.303    93923597.929                  
  21411269.077   112516981.734    21411268.076    87675571.609                  
  21312486.956   111997840.110    21312488.796    87271035.616                  
                 115165979.618                   115165979.618    22116410.028  
                 122335780.406                   122335780.406    23493297.068  
                 126849484.456                   126849484.456    24360109.685  
                 116024555.997                   116024555.997    22281295.795  
  24206155.097   127204182.530                                                  
  27155746.525   142704388.706                                                  
  24762531.304   130127971.086                                                  
  24526351.674   128886837.335                                                  
  26884067.544   141276698.591                                                  
  24326374.202   127835908.368                                                  
 21  9  2  7 48 17.0000000  0 18G 1G 7G 8G 9G14G17G21G30C24C25C26C34
                                E 2E 3E 8E25E30E36
  21599725.407   113507277.690    21599728.587    88447217.122                  
  20089073.792   105568810.128    20089073.113    82261413.894                  
  22116538.221   116223152.996    22116540.544    90563486.063                  
  24005278.617   126148551.488    24005281.047    98297562.687                  
  22892301.053   120299865.273    22892301.232    93740159.656                  
  22936590.767   120532600.884    22936590.767    93921507.331                  
  21411234.143   112516798.120    21411233.142    87675428.536                  
  21312085.653   111995731.268    21312087.494    87269392.363                  
                 115166414.254                   115166414.254    22116493.495  
                 122333572.273                   122333572.273    23492873.018  
                 126851848.614                   126851848.614    24360563.701  
                 116022887.410                   116022887.410    22280975.367  
  24205959.145   127203152.739                                                  
  27156230.364   142706931.283                                                  
  24762773.715   130129244.977                                                  
  24526475.631   128887488.689                                                  
  26883707.322   141274805.687                                                  
  24326030.045   127834099.765                                                  
 21  9  2  7 48 18.0000000  0 18G 1G 7G 8G 9G14G17G21G30C24C25C26C34
                                E 2E 3E 8E25E30E36
  21599217.444   113504608.434    21599220.643    88445137.180                  
  20089053.457   105568703.284    20089052.778    82261330.642                  
  22117076.418   116225981.308    22117078.741    90565689.941                  
  24005877.908   126151700.680    24005880.302    98300016.601                  
  22891905.683   120297787.519    22891905.862    93738540.624                  
  22936080.285   120529918.264    22936080.285    93919416.980                  
  21411199.316   112516615.134    21411198.316    87675285.944                  
  21311684.440   111993622.841    21311686.281    87267749.430                  
                 115166849.242                   115166849.242    22116577.014  
                 122331364.280                   122331364.280    23492449.004  
                 126854212.999                   126854212.999    24361017.753  
                 116021219.282                   116021219.282    22280655.011  
  24205763.175   127202122.985                                                  
  27156714.204   142709473.874                                                  
  24763016.197   130130519.203                                                  
  24526599.607   128888140.145                                                  
  26883347.118   141272912.739                                                  
  24325685.941   127832291.543                                                  
 21  9  2  7 48 19.0000000  0 18G 1G 7G 8G 9G14G17G21G30C24C25C26C34
                                E 2E 3E 8E25E30E36
  21598709.589   113501939.620    21598712.787    88443057.589                  
  20089033.247   105568597.040    20089032.568    82261247.851                  
  22117614.687   116228809.817    22117616.974    90567893.974                  
  24006477.181   126154849.883    24006479.576    98302470.523                  
  22891510.295   120295709.829    22891510.492    93736921.644                  
  22935569.856   120527235.982    22935569.838    93917326.890                  
  21411164.615   112516432.790    21411163.614    87675143.860                  
  21311283.281   111991514.827    21311285.139    87266106.820                  
                 115167284.579                   115167284.579    22116660.624  
                 122329156.432                   122329156.432    23492025.008  
                 126856577.616                   126856577.616    24361471.858  
                 116019551.605                   116019551.605    22280334.763  
  24205567.224   127201093.281                                                  
  27157198.043   142712016.453                                                  
  24763258.734   130131793.775                                                  
  24526723.600   128888791.722                                                  
  26882986.879   141271019.717                                                  
  24325341.927   127830483.717                                                  
 21  9  2  7 48 20.0000000  0 18G 1G 7G 8G 9G14G17G21G30C24C25C26C34
                                E 2E 3E 8E25E30E36
  21598201.822   113499271.276    21598205.021    88440978.360                  
  20089013.144   105568491.379    20089012.465    82261165.521                  
  22118152.955   116231638.511    22118155.278    90570098.148                  
  24007076.455   126157999.098    24007078.867    98304924.461                  
  22891114.943   120293632.202    22891115.140    93735302.720                  
  22935059.499   120524554.019    22935059.481    93915237.051                  
  21411130.038   112516251.051    21411129.038    87675002.246                  
  21310882.228   111989407.224    21310884.087    87264464.532                  
                 115167720.262                   115167720.262    22116744.304  
                 122326948.727                   122326948.727    23491601.048  
                 126858942.466                   126858942.466    24361925.999  
                 116017884.388                   116017884.388    22280014.586  
  24205371.272   127200063.618                                                  
  27157681.883   142714559.038                                                  
  24763501.341   130133068.684                                                  
  24526847.593   128889443.407                                                  
  26882626.639   141269126.649                                                  
  24324997.984   127828676.282                                                  
 21  9  2  7 48 21.0000000  0 18G 1G 7G 8G 9G14G17G21G30C24C25C26C34
                                E 2E 3E 8E25E30E36
  21597694.146   113496603.370    21597697.326    88438899.472                  
  20088993.149   105568386.320    20088992.452    82261083.656                  
  22118691.277   116234467.410    22118693.600    90572302.485                  
  24007675.728   126161148.313    24007678.141    98307378.390                  
  22890719.591   120291554.648    22890719.788    93733683.844                  
  22934549.195   120521872.379    22934549.177    93913147.462                  
  21411095.569   112516069.942    21411094.586    87674861.122                  
  21310481.247   111987300.035    21310483.088    87262822.566                  
                 115168156.297                   115168156.297    22116828.039  
                 122324741.167                   122324741.167    23491177.105  
                 126861307.540                   126861307.540    24362380.176  
                 116016217.619                   116016217.619    22279694.498  
  24205175.356   127199034.000                                                  
  27158165.705   142717101.617                                                  
  24763744.021   130134343.942                                                  
  24526971.640   128890095.204                                                  
  26882266.400   141267233.525                                                  
  24324654.094   127826869.237                                                  
 21  9  2  7 48 22.0000000  0 18G 1G 7G 8G 9G14G17G21G30C24C25C26C34
                                E 2E 3E 8E25E30E36
  21597186.540   113493935.909    21597189.721    88436820.929                  
  20088973.261   105568281.839    20088972.581    82261002.243                  
  22119229.635   116237296.503    22119231.958    90574506.976                  
  24008275.002   126164297.554    24008277.414    98309832.344                  
  22890324.257   120289477.149    22890324.453    93732065.016                  
  22934038.963   120519191.065    22934038.945    93911058.126                  
  21411061.225   112515889.456    21411060.224    87674720.484                  
  21310080.338   111985193.259    21310082.179    87261180.925                  
                 115168592.684                   115168592.684    22116911.844  
                 122322533.750                   122322533.750    23490753.181  
                 126863672.852                   126863672.852    24362834.425  
                 116014551.305                   116014551.305    22279374.499  
  24204979.440   127198004.425                                                  
  27158649.544   142719644.202                                                  
  24763986.753   130135619.538                                                  
  24527095.686   128890747.106                                                  
  26881906.142   141265340.336                                                  
  24324310.312   127825062.582                                                  
 21  9  2  7 48 23.0000000  0 18G 1G 7G 8G 9G14G17G21G30C24C25C26C34
                                E 2E 3E 8E25E30E36
  21596679.024   113491268.921    21596682.223    88434742.759                  
  20088953.497   105568177.965    20088952.818    82260921.300                  
  22119768.047   116240125.792    22119770.334    90576711.617                  
  24008874.275   126167446.798    24008876.705    98312286.301                  
  22889928.941   120287399.724    22889929.119    93730446.239                  
  22933528.785   120516510.089    22933528.785    93908969.056                  
  21411027.005   112515709.598    21411026.005    87674580.337                  
  21309679.500   111983086.891    21309681.359    87259539.602                  
                 115169029.419                   115169029.419    22116995.704  
                 122320326.478                   122320326.478    23490329.292  
                 126866038.391                   126866038.391    24363288.709  
                 116012885.449                   116012885.449    22279054.572  
  24204783.524   127196974.903                                                  
  27159133.384   142722186.790                                                  
  24764229.558   130136895.480                                                  
  24527219.769   128891399.120                                                  
  26881545.867   141263447.100                                                  
  24323966.602   127823256.318                                                  
 21  9  2  7 48 24.0000000  0 18G 1G 7G 8G 9G14G17G21G30C24C25C26C34
                                E 2E 3E 8E25E30E36
  21596171.598   113488602.370    21596174.778    88432664.927                  
  20088933.841   105568074.667    20088933.162    82260840.807                  
  22120306.458   116242955.279    22120308.781    90578916.409                  
  24009473.584   126170596.051    24009475.979    98314740.266                  
  22889533.642   120285322.355    22889533.821    93728827.512                  
  22933018.660   120513829.417    22933018.660    93906880.218                  
  21410992.876   112515530.356    21410991.893    87674440.668                  
  21309278.752   111980980.938    21309280.592    87257898.597                  
                 115169466.501                   115169466.501    22117079.634  
                 122318119.348                   122318119.348    23489905.438  
                 126868404.160                   126868404.160    24363743.029  
                 116011220.043                   116011220.043    22278734.753  
  24204587.626   127195945.419                                                  
  27159617.223   142724729.378                                                  
  24764472.433   130138171.757                                                  
  24527343.851   128892051.257                                                  
  26881185.574   141261553.812                                                  
  24323622.944   127821450.449                                                  
 21  9  2  7 48 25.0000000  0 18G 1G 7G 8G 9G14G17G21G30C24C25C26C34
                                E 2E 3E 8E25E30E36
  21595664.260   113485936.265    21595667.441    88430587.440                  
  20088914.293   105567971.970    20088913.614    82260760.786                  
  22120844.941   116245784.958    22120847.264    90581121.354                  
  24010072.858   126173745.327    24010075.252    98317194.246                  
  22889138.343   120283245.056    22889138.522    93727208.835                  
  22932508.624   120511149.086    22932508.624    93904791.653                  
  21410958.907   112515351.739    21410957.906    87674301.486                  
  21308878.074   111978875.403    21308879.933    87256257.918                  
                 115169903.935                   115169903.935    22117163.637  
                 122315912.358                   122315912.358    23489481.621  
                 126870770.162                   126870770.162    24364197.384  
                 116009555.094                   116009555.094    22278415.022  
  24204391.728   127194915.985                                                  
  27160101.063   142727271.961                                                  
  24764715.363   130139448.383                                                  
  24527467.987   128892703.497                                                  
  26880825.281   141259660.456                                                  
  24323279.377   127819644.968                                                  
 21  9  2  7 48 26.0000000  0 18G 1G 7G 8G 9G14G17G21G30C24C25C26C34
                                E 2E 3E 8E25E30E36
  21595156.995   113483270.621    21595160.175    88428510.313                  
  20088894.887   105567869.866    20088894.172    82260681.222                  
  22121383.442   116248614.794    22121385.765    90583326.421                  
  24010672.131   126176894.601    24010674.561    98319648.223                  
  22888743.045   120281167.815    22888743.242    93725590.211                  
  22931998.625   120508469.078    22931998.625    93902703.333                  
  21410925.027   112515173.753    21410924.044    87674162.793                  
  21308477.505   111976770.268    21308479.345    87254617.558                  
                 115170341.714                   115170341.714    22117247.728  
                 122313705.520                   122313705.520    23489057.821  
                 126873136.390                   126873136.390    24364651.794  
                 116007890.598                   116007890.598    22278095.381  
  24204195.848   127193886.593                                                  
  27160584.902   142729814.546                                                  
  24764958.364   130140725.344                                                  
  24527592.124   128893355.848                                                  
  26880464.988   141257767.050                                                  
  24322935.881   127817839.875                                                  
 21  9  2  7 48 27.0000000  0 18G 1G 7G 8G 9G14G17G21G30C24C25C26C34
                                E 2E 3E 8E25E30E36
  21594649.818   113480605.429    21594653.017    88426433.542                  
  20088875.553   105567768.349    20088874.856    82260602.120                  
  22121921.979   116251444.814    22121924.284    90585531.634                  
  24011271.440   126180043.892    24011273.835    98322102.216                  
  22888347.782   120279090.645    22888347.961    93723971.637                  
  22931488.696   120505789.395    22931488.696    93900615.266                  
  21410891.272   112514996.383    21410890.272    87674024.585                  
  21308076.988   111974665.567    21308078.829    87252977.527                  
                 115170779.848                   115170779.848    22117331.856  
                 122311498.820                   122311498.820    23488634.039  
                 126875502.856                   126875502.856    24365106.239  
                 116006226.559                   116006226.559    22277775.812  
  24203999.967   127192857.250                                                  
  27161068.742   142732357.140                                                  
  24765201.418   130142002.653                                                  
  24527716.278   128894008.311                                                  
  26880104.659   141255873.594                                                  
  24322592.456   127816035.183                                                  
 21  9  2  7 48 28.0000000  0 18G 1G 7G 8G 9G14G17G21G30C24C25C26C34
                                E 2E 3E 8E25E30E36
  21594142.749   113477940.680    21594145.947    88424357.116                  
  20088856.361   105567667.433    20088855.664    82260523.485                  
  22122460.533   116254275.042    22122462.856    90587737.004                  
  24011870.714   126183193.192    24011873.144    98324556.218                  
  22887952.519   120277013.543    22887952.698    93722353.113                  
  22930978.839   120503110.038    22930978.822    93898527.458                  
  21410857.643   112514819.647    21410856.660    87673886.866                  
  21307676.543   111972561.277    21307678.402    87251337.820                  
                 115171218.329                   115171218.329    22117416.054  
                 122309292.267                   122309292.267    23488210.293  
                 126877869.547                   126877869.547    24365560.737  
                 116004562.973                   116004562.973    22277456.331  
  24203804.105   127191827.948                                                  
  27161552.581   142734899.728                                                  
  24765444.562   130143280.297                                                  
  24527840.467   128894660.897                                                  
  26879744.348   141253980.077                                                  
  24322249.103   127814230.876                                                  
 21  9  2  7 48 29.0000000  0 18G 1G 7G 8G 9G14G17G21G30C24C25C26C34
                                E 2E 3E 8E25E30E36
  21593635.733   113475276.383    21593638.932    88422281.038                  
  20088837.259   105567567.101    20088836.580    82260445.304                  
  22122999.159   116257105.468    22123001.482    90589942.530                  
  24012470.023   126186342.501    24012472.417    98327010.223                  
  22887557.257   120274936.496    22887557.453    93720734.638                  
  22930469.036   120500431.004    22930469.018    93896439.899                  
  21410824.121   112514643.530    21410823.138    87673749.632                  
  21307276.206   111970457.389    21307278.046    87249698.429                  
                 115171657.161                   115171657.161    22117500.343  
                 122307085.855                   122307085.855    23487786.583  
                 126880236.470                   126880236.470    24366015.272  
                 116002899.838                   116002899.838    22277136.958  
  24203608.243   127190798.687                                                  
  27162036.421   142737442.313                                                  
  24765687.741   130144558.282                                                  
  24527964.657   128895313.583                                                  
  26879384.001   141252086.495                                                  
  24321905.839   127812426.962                                                  
 21  9  2  7 48 30.0000000  0 18G 1G 7G 8G 9G14G17G21G30C24C25C26C34
                                E 2E 3E 8E25E30E36
  21593128.843   113472612.546    21593132.023    88420205.321                  
  20088818.282   105567467.371    20088817.603    82260367.590                  
  22123537.803   116259936.083    22123540.126    90592148.203                  
  24013069.314   126189491.821    24013071.726    98329464.239                  
  22887162.047   120272859.523    22887162.226    93719116.219                  
  22929959.304   120497752.296    22929959.287    93894352.594                  
  21410790.741   112514468.036    21410789.741    87673612.888                  
  21306875.922   111968353.930    21306877.762    87248059.372                  
                 115172096.339                   115172096.339    22117584.684  
                 122304879.592                   122304879.592    23487362.873  
                 126882603.626                   126882603.626    24366469.877  
                 116001237.163                   116001237.163    22276817.657  
  24203412.380   127189769.488                                                  
  27162520.260   142739984.907                                                  
  24765930.992   130145836.622                                                  
  24528088.882   128895966.395                                                  
  26879023.655   141250192.875                                                  
  24321562.646   127810623.441                                                  
 21  9  2  7 48 31.0000000  0 18G 1G 7G 8G 9G14G17G21G30C24C25C26C34
                                E 2E 3E 8E25E30E36
  21592622.006   113469949.150    21592625.204    88418129.950                  
  20088799.413   105567368.228    20088798.716    82260290.335                  
  22124076.483   116262766.873    22124078.806    90594354.015                  
  24013668.623   126192641.145    24013671.018    98331918.257                  
  22886766.803   120270782.609    22886766.999    93717497.844                  
  22929449.626   120495073.919    22929449.608    93892265.547                  
  21410757.451   112514293.181    21410756.468    87673476.633                  
  21306475.727   111966250.875    21306477.568    87246420.626                  
                 115172535.872                   115172535.872    22117669.080  
                 122302673.469                   122302673.469    23486939.216  
                 126884971.009                   126884971.009    24366924.501  
                 115999574.941                   115999574.941    22276498.444  
  24203216.536   127188740.324                                                  
  27163004.100   142742527.495                                                  
  24766174.333   130147115.296                                                  
  24528213.144   128896619.310                                                  
  26878663.308   141248299.187                                                  
  24321219.507   127808820.313                                                  
 21  9  2  7 48 32.0000000  0 18G 1G 7G 8G 9G14G17G21G30C24C25C26C34
                                E 2E 3E 8E25E30E36
  21592115.258   113467286.208    21592118.456    88416054.931                  
  20088780.668   105567269.683    20088779.971    82260213.547                  
  22124615.198   116265597.852    22124617.521    90596559.973                  
  24014267.915   126195790.480    24014270.327    98334372.284                  
  22886371.593   120268705.753    22886371.772    93715879.515                  
  22928940.002   120492395.860    22928939.984    93890178.750                  
  21410724.304   112514118.933    21410723.303    87673340.860                  
  21306075.604   111964148.237    21306077.445    87244782.207                  
                 115172975.754                   115172975.754    22117753.565  
                 122300467.491                   122300467.491    23486515.595  
                 126887338.624                   126887338.624    24367379.178  
                 115997913.173                   115997913.173    22276179.322  
  24203020.691   127187711.199                                                  
  27163487.940   142745070.083                                                  
  24766417.727   130148394.301                                                  
  24528337.405   128897272.327                                                  
  26878302.943   141246405.447                                                  
  24320876.458   127807017.570                                                  
 21  9  2  7 48 33.0000000  0 18G 1G 7G 8G 9G14G17G21G30C24C25C26C34
                                E 2E 3E 8E25E30E36
  21591608.600   113464623.722    21591611.798    88413980.266                  
  20088762.013   105567171.731    20088761.334    82260137.224                  
  22125153.967   116268429.035    22125156.272    90598766.089                  
  24014867.224   126198939.824    24014869.618    98336826.321                  
  22885976.402   120266628.976    22885976.581    93714261.245                  
  22928430.449   120489718.126    22928430.413    93888092.204                  
  21410691.264   112513945.328    21410690.282    87673205.581                  
  21305675.552   111962046.019    21305677.393    87243144.112                  
                 115173415.982                   115173415.982    22117838.103  
                 122298261.661                   122298261.661    23486091.974  
                 126889706.472                   126889706.472    24367833.891  
                 115996251.858                   115996251.858    22275860.288  
  24202824.883   127186682.126                                                  
  27163971.779   142747612.668                                                  
  24766661.174   130149673.659                                                  
  24528461.684   128897925.477                                                  
  26877942.561   141244511.656                                                  
  24320533.480   127805215.235                                                  
 21  9  2  7 48 34.0000000  0 18G 1G 7G 8G 9G14G17G21G30C24C25C26C34
                                E 2E 3E 8E25E30E36
  21591102.049   113461961.693    21591105.247    88411905.957                  
  20088743.501   105567074.355    20088742.804    82260061.343                  
  22125692.754   116271260.413    22125695.077    90600972.356                  
  24015466.515   126202089.168    24015468.927    98339280.353                  
  22885581.229   120264552.258    22885581.407    93712643.023                  
  22927920.931   120487040.711    22927920.931    93886005.907                  
  21410658.332   112513772.348    21410657.367    87673070.794                  
  21305275.608   111959944.211    21305277.448    87241506.340                  
                 115173856.562                   115173856.562    22117922.695  
                 122296055.974                   122296055.974    23485668.407  
                 126892074.546                   126892074.546    24368288.658  
                 115994591.000                   115994591.000    22275541.326  
  24202629.056   127185653.106                                                  
  27164455.619   142750155.265                                                  
  24766904.693   130150953.355                                                  
  24528585.999   128898578.729                                                  
  26877582.178   141242617.796                                                  
  24320190.573   127803413.269                                                  
 21  9  2  7 48 35.0000000  0 18G 1G 7G 8G 9G14G17G21G30C24C25C26C34
                                E 2E 3E 8E25E30E36
  21590595.551   113459300.119    21590598.732    88409832.004                  
  20088725.078   105566977.582    20088724.399    82259985.934                  
  22126231.576   116274091.977    22126233.899    90603178.769                  
  24016065.824   126205238.535    24016068.219    98341734.403                  
  22885186.037   120262475.602    22885186.216    93711024.847                  
  22927411.503   120484363.620    22927411.503    93883919.864                  
  21410625.542   112513599.985    21410624.559    87672936.480                  
  21304875.717   111957842.809    21304877.558    87239868.884                  
                 115174297.493                   115174297.493    22118007.376  
                 122293850.429                   122293850.429    23485244.858  
                 126894442.857                   126894442.857    24368743.478  
                 115992930.599                   115992930.599    22275222.453  
  24202433.265   127184624.124                                                  
  27164939.458   142752697.853                                                  
  24767148.284   130152233.382                                                  
  24528710.313   128899232.081                                                  
  26877221.760   141240723.879                                                  
  24319847.756   127801611.700                                                  
 21  9  2  7 48 36.0000000  0 18G 1G 7G 8G 9G14G17G21G30C24C25C26C34
                                E 2E 3E 8E25E30E36
  21590089.161   113456638.993    21590092.359    88407758.397                  
  20088706.780   105566881.400    20088706.101    82259910.989                  
  22126770.452   116276923.743    22126772.757    90605385.340                  
  24016665.115   126208387.914    24016667.546    98344188.465                  
  22884790.882   120260399.007    22884791.060    93709406.726                  
  22926902.147   120481686.854    22926902.111    93881834.075                  
  21410592.860   112513428.249    21410591.877    87672802.665                  
  21304475.916   111955741.835    21304477.756    87238231.766                  
                 115174738.771                   115174738.771    22118092.111  
                 122291645.033                   122291645.033    23484821.326  
                 126896811.391                   126896811.391    24369198.316  
                 115991270.648                   115991270.648    22274903.688  
  24202237.456   127183595.183                                                  
  27165423.280   142755240.435                                                  
  24767391.928   130153513.758                                                  
  24528834.682   128899885.559                                                  
  26876861.360   141238829.919                                                  
  24319504.992   127799810.535                                                  
 21  9  2  7 48 37.0000000  0 18G 1G 7G 8G 9G14G17G21G30C24C25C26C34
                                E 2E 3E 8E25E30E36
  21589582.860   113453978.317    21589586.041    88405685.145                  
  20088688.571   105566785.801    20088687.892    82259836.497                  
  22127309.364   116279755.691    22127311.651    90607592.055                  
  24017264.443   126211537.285    24017266.837    98346642.519                  
  22884395.726   120258322.480    22884395.923    93707788.653                  
  22926392.826   120479010.417    22926392.826    93879748.539                  
  21410560.302   112513257.147    21410559.319    87672669.341                  
  21304076.203   111953641.266    21304078.044    87236594.954                  
                 115175180.397                   115175180.397    22118176.935  
                 122289439.779                   122289439.779    23484397.848  
                 126899180.160                   126899180.160    24369653.226  
                 115989611.156                   115989611.156    22274584.994  
  24202041.665   127182566.292                                                  
  27165907.119   142757783.026                                                  
  24767635.644   130154794.471                                                  
  24528959.068   128900539.143                                                  
  26876500.942   141236935.891                                                  
  24319162.318   127798009.758                                                  
 21  9  2  7 48 38.0000000  0 18G 1G 7G 8G 9G14G17G21G30C24C25C26C34
                                E 2E 3E 8E25E30E36
  21589076.648   113451318.102    21589079.811    88403612.250                  
  20088670.506   105566690.804    20088669.827    82259762.473                  
  22127848.294   116282587.833    22127850.599    90609798.915                  
  24017863.734   126214686.684    24017866.164    98349096.597                  
  22884000.588   120256246.014    22884000.785    93706170.626                  
  22925883.577   120476334.306    22925883.559    93877663.253                  
  21410527.852   112513086.659    21410526.887    87672536.493                  
  21303676.545   111951541.116    21303678.403    87234958.476                  
                 115175622.379                   115175622.379    22118261.813  
                 122287234.664                   122287234.664    23483974.352  
                 126901549.157                   126901549.157    24370108.153  
                 115987952.113                   115987952.113    22274266.407  
  24201845.875   127181537.445                                                  
  27166390.959   142760325.614                                                  
  24767879.413   130156075.534                                                  
  24529083.436   128901192.847                                                  
  26876140.506   141235041.813                                                  
  24318819.715   127796209.363                                                  
 21  9  2  7 48 39.0000000  0 18G 1G 7G 8G 9G14G17G21G30C24C25C26C34
                                E 2E 3E 8E25E30E36
  21588570.508   113448658.335    21588573.671    88401539.707                  
  20088652.547   105566596.394    20088651.868    82259688.907                  
  22128387.259   116285420.145    22128389.582    90612005.911                  
  24018463.061   126217836.087    24018465.455    98351550.675                  
  22883605.469   120254169.622    22883605.647    93704552.655                  
  22925374.399   120473658.526    22925374.381    93875578.235                  
  21410495.545   112512916.804    21410494.544    87672404.136                  
  21303276.976   111949441.380    21303278.816    87233322.316                  
                 115176064.706                   115176064.706    22118346.763  
                 122285029.698                   122285029.698    23483550.928  
                 126903918.386                   126903918.386    24370563.152  
                 115986293.531                   115986293.531    22273947.874  
  24201650.102   127180508.642                                                  
  27166874.798   142762868.202                                                  
  24768123.253   130157356.926                                                  
  24529207.858   128901846.657                                                  
  26875780.052   141233147.676                                                  
  24318477.202   127794409.375                                                  
 21  9  2  7 48 40.0000000  0 18G 1G 7G 8G 9G14G17G21G30C24C25C26C34
                                E 2E 3E 8E25E30E36
  21588064.440   113445999.033    21588067.638    88399467.519                  
  20088634.678   105566502.574    20088633.999    82259615.798                  
  22128926.278   116288252.669    22128928.601    90614213.074                  
  24019062.352   126220985.492    24019064.782    98354004.757                  
  22883210.349   120252093.283    22883210.545    93702934.731                  
  22924865.275   120470983.069    22924865.257    93873493.465                  
  21410463.345   112512747.575    21410462.344    87672272.269                  
  21302877.496   111947342.058    21302879.336    87231686.481                  
                 115176507.388                   115176507.388    22118431.783  
                 122282824.880                   122282824.880    23483127.521  
                 126906287.847                   126906287.847    24371018.187  
                 115984635.398                   115984635.398    22273629.466  
  24201454.346   127179479.883                                                  
  27167358.638   142765410.784                                                  
  24768367.166   130158638.672                                                  
  24529332.298   128902500.578                                                  
  26875419.616   141231253.481                                                  
  24318134.742   127792609.769                                                  
 21  9  2  7 48 41.0000000  0 18G 1G 7G 8G 9G14G17G21G30C24C25C26C34
                                E 2E 3E 8E25E30E36
  21587558.478   113443340.164    21587561.659    88397395.675                  
  20088616.934   105566409.344    20088616.255    82259543.153                  
  22129465.315   116291085.368    22129467.638    90616420.370                  
  24019661.679   126224134.913    24019664.074    98356458.851                  
  22882815.247   120250017.011    22882815.443    93701316.859                  
  22924356.222   120468307.950    22924356.204    93871408.952                  
  21410431.252   112512578.964    21410430.252    87672140.886                  
  21302478.087   111945243.159    21302479.928    87230050.977                  
                 115176950.413                   115176950.413    22118516.858  
                 122280620.202                   122280620.202    23482704.115  
                 126908657.536                   126908657.536    24371473.257  
                 115982977.724                   115982977.724    22273311.129  
  24201258.573   127178451.180                                                  
  27167842.477   142767953.363                                                  
  24768611.131   130159920.753                                                  
  24529456.756   128903154.617                                                  
  26875059.144   141229359.236                                                  
  24317792.354   127790810.562                                                  
 21  9  2  7 48 42.0000000  0 18G 1G 7G 8G 9G14G17G21G30C24C25C26C34
                                E 2E 3E 8E25E30E36
  21587052.606   113440681.765    21587055.805    88395324.196                  
  20088599.315   105566316.706    20088598.636    82259470.966                  
  22130004.406   116293918.258    22130006.729    90618627.817                  
  24020261.006   126227284.339    24020263.401    98358912.954                  
  22882420.163   120247940.812    22882420.341    93699699.042                  
  22923847.223   120465633.153    22923847.205    93869324.699                  
  21410399.284   112512410.984    21410398.302    87672009.988                  
  21302078.768   111943144.673    21302080.609    87228415.793                  
                 115177393.793                   115177393.793    22118602.004  
                 122278415.672                   122278415.672    23482280.780  
                 126911027.457                   126911027.457    24371928.381  
                 115981320.503                   115981320.503    22272992.864  
  24201062.836   127177422.515                                                  
  27168326.317   142770495.960                                                  
  24768855.186   130161203.172                                                  
  24529581.232   128903808.761                                                  
  26874698.672   141227464.935                                                  
  24317450.055   127789011.751                                                  
 21  9  2  7 48 43.0000000  0 18G 1G 7G 8G 9G14G17G21G30C24C25C26C34
                                E 2E 3E 8E25E30E36
  21586546.824   113438023.821    21586550.004    88393253.070                  
  20088581.804   105566224.664    20088581.125    82259399.247                  
  22130543.514   116296751.345    22130545.837    90620835.417                  
  24020860.315   126230433.774    24020862.728    98361367.054                  
  22882025.079   120245864.672    22882025.257    93698081.271                  
  22923338.278   120462958.679    22923338.278    93867240.696                  
  21410367.442   112512243.624    21410366.441    87671879.582                  
  21301679.503   111941046.592    21301681.343    87226780.925                  
                 115177837.525                   115177837.525    22118687.221  
                 122276211.290                   122276211.290    23481857.445  
                 126913397.605                   126913397.605    24372383.541  
                 115979663.739                   115979663.739    22272674.706  
  24200867.099   127176393.902                                                  
  27168810.157   142773038.540                                                  
  24769099.277   130162485.937                                                  
  24529705.743   128904463.032                                                  
  26874338.182   141225570.578                                                  
  24317107.845   127787213.315                                                  
 21  9  2  7 48 44.0000000  0 18G 1G 7G 8G 9G14G17G21G30C24C25C26C34
                                E 2E 3E 8E25E30E36
  21586041.095   113435366.311    21586044.293    88391182.286                  
  20088564.399   105566133.218    20088563.720    82259327.988                  
  22131082.676   116299584.622    22131084.999    90623043.168                  
  24021459.642   126233583.223    24021462.037    98363821.171                  
  22881630.012   120243788.597    22881630.209    93696463.552                  
  22922829.403   120460284.531    22922829.403    93865156.942                  
  21410335.724   112512076.886    21410334.724    87671749.656                  
  21301280.345   111938948.934    21301282.185    87225146.386                  
                 115178281.603                   115178281.603    22118772.492  
                 122274007.048                   122274007.048    23481434.146  
                 126915767.988                   126915767.988    24372838.737  
                 115978007.429                   115978007.429    22272356.619  
  24200671.362   127175365.320                                                  
  27169293.996   142775581.125                                                  
  24769343.440   130163769.036                                                  
  24529830.254   128905117.393                                                  
  26873977.693   141223676.151                                                  
  24316765.671   127785415.288                                                  
 21  9  2  7 48 45.0000000  0 18G 1G 7G 8G 9G14G17G21G30C24C25C26C34
                                E 2E 3E 8E25E30E36
  21585535.473   113432709.265    21585538.671    88389111.860                  
  20088547.120   105566042.368    20088546.423    82259257.195                  
  22131621.856   116302418.087    22131624.179    90625251.063                  
  24022058.952   126236732.673    24022061.364    98366275.285                  
  22881234.964   120241712.586    22881235.161    93694845.879                  
  22922320.601   120457610.720    22922320.583    93863073.453                  
  21410304.096   112511910.781    21410303.096    87671620.222                  
  21300881.240   111936851.687    21300883.080    87223512.168                  
                 115178726.032                   115178726.032    22118857.834  
                 122271802.955                   122271802.955    23481010.864  
                 126918138.599                   126918138.599    24373294.004  
                 115976351.575                   115976351.575    22272038.640  
  24200475.642   127174336.793                                                  
  27169777.836   142778123.704                                                  
  24769587.673   130165052.473                                                  
  24529954.801   128905771.875                                                  
  26873617.185   141221781.677                                                  
  24316423.604   127783617.645                                                  
 21  9  2  7 48 46.0000000  0 18G 1G 7G 8G 9G14G17G21G30C24C25C26C34
                                E 2E 3E 8E25E30E36
  21585029.958   113430052.691    21585033.139    88387041.800                  
  20088529.948   105565952.092    20088529.269    82259186.851                  
  22132161.108   116305251.743    22132163.395    90627459.104                  
  24022658.279   126239882.134    24022660.673    98368729.411                  
  22880839.916   120239636.634    22880840.094    93693228.254                  
  22921811.834   120454937.215    22921811.834    93860990.202                  
  21410272.629   112511745.296    21410271.628    87671491.272                  
  21300482.225   111934754.859    21300484.083    87221878.274                  
                 115179170.808                   115179170.808    22118943.266  
                 122269599.000                   122269599.000    23480587.618  
                 126920509.441                   126920509.441    24373749.306  
                 115974696.172                   115974696.172    22271720.732  
  24200279.923   127173308.309                                                  
  27170261.675   142780666.274                                                  
  24769831.961   130166336.253                                                  
  24530079.384   128906426.471                                                  
  26873256.660   141219887.147                                                  
  24316081.591   127781820.386                                                  
 21  9  2  7 48 47.0000000  0 18G 1G 7G 8G 9G14G17G21G30C24C25C26C34
                                E 2E 3E 8E25E30E36
  21584524.497   113427396.546    21584527.696    88384972.079                  
  20088512.883   105565862.424    20088512.186    82259116.980                  
  22132700.359   116308085.593    22132702.682    90629667.301                  
  24023257.606   126243031.590    24023260.018    98371183.534                  
  22880444.903   120237560.750    22880445.082    93691610.684                  
  22921303.157   120452264.044    22921303.139    93858907.214                  
  21410241.233   112511580.456    21410240.232    87671362.828                  
  21300083.299   111932658.442    21300085.139    87220244.702                  
                 115179615.941                   115179615.941    22119028.734  
                 122267395.194                   122267395.194    23480164.408  
                 126922880.511                   126922880.511    24374204.645  
                 115973041.226                   115973041.226    22271402.914  
  24200084.221   127172279.867                                                  
  27170745.497   142783208.860                                                  
  24770076.320   130167620.376                                                  
  24530203.967   128907081.185                                                  
  26872896.134   141217992.559                                                  
  24315739.668   127780023.532                                                  
 21  9  2  7 48 48.0000000  0 18G 1G 7G 8G 9G14G17G21G30C24C25C26C34
                                E 2E 3E 8E25E30E36
  21584019.143   113424740.867    21584022.342    88382902.719                  
  20088495.925   105565773.346    20088495.246    82259047.571                  
  22133239.664   116310919.622    22133241.951    90631875.633                  
  24023856.915   126246181.072    24023859.345    98373637.671                  
  22880049.873   120235484.930    22880050.051    93689993.159                  
  22920794.533   120449591.198    22920794.515    93856824.480                  
  21410209.998   112511416.239    21410208.997    87671234.864                  
  21299684.444   111930562.448    21299686.285    87218611.462                  
                 115180061.418                   115180061.418    22119114.273  
                 122265191.534                   122265191.534    23479741.216  
                 126925251.813                   126925251.813    24374660.019  
                 115971386.738                   115971386.738    22271085.203  
  24199888.520   127171251.481                                                  
  27171229.336   142785751.427                                                  
  24770320.768   130168904.840                                                  
  24530328.568   128907736.001                                                  
  26872535.609   141216097.915                                                  
  24315397.797   127778227.075                                                  
 21  9  2  7 48 49.0000000  0 18G 1G 7G 8G 9G14G17G21G30C24C25C26C34
                                E 2E 3E 8E25E30E36
  21583513.879   113422085.643    21583517.059    88380833.716                  
  20088479.075   105565684.855    20088478.396    82258978.614                  
  22133778.987   116313753.844    22133781.292    90634084.118                  
  24024456.260   126249330.539    24024458.654    98376091.804                  
  22879654.878   120233409.177    22879655.056    93688375.692                  
  22920285.963   120446918.685    22920285.963    93854741.999                  
  21410178.852   112511252.640    21410177.852    87671107.387                  
  21299285.661   111928466.864    21299287.502    87216978.535                  
                 115180507.249                   115180507.249    22119199.901  
                 122262988.019                   122262988.019    23479318.060  
                 126927623.348                   126927623.348    24375115.447  
                 115969732.702                   115969732.702    22270767.563  
  24199692.836   127170223.133                                                  
  27171713.176   142788294.009                                                  
  24770565.234   130170189.641                                                  
  24530453.204   128908390.929                                                  
  26872175.048   141214203.215                                                  
  24315056.017   127776430.995                                                  
 21  9  2  7 48 50.0000000  0 18G 1G 7G 8G 9G14G17G21G30C24C25C26C34
                                E 2E 3E 8E25E30E36
  21583008.704   113419430.880    21583011.884    88378765.067                  
  20088462.367   105565596.965    20088461.688    82258910.129                  
  22134318.363   116316588.254    22134320.686    90636292.749                  
  24025055.587   126252480.044    24025057.999    98378545.962                  
  22879259.883   120231333.483    22879260.080    93686758.271                  
  22919777.464   120444246.497    22919777.464    93852659.777                  
  21410147.832   112511089.676    21410146.867    87670980.402                  
  21298886.968   111926371.695    21298888.808    87215345.938                  
                 115180953.429                   115180953.429    22119285.583  
                 122260784.652                   122260784.652    23478894.922  
                 126929995.110                   126929995.110    24375570.928  
                 115968079.122                   115968079.122    22270449.995  
  24199497.152   127169194.829                                                  
  27172197.015   142790836.577                                                  
  24770809.807   130171474.780                                                  
  24530577.859   128909045.977                                                  
  26871814.487   141212308.462                                                  
  24314714.325   127774635.313                                                  
 21  9  2  7 48 51.0000000  0 18G 1G 7G 8G 9G14G17G21G30C24C25C26C34
                                E 2E 3E 8E25E30E36
  21582503.600   113416776.554    21582506.781    88376696.761                  
  20088445.731   105565509.666    20088445.052    82258842.101                  
  22134857.758   116319422.864    22134860.081    90638501.536                  
  24025654.914   126255629.535    24025657.326    98381000.112                  
  22878864.906   120229257.860    22878865.103    93685140.902                  
  22919269.019   120441574.632    22919269.019    93850577.804                  
  21410116.954   112510927.324    21410115.953    87670853.894                  
  21298488.345   111924276.950    21298490.204    87213713.667                  
                 115181399.941                   115181399.941    22119371.337  
                 122258581.430                   122258581.430    23478471.819  
                 126932367.110                   126932367.110    24376026.445  
                 115966425.996                   115966425.996    22270132.533  
  24199301.487   127168166.581                                                  
  27172680.855   142793379.159                                                  
  24771054.416   130172760.262                                                  
  24530702.513   128909701.134                                                  
  26871453.925   141210413.644                                                  
  24314372.687   127772840.023                                                  
 21  9  2  7 48 52.0000000  0 18G 1G 7G 8G 9G14G17G21G30C24C25C26C34
                                E 2E 3E 8E25E30E36
  21581998.586   113414122.689    21582001.766    88374628.816                  
  20088429.238   105565422.950    20088428.559    82258774.532                  
  22135397.223   116322257.655    22135399.529    90640710.464                  
  24026254.241   126258779.043    24026256.653    98383454.272                  
  22878469.947   120227182.298    22878470.126    93683523.579                  
  22918760.663   120438903.095    22918760.645    93848496.090                  
  21410086.183   112510765.601    21410085.183    87670727.878                  
  21298089.795   111922182.608    21298091.653    87212081.719                  
                 115181846.821                   115181846.821    22119457.161  
                 122256378.348                   122256378.348    23478048.734  
                 126934739.331                   126934739.331    24376481.998  
                 115964773.323                   115964773.323    22269815.162  
  24199105.821   127167138.368                                                  
  27173164.677   142795921.718                                                  
  24771299.097   130174046.079                                                  
  24530827.221   128910356.402                                                  
  26871093.346   141208518.777                                                  
  24314031.121   127771045.135                                                  
 21  9  2  7 48 53.0000000  0 18G 1G 7G 8G 9G14G17G21G30C24C25C26C34
                                E 2E 3E 8E25E30E36
  21581493.643   113411469.278    21581496.841    88372561.224                  
  20088412.852   105565336.835    20088412.173    82258707.430                  
  22135936.707   116325092.638    22135938.994    90642919.539                  
  24026853.586   126261928.551    24026855.980    98385908.437                  
  22878074.988   120225106.801    22878075.185    93681906.308                  
  22918252.343   120436231.887    22918252.325    93846414.629                  
  21410055.520   112510604.515    21410054.537    87670602.356                  
  21297691.333   111920088.691    21297693.192    87210450.093                  
                 115182294.051                   115182294.051    22119543.040  
                 122254175.418                   122254175.418    23477625.685  
                 126937111.788                   126937111.788    24376937.605  
                 115963121.110                   115963121.110    22269497.862  
  24198910.173   127166110.204                                                  
  27173648.516   142798464.294                                                  
  24771543.831   130175332.242                                                  
  24530951.947   128911011.782                                                  
  26870732.732   141206623.851                                                  
  24313689.644   127769250.632                                                  
 21  9  2  7 48 54.0000000  0 18G 1G 7G 8G 9G14G17G21G30C24C25C26C34
                                E 2E 3E 8E25E30E36
  21580988.807   113408816.320    21580992.006    88370493.985                  
  20088396.574   105565251.308    20088395.895    82258640.785                  
  22136476.209   116327927.817    22136478.514    90645128.774                  
  24027452.895   126265078.065    24027455.325    98388362.602                  
  22877680.047   120223031.362    22877680.226    93680289.085                  
  22917744.076   120433560.999    22917744.076    93844333.418                  
  21410024.982   112510444.038    21410023.999    87670477.308                  
  21297292.961   111917995.194    21297294.820    87208818.797                  
                 115182741.633                   115182741.633    22119629.008  
                 122251972.630                   122251972.630    23477202.654  
                 126939484.472                   126939484.472    24377393.247  
                 115961469.350                   115961469.350    22269180.669  
  24198714.525   127165082.094                                                  
  27174132.356   142801006.867                                                  
  24771788.655   130176618.739                                                  
  24531076.654   128911667.273                                                  
  26870372.135   141204728.872                                                  
  24313348.238   127767456.522                                                  
 21  9  2  7 48 55.0000000  0 18G 1G 7G 8G 9G14G17G21G30C24C25C26C34
                                E 2E 3E 8E25E30E36
  21580484.061   113406163.819    21580487.241    88368427.102                  
  20088380.420   105565166.370    20088379.741    82258574.602                  
  22137015.764   116330763.172    22137018.087    90647338.137                  
  24028052.240   126268227.588    24028054.652    98390816.778                  
  22877285.124   120220956.000    22877285.302    93678671.918                  
  22917235.899   120430890.437    22917235.881    93842252.460                  
  21409994.587   112510284.202    21409993.586    87670352.762                  
  21296894.661   111915902.105    21296896.519    87207187.816                  
                 115183189.563                   115183189.563    22119715.011  
                 122249769.990                   122249769.990    23476779.658  
                 126941857.388                   126941857.388    24377848.943  
                 115959818.047                   115959818.047    22268863.547  
  24198518.895   127164054.016                                                  
  27174616.195   142803549.438                                                  
  24772033.532   130177905.574                                                  
  24531201.416   128912322.882                                                  
  26870011.520   141202833.832                                                  
  24313006.904   127765662.805                                                  
 21  9  2  7 48 56.0000000  0 18G 1G 7G 8G 9G14G17G21G30C24C25C26C34
                                E 2E 3E 8E25E30E36
  21579979.386   113403511.773    21579982.584    88366360.570                  
  20088364.356   105565082.031    20088363.677    82258508.884                  
  22137555.337   116333598.715    22137557.660    90649547.653                  
  24028651.585   126271377.126    24028653.979    98393270.956                  
  22876890.200   120218880.691    22876890.379    93677054.796                  
  22916727.758   120428220.200    22916727.740    93840171.754                  
  21409964.281   112510124.982    21409963.280    87670228.692                  
  21296496.432   111913809.438    21296498.308    87205557.169                  
                 115183637.849                   115183637.849    22119801.104  
                 122247567.492                   122247567.492    23476356.698  
                 126944230.528                   126944230.528    24378304.674  
                 115958167.200                   115958167.200    22268546.515  
  24198323.265   127163025.985                                                  
  27175100.017   142806091.999                                                  
  24772278.480   130179192.758                                                  
  24531326.195   128912978.602                                                  
  26869650.905   141200938.739                                                  
  24312665.642   127763869.487                                                  
 21  9  2  7 48 57.0000000  0 18G 1G 7G 8G 9G14G17G21G30C24C25C26C34
                                E 2E 3E 8E25E30E36
  21579474.800   113400860.185    21579477.999    88364294.398                  
  20088348.434   105564998.285    20088347.737    82258443.625                  
  22138094.963   116336434.448    22138097.286    90651757.316                  
  24029250.912   126274526.661    24029253.324    98395725.146                  
  22876495.295   120216805.458    22876495.474    93675437.731                  
  22916219.706   120425550.292    22916219.688    93838091.308                  
  21409934.100   112509966.389    21409933.100    87670105.114                  
  21296098.292   111911717.182    21296100.133    87203926.840                  
                 115184086.477                   115184086.477    22119887.269  
                 122245365.140                   122245365.140    23475933.756  
                 126946603.903                   126946603.903    24378760.459  
                 115956516.804                   115956516.804    22268229.572  
  24198127.635   127161998.003                                                  
  27175583.856   142808634.558                                                  
  24772523.482   130180480.282                                                  
  24531450.993   128913634.436                                                  
  26869290.255   141199043.587                                                  
  24312324.468   127762076.551                                                  
 21  9  2  7 48 58.0000000  0 18G 1G 7G 8G 9G14G17G21G30C24C25C26C34
                                E 2E 3E 8E25E30E36
  21578970.322   113398209.052    21578973.503    88362228.577                  
  20088332.602   105564915.132    20088331.923    82258378.832                  
  22138634.626   116339270.364    22138636.949    90653967.120                  
  24029850.257   126277676.219    24029852.669    98398179.345                  
  22876100.407   120214730.280    22876100.586    93673820.710                  
  22915711.671   120422880.707    22915711.671    93836011.112                  
  21409904.045   112509808.413    21409903.044    87669982.020                  
  21295700.242   111909625.352    21295702.082    87202296.840                  
                 115184535.460                   115184535.460    22119973.487  
                 122243162.934                   122243162.934    23475510.868  
                 126948977.508                   126948977.508    24379216.280  
                 115954866.868                   115954866.868    22267912.718  
  24197932.040   127160970.066                                                  
  27176067.696   142811177.120                                                  
  24772768.556   130181768.141                                                  
  24531575.826   128914290.376                                                  
  26868929.622   141197148.382                                                  
  24311983.367   127760284.017                                                  
 21  9  2  7 48 59.0000000  0 18G 1G 7G 8G 9G14G17G21G30C24C25C26C34
                                E 2E 3E 8E25E30E36
  21578465.898   113395558.376    21578469.096    88360163.118                  
  20088316.896   105564832.583    20088316.217    82258314.508                  
  22139174.324   116342106.458    22139176.611    90656177.062                  
  24030449.601   126280825.756    24030451.996    98400633.527                  
  22875705.520   120212655.165    22875705.699    93672203.739                  
  22915203.744   120420211.448    22915203.744    93833931.177                  
  21409874.096   112509651.086    21409873.095    87669859.423                  
  21295302.263   111907533.930    21295304.103    87200667.160                  
                 115184984.793                   115184984.793    22120059.776  
                 122240960.875                   122240960.875    23475087.980  
                 126951351.343                   126951351.343    24379672.155  
                 115953217.382                   115953217.382    22267595.954  
  24197736.446   127159942.173                                                  
  27176551.518   142813719.673                                                  
  24773013.701   130183056.335                                                  
  24531700.677   128914946.434                                                  
  26868568.954   141195253.116                                                  
  24311642.319   127758491.870                                                  
 21  9  2  7 49  0.0000000  0 18G 1G 7G 8G 9G14G17G21G30C24C25C26C34
                                E 2E 3E 8E25E30E36
  21577961.580   113392908.161    21577964.779    88358098.016                  
  20088301.296   105564750.632    20088300.617    82258250.648                  
  22139714.040   116344942.761    22139716.363    90658387.172                  
  24031048.946   126283975.312    24031051.341    98403087.726                  
  22875310.632   120210580.122    22875310.847    93670586.820                  
  22914695.853   120417542.514    22914695.853    93831851.484                  
  21409844.273   112509494.363    21409843.272    87669737.305                  
  21294904.356   111905442.927    21294906.196    87199037.809                  
                 115185434.477                   115185434.477    22120146.120  
                 122238758.965                   122238758.965    23474665.127  
                 126953725.405                   126953725.405    24380128.065  
                 115951568.356                   115951568.356    22267279.279  
  24197540.834   127158914.332                                                  
  27177035.357   142816262.234                                                  
  24773258.900   130184344.875                                                  
  24531825.545   128915602.609                                                  
  26868208.303   141193357.800                                                  
  24311301.360   127756700.125                                                  
 21  9  2  7 49  1.0000000  0 18G 1G 7G 8G 9G14G17G21G30C24C25C26C34
                                E 2E 3E 8E25E30E36
  21577457.352   113390258.407    21577460.533    88356033.270                  
  20088285.821   105564669.269    20088285.142    82258187.246                  
  22140253.792   116347779.243    22140256.115    90660597.413                  
  24031648.273   126287124.879    24031650.686    98405541.934                  
  22874915.798   120208505.141    22874915.977    93668969.952                  
  22914188.033   120414873.909    22914188.033    93829772.051                  
  21409814.556   112509338.271    21409813.574    87669615.673                  
  21294506.520   111903352.341    21294508.378    87197408.776                  
                 115185884.512                   115185884.512    22120232.552  
                 122236557.195                   122236557.195    23474242.293  
                 126956099.702                   126956099.702    24380584.011  
                 115949919.786                   115949919.786    22266962.676  
  24197345.257   127157886.536                                                  
  27177519.197   142818804.790                                                  
  24773504.152   130185633.758                                                  
  24531950.414   128916258.895                                                  
  26867847.617   141191462.419                                                  
  24310960.472   127754908.774                                                  
 21  9  2  7 49  2.0000000  0 18G 1G 7G 8G 9G14G17G21G30C24C25C26C34
                                E 2E 3E 8E25E30E36
  21576953.178   113387609.225    21576956.340    88353969.055                  
  20088270.436   105564588.536    20088269.739    82258124.363                  
  22140793.597   116350615.910    22140795.902    90662807.817                  
  24032247.618   126290274.419    24032250.013    98407996.122                  
  22874520.929   120206430.284    22874521.107    93667353.226                  
  22913680.321   120412205.413    22913680.321    93827692.605                  
  21409784.983   112509182.786    21409783.983    87669494.511                  
  21294108.809   111901262.036    21294110.667    87195779.911                  
                 115186334.885                   115186334.885    22120319.038  
                 122234355.581                   122234355.581    23473819.476  
                 126958474.195                   126958474.195    24381040.029  
                 115948271.774                   115948271.774    22266646.162  
  24197149.699   127156858.657                                                  
  27178003.018   142821347.296                                                  
  24773749.458   130186923.055                                                  
  24532075.318   128916915.332                                                  
  26867486.913   141189566.921                                                  
  24310619.603   127753118.085                                                  
 21  9  2  7 49  3.0000000  0 18G 1G 7G 8G 9G14G17G21G30C24C25C26C34
                                E 2E 3E 8E25E30E36
  21576449.128   113384960.375    21576452.273    88351905.011                  
  20088255.176   105564508.364    20088254.497    82258061.891                  
  22141333.438   116353452.773    22141335.743    90665018.360                  
  24032846.963   126293423.995    24032849.358    98410450.339                  
  22874126.095   120204355.438    22874126.274    93665736.461                  
  22913172.626   120409537.462    22913172.644    93825613.685                  
  21409755.517   112509027.953    21409754.517    87669373.862                  
  21293711.134   111899172.286    21293712.992    87194151.532                  
                 115186785.625                   115186785.625    22120405.596  
                 122232154.113                   122232154.113    23473396.713  
                 126960848.957                   126960848.957    24381496.082  
                 115946624.121                   115946624.121    22266329.737  
  24196954.140   127155830.958                                                  
  27178486.840   142823889.849                                                  
  24773994.854   130188212.619                                                  
  24532200.241   128917571.844                                                  
  26867126.227   141187671.446                                                  
  24310278.876   127751327.520                                                  
 21  9  2  7 49  4.0000000  0 18G 1G 7G 8G 9G14G17G21G30C24C25C26C34
                                E 2E 3E 8E25E30E36
  21575945.132   113382311.980    21575948.295    88349841.328                  
  20088240.041   105564428.782    20088239.344    82257999.879                  
  22141873.297   116356289.804    22141875.620    90667229.035                  
  24033446.308   126296573.580    24033448.720    98412904.558                  
  22873731.279   120202280.657    22873731.457    93664119.746                  
  22912664.985   120406869.832    22912665.003    93823535.011                  
  21409726.158   112508873.736    21409725.176    87669253.695                  
  21293313.548   111897082.950    21293315.406    87192523.475                  
                 115187236.719                   115187236.719    22120492.225  
                 122229952.790                   122229952.790    23472973.985  
                 126963223.946                   126963223.946    24381952.153  
                 115944976.917                   115944976.917    22266013.420  
  24196758.582   127154803.290                                                  
  27178970.680   142826432.399                                                  
  24774240.320   130189502.517                                                  
  24532325.199   128918228.465                                                  
  26866765.505   141185775.901                                                  
  24309938.221   127749537.345                                                  
 21  9  2  7 49  5.0000000  0 18G 1G 7G 8G 9G14G17G21G30C24C25C26C34
                                E 2E 3E 8E25E30E36
  21575441.244   113379664.048    21575444.424    88347778.007                  
  20088224.995   105564349.795    20088224.316    82257938.333                  
  22142413.192   116359127.043    22142415.514    90669439.866                  
  24034045.635   126299723.176    24034048.065    98415358.789                  
  22873336.463   120200205.937    22873336.641    93662503.081                  
  22912157.415   120404202.532    22912157.415    93821456.599                  
  21409696.943   112508720.144    21409695.942    87669134.011                  
  21292916.034   111894994.040    21292917.892    87190895.753                  
                 115187688.159                   115187688.159    22120578.925  
                 122227751.610                   122227751.610    23472551.258  
                 126965599.163                   126965599.163    24382408.295  
                 115943330.176                   115943330.176    22265697.156  
  24196563.023   127153775.685                                                  
  27179454.501   142828974.954                                                  
  24774485.841   130190792.762                                                  
  24532450.157   128918885.200                                                  
  26866404.783   141183880.309                                                  
  24309597.620   127747747.569                                                  
 21  9  2  7 49  6.0000000  0 18G 1G 7G 8G 9G14G17G21G30C24C25C26C34
                                E 2E 3E 8E25E30E36
  21574937.445   113377016.571    21574940.625    88345715.036                  
  20088210.075   105564271.408    20088209.396    82257877.247                  
  22142953.158   116361964.472    22142955.463    90671650.853                  
  24034644.998   126302872.778    24034647.392    98417813.022                  
  22872941.682   120198131.294    22872941.843    93660886.481                  
  22911649.899   120401535.571    22911649.917    93819378.444                  
  21409667.816   112508567.153    21409666.815    87669014.798                  
  21292518.609   111892905.540    21292520.467    87189268.351                  
                 115188139.949                   115188139.949    22120665.679  
                 122225550.578                   122225550.578    23472128.566  
                 126967974.617                   126967974.617    24382864.474  
                 115941683.886                   115941683.886    22265381.017  
  24196367.482   127152748.105                                                  
  27179938.341   142831517.495                                                  
  24774731.415   130192083.341                                                  
  24532575.169   128919542.056                                                  
  26866044.043   141181984.632                                                  
  24309257.126   127745958.184                                                  
 21  9  2  7 49  7.0000000  0 18G 1G 7G 8G 9G14G17G21G30C24C25C26C34
                                E 2E 3E 8E25E30E36
  21574433.735   113374369.555    21574436.897    88343652.426                  
  20088195.279   105564193.606    20088194.582    82257816.625                  
  22143493.124   116364802.090    22143495.447    90673861.981                  
  24035244.343   126306022.374    24035246.755    98420267.253                  
  22872546.902   120196056.730    22872547.081    93659269.937                  
  22911142.455   120398868.946    22911142.473    93817300.555                  
  21409638.815   112508414.776    21409637.814    87668896.067                  
  21292121.255   111890817.469    21292123.114    87187641.284                  
                 115188592.093                   115188592.093    22120752.505  
                 122223349.695                   122223349.695    23471705.892  
                 126970350.296                   126970350.296    24383320.706  
                 115940038.050                   115940038.050    22265064.932  
  24196171.942   127151720.570                                                  
  27180422.162   142834060.039                                                  
  24774977.078   130193374.266                                                  
  24532700.180   128920199.020                                                  
  26865683.303   141180088.899                                                  
  24308916.685   127744169.203                                                  
 21  9  2  7 49  8.0000000  0 18G 1G 7G 8G 9G14G17G21G30C24C25C26C34
                                E 2E 3E 8E25E30E36
  21573930.096   113371722.984    21573933.277    88341590.163                  
  20088180.573   105564116.386    20088179.894    82257756.454                  
  22144033.144   116367639.863    22144035.449    90676073.235                  
  24035843.706   126309172.000    24035846.100    98422721.507                  
  22872152.122   120193982.175    22872152.300    93657653.398                  
  22910635.064   120396202.583    22910635.082    93815222.872                  
  21409609.956   112508263.136    21409608.955    87668777.905                  
  21291723.973   111888729.814    21291725.832    87186014.538                  
                 115189044.586                   115189044.586    22120839.402  
                 122221148.956                   122221148.956    23471283.272  
                 126972726.207                   126972726.207    24383776.955  
                 115938392.676                   115938392.676    22264748.954  
  24195976.437   127150693.132                                                  
  27180906.002   142836602.583                                                  
  24775222.795   130194665.515                                                  
  24532825.192   128920856.096                                                  
  26865322.563   141178193.195                                                  
  24308576.316   127742380.595                                                  
 21  9  2  7 49  9.0000000  0 18G 1G 7G 8G 9G14G17G21G30C24C25C26C34
                                E 2E 3E 8E25E30E36
  21573426.565   113369076.878    21573429.746    88339528.262                  
  20088165.992   105564039.771    20088165.295    82257696.753                  
  22144573.181   116370477.853    22144575.504    90678284.653                  
  24036443.033   126312321.614    24036445.463    98425175.754                  
  22871757.359   120191907.719    22871757.538    93656036.937                  
  22910127.745   120393536.599    22910127.762    93813145.479                  
  21409581.205   112508112.032    21409580.222    87668660.160                  
  21291326.798   111886642.567    21291328.657    87184388.114                  
                 115189497.430                   115189497.430    22120926.353  
                 122218948.367                   122218948.367    23470860.687  
                 126975102.348                   126975102.348    24384233.277  
                 115936747.755                   115936747.755    22264433.084  
  24195780.914   127149665.690                                                  
  27181389.824   142839145.104                                                  
  24775468.583   130195957.109                                                  
  24532950.257   128921513.281                                                  
  26864961.788   141176297.357                                                  
  24308236.036   127740592.383                                                  
 21  9  2  7 49 10.0000000  0 18G 1G 7G 8G 9G14G17G21G30C24C25C26C34
                                E 2E 3E 8E25E30E36
  21572923.123   113366431.226    21572926.286    88337466.720                  
  20088151.518   105563963.742    20088150.839    82257637.513                  
  22145113.272   116373316.028    22145115.577    90680496.218                  
  24037042.395   126315471.234    24037044.808    98427630.001                  
  22871362.615   120189833.325    22871362.776    93654420.531                  
  22909620.479   120390870.919    22909620.479    93811068.331                  
  21409552.579   112507961.565    21409551.578    87668542.913                  
  21290929.677   111884555.746    21290931.536    87182762.020                  
                 115189950.624                   115189950.624    22121013.393  
                 122216747.922                   122216747.922    23470438.103  
                 126977478.715                   126977478.715    24384689.616  
                 115935103.285                   115935103.285    22264117.284  
  24195585.427   127148638.308                                                  
  27181873.663   142841687.645                                                  
  24775714.425   130197249.038                                                  
  24533075.340   128922170.562                                                  
  26864600.994   141174401.471                                                  
  24307895.828   127738804.559                                                  
 21  9  2  7 49 11.0000000  0 18G 1G 7G 8G 9G14G17G21G30C24C25C26C34
                                E 2E 3E 8E25E30E36
  21572419.735   113363786.035    21572422.916    88335405.527                  
  20088137.187   105563888.309    20088136.472    82257578.731                  
  22145653.399   116376154.414    22145655.704    90682707.950                  
  24037641.740   126318620.859    24037644.153    98430084.255                  
  22870967.888   120187758.996    22870968.067    93652804.173                  
  22909113.284   120388205.583    22909113.284    93808991.446                  
  21409524.060   112507811.724    21409523.059    87668426.153                  
  21290532.663   111882469.338    21290534.522    87181136.250                  
                 115190404.172                   115190404.172    22121100.486  
                 122214547.620                   122214547.620    23470015.554  
                 126979855.313                   126979855.313    24385146.026  
                 115933459.275                   115933459.275    22263801.557  
  24195389.922   127147610.969                                                  
  27182357.485   142844230.172                                                  
  24775960.339   130198541.305                                                  
  24533200.441   128922827.975                                                  
  26864240.219   141172505.539                                                  
  24307555.709   127737017.145                                                  
 21  9  2  7 49 12.0000000  0 18G 1G 7G 8G 9G14G17G21G30C24C25C26C34
                                E 2E 3E 8E25E30E36
  21571916.472   113361141.305    21571919.635    88333344.703                  
  20088122.945   105563813.475    20088122.248    82257520.419                  
  22146193.562   116378992.974    22146195.867    90684919.813                  
  24038241.103   126321770.503    24038243.515    98432538.524                  
  22870573.161   120185684.731    22870573.340    93651187.860                  
  22908606.144   120385540.570    22908606.162    93806914.812                  
  21409495.666   112507662.501    21409494.665    87668309.876                  
  21290135.703   111880383.356    21290137.561    87179510.810                  
                 115190858.064                   115190858.064    22121187.651  
                 122212347.460                   122212347.460    23469593.041  
                 126982232.137                   126982232.137    24385602.473  
                 115931815.715                   115931815.715    22263485.918  
  24195194.417   127146583.671                                                  
  27182841.307   142846772.698                                                  
  24776206.324   130199833.918                                                  
  24533325.560   128923485.503                                                  
  26863879.425   141170609.542                                                  
  24307215.643   127735230.122                                                  
 21  9  2  7 49 13.0000000  0 18G 1G 7G 8G 9G14G17G21G30C24C25C26C34
                                E 2E 3E 8E25E30E36
  21571413.280   113358497.020    21571416.443    88331284.219                  
  20088108.793   105563739.228    20088108.114    82257462.561                  
  22146733.760   116381831.739    22146736.066    90687131.835                  
  24038840.466   126324920.149    24038842.860    98434992.792                  
  22870178.435   120183610.528    22870178.613    93649571.598                  
  22908099.057   120382875.883    22908099.074    93804838.435                  
  21409467.379   112507513.907    21409466.379    87668194.090                  
  21289738.814   111878297.774    21289740.673    87177885.680                  
                 115191312.304                   115191312.304    22121274.888  
                 122210147.452                   122210147.452    23469170.564  
                 126984609.191                   126984609.191    24386058.955  
                 115930172.609                   115930172.609    22263170.387  
  24194998.947   127145556.421                                                  
  27183325.128   142849315.210                                                  
  24776452.362   130201126.868                                                  
  24533450.715   128924143.136                                                  
  26863518.614   141168713.501                                                  
  24306875.632   127733443.492                                                  
 21  9  2  7 49 14.0000000  0 18G 1G 7G 8G 9G14G17G21G30C24C25C26C34
                                E 2E 3E 8E25E30E36
  21570910.178   113355853.188    21570913.341    88329224.090                  
  20088094.784   105563665.567    20088094.105    82257405.164                  
  22147273.977   116384670.688    22147276.300    90689344.003                  
  24039439.829   126328069.780    24039442.223    98437447.050                  
  22869783.761   120181536.387    22869783.922    93647955.384                  
  22907592.059   120380211.527    22907592.059    93802762.313                  
  21409439.218   112507365.949    21409438.217    87668078.796                  
  21289342.015   111876212.616    21289343.909    87176260.880                  
                 115191766.899                   115191766.899    22121362.178  
                 122207947.586                   122207947.586    23468748.086  
                 126986986.477                   126986986.477    24386515.508  
                 115928529.962                   115928529.962    22262854.945  
  24194803.478   127144529.220                                                  
  27183808.968   142851857.739                                                  
  24776698.455   130202420.144                                                  
  24533575.888   128924800.884                                                  
  26863157.803   141166817.383                                                  
  24306535.745   127731657.243                                                  
 21  9  2  7 49 15.0000000  0 18G 1G 7G 8G 9G14G17G21G30C24C25C26C34
                                E 2E 3E 8E25E30E36
  21570407.165   113353209.843    21570410.328    88327164.359                  
  20088080.882   105563592.573    20088080.185    82257348.319                  
  22147814.265   116387509.858    22147816.552    90691556.360                  
  24040039.173   126331219.427    24040041.586    98439901.313                  
  22869389.053   120179462.313    22869389.231    93646339.222                  
  22907085.097   120377547.464    22907085.115    93800686.402                  
  21409411.181   112507218.540    21409410.180    87667963.898                  
  21288945.322   111874127.855    21288947.181    87174636.374                  
                 115192221.841                   115192221.841    22121449.558  
                 122205747.871                   122205747.871    23468325.663  
                 126989363.993                   126989363.993    24386972.062  
                 115926887.769                   115926887.769    22262539.557  
  24194608.027   127143502.125                                                  
  27184292.772   142854400.368                                                  
  24776944.618   130203713.757                                                  
  24533701.060   128925458.732                                                  
  26862796.973   141164921.140                                                  
  24306195.894   127729871.247                                                  
 21  9  2  7 49 16.0000000  0 18G 1G 7G 8G 9G14G17G21G30C24C25C26C34
                                E 2E 3E 8E25E30E36
  21569904.223   113350566.941    21569907.404    88325104.953                  
  20088067.087   105563520.107    20088066.408    82257291.852                  
  22148354.552   116390349.172    22148356.857    90693768.812                  
  24040638.518   126334369.073    24040640.949    98442355.583                  
  22868994.397   120177388.300    22868994.558    93644723.109                  
  22906578.224   120374883.766    22906578.224    93798610.793                  
  21409383.252   112507071.820    21409382.251    87667849.573                  
  21288548.684   111872043.531    21288550.542    87173012.230                  
                 115192677.137                   115192677.137    22121536.973  
                 122203548.302                   122203548.302    23467903.257  
                 126991741.733                   126991741.733    24387428.687  
                 115925246.032                   115925246.032    22262224.276  
  24194412.558   127142475.006                                                  
  27184776.593   142856942.903                                                  
  24777190.853   130205007.723                                                  
  24533826.286   128926116.711                                                  
  26862436.144   141163024.923                                                  
  24305856.132   127728085.796                                                  
 21  9  2  7 49 17.0000000  0 18G 1G 7G 8G 9G14G17G21G30C24C25C26C34
                                E 2E 3E 8E25E30E36
  21569401.389   113347924.493    21569404.534    88323045.903                  
  20088053.399   105563448.239    20088052.720    82257235.847                  
  22148894.894   116393188.673    22148897.199    90695981.410                  
  24041237.881   126337518.731    24041240.293    98444809.860                  
  22868599.742   120175314.352    22868599.903    93643107.048                  
  22906071.405   120372220.390    22906071.405    93796535.437                  
  21409355.466   112506925.723    21409354.465    87667735.731                  
  21288152.116   111869959.632    21288153.975    87171388.413                  
                 115193132.782                   115193132.782    22121624.495  
                 122201348.878                   122201348.878    23467480.887  
                 126994119.712                   126994119.712    24387885.365  
                 115923604.749                   115923604.749    22261909.102  
  24194217.124   127141447.938                                                  
  27185260.415   142859485.403                                                  
  24777437.160   130206302.023                                                  
  24533951.494   128926774.794                                                  
  26862075.279   141161128.641                                                  
  24305516.460   127726300.742                                                  
 21  9  2  7 49 18.0000000  0 18G 1G 7G 8G 9G14G17G21G30C24C25C26C34
                                E 2E 3E 8E25E30E36
  21568898.626   113345282.495    21568901.807    88320987.203                  
  20088039.836   105563376.958    20088039.157    82257180.306                  
  22149435.253   116396028.351    22149437.576    90698194.148                  
  24041837.244   126340668.380    24041839.656    98447264.134                  
  22868205.087   120173240.478    22868205.266    93641491.039                  
  22905564.622   120369557.337    22905564.639    93794460.331                  
  21409327.786   112506780.250    21409326.786    87667622.376                  
  21287755.638   111867876.142    21287757.515    87169764.914                  
                 115193588.778                   115193588.778    22121712.053  
                 122199149.603                   122199149.603    23467058.517  
                 126996497.914                   126996497.914    24388342.062  
                 115921963.926                   115921963.926    22261594.000  
  24194021.673   127140420.931                                                  
  27185744.254   142862027.903                                                  
  24777683.520   130207596.658                                                  
  24534076.756   128927432.993                                                  
  26861714.414   141159232.301                                                  
  24305176.841   127724516.078                                                  
 21  9  2  7 49 19.0000000  0 18G 1G 7G 8G 9G14G17G21G30C24C25C26C34
                                E 2E 3E 8E25E30E36
  21568395.953   113342640.954    21568399.115    88318928.859                  
  20088026.381   105563306.270    20088025.702    82257125.226                  
  22149975.666   116398868.198    22149977.989    90700407.017                  
  24042436.607   126343818.050    24042439.019    98449718.422                  
  22867810.432   120171166.659    22867810.628    93639875.079                  
  22905057.928   120366894.612    22905057.945    93792385.481                  
  21409300.197   112506635.415    21409299.214    87667509.515                  
  21287359.268   111865793.079    21287361.126    87168141.746                  
                 115194045.130                   115194045.130    22121799.701  
                 122196950.472                   122196950.472    23466636.200  
                 126998876.347                   126998876.347    24388798.812  
                 115920323.559                   115920323.559    22261278.987  
  24193826.257   127139393.956                                                  
  27186228.076   142864570.409                                                  
  24777929.934   130208891.635                                                  
  24534202.018   128928091.296                                                  
  26861353.567   141157335.914                                                  
  24304837.294   127722731.804                                                  
 21  9  2  7 49 20.0000000  0 18G 1G 7G 8G 9G14G17G21G30C24C25C26C34
                                E 2E 3E 8E25E30E36
  21567893.368   113339999.874    21567896.531    88316870.880                  
  20088013.033   105563236.172    20088012.354    82257070.605                  
  22150516.097   116401708.257    22150518.420    90702620.047                  
  24043035.952   126346967.728    24043038.382    98452172.710                  
  22867415.812   120169092.905    22867416.009    93638259.169                  
  22904551.287   120364232.214    22904551.305    93790310.887                  
  21409272.768   112506491.196    21409271.767    87667397.141                  
  21286962.933   111863710.434    21286964.791    87166518.906                  
                 115194501.827                   115194501.827    22121887.402  
                 122194751.493                   122194751.493    23466213.919  
                 127001255.008                   127001255.008    24389255.616  
                 115918683.645                   115918683.645    22260964.045  
  24193630.841   127138367.022                                                  
  27186711.898   142867112.898                                                  
  24778176.437   130210186.957                                                  
  24534327.316   128928749.727                                                  
  26860992.667   141155439.465                                                  
  24304497.836   127720947.930                                                  
 21  9  2  7 49 21.0000000  0 18G 1G 7G 8G 9G14G17G21G30C24C25C26C34
                                E 2E 3E 8E25E30E36
  21567390.874   113337359.261    21567394.036    88314813.259                  
  20087999.828   105563166.673    20087999.113    82257016.449                  
  22151056.581   116404548.495    22151058.904    90704833.220                  
  24043635.314   126350117.398    24043637.744    98454627.005                  
  22867021.228   120167019.221    22867021.371    93636643.309                  
  22904044.700   120361570.144    22904044.718    93788236.547                  
  21409245.446   112506347.610    21409244.445    87667285.254                  
  21286566.705   111861628.208    21286568.564    87164896.390                  
                 115194958.874                   115194958.874    22121975.175  
                 122192552.657                   122192552.657    23465791.656  
                 127003633.903                   127003633.903    24389712.455  
                 115917044.189                   115917044.189    22260649.193  
  24193435.444   127137340.147                                                  
  27187195.719   142869655.398                                                  
  24778422.994   130211482.610                                                  
  24534452.631   128929408.262                                                  
  26860631.784   141153542.969                                                  
  24304158.468   127719164.445                                                  
 21  9  2  7 49 22.0000000  0 18G 1G 7G 8G 9G14G17G21G30C24C25C26C34
                                E 2E 3E 8E25E30E36
  21566888.468   113334719.097    21566891.649    88312755.988                  
  20087986.694   105563097.769    20087986.015    82256962.758                  
  22151597.101   116407388.895    22151599.406    90707046.516                  
  24044234.677   126353267.082    24044237.107    98457081.300                  
  22866626.627   120164945.596    22866626.788    93635027.500                  
  22903538.203   120358908.394    22903538.203    93786162.458                  
  21409218.214   112506204.650    21409217.249    87667173.856                  
  21286170.531   111859546.399    21286172.407    87163274.203                  
                 115195416.278                   115195416.278    22122063.019  
                 122190353.969                   122190353.969    23465369.411  
                 127006013.024                   127006013.024    24390169.348  
                 115915405.188                   115915405.188    22260334.466  
  24193240.046   127136313.316                                                  
  27187679.541   142872197.895                                                  
  24778669.622   130212778.603                                                  
  24534577.982   128930066.919                                                  
  26860270.883   141151646.414                                                  
  24303819.153   127717381.360                                                  
 21  9  2  7 49 23.0000000  0 18G 1G 7G 8G 9G14G17G21G30C24C25C26C34
                                E 2E 3E 8E25E30E36
  21566386.134   113332079.387    21566389.315    88310699.074                  
  20087973.703   105563029.452    20087973.024    82256909.528                  
  22152137.639   116410229.493    22152139.962    90709259.974                  
  24044834.058   126356416.749    24044836.452    98459535.590                  
  22866232.025   120162872.036    22866232.204    93633411.743                  
  22903031.741   120356246.963    22903031.741    93784088.621                  
  21409191.142   112506062.308    21409190.141    87667062.945                  
  21285774.464   111857465.009    21285776.323    87161652.343                  
                 115195874.031                   115195874.031    22122150.917  
                 122188155.426                   122188155.426    23464947.220  
                 127008392.378                   127008392.378    24390626.277  
                 115913766.641                   115913766.641    22260019.774  
  24193044.648   127135286.526                                                  
  27188163.363   142874740.380                                                  
  24778916.304   130214074.934                                                  
  24534703.334   128930725.682                                                  
  26859909.965   141149749.798                                                  
  24303479.928   127715598.659                                                  
 21  9  2  7 49 24.0000000  0 18G 1G 7G 8G 9G14G17G21G30C24C25C26C34
                                E 2E 3E 8E25E30E36
  21565883.925   113329440.141    21565887.088    88308642.519                  
  20087960.820   105562961.722    20087960.123    82256856.754                  
  22152678.213   116413070.286    22152680.536    90711473.585                  
  24045433.420   126359566.433    24045435.815    98461989.894                  
  22865837.459   120160798.540    22865837.620    93631796.034                  
  22902525.333   120353585.865    22902525.369    93782015.040                  
  21409164.178   112505920.598    21409163.177    87666952.524                  
  21285378.487   111855384.030    21285380.345    87160030.808                  
                 115196332.133                   115196332.133    22122238.904  
                 122185957.034                   122185957.034    23464525.046  
                 127010771.962                   127010771.962    24391083.241  
                 115912128.551                   115912128.551    22259705.226  
  24192849.268   127134259.789                                                  
  27188647.184   142877282.868                                                  
  24779163.040   130215371.611                                                  
  24534828.720   128931384.560                                                  
  26859549.046   141147853.126                                                  
  24303140.756   127713816.375                                                  
 21  9  2  7 49 25.0000000  0 18G 1G 7G 8G 9G14G17G21G30C24C25C26C34
                                E 2E 3E 8E25E30E36
  21565381.752   113326801.345    21565384.933    88306586.320                  
  20087948.043   105562894.582    20087947.346    82256804.442                  
  22153218.840   116415911.272    22153221.163    90713687.343                  
  24046032.783   126362716.126    24046035.196    98464444.203                  
  22865442.893   120158725.108    22865443.054    93630180.378                  
  22902019.014   120350925.086    22902019.014    93779941.710                  
  21409137.320   112505779.495    21409136.320    87666842.583                  
  21284982.563   111853303.474    21284984.421    87158409.598                  
                 115196790.590                   115196790.590    22122326.944  
                 122183758.788                   122183758.788    23464102.873  
                 127013151.772                   127013151.772    24391540.260  
                 115910490.917                   115910490.917    22259390.713  
  24192653.888   127133233.099                                                  
  27189131.006   142879825.348                                                  
  24779409.864   130216668.610                                                  
  24534954.125   128932043.555                                                  
  26859188.092   141145956.401                                                  
  24302801.673   127712034.466                                                  
 21  9  2  7 49 26.0000000  0 18G 1G 7G 8G 9G14G17G21G30C24C25C26C34
                                E 2E 3E 8E25E30E36
  21564879.704   113324163.011    21564882.885    88304530.481                  
  20087935.374   105562828.040    20087934.677    82256752.593                  
  22153759.503   116418752.446    22153761.826    90715901.249                  
  24046632.146   126365865.805    24046634.558    98466898.505                  
  22865048.345   120156651.739    22865048.524    93628564.770                  
  22901512.731   120348264.633    22901512.767    93777868.632                  
  21409110.606   112505639.043    21409109.606    87666733.144                  
  21284586.728   111851223.340    21284588.586    87156788.719                  
                 115197249.395                   115197249.395    22122415.039  
                 122181560.693                   122181560.693    23463680.753  
                 127015531.812                   127015531.812    24391997.313  
                 115908853.743                   115908853.743    22259076.326  
  24192458.526   127132206.444                                                  
  27189614.828   142882367.813                                                  
  24779656.743   130217965.957                                                  
  24535079.548   128932702.655                                                  
  26858827.156   141144059.609                                                  
  24302462.662   127710252.957                                                  
 21  9  2  7 49 27.0000000  0 18G 1G 7G 8G 9G14G17G21G30C24C25C26C34
                                E 2E 3E 8E25E30E36
  21564377.745   113321525.142    21564380.908    88302475.000                  
  20087922.848   105562762.100    20087922.133    82256701.218                  
  22154300.202   116421593.794    22154302.507    90718115.288                  
  24047231.527   126369015.504    24047233.921    98469352.816                  
  22864653.797   120154578.436    22864653.976    93626949.214                  
  22901006.538   120345604.514    22901006.538    93775795.821                  
  21409083.981   112505499.202    21409082.981    87666624.180                  
  21284190.965   111849143.626    21284192.823    87155168.165                  
                 115197708.550                   115197708.550    22122503.222  
                 122179362.737                   122179362.737    23463258.687  
                 127017912.085                   127017912.085    24392454.439  
                 115907217.023                   115907217.023    22258761.992  
  24192263.164   127131179.845                                                  
  27190098.614   142884910.280                                                  
  24779903.675   130219263.646                                                  
  24535204.988   128933361.882                                                  
  26858466.201   141142162.782                                                  
  24302123.722   127708471.843                                                  
 21  9  2  7 49 28.0000000  0 18G 1G 7G 8G 9G14G17G21G30C24C25C26C34
                                E 2E 3E 8E25E30E36
  21563875.858   113318887.730    21563879.021    88300419.878                  
  20087910.393   105562696.753    20087909.696    82256650.301                  
  22154840.918   116424435.305    22154843.223    90720329.458                  
  24047830.872   126372165.203    24047833.284    98471807.133                  
  22864259.285   120152505.196    22864259.446    93625333.704                  
  22900500.397   120342944.718    22900500.397    93773723.258                  
  21409057.500   112505359.992    21409056.499    87666515.706                  
  21283795.273   111847064.329    21283797.132    87153547.938                  
                 115198168.059                   115198168.059    22122591.460  
                 122177164.939                   122177164.939    23462836.602  
                 127020292.585                   127020292.585    24392911.582  
                 115905580.758                   115905580.758    22258447.783  
  24192067.820   127130153.284                                                  
  27190582.435   142887452.754                                                  
  24780150.678   130220561.667                                                  
  24535330.447   128934021.200                                                  
  26858105.211   141140265.878                                                  
  24301784.854   127706691.120                                                  
 21  9  2  7 49 29.0000000  0 18G 1G 7G 8G 9G14G17G21G30C24C25C26C34
                                E 2E 3E 8E25E30E36
  21563374.060   113316250.773    21563377.223    88298365.114                  
  20087898.081   105562631.999    20087897.385    82256599.847                  
  22155381.689   116427277.025    22155383.976    90722543.790                  
  24048430.252   126375314.896    24048432.665    98474261.442                  
  22863864.755   120150432.023    22863864.933    93623718.249                  
  22899994.329   120340285.257    22899994.329    93771650.953                  
  21409031.125   112505221.413    21409030.124    87666407.732                  
  21283399.689   111844985.457    21283401.547    87151928.042                  
                 115198627.923                   115198627.923    22122679.786  
                 122174967.280                   122174967.280    23462414.554  
                 127022673.317                   127022673.317    24393368.779  
                 115903944.954                   115903944.954    22258133.645  
  24191872.476   127129126.782                                                  
  27191066.257   142889995.216                                                  
  24780397.753   130221860.028                                                  
  24535455.941   128934680.652                                                  
  26857744.257   141138368.927                                                  
  24301446.075   127704910.802                                                  
 21  9  2  7 49 30.0000000  0 18G 1G 7G 8G 9G14G17G21G30C24C25C26C34
                                E 2E 3E 8E25E30E36
  21562872.352   113313614.283    21562875.515    88296310.708                  
  20087885.859   105562567.837    20087885.162    82256549.856                  
  22155922.477   116430118.915    22155924.782    90724758.254                  
  24049029.615   126378464.601    24049032.027    98476715.762                  
  22863470.260   120148358.917    22863470.439    93622102.847                  
  22899488.296   120337626.113    22899488.296    93769578.899                  
  21409004.875   112505083.461    21409003.875    87666300.235                  
  21283004.176   111842906.999    21283006.016    87150308.469                  
                 115199088.133                   115199088.133    22122768.166  
                 122172769.772                   122172769.772    23461992.559  
                 127025054.279                   127025054.279    24393826.011  
                 115902309.603                   115902309.603    22257819.579  
  24191677.168   127128100.317                                                  
  27191550.079   142892537.672                                                  
  24780644.882   130223158.727                                                  
  24535581.435   128935340.211                                                  
  26857383.267   141136471.918                                                  
  24301107.386   127703130.871                                                  
 21  9  2  7 49 31.0000000  0 18G 1G 7G 8G 9G14G17G21G30C24C25C26C34
                                E 2E 3E 8E25E30E36
  21562370.732   113310978.250    21562373.895    88294256.661                  
  20087873.762   105562504.265    20087873.065    82256500.324                  
  22156463.300   116432960.969    22156465.606    90726972.844                  
  24049628.978   126381614.309    24049631.408    98479170.082                  
  22863075.784   120146285.867    22863075.945    93620487.488                  
  22898982.353   120334967.306    22898982.335    93767507.106                  
  21408978.733   112504946.132    21408977.732    87666193.234                  
  21282608.734   111840828.961    21282610.575    87148689.223                  
                 115199548.695                   115199548.695    22122856.600  
                 122170572.413                   122170572.413    23461570.582  
                 127027435.465                   127027435.465    24394283.298  
                 115900674.702                   115900674.702    22257505.621  
  24191481.841   127127073.897                                                  
  27192033.882   142895080.122                                                  
  24780892.082   130224457.760                                                  
  24535706.983   128935999.875                                                  
  26857022.259   141134574.847                                                  
  24300768.732   127701351.337                                                  
 21  9  2  7 49 32.0000000  0 18G 1G 7G 8G 9G14G17G21G30C24C25C26C34
                                E 2E 3E 8E25E30E36
  21561869.203   113308342.672    21561872.365    88292202.969                  
  20087861.772   105562441.298    20087861.075    82256451.258                  
  22157004.160   116435803.211    22157006.465    90729187.583                  
  24050228.358   126384764.016    24050230.753    98481624.407                  
  22862681.307   120144212.894    22862681.486    93618872.188                  
  22898476.463   120332308.819    22898476.463    93765435.562                  
  21408952.716   112504809.434    21408951.715    87666086.718                  
  21282213.382   111838751.339    21282215.223    87147070.302                  
                 115200009.609                   115200009.609    22122945.123  
                 122168375.199                   122168375.199    23461148.623  
                 127029816.883                   127029816.883    24394740.619  
                 115899040.267                   115899040.267    22257191.733  
  24191286.515   127126047.530                                                  
  27192517.704   142897622.578                                                  
  24781139.336   130225757.134                                                  
  24535832.549   128936659.665                                                  
  26856661.251   141132677.732                                                  
  24300430.186   127699572.198                                                  
 21  9  2  7 49 33.0000000  0 18G 1G 7G 8G 9G14G17G21G30C24C25C26C34
                                E 2E 3E 8E25E30E36
  21561367.762   113305707.555    21561370.907    88290149.638                  
  20087849.924   105562378.914    20087849.227    82256402.657                  
  22157545.055   116438645.644    22157547.361    90731402.468                  
  24050827.721   126387913.727    24050830.116    98484078.731                  
  22862286.849   120142139.970    22862286.992    93617256.925                  
  22897970.626   120329650.663    22897970.626    93763364.277                  
  21408926.841   112504673.355    21408925.823    87665980.687                  
  21281818.102   111836674.140    21281819.942    87145451.707                  
                 115200470.872                   115200470.872    22123033.700  
                 122166178.136                   122166178.136    23460726.700  
                 127032198.534                   127032198.534    24395197.995  
                 115897406.285                   115897406.285    22256877.953  
  24191091.224   127125021.212                                                  
  27193001.508   142900165.008                                                  
  24781386.679   130227056.842                                                  
  24535958.096   128937319.555                                                  
  26856300.226   141130780.552                                                  
  24300091.693   127697793.450                                                  
 21  9  2  7 49 34.0000000  0 18G 1G 7G 8G 9G14G17G21G30C24C25C26C34
                                E 2E 3E 8E25E30E36
  21560866.393   113303072.908    21560869.556    88288096.668                  
  20087838.167   105562317.132    20087837.452    82256354.515                  
  22158086.004   116441488.274    22158088.292    90733617.511                  
  24051427.102   126391063.441    24051429.496    98486533.054                  
  22861892.408   120140067.122    22861892.569    93615641.722                  
  22897464.861   120326992.831    22897464.861    93761293.243                  
  21408901.056   112504537.906    21408900.056    87665875.148                  
  21281422.892   111834597.363    21281424.733    87143833.446                  
                 115200932.489                   115200932.489    22123122.348  
                 122163981.219                   122163981.219    23460304.812  
                 127034580.409                   127034580.409    24395655.406  
                 115895772.757                   115895772.757    22256564.263  
  24190895.916   127123994.933                                                  
  27193485.312   142902707.458                                                  
  24781634.057   130228356.894                                                  
  24536083.698   128937979.571                                                  
  26855939.200   141128883.308                                                  
  24299753.271   127696015.110                                                  
 21  9  2  7 49 35.0000000  0 18G 1G 7G 8G 9G14G17G21G30C24C25C26C34
                                E 2E 3E 8E25E30E36
  21560365.113   113300438.706    21560368.276    88286044.048                  
  20087826.516   105562255.940    20087825.801    82256306.840                  
  22158626.953   116444331.094    22158629.258    90735832.700                  
  24052026.482   126394213.163    24052028.877    98488987.388                  
  22861497.967   120137994.331    22861498.128    93614026.571                  
  22896959.168   120324335.333    22896959.132    93759222.470                  
  21408875.396   112504403.083    21408874.396    87665770.093                  
  21281027.773   111832520.997    21281029.613    87142215.499                  
                 115201394.456                   115201394.456    22123211.068  
                 122161784.452                   122161784.452    23459882.942  
                 127036962.519                   127036962.519    24396112.853  
                 115894139.686                   115894139.686    22256250.643  
  24190700.643   127122968.698                                                  
  27193969.115   142905249.890                                                  
  24781881.526   130229657.277                                                  
  24536209.317   128938639.699                                                  
  26855578.156   141126986.017                                                  
  24299414.957   127694237.148                                                  
 21  9  2  7 49 36.0000000  0 18G 1G 7G 8G 9G14G17G21G30C24C25C26C34
                                E 2E 3E 8E25E30E36
  21559863.941   113297804.974    21559867.104    88283991.794                  
  20087814.973   105562195.347    20087814.276    82256259.624                  
  22159167.974   116447174.114    22159170.279    90738048.040                  
  24052625.845   126397362.880    24052628.240    98491441.714                  
  22861103.526   120135921.618    22861103.687    93612411.468                  
  22896453.493   120321678.152    22896453.493    93757151.941                  
  21408849.862   112504268.888    21408848.861    87665665.527                  
  21280632.742   111830445.063    21280634.601    87140597.890                  
                 115201856.777                   115201856.777    22123299.841  
                 122159587.832                   122159587.832    23459461.108  
                 127039344.857                   127039344.857    24396570.372  
                 115892507.074                   115892507.074    22255937.114  
  24190505.353   127121942.518                                                  
  27194452.937   142907792.314                                                  
  24782129.047   130230958.004                                                  
  24536334.954   128939299.929                                                  
  26855217.095   141125088.667                                                  
  24299076.696   127692459.585                                                  
 21  9  2  7 49 37.0000000  0 18G 1G 7G 8G 9G14G17G21G30C24C25C26C34
                                E 2E 3E 8E25E30E36
  21559362.840   113295171.691    21559366.003    88281939.882                  
  20087803.554   105562135.334    20087802.857    82256212.864                  
  22159709.012   116450017.313    22159711.317    90740263.520                  
  24053225.226   126400512.614    24053227.620    98493896.051                  
  22860709.121   120133848.962    22860709.282    93610796.411                  
  22895947.924   120319021.302    22895947.924    93755081.669                  
  21408824.434   112504135.318    21408823.433    87665561.449                  
  21280237.783   111828369.536    21280239.642    87138980.597                  
                 115202319.450                   115202319.450    22123388.704  
                 122157391.359                   122157391.359    23459039.292  
                 127041727.421                   127041727.421    24397027.926  
                 115890874.919                   115890874.919    22255623.673  
  24190310.098   127120916.380                                                  
  27194936.741   142910334.743                                                  
  24782376.623   130232259.068                                                  
  24536460.627   128939960.280                                                  
  26854856.033   141123191.270                                                  
  24298738.525   127690682.422                                                  
 21  9  2  7 49 38.0000000  0 18G 1G 7G 8G 9G14G17G21G30C24C25C26C34
                                E 2E 3E 8E25E30E36
  21558861.846   113292538.880    21558864.973    88279888.344                  
  20087792.261   105562075.927    20087791.564    82256166.570                  
  22160250.104   116452860.691    22160252.391    90742479.136                  
  24053824.606   126403662.337    24053826.983    98496350.380                  
  22860314.716   120131776.367    22860314.877    93609181.406                  
  22895442.392   120316364.778    22895442.392    93753011.648                  
  21408799.131   112504002.375    21408798.149    87665457.860                  
  21279842.896   111826294.438    21279844.754    87137363.642                  
                 115202782.472                   115202782.472    22123477.620  
                 122155195.035                   122155195.035    23458617.512  
                 127044110.218                   127044110.218    24397485.498  
                 115889243.220                   115889243.220    22255310.322  
  24190114.843   127119890.285                                                  
  27195420.563   142912877.155                                                  
  24782624.287   130233560.469                                                  
  24536586.300   128940620.745                                                  
  26854494.954   141121293.806                                                  
  24298400.408   127688905.657                                                  
 21  9  2  7 49 39.0000000  0 18G 1G 7G 8G 9G14G17G21G30C24C25C26C34
                                E 2E 3E 8E25E30E36
  21558360.924   113289906.528    21558364.069    88277837.155                  
  20087781.057   105562017.108    20087780.360    82256120.737                  
  22160791.196   116455704.250    22160793.501    90744694.897                  
  24054423.951   126406812.065    24054426.364    98498804.716                  
  22859920.329   120129703.845    22859920.472    93607566.450                  
  22894936.949   120313708.583    22894936.949    93750941.888                  
  21408773.954   112503870.058    21408772.953    87665354.753                  
  21279448.097   111824219.757    21279449.956    87135747.004                  
                 115203245.848                   115203245.848    22123566.608  
                 122152998.859                   122152998.859    23458195.767  
                 127046493.247                   127046493.247    24397943.142  
                 115887611.971                   115887611.971    22254997.060  
  24189919.588   127118864.247                                                  
  27195904.366   142915419.591                                                  
  24782871.988   130234862.202                                                  
  24536712.008   128941281.333                                                  
  26854133.875   141119396.289                                                  
  24298062.361   127687129.280                                                  
 21  9  2  7 49 40.0000000  0 18G 1G 7G 8G 9G14G17G21G30C24C25C26C34
                                E 2E 3E 8E25E30E36
  21557860.073   113287274.630    21557863.236    88275786.328                  
  20087769.978   105561958.886    20087769.281    82256075.367                  
  22161332.359   116458548.007    22161334.664    90746910.814                  
  24055023.332   126409961.796    24055025.744    98501259.052                  
  22859525.942   120127631.382    22859526.102    93605951.546                  
  22894431.559   120311052.710    22894431.541    93748872.379                  
  21408748.902   112503738.363    21408747.901    87665252.134                  
  21279053.389   111822145.501    21279055.247    87134130.699                  
                 115203709.571                   115203709.571    22123655.667  
                 122150802.828                   122150802.828    23457774.040  
                 127048876.500                   127048876.500    24398400.821  
                 115885981.188                   115885981.188    22254683.888  
  24189724.334   127117838.246                                                  
  27196388.152   142917961.991                                                  
  24783119.759   130236164.282                                                  
  24536837.735   128941942.018                                                  
  26853772.777   141117498.716                                                  
  24297724.422   127685353.302                                                  
 21  9  2  7 49 41.0000000  0 18G 1G 7G 8G 9G14G17G21G30C24C25C26C34
                                E 2E 3E 8E25E30E36
  21557359.347   113284643.195    21557362.492    88273735.864                  
  20087759.025   105561901.251    20087758.328    82256030.461                  
  22161873.540   116461391.960    22161875.845    90749126.883                  
  24055622.713   126413111.531    24055625.125    98503713.386                  
  22859131.572   120125558.984    22859131.733    93604336.692                  
  22893926.223   120308397.173    22893926.205    93746803.129                  
  21408723.956   112503607.302    21408722.956    87665150.008                  
  21278658.751   111820071.667    21278660.592    87132514.727                  
                 115204173.649                   115204173.649    22123744.780  
                 122148606.949                   122148606.949    23457352.331  
                 127051259.983                   127051259.983    24398858.536  
                 115884350.856                   115884350.856    22254370.804  
  24189529.114   127116812.301                                                  
  27196871.956   142920504.406                                                  
  24783367.603   130237466.681                                                  
  24536963.479   128942602.824                                                  
  26853411.662   141115601.079                                                  
  24297386.519   127683577.711                                                  
 21  9  2  7 49 42.0000000  0 18G 1G 7G 8G 9G14G17G21G30C24C25C26C34
                                E 2E 3E 8E25E30E36
  21556858.675   113282012.219    21556861.838    88271685.750                  
  20087748.160   105561844.220    20087747.463    82255986.019                  
  22162414.757   116464236.095    22162417.062    90751343.090                  
  24056222.075   126416261.262    24056224.488    98506167.726                  
  22858737.239   120123486.644    22858737.399    93602721.882                  
  22893420.941   120305741.957    22893420.941    93744734.130                  
  21408699.136   112503476.857    21408698.136    87665048.360                  
  21278264.203   111817998.239    21278266.044    87130899.071                  
                 115204638.078                   115204638.078    22123833.964  
                 122146411.218                   122146411.218    23456930.676  
                 127053643.699                   127053643.699    24399316.322  
                 115882720.980                   115882720.980    22254057.793  
  24189333.895   127115786.392                                                  
  27197355.778   142923046.809                                                  
  24783615.500   130238769.429                                                  
  24537089.241   128943263.747                                                  
  26853050.565   141113703.395                                                  
  24297048.723   127681802.520                                                  
 21  9  2  7 49 43.0000000  0 18G 1G 7G 8G 9G14G17G21G30C24C25C26C34
                                E 2E 3E 8E25E30E36
  21556358.092   113279381.715    21556361.255    88269636.007                  
  20087737.421   105561787.773    20087736.724    82255942.036                  
  22162956.028   116467080.400    22162958.315    90753559.429                  
  24056821.456   126419410.987    24056823.868    98508622.058                  
  22858342.905   120121414.380    22858343.066    93601107.129                  
  22892915.748   120303087.071    22892915.712    93742665.387                  
  21408674.441   112503347.040    21408673.441    87664947.206                  
  21277869.727   111815925.239    21277871.567    87129283.746                  
                 115205102.859                   115205102.859    22123923.220  
                 122144215.638                   122144215.638    23456509.038  
                 127056027.641                   127056027.641    24399774.127  
                 115881091.561                   115881091.561    22253744.888  
  24189138.676   127114760.532                                                  
  27197839.582   142925589.195                                                  
  24783863.486   130240072.512                                                  
  24537215.039   128943924.770                                                  
  26852689.414   141111805.646                                                  
  24296710.981   127680027.727                                                  
 21  9  2  7 49 44.0000000  0 18G 1G 7G 8G 9G14G17G21G30C24C25C26C34
                                E 2E 3E 8E25E30E36
  21555857.617   113276751.668    21555860.779    88267586.618                  
  20087726.807   105561731.933    20087726.092    82255898.523                  
  22163497.298   116469924.898    22163499.604    90755775.922                  
  24057420.837   126422560.727    24057423.231    98511076.398                  
  22857948.554   120119342.176    22857948.714    93599492.426                  
  22892410.608   120300432.507    22892410.573    93740596.898                  
  21408649.854   112503217.848    21408648.835    87664846.540                  
  21277475.322   111813852.664    21277477.162    87127668.751                  
                 115205567.992                   115205567.992    22124012.547  
                 122142020.204                   122142020.204    23456087.419  
                 127058411.816                   127058411.816    24400231.985  
                 115879462.601                   115879462.601    22253432.055  
  24188943.475   127113734.722                                                  
  27198323.385   142928131.589                                                  
  24784111.526   130241375.930                                                  
  24537340.837   128944585.918                                                  
  26852328.281   141109907.853                                                  
  24296373.346   127678253.328                                                  
 21  9  2  7 49 45.0000000  0 18G 1G 7G 8G 9G14G17G21G30C24C25C26C34
                                E 2E 3E 8E25E30E36
  21555357.248   113274122.077    21555360.375    88265537.590                  
  20087716.282   105561676.692    20087715.585    82255855.478                  
  22164038.623   116472769.579    22164040.928    90757992.554                  
  24058020.217   126425710.467    24058022.612    98513530.741                  
  22857554.238   120117270.038    22857554.399    93597877.774                  
  22891905.505   120297778.272    22891905.505    93738528.663                  
  21408625.373   112503089.278    21408624.372    87664746.351                  
  21277081.006   111811780.507    21277082.846    87126054.087                  
                 115206033.477                   115206033.477    22124101.946  
                 122139824.917                   122139824.917    23455665.835  
                 127060796.215                   127060796.215    24400689.878  
                 115877834.098                   115877834.098    22253119.312  
  24188748.274   127112708.956                                                  
  27198807.171   142930673.972                                                  
  24784359.602   130242679.687                                                  
  24537466.689   128945247.179                                                  
  26851967.148   141108009.995                                                  
  24296035.746   127676479.328                                                  
 21  9  2  7 49 46.0000000  0 18G 1G 7G 8G 9G14G17G21G30C24C25C26C34
                                E 2E 3E 8E25E30E36
  21554856.916   113271492.949    21554860.078    88263488.919                  
  20087705.882   105561622.044    20087705.185    82255812.895                  
  22164579.983   116475614.415    22164582.288    90760209.312                  
  24058619.580   126428860.199    24058621.975    98515985.077                  
  22857159.940   120115197.966    22857160.101    93596263.172                  
  22891400.472   120295124.384    22891400.472    93736460.698                  
  21408601.035   112502961.339    21408600.035    87664646.665                  
  21276686.762   111809708.774    21276688.602    87124439.745                  
                 115206499.313                   115206499.313    22124191.398  
                 122137629.783                   122137629.783    23455244.305  
                 127063180.846                   127063180.846    24401147.826  
                 115876206.051                   115876206.051    22252806.657  
  24188553.073   127111683.238                                                  
  27199290.975   142933216.360                                                  
  24784607.785   130243983.789                                                  
  24537592.540   128945908.553                                                  
  26851605.980   141106112.085                                                  
  24295698.236   127674705.726                                                  
 21  9  2  7 49 47.0000000  0 18G 1G 7G 8G 9G14G17G21G30C24C25C26C34
                                E 2E 3E 8E25E30E36
  21554356.708   113268864.282    21554359.853    88261440.605                  
  20087695.608   105561567.997    20087694.893    82255770.778                  
  22165121.378   116478459.445    22165123.683    90762426.218                  
  24059218.961   126432009.930    24059221.355    98518439.411                  
  22856765.660   120113125.954    22856765.821    93594648.618                  
  22890895.512   120292470.806    22890895.512    93734392.977                  
  21408576.823   112502834.028    21408575.804    87664547.461                  
  21276292.607   111807637.465    21276294.465    87122825.738                  
                 115206965.499                   115206965.499    22124280.922  
                 122135434.793                   122135434.793    23454822.775  
                 127065565.708                   127065565.708    24401605.809  
                 115874578.461                   115874578.461    22252494.092  
  24188357.907   127110657.566                                                  
  27199774.761   142935758.714                                                  
  24784856.003   130245288.227                                                  
  24537718.427   128946570.040                                                  
  26851244.793   141104214.116                                                  
  24295360.815   127672932.518                                                  
 21  9  2  7 49 48.0000000  0 18G 1G 7G 8G 9G14G17G21G30C24C25C26C34
                                E 2E 3E 8E25E30E36
  21553856.572   113266236.078    21553859.735    88259392.656                  
  20087685.422   105561514.528    20087684.725    82255729.116                  
  22165662.792   116481304.645    22165665.097    90764643.257                  
  24059818.341   126435159.679    24059820.736    98520893.761                  
  22856371.380   120111054.008    22856371.541    93593034.114                  
  22890390.640   120289817.551    22890390.622    93732325.504                  
  21408552.700   112502707.339    21408551.699    87664448.743                  
  21275898.523   111805566.571    21275900.382    87121212.055                  
                 115207432.042                   115207432.042    22124370.517  
                 122133239.952                   122133239.952    23454401.280  
                 127067950.796                   127067950.796    24402063.845  
                 115872951.327                   115872951.327    22252181.635  
  24188162.742   127109631.947                                                  
  27200258.565   142938301.093                                                  
  24785104.275   130246592.989                                                  
  24537844.315   128947231.641                                                  
  26850883.624   141102316.100                                                  
  24295023.466   127671159.707                                                  
 21  9  2  7 49 49.0000000  0 18G 1G 7G 8G 9G14G17G21G30C24C25C26C34
                                E 2E 3E 8E25E30E36
  21553356.543   113263608.329    21553359.688    88257345.058                  
  20087675.362   105561461.661    20087674.665    82255687.917                  
  22166204.259   116484150.030    22166206.564    90766860.442                  
  24060417.722   126438309.413    24060420.116    98523348.102                  
  22855977.118   120108982.129    22855977.279    93591419.665                  
  22889885.805   120287164.628    22889885.787    93730258.293                  
  21408528.719   112502581.275    21408527.719    87664350.509                  
  21275504.511   111803496.095    21275506.388    87119598.694                  
                 115207898.934                   115207898.934    22124460.184  
                 122131045.262                   122131045.262    23453979.803  
                 127070336.116                   127070336.116    24402521.918  
                 115871324.647                   115871324.647    22251869.248  
  24187967.576   127108606.363                                                  
  27200742.369   142940843.447                                                  
  24785352.637   130247898.093                                                  
  24537970.238   128947893.359                                                  
  26850522.420   141100418.011                                                  
  24294686.188   127669387.285                                                  
 21  9  2  7 49 50.0000000  0 18G 1G 7G 8G 9G14G17G21G30C24C25C26C34
                                E 2E 3E 8E25E30E36
  21552856.586   113260981.059    21552859.748    88255297.836                  
  20087665.427   105561409.378    20087664.712    82255647.184                  
  22166745.762   116486995.600    22166748.067    90769077.770                  
  24061017.103   126441459.156    24061019.479    98525802.445                  
  22855582.856   120106910.309    22855583.017    93589805.257                  
  22889381.023   120284512.036    22889381.023    93728191.341                  
  21408504.846   112502455.833    21408503.846    87664252.762                  
  21275110.607   111801426.038    21275112.465    87117985.663                  
                 115208366.175                   115208366.175    22124549.905  
                 122128850.720                   122128850.720    23453558.362  
                 127072721.667                   127072721.667    24402980.044  
                 115869698.429                   115869698.429    22251556.934  
  24187772.429   127107580.829                                                  
  27201226.155   142943385.809                                                  
  24785601.052   130249203.538                                                  
  24538096.179   128948555.182                                                  
  26850161.216   141098519.884                                                  
  24294348.982   127667615.266                                                  
 21  9  2  7 49 51.0000000  0 18G 1G 7G 8G 9G14G17G21G30C24C25C26C34
                                E 2E 3E 8E25E30E36
  21552356.700   113258354.223    21552359.863    88253250.949                  
  20087655.581   105561357.706    20087654.884    82255606.917                  
  22167287.282   116489841.367    22167289.588    90771295.250                  
  24061616.465   126444608.905    24061618.860    98528256.792                  
  22855188.612   120104838.559    22855188.772    93588190.907                  
  22888876.312   120281859.761    22888876.294    93726124.633                  
  21408481.098   112502331.031    21408480.098    87664155.516                  
  21274716.755   111799356.407    21274718.614    87116372.966                  
                 115208833.777                   115208833.777    22124639.696  
                 122126656.329                   122126656.329    23453136.957  
                 127075107.444                   127075107.444    24403438.206  
                 115868072.691                   115868072.691    22251244.744  
  24187577.281   127106555.348                                                  
  27201709.958   142945928.159                                                  
  24785849.539   130250509.315                                                  
  24538222.137   128949217.132                                                  
  26849799.993   141096621.683                                                  
  24294011.847   127665843.639                                                  
 21  9  2  7 49 52.0000000  0 18G 1G 7G 8G 9G14G17G21G30C24C25C26C34
                                E 2E 3E 8E25E30E36
  21551856.921   113255727.868    21551860.084    88251204.441                  
  20087645.860   105561306.626    20087645.163    82255567.114                  
  22167828.839   116492687.303    22167831.144    90773512.858                  
  24062215.846   126447758.648    24062218.240    98530711.140                  
  22854794.385   120102766.876    22854794.546    93586576.609                  
  22888371.655   120279207.824    22888371.655    93724058.189                  
  21408457.458   112502206.851    21408456.457    87664058.750                  
  21274323.011   111797287.204    21274324.852    87114760.598                  
                 115209301.722                   115209301.722    22124729.560  
                 122124462.081                   122124462.081    23452715.588  
                 127077493.454                   127077493.454    24403896.403  
                 115866447.386                   115866447.386    22250932.626  
  24187382.133   127105529.908                                                  
  27202193.744   142948470.507                                                  
  24786098.079   130251815.426                                                  
  24538348.114   128949879.191                                                  
  26849438.789   141094723.435                                                  
  24293674.801   127664072.406                                                  
 21  9  2  7 49 53.0000000  0 18G 1G 7G 8G 9G14G17G21G30C24C25C26C34
                                E 2E 3E 8E25E30E36
  21551357.232   113253101.977    21551360.394    88249158.289                  
  20087636.264   105561256.141    20087635.568    82255527.774                  
  22168370.431   116495533.431    22168372.736    90775730.620                  
  24062815.227   126450908.415    24062817.621    98533165.501                  
  22854400.177   120100695.258    22854400.337    93584962.359                  
  22887867.088   120276556.206    22887867.052    93721991.995                  
  21408433.960   112502083.284    21408432.941    87663962.464                  
  21273929.339   111795218.418    21273931.180    87113148.559                  
                 115209770.024                   115209770.024    22124819.494  
                 122122267.987                   122122267.987    23452294.218  
                 127079879.687                   127079879.687    24404354.654  
                 115864822.535                   115864822.535    22250620.579  
  24187187.022   127104504.520                                                  
  27202677.548   142951012.839                                                  
  24786346.708   130253121.890                                                  
  24538474.144   128950541.358                                                  
  26849077.549   141092825.132                                                  
  24293337.827   127662301.575                                                  
 21  9  2  7 49 54.0000000  0 18G 1G 7G 8G 9G14G17G21G30C24C25C26C34
                                E 2E 3E 8E25E30E36
  21550857.632   113250476.535    21550860.777    88247112.493                  
  20087626.758   105561206.241    20087626.061    82255488.895                  
  22168912.077   116498379.761    22168914.382    90777948.539                  
  24063414.607   126454058.161    24063417.002    98535619.848                  
  22854005.968   120098623.699    22854006.129    93583348.163                  
  22887362.556   120273904.917    22887362.538    93719926.058                  
  21408410.552   112501960.351    21408409.569    87663866.672                  
  21273535.738   111793150.055    21273537.579    87111536.845                  
                 115210238.676                   115210238.676    22124909.501  
                 122120074.042                   122120074.042    23451872.903  
                 127082266.154                   127082266.154    24404812.959  
                 115863198.144                   115863198.144    22250308.639  
  24186991.892   127103479.168                                                  
  27203161.316   142953555.175                                                  
  24786595.356   130254428.673                                                  
  24538600.156   128951203.645                                                  
  26848716.308   141090926.766                                                  
  24293000.907   127660531.132                                                  
 21  9  2  7 49 55.0000000  0 18G 1G 7G 8G 9G14G17G21G30C24C25C26C34
                                E 2E 3E 8E25E30E36
  21550358.121   113247851.562    21550361.284    88245067.062                  
  20087617.377   105561156.945    20087616.680    82255450.480                  
  22169453.759   116501226.272    22169456.064    90780166.601                  
  24064013.988   126457207.915    24064016.382    98538074.203                  
  22853611.777   120096552.204    22853611.938    93581734.012                  
  22886858.095   120271253.960    22886858.077    93717860.375                  
  21408387.286   112501838.044    21408386.285    87663771.368                  
  21273142.226   111791082.116    21273144.085    87109925.464                  
                 115210707.679                   115210707.679    22124999.561  
                 122117880.247                   122117880.247    23451451.605  
                 127084652.847                   127084652.847    24405271.299  
                 115861574.208                   115861574.208    22249996.771  
  24186796.798   127102453.863                                                  
  27203645.120   142956097.508                                                  
  24786844.093   130255735.797                                                  
  24538726.222   128951866.038                                                  
  26848355.033   141089028.340                                                  
  24292664.076   127658761.090                                                  
 21  9  2  7 49 56.0000000  0 18G 1G 7G 8G 9G14G17G21G30C24C25C26C34
                                E 2E 3E 8E25E30E36
  21549858.700   113245227.059    21549861.845    88243021.992                  
  20087608.121   105561108.245    20087607.424    82255412.532                  
  22169995.458   116504072.981    22169997.763    90782384.817                  
  24064613.369   126460357.667    24064615.763    98540528.555                  
  22853217.605   120094480.780    22853217.765    93580119.915                  
  22886353.706   120268603.332    22886353.689    93715794.950                  
  21408364.146   112501716.361    21408363.127    87663676.550                  
  21272748.786   111789014.595    21272750.645    87108314.411                  
                 115211177.034                   115211177.034    22125089.692  
                 122115686.598                   122115686.598    23451030.342  
                 127087039.770                   127087039.770    24405729.675  
                 115859950.730                   115859950.730    22249684.993  
  24186601.704   127101428.620                                                  
  27204128.906   142958639.811                                                  
  24787092.901   130257043.255                                                  
  24538852.288   128952528.555                                                  
  26847993.775   141087129.872                                                  
  24292327.316   127656991.450                                                  
 21  9  2  7 49 57.0000000  0 18G 1G 7G 8G 9G14G17G21G30C24C25C26C34
                                E 2E 3E 8E25E30E36
  21549359.368   113242603.011    21549362.495    88240977.281                  
  20087598.954   105561060.144    20087598.257    82255375.051                  
  22170537.229   116506919.871    22170539.516    90784603.171                  
  24065212.731   126463507.410    24065215.144    98542982.902                  
  22852823.414   120092409.409    22852823.575    93578505.859                  
  22885849.353   120265953.023    22885849.335    93713729.777                  
  21408341.095   112501595.297    21408340.076    87663582.214                  
  21272355.435   111786947.496    21272357.276    87106703.685                  
                 115211646.741                   115211646.741    22125179.895  
                 122113493.097                   122113493.097    23450609.098  
                 127089426.925                   127089426.925    24406188.105  
                 115858327.707                   115858327.707    22249373.321  
  24186406.592   127100403.406                                                  
  27204612.674   142961182.126                                                  
  24787341.781   130258351.051                                                  
  24538978.372   128953191.177                                                  
  26847632.499   141085231.339                                                  
  24291990.646   127655222.192                                                  
 21  9  2  7 49 58.0000000  0 18G 1G 7G 8G 9G14G17G21G30C24C25C26C34
                                E 2E 3E 8E25E30E36
  21548860.107   113239979.429    21548863.252    88238932.934                  
  20087589.912   105561012.644    20087589.215    82255338.040                  
  22171079.000   116509766.961    22171081.305    90786821.687                  
  24065812.112   126466657.180    24065814.506    98545437.273                  
  22852429.277   120090338.117    22852429.438    93576891.868                  
  22885345.107   120263303.028    22885345.072    93711664.828                  
  21408318.187   112501474.865    21408317.186    87663488.366                  
  21271962.156   111784880.817    21271963.997    87105093.285                  
                 115212116.808                   115212116.808    22125270.187  
                 122111299.751                   122111299.751    23450187.872  
                 127091814.302                   127091814.302    24406646.589  
                 115856705.136                   115856705.136    22249061.721  
  24186211.516   127099378.250                                                  
  27205096.460   142963724.474                                                  
  24787590.696   130259659.198                                                  
  24539104.492   128953853.925                                                  
  26847271.205   141083332.763                                                  
  24291654.047   127653453.333                                                  
 21  9  2  7 49 59.0000000  0 18G 1G 7G 8G 9G14G17G21G30C24C25C26C34
                                E 2E 3E 8E25E30E36
  21548360.936   113237356.308    21548364.081    88236888.941                  
  20087580.996   105560965.740    20087580.299    82255301.489                  
  22171620.824   116512614.227    22171623.112    90789040.336                  
  24066411.475   126469806.929    24066413.887    98547891.625                  
  22852035.122   120088266.880    22852035.283    93575277.915                  
  22884840.879   120260653.374    22884840.861    93709600.169                  
  21408295.386   112501355.060    21408294.385    87663395.012                  
  21271568.966   111782814.563    21271570.825    87103483.220                  
                 115212587.222                   115212587.222    22125360.515  
                 122109106.549                   122109106.549    23449766.699  
                 127094201.914                   127094201.914    24407105.108  
                 115855083.030                   115855083.030    22248750.228  
  24186016.458   127098353.142                                                  
  27205580.246   142966266.768                                                  
  24787839.701   130260967.663                                                  
  24539230.611   128954516.781                                                  
  26846909.893   141081434.110                                                  
  24291317.520   127651684.876                                                  
 21  9  2  7 50  0.0000000  0 18G 1G 7G 8G 9G14G17G21G30C24C25C26C34
                                E 2E 3E 8E25E30E36
  21547861.854   113234733.659    21547865.017    88234845.321                  
  20087572.186   105560919.419    20087571.471    82255265.395                  
  22172162.667   116515461.663    22172164.954    90791259.117                  
  24067010.855   126472956.675    24067013.268    98550345.968                  
  22851641.003   120086195.714    22851641.164    93573664.019                  
  22884336.740   120258004.066    22884336.723    93707535.771                  
  21408272.692   112501235.886    21408271.691    87663302.149                  
  21271175.848   111780748.726    21271177.706    87101873.472                  
                 115213057.984                   115213057.984    22125450.914  
                 122106913.499                   122106913.499    23449345.562  
                 127096589.755                   127096589.755    24407563.663  
                 115853461.380                   115853461.380    22248438.807  
  24185821.382   127097328.077                                                  
  27206064.032   142968809.078                                                  
  24788088.760   130262276.474                                                  
  24539356.784   128955179.747                                                  
  26846548.582   141079535.411                                                  
  24290981.082   127649916.812                                                  
 21  9  2  7 50  1.0000000  0 18G 1G 7G 8G 9G14G17G21G30C24C25C26C34
                                E 2E 3E 8E25E30E36
  21547362.880   113232111.465    21547366.025    88232802.056                  
  20087563.484   105560873.692    20087562.787    82255229.761                  
  22172704.545   116518309.293    22172706.832    90793478.047                  
  24067610.236   126476106.426    24067612.648    98552800.324                  
  22851246.884   120084124.604    22851247.045    93572050.167                  
  22883832.637   120255355.072    22883832.637    93705471.617                  
  21408250.141   112501117.328    21408249.141    87663209.769                  
  21270782.819   111778683.312    21270784.659    87100264.058                  
                 115213529.101                   115213529.101    22125541.403  
                 122104720.600                   122104720.600    23448924.442  
                 127098977.824                   127098977.824    24408022.253  
                 115851840.187                   115851840.187    22248127.457  
  24185626.341   127096303.054                                                  
  27206547.818   142971351.349                                                  
  24788337.872   130263585.614                                                  
  24539482.958   128955842.818                                                  
  26846187.252   141077636.655                                                  
  24290644.698   127648149.147                                                  
 21  9  2  7 50  2.0000000  0 18G 1G 7G 8G 9G14G17G21G30C24C25C26C34
                                E 2E 3E 8E25E30E36
  21546863.976   113229489.735    21546867.121    88230759.145                  
  20087554.907   105560828.566    20087554.174    82255194.603                  
  22173246.459   116521157.117    22173248.782    90795697.133                  
  24068209.617   126479256.172    24068212.011    98555254.672                  
  22850852.782   120082053.570    22850852.943    93570436.375                  
  22883328.624   120252706.415    22883328.624    93703407.731                  
  21408227.698   112500999.399    21408226.697    87663117.876                  
  21270389.861   111776618.317    21270391.701    87098654.974                  
                 115214000.570                   115214000.570    22125631.945  
                 122102527.847                   122102527.847    23448503.341  
                 127101366.122                   127101366.122    24408480.897  
                 115850219.450                   115850219.450    22247816.214  
  24185431.283   127095278.086                                                  
  27207031.604   142973893.632                                                  
  24788587.055   130264895.091                                                  
  24539609.167   128956506.020                                                  
  26845825.940   141075737.841                                                  
  24290308.403   127646381.879                                                  
 21  9  2  7 50  3.0000000  0 18G 1G 7G 8G 9G14G17G21G30C24C25C26C34
                                E 2E 3E 8E25E30E36
  21546365.163   113226868.469    21546368.326    88228716.602                  
  20087546.419   105560784.036    20087545.722    82255159.901                  
  22173788.426   116524005.122    22173790.713    90797916.356                  
  24068808.997   126482405.927    24068811.392    98557709.024                  
  22850458.681   120079982.595    22850458.842    93568822.628                  
  22882824.664   120250058.081    22882824.664    93701344.097                  
  21408205.379   112500882.109    21408204.379    87663026.481                  
  21269996.975   111774553.745    21269998.815    87097046.216                  
                 115214472.391                   115214472.391    22125722.541  
                 122100335.248                   122100335.248    23448082.275  
                 127103754.647                   127103754.647    24408939.595  
                 115848599.173                   115848599.173    22247505.061  
  24185236.260   127094253.160                                                  
  27207515.372   142976435.900                                                  
  24788836.292   130266204.899                                                  
  24539735.393   128957169.332                                                  
  26845464.575   141073838.966                                                  
  24289972.179   127644615.009                                                  
 21  9  2  7 50  4.0000000  0 18G 1G 7G 8G 9G14G17G21G30C24C25C26C34
                                E 2E 3E 8E25E30E36
  21545866.438   113224247.669    21545869.601    88226674.418                  
  20087538.056   105560740.098    20087537.359    82255125.669                  
  22174330.411   116526853.301    22174332.717    90800135.718                  
  24069408.378   126485555.676    24069410.772    98560163.376                  
  22850064.598   120077911.684    22850064.759    93567208.929                  
  22882320.757   120247410.073    22882320.757    93699280.711                  
  21408183.186   112500765.441    21408182.185    87662935.571                  
  21269604.196   111772489.613    21269606.036    87095437.801                  
                 115214944.564                   115214944.564    22125813.227  
                 122098142.796                   122098142.796    23447661.245  
                 127106143.408                   127106143.408    24409398.347  
                 115846979.352                   115846979.352    22247193.979  
  24185041.220   127093228.280                                                  
  27207999.158   142978978.183                                                  
  24789085.619   130267515.054                                                  
  24539861.638   128957832.755                                                  
  26845103.246   141071940.040                                                  
  24289636.027   127642848.524                                                  
 21  9  2  7 50  5.0000000  0 18G 1G 7G 8G 9G14G17G21G30C24C25C26C34
                                E 2E 3E 8E25E30E36
  21545367.803   113221627.333    21545370.966    88224632.597                  
  20087529.801   105560696.753    20087529.104    82255091.891                  
  22174872.433   116529701.661    22174874.738    90802355.215                  
  24070007.759   126488705.431    24070010.153    98562617.726                  
  22849670.514   120075840.835    22849670.675    93565595.285                  
  22881816.922   120244762.391    22881816.922    93697217.582                  
  21408161.100   112500649.390    21408160.081    87662845.141                  
  21269211.488   111770425.894    21269213.329    87093829.711                  
                 115215417.091                   115215417.091    22125903.965  
                 122095950.491                   122095950.491    23447240.215  
                 127108532.392                   127108532.392    24409857.116  
                 115845359.985                   115845359.985    22246883.005  
  24184846.197   127092203.453                                                  
  27208482.926   142981520.433                                                  
  24789334.999   130268825.535                                                  
  24539987.901   128958496.293                                                  
  26844741.862   141070041.050                                                  
  24289299.946   127641082.458                                                  
 21  9  2  7 50  6.0000000  0 18G 1G 7G 8G 9G14G17G21G30C24C25C26C34
                                E 2E 3E 8E25E30E36
  21544869.257   113219007.457    21544872.420    88222591.140                  
  20087521.688   105560654.016    20087520.974    82255058.590                  
  22175414.507   116532550.189    22175416.794    90804574.847                  
  24070607.121   126491855.168    24070609.516    98565072.066                  
  22849276.484   120073770.071    22849276.645    93563981.700                  
  22881313.159   120242115.058    22881313.141    93695154.728                  
  21408139.121   112500533.948    21408138.120    87662755.187                  
  21268818.834   111768362.590    21268820.693    87092221.937                  
                 115215889.965                   115215889.965    22125994.776  
                 122093758.339                   122093758.339    23446819.239  
                 127110921.606                   127110921.606    24410315.939  
                 115843741.078                   115843741.078    22246572.119  
  24184651.193   127091178.659                                                  
  27208966.694   142984062.707                                                  
  24789584.432   130270136.371                                                  
  24540114.199   128959159.953                                                  
  26844380.479   141068141.992                                                  
  24288963.937   127639316.768                                                  
 21  9  2  7 50  7.0000000  0 18G 1G 7G 8G 9G14G17G21G30C24C25C26C34
                                E 2E 3E 8E25E30E36
  21544370.801   113216388.051    21544373.964    88220550.042                  
  20087513.665   105560611.869    20087512.968    82255025.745                  
  22175956.600   116535398.907    22175958.905    90806794.630                  
  24071206.502   126495004.911    24071208.896    98567526.414                  
  22848882.437   120071699.366    22848882.598    93562368.168                  
  22880809.431   120239468.071    22880809.431    93693092.140                  
  21408117.285   112500419.138    21408116.285    87662665.722                  
  21268426.305   111766299.711    21268428.146    87090614.501                  
                 115216363.196                   115216363.196    22126085.640  
                 122091566.339                   122091566.339    23446398.299  
                 127113311.047                   127113311.047    24410774.798  
                 115842122.629                   115842122.629    22246261.306  
  24184456.206   127090153.906                                                  
  27209450.480   142986604.970                                                  
  24789833.956   130271447.550                                                  
  24540240.497   128959823.725                                                  
  26844019.096   141066242.864                                                  
  24288628.018   127637551.478                                                  
 21  9  2  7 50  8.0000000  0 18G 1G 7G 8G 9G14G17G21G30C24C25C26C34
                                E 2E 3E 8E25E30E36
  21543872.434   113213769.094    21543875.579    88218509.297                  
  20087505.731   105560570.293    20087505.034    82254993.351                  
  22176498.728   116538247.773    22176501.015    90809014.523                  
  24071805.883   126498154.692    24071808.277    98569980.784                  
  22848488.407   120069628.699    22848488.568    93560754.659                  
  22880305.775   120236821.321    22880305.775    93691029.738                  
  21408095.556   112500305.026    21408094.556    87662576.804                  
  21268033.812   111764237.275    21268035.653    87089007.406                  
                 115216836.779                   115216836.779    22126176.593  
                 122089374.490                   122089374.490    23445977.376  
                 127115700.718                   127115700.718    24411233.728  
                 115840504.638                   115840504.638    22245950.581  
  24184261.201   127089129.261                                                  
  27209934.266   142989147.188                                                  
  24790083.514   130272759.007                                                  
  24540366.849   128960487.595                                                  
  26843657.713   141064343.774                                                  
  24288292.187   127635786.606                                                  
 21  9  2  7 50  9.0000000  0 18G 1G 7G 8G 9G14G17G21G30C24C25C26C34
                                E 2E 3E 8E25E30E36
  21543374.156   113211150.609    21543377.301    88216468.919                  
  20087497.940   105560529.340    20087497.243    82254961.437                  
  22177040.874   116541096.820    22177043.179    90811234.562                  
  24072405.263   126501304.432    24072407.658    98572435.130                  
  22848094.377   120067558.117    22848094.538    93559141.219                  
  22879802.208   120234174.960    22879802.172    93688967.640                  
  21408073.953   112500191.481    21408072.934    87662488.331                  
  21267641.426   111762175.238    21267643.285    87087400.626                  
                 115217310.714                   115217310.714    22126267.618  
                 122087182.786                   122087182.786    23445556.489  
                 127118090.621                   127118090.621    24411692.676  
                 115838887.102                   115838887.102    22245639.964  
  24184066.215   127088104.613                                                  
  27210418.016   142991689.427                                                  
  24790333.145   130274070.835                                                  
  24540493.201   128961151.599                                                  
  26843296.294   141062444.549                                                  
  24287956.393   127634022.114                                                  
 21  9  2  7 50 10.0000000  0 18G 1G 7G 8G 9G14G17G21G30C24C25C26C34
                                E 2E 3E 8E25E30E36
  21542875.968   113208532.594    21542879.113    88214428.907                  
  20087490.257   105560488.977    20087489.560    82254929.988                  
  22177583.056   116543946.066    22177585.361    90813454.754                  
  24073004.644   126504454.178    24073007.038    98574889.477                  
  22847700.383   120065487.602    22847700.544    93557527.833                  
  22879298.677   120231528.921    22879298.659    93686905.792                  
  21408052.474   112500078.569    21408051.456    87662400.348                  
  21267249.112   111760113.641    21267250.953    87085794.185                  
                 115217785.000                   115217785.000    22126358.696  
                 122084991.230                   122084991.230    23445135.620  
                 127120480.751                   127120480.751    24412151.659  
                 115837270.024                   115837270.024    22245329.418  
  24183871.246   127087080.021                                                  
  27210901.784   142994231.633                                                  
  24790582.846   130275382.997                                                  
  24540619.553   128961815.702                                                  
  26842934.875   141060545.289                                                  
  24287620.723   127632258.011                                                  
 21  9  2  7 50 11.0000000  0 18G 1G 7G 8G 9G14G17G21G30C24C25C26C34
                                E 2E 3E 8E25E30E36
  21542377.869   113205915.034    21542381.014    88212389.254                  
  20087482.698   105560449.212    20087482.001    82254899.000                  
  22178125.292   116546795.501    22178127.597    90815675.090                  
  24073604.025   126507603.921    24073606.419    98577343.825                  
  22847306.389   120063417.144    22847306.532    93555914.488                  
  22878795.217   120228883.216    22878795.199    93684844.204                  
  21408031.103   112499966.285    21408030.102    87662312.852                  
  21266856.887   111758052.449    21266858.745    87084188.064                  
                 115218259.642                   115218259.642    22126449.846  
                 122082799.829                   122082799.829    23444714.786  
                 127122871.108                   127122871.108    24412610.715  
                 115835653.402                   115835653.402    22245018.962  
  24183676.277   127086055.470                                                  
  27211385.552   142996773.863                                                  
  24790832.602   130276695.497                                                  
  24540745.958   128962479.932                                                  
  26842573.457   141058645.965                                                  
  24287285.107   127630494.317                                                  
 21  9  2  7 50 12.0000000  0 18G 1G 7G 8G 9G14G17G21G30C24C25C26C34
                                E 2E 3E 8E25E30E36
  21541879.841   113203297.949    21541883.004    88210349.965                  
  20087475.247   105560410.043    20087474.532    82254868.481                  
  22178667.563   116549645.129    22178669.868    90817895.582                  
  24074203.405   126510753.656    24074205.800    98579798.161                  
  22846912.395   120061346.746    22846912.556    93554301.192                  
  22878291.829   120226237.828    22878291.793    93682782.863                  
  21408009.857   112499854.621    21408008.838    87662225.843                  
  21266464.733   111755991.689    21266466.574    87082582.274                  
                 115218734.632                   115218734.632    22126541.068  
                 122080608.579                   122080608.579    23444293.989  
                 127125261.701                   127125261.701    24413069.806  
                 115834037.242                   115834037.242    22244708.595  
  24183481.326   127085030.969                                                  
  27211869.320   142999316.079                                                  
  24791082.428   130278008.325                                                  
  24540872.381   128963144.268                                                  
  26842212.020   141056746.578                                                  
  24286949.545   127628731.013                                                  
 21  9  2  7 50 13.0000000  0 18G 1G 7G 8G 9G14G17G21G30C24C25C26C34
                                E 2E 3E 8E25E30E36
  21541381.921   113200681.331    21541385.084    88208311.044                  
  20087467.903   105560371.470    20087467.206    82254838.417                  
  22179209.852   116552494.933    22179212.157    90820116.206                  
  24074802.786   126513903.399    24074805.162    98582252.504                  
  22846518.419   120059276.426    22846518.579    93552687.957                  
  22877788.476   120223592.781    22877788.458    93680721.789                  
  21407988.718   112499743.590    21407987.717    87662139.323                  
  21266072.651   111753931.348    21266074.528    87080976.816                  
                 115219209.977                   115219209.977    22126632.343  
                 122078417.477                   122078417.477    23443873.191  
                 127127652.517                   127127652.517    24413528.932  
                 115832421.536                   115832421.536    22244398.317  
  24183286.375   127084006.515                                                  
  27212353.106   143001858.285                                                  
  24791332.327   130279321.493                                                  
  24540998.823   128963808.727                                                  
  26841850.565   141054847.148                                                  
  24286614.072   127626968.111                                                  
 21  9  2  7 50 14.0000000  0 18G 1G 7G 8G 9G14G17G21G30C24C25C26C34
                                E 2E 3E 8E25E30E36
  21540884.072   113198065.173    21540887.235    88206272.473                  
  20087460.683   105560333.483    20087459.987    82254808.824                  
  22179752.195   116555344.923    22179754.500    90822336.979                  
  24075402.149   126517053.147    24075404.543    98584706.856                  
  22846124.460   120057206.160    22846124.621    93551074.757                  
  22877285.195   120220948.054    22877285.177    93678660.965                  
  21407967.721   112499633.175    21407966.703    87662053.288                  
  21265680.676   111751871.433    21265682.517    87079371.687                  
                 115219685.677                   115219685.677    22126723.707  
                 122076226.523                   122076226.523    23443452.447  
                 127130043.557                   127130043.557    24413988.095  
                 115830806.289                   115830806.289    22244088.129  
  24183091.442   127082982.105                                                  
  27212836.856   143004400.477                                                  
  24791582.261   130280634.999                                                  
  24541125.300   128964473.292                                                  
  26841489.093   141052947.647                                                  
  24286278.688   127625205.605                                                  
 21  9  2  7 50 15.0000000  0 18G 1G 7G 8G 9G14G17G21G30C24C25C26C34
                                E 2E 3E 8E25E30E36
  21540386.313   113195449.397    21540389.476    88204234.176                  
  20087453.554   105560296.101    20087452.857    82254779.691                  
  22180294.555   116558195.085    22180296.860    90824557.883                  
  24076001.511   126520202.844    24076003.924    98587161.144                  
  22845730.520   120055135.995    22845730.681    93549461.659                  
  22876781.986   120218303.673    22876781.986    93676600.413                  
  21407946.815   112499523.371    21407945.814    87661967.711                  
  21265288.773   111749811.958    21265290.613    87077766.910                  
                 115220161.723                   115220161.723    22126815.125  
                 122074035.724                   122074035.724    23443031.721  
                 127132434.836                   127132434.836    24414447.329  
                 115829191.496                   115829191.496    22243778.012  
  24182896.526   127081957.630                                                  
  27213320.624   143006942.763                                                  
  24791832.284   130281948.887                                                  
  24541251.777   128965137.836                                                  
  26841127.620   141051048.105                                                  
  24285943.358   127623443.442                                                  
 21  9  2  7 50 16.0000000  0 18G 1G 7G 8G 9G14G17G21G30C24C25C26C34
                                E 2E 3E 8E25E30E36
  21539888.660   113192834.164    21539891.823    88202196.327                  
  20087446.567   105560259.312    20087445.852    82254751.028                  
  22180836.952   116561045.417    22180839.257    90826778.921                  
  24076600.892   126523352.581    24076603.304    98589615.489                  
  22845336.579   120053065.859    22845336.740    93547848.571                  
  22876278.848   120215659.597    22876278.812    93674540.099                  
  21407926.069   112499414.210    21407925.032    87661882.652                  
  21264896.941   111747752.890    21264898.799    87076162.442                  
                 115220638.126                   115220638.126    22126906.596  
                 122071845.070                   122071845.070    23442611.049  
                 127134826.336                   127134826.336    24414906.580  
                 115827577.165                   115827577.165    22243468.002  
  24182701.593   127080933.317                                                  
  27213804.374   143009484.928                                                  
  24792082.361   130283263.074                                                  
  24541378.271   128965802.638                                                  
  26840766.148   141049148.496                                                  
  24285608.117   127621681.737                                                  
 21  9  2  7 50 17.0000000  0 18G 1G 7G 8G 9G14G17G21G30C24C25C26C34
                                E 2E 3E 8E25E30E36
  21539391.097   113190219.394    21539394.242    88200158.847                  
  20087439.687   105560223.122    20087438.973    82254722.823                  
  22181379.402   116563895.926    22181381.707    90829000.094                  
  24077200.273   126526502.312    24077202.685    98592069.820                  
  22844942.657   120050995.785    22844942.818    93546235.524                  
  22875775.763   120213015.858    22875775.745    93672480.038                  
  21407905.394   112499305.688    21407904.394    87661798.085                  
  21264505.198   111745694.237    21264507.039    87074558.297                  
                 115221114.881                   115221114.881    22126998.157  
                 122069654.570                   122069654.570    23442190.376  
                 127137218.071                   127137218.071    24415365.903  
                 115825963.288                   115825963.288    22243158.082  
  24182506.678   127079909.062                                                  
  27214288.142   143012027.103                                                  
  24792332.492   130284577.586                                                  
  24541504.802   128966467.551                                                  
  26840404.640   141047248.831                                                  
  24285272.966   127619920.417                                                  
 21  9  2  7 50 18.0000000  0 18G 1G 7G 8G 9G14G17G21G30C24C25C26C34
                                E 2E 3E 8E25E30E36
  21538893.606   113187605.091    21538896.769    88198121.723                  
  20087432.897   105560187.524    20087432.200    82254695.082                  
  22181921.887   116566746.634    22181924.174    90831221.423                  
  24077799.635   126529652.055    24077802.048    98594524.161                  
  22844548.752   120048925.790    22844548.913    93544622.536                  
  22875272.714   120210372.445    22875272.714    93670420.234                  
  21407884.881   112499197.785    21407883.862    87661714.003                  
  21264113.545   111743636.021    21264115.386    87072954.485                  
                 115221591.989                   115221591.989    22127089.772  
                 122067464.218                   122067464.218    23441769.739  
                 127139610.030                   127139610.030    24415825.245  
                 115824349.870                   115824349.870    22242848.233  
  24182311.780   127078884.849                                                  
  27214771.893   143014569.280                                                  
  24792582.712   130285892.442                                                  
  24541631.368   128967132.583                                                  
  26840043.131   141045349.134                                                  
  24284937.868   127618159.513                                                  
 21  9  2  7 50 19.0000000  0 18G 1G 7G 8G 9G14G17G21G30C24C25C26C34
                                E 2E 3E 8E25E30E36
  21538396.204   113184991.255    21538399.367    88196084.965                  
  20087426.232   105560152.528    20087425.535    82254667.808                  
  22182464.373   116569597.515    22182466.678    90833442.887                  
  24078399.016   126532801.780    24078401.428    98596978.493                  
  22844154.865   120046855.850    22844155.026    93543009.598                  
  22874769.755   120207729.364    22874769.755    93668360.692                  
  21407864.456   112499090.511    21407863.438    87661630.415                  
  21263721.946   111741578.224    21263723.804    87071351.007                  
                 115222069.450                   115222069.450    22127181.476  
                 122065274.021                   122065274.021    23441349.138  
                 127142002.219                   127142002.219    24416284.639  
                 115822736.911                   115822736.911    22242538.473  
  24182116.883   127077860.679                                                  
  27215255.661   143017111.437                                                  
  24792832.985   130287207.624                                                  
  24541757.934   128967797.722                                                  
  26839681.623   141043449.354                                                  
  24284602.841   127616398.993                                                  
