     2.11           OBSERVATION DATA    M (MIXED)           RINEX VERSION / TYPE
CONVBIN 2.4.3                           20210831 165147 UTC PGM / RUN BY / DATE 
log: logs/21_08_31_06_17_38_momf_SW.rtcm                    COMMENT             
format: RTCM 3, station ID: 1184                            COMMENT             
1184                                                        MARKER NAME         
                                                            MARKER NUMBER       
                                                            OBSERVER / AGENCY   
                    SWFT                                    REC # / TYPE / VERS 
                    NULL                                    ANT # / TYPE        
  -264395.9025 -5129855.8395  3768288.3508                  APPROX POSITION XYZ 
        0.0000        0.0000        0.0000                  ANTENNA: DELTA H/E/N
     1     1                                                WAVELENGTH FACT L1/2
     5    C1    L1    P2    L2    C2                        # / TYPES OF OBSERV 
  2021     8    31     6    17   43.0000000     GPS         TIME OF FIRST OBS   
  2021     8    31     6    47   41.0000000     GPS         TIME OF LAST OBS    
                                                            END OF HEADER       
 21  8 31  6 17 43.0000000  0 21G 4G 7G 8G 9G14G16G27C20C23C25C28C32
                                C34E 1E 4E 9E13E19E21E26E31
  22370788.454   117559278.314    22370790.009    91604631.663                  
  21177705.919   111289609.302    21177705.258    86719179.265                  
  20500209.061   107729283.769    20500211.491    83944886.192                  
  20945811.335   110070949.575    20945813.336    85769563.056                  
  24633359.353   129449167.849    24633360.765   100869481.198                  
  23988641.913   126061169.821    23988641.163    98229484.587                  
  21618383.687   113605344.782    21618385.420    88523639.184                  
                 131200756.578                   131200756.578    25195719.485  
                 115920253.351                   115920253.351    22261256.132  
                 128545221.069                   128545221.069    24685755.885  
                 127641050.866                   127641050.866    24512123.178  
                 128712383.050                   128712383.050    24717866.055  
                 130694477.250                   130694477.250    25098499.366  
  23987080.768   126052932.610                                                  
  24428019.316   128370122.238                                                  
  24599804.848   129272842.031                                                  
  26971823.602   141737845.778                                                  
  26310779.718   138264056.985                                                  
  26134616.454   137338310.878                                                  
  26282303.393   138114399.294                                                  
  25677092.076   134934005.628                                                  
 21  8 31  6 17 44.0000000  0 21G 4G 7G 8G 9G14G16G27C20C23C25C28C32
                                C34E 1E 4E 9E13E19E21E26E31
  22371411.082   117562550.159    22371412.601    91607181.156                  
  21177362.548   111287804.845    21177361.905    86717773.194                  
  20500194.819   107729209.005    20500197.285    83944827.930                  
  20946102.260   110072478.403    20946104.262    85770754.352                  
  24632823.675   129446352.782    24632825.087   100867287.640                  
  23989256.036   126064397.101    23989255.285    98231999.348                  
  21618761.884   113607332.210    21618763.618    88525187.827                  
                 131200687.356                   131200687.356    25195706.172  
                 115920468.950                   115920468.950    22261297.535  
                 128547184.219                   128547184.219    24686132.886  
                 127637909.816                   127637909.816    24511519.974  
                 128714700.515                   128714700.515    24718311.118  
                 130696233.835                   130696233.835    25098836.680  
  23987157.605   126053336.396                                                  
  24428204.439   128371095.008                                                  
  24599484.385   129271157.980                                                  
  26971764.277   141737534.043                                                  
  26311355.422   138267082.360                                                  
  26134969.242   137340164.786                                                  
  26281858.955   138112063.734                                                  
  25676812.568   134932536.684                                                  
 21  8 31  6 17 45.0000000  0 21G 4G 7G 8G 9G14G16G27C20C23C25C28C32
                                C34E 1E 4E 9E13E19E21E26E31
  22372033.746   117565822.310    22372035.283    91609730.883                  
  21177019.195   111286000.590    21177018.551    86716367.282                  
  20500180.721   107729134.930    20500183.187    83944770.210                  
  20946393.293   110074007.837    20946395.294    85771946.117                  
  24632287.998   129443537.854    24632289.392   100865094.192                  
  23989870.176   126067624.378    23989869.426    98234514.110                  
  21619140.207   113609320.226    21619141.923    88526736.932                  
                 131200618.665                   131200618.665    25195693.003  
                 115920684.727                   115920684.727    22261338.973  
                 128549147.477                   128549147.477    24686509.904  
                 127634768.902                   127634768.902    24510916.805  
                 128717018.247                   128717018.247    24718756.200  
                 130697990.885                   130697990.885    25099174.118  
  23987234.459   126053740.305                                                  
  24428389.634   128372068.218                                                  
  24599163.993   129269474.305                                                  
  26971705.041   141737222.774                                                  
  26311931.162   138270107.824                                                  
  26135322.013   137342018.691                                                  
  26281414.552   138109728.368                                                  
  25676533.061   134931067.875                                                  
 21  8 31  6 17 46.0000000  0 21G 4G 7G 8G 9G14G16G27C20C23C25C28C32
                                C34E 1E 4E 9E13E19E21E26E31
  22372656.482   117569094.780    22372658.000    91612280.860                  
  21176675.895   111284196.524    21176675.252    86714961.516                  
  20500166.765   107729061.563    20500169.213    83944713.039                  
  20946684.469   110075537.879    20946686.452    85773138.355                  
  24631752.374   129440723.081    24631753.785   100862900.862                  
  23990484.316   126070851.661    23990483.548    98237028.871                  
  21619518.620   113611308.849    21619520.335    88528286.509                  
                 131200550.495                   131200550.495    25195679.905  
                 115920900.688                   115920900.688    22261380.465  
                 128551110.839                   128551110.839    24686886.940  
                 127631628.116                   127631628.116    24510313.636  
                 128719336.247                   128719336.247    24719201.353  
                 130699748.404                   130699748.404    25099511.629  
  23987311.368   126054144.343                                                  
  24428574.918   128373041.879                                                  
  24598843.655   129267791.000                                                  
  26971645.895   141736911.963                                                  
  26312506.902   138273133.390                                                  
  26135674.819   137343872.602                                                  
  26280970.185   138107393.193                                                  
  25676253.554   134929599.184                                                  
 21  8 31  6 17 47.0000000  0 22G 4G 7G 8G 9G14G16G27G30C20C23C25C28
                                C32C34E 1E 4E 9E13E19E21E26E31
  22373279.289   117572367.570    22373280.807    91614831.082                  
  21176332.649   111282392.651    21176331.988    86713555.903                  
  20500152.934   107728988.892    20500155.400    83944656.414                  
  20946975.734   110077068.522    20946977.735    85774331.067                  
  24631216.786   129437908.458    24631218.179   100860707.649                  
  23991098.439   126074078.929    23991097.689    98239543.630                  
  21619897.139   113613298.067    21619898.873    88529836.547                  
  23509642.918   123543967.774    23509645.080    96268017.078                  
                 131200482.855                   131200482.855    25195666.914  
                 115921116.825                   115921116.825    22261421.957  
                 128553074.312                   128553074.312    24687264.013  
                 127628487.464                   127628487.464    24509710.503  
                 128721654.512                   128721654.512    24719646.560  
                 130701506.375                   130701506.375    25099849.228  
  23987388.258   126054548.508                                                  
  24428760.273   128374015.981                                                  
  24598523.425   129266108.071                                                  
  26971586.837   141736601.622                                                  
  26313082.660   138276159.050                                                  
  26136027.607   137345726.516                                                  
  26280525.854   138105058.199                                                  
  25675974.100   134928130.621                                                  
 21  8 31  6 17 48.0000000  0 22G 4G 7G 8G 9G14G16G27G30C20C23C25C28
                                C32C34E 1E 4E 9E13E19E21E26E31
  22373902.113   117575640.684    22373903.668    91617381.562                  
  21175989.403   111280588.969    21175988.760    86712150.434                  
  20500139.247   107728916.875    20500141.677    83944600.296                  
  20947267.124   110078599.776    20947269.125    85775524.249                  
  24630681.197   129435093.985    24630682.591   100858514.551                  
  23991712.562   126077306.177    23991711.793    98242058.364                  
  21620275.802   113615287.879    21620277.535    88531387.052                  
  23509104.613   123541138.981    23509106.776    96265812.823                  
                 131200415.743                   131200415.743    25195654.012  
                 115921333.140                   115921333.140    22261463.502  
                 128555037.890                   128555037.890    24687641.103  
                 127625346.948                   127625346.948    24509107.406  
                 128723973.044                   128723973.044    24720091.802  
                 130703264.810                   130703264.810    25100186.917  
  23987465.202   126054952.802                                                  
  24428945.736   128374990.532                                                  
  24598203.247   129264425.517                                                  
  26971527.888   141736291.735                                                  
  26313658.436   138279184.812                                                  
  26136380.395   137347580.433                                                  
  26280081.559   138102723.394                                                  
  25675694.682   134926662.182                                                  
 21  8 31  6 17 49.0000000  0 22G 4G 7G 8G 9G14G16G27G30C20C23C25C28
                                C32C34E 1E 4E 9E13E19E21E26E31
  22374525.045   117578914.099    22374526.564    91619932.273                  
  21175646.228   111278785.480    21175645.567    86710745.120                  
  20500125.666   107728845.585    20500128.114    83944544.751                  
  20947558.621   110080131.626    20947560.623    85776717.898                  
  24630145.645   129432279.661    24630147.039   100856321.573                  
  23992326.684   126080533.407    23992325.916    98244573.091                  
  21620654.554   113617278.289    21620656.305    88532938.020                  
  23508566.327   123538310.219    23508568.471    96263608.594                  
                 131200349.155                   131200349.155    25195641.236  
                 115921549.641                   115921549.641    22261505.083  
                 128557001.578                   128557001.578    24688018.193  
                 127622206.564                   127622206.564    24508504.326  
                 128726291.840                   128726291.840    24720537.098  
                 130705023.706                   130705023.706    25100524.677  
  23987542.164   126055357.215                                                  
  24429131.252   128375965.526                                                  
  24597883.124   129262743.332                                                  
  26971468.991   141735982.321                                                  
  26314234.265   138282210.669                                                  
  26136733.183   137349434.348                                                  
  26279637.281   138100388.773                                                  
  25675415.264   134925193.864                                                  
 21  8 31  6 17 50.0000000  0 22G 4G 7G 8G 9G14G16G27G30C20C23C25C28
                                C32C34E 1E 4E 9E13E19E21E26E31
  22375147.995   117582187.837    22375149.532    91622483.235                  
  21175303.054   111276982.194    21175302.393    86709339.960                  
  20500112.247   107728775.020    20500114.695    83944489.763                  
  20947850.244   110081664.095    20947852.245    85777912.032                  
  24629610.128   129429465.484    24629611.522   100854128.710                  
  23992940.825   126083760.640    23992940.038    98247087.813                  
  21621033.448   113619269.300    21621035.164    88534489.458                  
  23508028.023   123535481.499    23508030.203    96261404.394                  
                 131200283.097                   131200283.097    25195628.567  
                 115921766.317                   115921766.317    22261546.700  
                 128558965.376                   128558965.376    24688395.318  
                 127619066.313                   127619066.313    24507901.282  
                 128728610.902                   128728610.902    24720982.466  
                 130706783.068                   130706783.068    25100862.562  
  23987619.144   126055761.764                                                  
  24429316.893   128376940.969                                                  
  24597563.108   129261061.532                                                  
  26971410.202   141735673.359                                                  
  26314810.076   138285236.622                                                  
  26137085.971   137351288.273                                                  
  26279193.057   138098054.355                                                  
  25675135.882   134923725.683                                                  
 21  8 31  6 17 51.0000000  0 22G 4G 7G 8G 9G14G16G27G30C20C23C25C28
                                C32C34E 1E 4E 9E13E19E21E26E31
  22375771.034   117585461.883    22375772.553    91625034.440                  
  21174959.933   111275179.105    21174959.307    86707934.957                  
  20500098.934   107728705.125    20500101.400    83944435.301                  
  20948141.973   110083197.156    20948143.975    85779106.625                  
  24629074.647   129426651.453    24629076.041   100851935.962                  
  23993554.947   126086987.867    23993554.179    98249602.536                  
  21621412.415   113621260.901    21621414.166    88536041.355                  
  23507489.736   123532652.799    23507491.916    96259200.214                  
                 131200217.567                   131200217.567    25195615.987  
                 115921983.172                   115921983.172    22261588.335  
                 128560929.262                   128560929.262    24688772.480  
                 127615926.216                   127615926.216    24507298.238  
                 128730930.251                   128730930.251    24721427.851  
                 130708542.909                   130708542.909    25101200.519  
  23987696.141   126056166.442                                                  
  24429502.606   128377916.864                                                  
  24597243.127   129259380.105                                                  
  26971351.502   141735364.866                                                  
  26315385.906   138288262.663                                                  
  26137438.759   137353142.211                                                  
  26278748.851   138095720.101                                                  
  25674856.518   134922257.625                                                  
 21  8 31  6 17 52.0000000  0 22G 4G 7G 8G 9G14G16G27G30C20C23C25C28
                                C32C34E 1E 4E 9E13E19E21E26E31
  22376394.127   117588736.238    22376395.664    91627585.888                  
  21174616.865   111273376.215    21174616.222    86706530.110                  
  20500085.765   107728635.922    20500088.213    83944381.374                  
  20948433.828   110084730.819    20948435.812    85780301.687                  
  24628539.166   129423837.570    24628540.560   100849743.325                  
  23994169.052   126090215.085    23994168.301    98252117.249                  
  21621791.542   113623253.104    21621793.257    88537593.723                  
  23506951.486   123529824.141    23506953.648    96256996.067                  
                 131200152.561                   131200152.561    25195603.479  
                 115922200.211                   115922200.211    22261630.024  
                 128562893.278                   128562893.278    24689149.641  
                 127612786.230                   127612786.230    24506695.248  
                 128733249.847                   128733249.847    24721873.326  
                 130710303.193                   130710303.193    25101538.565  
  23987773.175   126056571.235                                                  
  24429688.372   128378893.190                                                  
  24596923.236   129257699.042                                                  
  26971292.874   141735056.849                                                  
  26315961.753   138291288.813                                                  
  26137791.565   137354996.146                                                  
  26278304.717   138093386.049                                                  
  25674577.172   134920789.679                                                  
 21  8 31  6 17 53.0000000  0 22G 4G 7G 8G 9G14G16G27G30C20C23C25C28
                                C32C34E 1E 4E 9E13E19E21E26E31
  22377017.274   117592010.915    22377018.793    91630137.582                  
  21174273.816   111271573.513    21174273.173    86705125.405                  
  20500072.720   107728567.405    20500075.186    83944327.985                  
  20948725.772   110086265.093    20948727.774    85781497.223                  
  24628003.739   129421023.838    24628005.133   100847550.805                  
  23994783.157   126093442.289    23994782.406    98254631.953                  
  21622170.740   113625245.906    21622172.473    88539146.551                  
  23506413.199   123526995.503    23506415.361    96254791.934                  
                 131200088.087                   131200088.087    25195591.096  
                 115922417.425                   115922417.425    22261671.748  
                 128564857.399                   128564857.399    24689526.838  
                 127609646.380                   127609646.380    24506092.258  
                 128735569.711                   128735569.711    24722318.819  
                 130712063.933                   130712063.933    25101876.701  
  23987850.244   126056976.159                                                  
  24429874.264   128379869.962                                                  
  24596603.398   129256018.363                                                  
  26971234.353   141734749.266                                                  
  26316537.636   138294315.048                                                  
  26138144.353   137356850.095                                                  
  26277860.600   138091052.189                                                  
  25674297.861   134919321.874                                                  
 21  8 31  6 17 54.0000000  0 22G 4G 7G 8G 9G14G16G27G30C20C23C25C28
                                C32C34E 1E 4E 9E13E19E21E26E31
  22377640.492   117595285.906    22377642.028    91632689.518                  
  21173930.820   111269771.019    21173930.159    86703720.862                  
  20500059.819   107728499.581    20500062.285    83944275.137                  
  20949017.859   110087799.965    20949019.861    85782693.227                  
  24627468.311   129418210.266    24627469.723   100845358.411                  
  23995397.279   126096669.481    23995396.529    98257146.648                  
  21622550.082   113627239.297    21622551.797    88540699.843                  
  23505874.948   123524166.909    23505877.093    96252587.832                  
                 131200024.134                   131200024.134    25195578.820  
                 115922634.824                   115922634.824    22261713.472  
                 128566821.625                   128566821.625    24689904.036  
                 127606506.662                   127606506.662    24505489.321  
                 128737889.836                   128737889.836    24722764.383  
                 130713825.135                   130713825.135    25102214.926  
  23987927.295   126057381.210                                                  
  24430060.226   128380847.186                                                  
  24596283.668   129254338.060                                                  
  26971175.921   141734442.176                                                  
  26317113.536   138297341.380                                                  
  26138497.142   137358704.032                                                  
  26277416.501   138088718.507                                                  
  25674018.568   134917854.195                                                  
 21  8 31  6 17 55.0000000  0 22G 4G 7G 8G 9G14G16G27G30C20C23C25C28
                                C32C34E 1E 4E 9E13E19E21E26E31
  22378263.763   117598561.208    22378265.282    91635241.704                  
  21173587.842   111267968.722    21173587.199    86702316.477                  
  20500047.042   107728432.453    20500049.508    83944222.827                  
  20949310.054   110089335.438    20949312.055    85783889.700                  
  24626932.955   129415396.837    24626934.331   100843166.129                  
  23996011.402   126099896.661    23996010.633    98259661.336                  
  21622929.512   113629233.293    21622931.264    88542253.611                  
  23505336.680   123521338.335    23505338.842    96250383.751                  
                 131199960.712                   131199960.712    25195566.633  
                 115922852.401                   115922852.401    22261755.267  
                 128568785.965                   128568785.965    24690281.286  
                 127603367.074                   127603367.074    24504886.403  
                 128740210.229                   128740210.229    24723209.982  
                 130715586.800                   130715586.800    25102553.222  
  23988004.418   126057786.387                                                  
  24430246.261   128381824.857                                                  
  24595963.973   129252658.126                                                  
  26971117.561   141734135.526                                                  
  26317689.437   138300367.806                                                  
  26138849.948   137360557.985                                                  
  26276972.456   138086385.025                                                  
  25673739.293   134916386.636                                                  
 21  8 31  6 17 56.0000000  0 22G 4G 7G 8G 9G14G16G27G30C20C23C25C28
                                C32C34E 1E 4E 9E13E19E21E26E31
  22378887.088   117601836.825    22378888.625    91637794.132                  
  21173244.917   111266166.621    21173244.274    86700912.243                  
  20500034.391   107728366.032    20500036.857    83944171.070                  
  20949602.355   110090871.519    20949604.356    85785086.644                  
  24626397.599   129412583.546    24626398.993   100840973.956                  
  23996625.507   126103123.841    23996624.738    98262176.020                  
  21623309.086   113631227.887    21623310.820    88543807.835                  
  23504798.411   123518509.806    23504800.591    96248179.700                  
                 131199897.811                   131199897.811    25195554.553  
                 115923070.161                   115923070.161    22261797.081  
                 128570750.411                   128570750.411    24690658.519  
                 127600227.625                   127600227.625    24504283.502  
                 128742530.890                   128742530.890    24723655.636  
                 130717348.927                   130717348.927    25102891.626  
  23988081.540   126058191.687                                                  
  24430432.403   128382802.964                                                  
  24595644.368   129250978.574                                                  
  26971059.308   141733829.361                                                  
  26318265.374   138303394.329                                                  
  26139202.736   137362411.934                                                  
  26276528.446   138084051.707                                                  
  25673460.054   134914919.203                                                  
 21  8 31  6 17 57.0000000  0 22G 4G 7G 8G 9G14G16G27G30C20C23C25C28
                                C32C34E 1E 4E 9E13E19E21E26E31
  22379510.485   117605112.746    22379512.004    91640346.796                  
  21172902.029   111264364.714    21172901.386    86699508.160                  
  20500021.901   107728300.306    20500024.367    83944119.855                  
  20949894.782   110092408.208    20949896.783    85786284.066                  
  24625862.279   129409770.414    24625863.673   100838781.903                  
  23997239.611   126106350.995    23997238.861    98264690.683                  
  21623688.767   113633223.066    21623690.483    88545362.520                  
  23504260.178   123515681.294    23504262.341    96245975.665                  
                 131199835.442                   131199835.442    25195542.581  
                 115923288.099                   115923288.099    22261838.948  
                 128572714.966                   128572714.966    24691035.806  
                 127597088.308                   127597088.308    24503680.619  
                 128744851.815                   128744851.815    24724101.361  
                 130719111.516                   130719111.516    25103230.101  
  23988158.681   126058597.122                                                  
  24430618.598   128383781.523                                                  
  24595324.816   129249299.380                                                  
  26971001.127   141733523.632                                                  
  26318841.328   138306420.957                                                  
  26139555.524   137364265.883                                                  
  26276084.455   138081718.586                                                  
  25673180.832   134913451.894                                                  
 21  8 31  6 17 58.0000000  0 22G 4G 7G 8G 9G14G16G27G30C20C23C25C28
                                C32C34E 1E 4E 9E13E19E21E26E31
  22380133.917   117608388.987    22380135.454    91642899.711                  
  21172559.176   111262563.004    21172558.515    86698104.230                  
  20500009.518   107728235.273    20500011.983    83944069.185                  
  20950187.315   110093945.501    20950189.317    85787481.956                  
  24625326.977   129406957.434    24625328.389   100836589.973                  
  23997853.716   126109578.157    23997852.965    98267205.351                  
  21624068.538   113635218.840    21624070.253    88546917.671                  
  23503721.946   123512852.823    23503724.108    96243771.664                  
                 131199773.597                   131199773.597    25195530.716  
                 115923506.214                   115923506.214    22261880.815  
                 128574679.628                   128574679.628    24691413.075  
                 127593949.130                   127593949.130    24503077.772  
                 128747173.008                   128747173.008    24724547.121  
                 130720874.562                   130720874.562    25103568.683  
  23988235.857   126059002.675                                                  
  24430804.900   128384760.520                                                  
  24595005.354   129247620.567                                                  
  26970943.034   141733218.376                                                  
  26319417.282   138309447.667                                                  
  26139908.312   137366119.850                                                  
  26275640.517   138079385.661                                                  
  25672901.647   134911984.711                                                  
 21  8 31  6 17 59.0000000  0 22G 4G 7G 8G 9G14G16G27G30C20C23C25C28
                                C32C34E 1E 4E 9E13E19E21E26E31
  22380757.439   117611665.539    22380758.958    91645452.871                  
  21172216.359   111260761.499    21172215.715    86696700.462                  
  20499997.277   107728170.941    20499999.743    83944019.054                  
  20950479.956   110095483.389    20950481.976    85788680.314                  
  24624791.728   129404144.595    24624793.122   100834398.145                  
  23998467.839   126112805.305    23998467.088    98269720.016                  
  21624448.433   113637215.219    21624450.166    88548473.288                  
  23503183.695   123510024.390    23503185.875    96241567.688                  
                 131199712.281                   131199712.281    25195518.941  
                 115923724.512                   115923724.512    22261922.736  
                 128576644.398                   128576644.398    24691790.397  
                 127590810.077                   127590810.077    24502474.960  
                 128749494.465                   128749494.465    24724992.918  
                 130722638.071                   130722638.071    25103907.337  
  23988313.052   126059408.356                                                  
  24430991.274   128385739.960                                                  
  24594685.963   129245942.142                                                  
  26970885.032   141732913.593                                                  
  26319993.255   138312474.483                                                  
  26140261.118   137367973.811                                                  
  26275196.615   138077052.909                                                  
  25672622.479   134910517.657                                                  
 21  8 31  6 18  0.0000000  0 22G 4G 7G 8G 9G14G16G27G30C20C23C25C28
                                C32C34E 1E 4E 9E13E19E21E26E31
  22381380.996   117614942.412    22381382.533    91648006.274                  
  21171873.577   111258960.182    21171872.934    86695296.836                  
  20499985.180   107728107.304    20499987.646    83943969.465                  
  20950772.740   110097021.891    20950774.742    85789879.144                  
  24624256.480   129401331.911    24624257.873   100832206.446                  
  23999081.943   126116032.439    23999081.175    98272234.665                  
  21624828.436   113639212.178    21624830.187    88550029.363                  
  23502645.480   123507195.981    23502647.642    96239363.735                  
                 131199651.491                   131199651.491    25195507.254  
                 115923942.987                   115923942.987    22261964.692  
                 128578609.278                   128578609.278    24692167.737  
                 127587671.164                   127587671.164    24501872.167  
                 128751816.184                   128751816.184    24725438.804  
                 130724402.044                   130724402.044    25104246.098  
  23988390.281   126059814.164                                                  
  24431177.755   128386719.854                                                  
  24594366.643   129244264.075                                                  
  26970827.118   141732609.273                                                  
  26320569.262   138315501.381                                                  
  26140613.924   137369827.778                                                  
  26274752.748   138074720.349                                                  
  25672343.311   134909050.729                                                  
 21  8 31  6 18  1.0000000  0 22G 4G 7G 8G 9G14G16G27G30C20C23C25C28
                                C32C34E 1E 4E 9E13E19E21E26E31
  22382004.625   117618219.589    22382006.162    91650559.923                  
  21171530.831   111257159.068    21171530.206    86693893.370                  
  20499973.208   107728044.366    20499975.656    83943920.426                  
  20951065.614   110098560.995    20951067.615    85791078.445                  
  24623721.284   129398519.369    24623722.678   100830014.855                  
  23999696.048   126119259.575    23999695.280    98274749.312                  
  21625208.563   113641209.751    21625210.297    88551585.913                  
  23502107.265   123504367.604    23502109.427    96237159.805                  
                 131199591.230                   131199591.230    25195495.693  
                 115924161.646                   115924161.646    22262006.703  
                 128580574.266                   128580574.266    24692545.095  
                 127584532.387                   127584532.387    24501269.373  
                 128754138.171                   128754138.171    24725884.707  
                 130726166.474                   130726166.474    25104584.948  
  23988467.547   126060220.092                                                  
  24431364.308   128387700.192                                                  
  24594047.377   129242586.395                                                  
  26970769.294   141732305.413                                                  
  26321145.288   138318528.385                                                  
  26140966.712   137371681.742                                                  
  26274308.917   138072387.982                                                  
  25672064.197   134907583.922                                                  
 21  8 31  6 18  2.0000000  0 22G 4G 7G 8G 9G14G16G27G30C20C23C25C28
                                C32C34E 1E 4E 9E13E19E21E26E31
  22382628.326   117621497.086    22382629.844    91653113.812                  
  21171188.139   111255358.153    21171187.478    86692490.062                  
  20499961.361   107727982.135    20499963.826    83943871.933                  
  20951358.612   110100100.700    20951360.613    85792278.216                  
  24623186.107   129395706.987    24623187.501   100827823.391                  
  24000310.135   126122486.696    24000309.384    98277263.952                  
  21625588.798   113643207.902    21625590.532    88553142.914                  
  23501569.032   123501539.265    23501571.194    96234955.902                  
                 131199531.496                   131199531.496    25195484.221  
                 115924380.485                   115924380.485    22262048.713  
                 128582539.364                   128582539.364    24692922.453  
                 127581393.738                   127581393.738    24500666.633  
                 128756460.422                   128756460.422    24726330.664  
                 130727931.363                   130727931.363    25104923.852  
  23988544.795   126060626.161                                                  
  24431550.932   128388680.972                                                  
  24593728.219   129240909.093                                                  
  26970711.559   141732002.021                                                  
  26321721.314   138321555.492                                                  
  26141319.518   137373535.712                                                  
  26273865.104   138070055.793                                                  
  25671785.101   134906117.237                                                  
 21  8 31  6 18  3.0000000  0 22G 4G 7G 8G 9G14G16G27G30C20C23C25C28
                                C32C34E 1E 4E 9E13E19E21E26E31
  22383252.062   117624774.891    22383253.598    91655667.946                  
  21170845.483   111253557.429    21170844.822    86691086.898                  
  20499949.638   107727920.597    20499952.104    83943823.981                  
  20951651.718   110101641.007    20951653.719    85793478.452                  
  24622650.948   129392894.738    24622652.342   100825632.028                  
  24000924.240   126125713.809    24000923.471    98279778.586                  
  21625969.158   113645206.655    21625970.874    88554700.386                  
  23501030.817   123498710.956    23501032.997    96232752.027                  
                 131199472.285                   131199472.285    25195472.838  
                 115924599.501                   115924599.501    22262090.776  
                 128584504.567                   128584504.567    24693299.865  
                 127578255.226                   127578255.226    24500063.929  
                 128758782.940                   128758782.940    24726776.675  
                 130729696.715                   130729696.715    25105262.881  
  23988622.096   126061032.339                                                  
  24431737.663   128389662.199                                                  
  24593409.096   129239232.153                                                  
  26970653.914   141731699.074                                                  
  26322297.376   138324582.675                                                  
  26141672.324   137375389.691                                                  
  26273421.345   138067723.796                                                  
  25671506.023   134904650.688                                                  
 21  8 31  6 18  4.0000000  0 22G 4G 7G 8G 9G14G16G27G30C20C23C25C28
                                C32C34E 1E 4E 9E13E19E21E26E31
  22383875.851   117628053.008    22383877.406    91658222.320                  
  21170502.844   111251756.898    21170502.201    86689683.892                  
  20499938.059   107727859.757    20499940.525    83943776.575                  
  20951944.966   110103181.909    20951946.967    85794679.155                  
  24622115.824   129390082.653    24622117.218   100823440.793                  
  24001538.344   126128940.907    24001537.576    98282293.207                  
  21626349.626   113647206.009    21626351.341    88556258.320                  
  23500492.620   123495882.685    23500494.800    96230548.179                  
                 131199413.600                   131199413.600    25195461.581  
                 115924818.700                   115924818.700    22262132.876  
                 128586469.880                   128586469.880    24693677.276  
                 127575116.851                   127575116.851    24499461.242  
                 128761105.723                   128761105.723    24727222.757  
                 130731462.532                   130731462.532    25105601.981  
  23988699.416   126061438.657                                                  
  24431924.466   128390643.875                                                  
  24593090.062   129237555.594                                                  
  26970596.357   141731396.603                                                  
  26322873.455   138327609.937                                                  
  26142025.112   137377243.669                                                  
  26272977.621   138065391.984                                                  
  25671226.980   134903184.262                                                  
 21  8 31  6 18  5.0000000  0 22G 4G 7G 8G 9G14G16G27G30C20C23C25C28
                                C32C34E 1E 4E 9E13E19E21E26E31
  22384499.748   117631331.438    22384501.267    91660776.941                  
  21170160.242   111249956.567    21170159.598    86688281.032                  
  20499926.623   107727799.607    20499929.071    83943729.700                  
  20952238.304   110104723.425    20952240.305    85795880.341                  
  24621580.718   129387270.712    24621582.112   100821249.668                  
  24002152.431   126132168.005    24002151.681    98284807.825                  
  21626730.200   113649205.950    21626731.915    88557816.715                  
  23499954.423   123493054.434    23499956.603    96228344.348                  
                 131199355.448                   131199355.448    25195450.413  
                 115925038.074                   115925038.074    22262174.993  
                 128588435.301                   128588435.301    24694054.724  
                 127571978.610                   127571978.610    24498858.556  
                 128763428.768                   128763428.768    24727668.858  
                 130733228.806                   130733228.806    25105941.189  
  23988776.753   126061845.087                                                  
  24432111.358   128391625.976                                                  
  24592771.100   129235879.411                                                  
  26970538.909   141731094.587                                                  
  26323449.535   138330637.331                                                  
  26142377.918   137379097.648                                                  
  26272533.916   138063060.379                                                  
  25670947.937   134901717.950                                                  
 21  8 31  6 18  6.0000000  0 22G 4G 7G 8G 9G14G16G27G30C20C23C25C28
                                C32C34E 1E 4E 9E13E19E21E26E31
  22385123.663   117634610.194    22385125.182    91663331.816                  
  21169817.692   111248156.432    21169817.031    86686878.332                  
  20499915.294   107727740.155    20499917.760    83943683.379                  
  20952531.731   110106265.542    20952533.768    85797081.988                  
  24621045.666   129384458.909    24621047.060   100819058.657                  
  24002766.518   126135395.088    24002765.785    98287322.437                  
  21627110.882   113651206.496    21627112.615    88559375.582                  
  23499416.244   123490226.218    23499418.406    96226140.543                  
                 131199297.822                   131199297.822    25195439.334  
                 115925257.631                   115925257.631    22262217.164  
                 128590400.827                   128590400.827    24694432.171  
                 127568840.499                   127568840.499    24498255.923  
                 128765752.081                   128765752.081    24728115.047  
                 130734995.539                   130734995.539    25106280.468  
  23988854.126   126062251.643                                                  
  24432298.339   128392608.532                                                  
  24592452.192   129234203.615                                                  
  26970481.513   141730793.057                                                  
  26324025.668   138333664.807                                                  
  26142730.724   137380951.644                                                  
  26272090.264   138060728.946                                                  
  25670668.948   134900251.753                                                  
 21  8 31  6 18  7.0000000  0 22G 4G 7G 8G 9G14G16G27G30C20C23C25C28
                                C32C34E 1E 4E 9E13E19E21E26E31
  22385747.632   117637889.270    22385749.186    91665886.938                  
  21169475.179   111246356.486    21169474.518    86685475.778                  
  20499904.126   107727681.395    20499906.574    83943637.585                  
  20952825.319   110107808.267    20952827.321    85798284.109                  
  24620510.614   129381647.259    24620512.026   100816867.758                  
  24003380.623   126138622.160    24003379.854    98289837.039                  
  21627491.688   113653207.634    21627493.422    88560934.911                  
  23498878.047   123487398.035    23498880.227    96223936.766                  
                 131199240.716                   131199240.716    25195428.380  
                 115925477.372                   115925477.372    22262259.353  
                 128592366.469                   128592366.469    24694809.654  
                 127565702.528                   127565702.528    24497653.308  
                 128768075.655                   128768075.655    24728561.254  
                 130736762.731                   130736762.731    25106619.836  
  23988931.498   126062658.320                                                  
  24432485.375   128393591.522                                                  
  24592133.373   129232528.212                                                  
  26970424.225   141730491.977                                                  
  26324601.783   138336692.386                                                  
  26143083.548   137382805.655                                                  
  26271646.647   138058397.699                                                  
  25670389.941   134898785.676                                                  
 21  8 31  6 18  8.0000000  0 22G 4G 7G 8G 9G14G16G27G30C20C23C25C28
                                C32C34E 1E 4E 9E13E19E21E26E31
  22386371.671   117641168.604    22386373.226    91668442.266                  
  21169132.701   111244556.747    21169132.040    86684073.383                  
  20499893.083   107727623.296    20499895.513    83943592.320                  
  20953118.997   110109351.587    20953120.998    85799486.694                  
  24619975.616   129378835.781    24619976.991   100814677.001                  
  24003994.727   126141849.220    24003993.959    98292351.626                  
  21627872.602   113655209.356    21627874.336    88562494.696                  
  23498339.885   123484569.914    23498342.047    96221733.035                  
                 131199184.139                   131199184.139    25195417.516  
                 115925697.289                   115925697.289    22262301.595  
                 128594332.215                   128594332.215    24695187.155  
                 127562564.690                   127562564.690    24497050.711  
                 128770399.497                   128770399.497    24729007.515  
                 130738530.386                   130738530.386    25106959.294  
  23989008.943   126063065.172                                                  
  24432672.535   128394575.003                                                  
  24591814.625   129230853.103                                                  
  26970367.009   141730191.349                                                  
  26325177.934   138339720.039                                                  
  26143436.318   137384659.625                                                  
  26271203.067   138056066.650                                                  
  25670111.006   134897319.808                                                  
 21  8 31  6 18  9.0000000  0 22G 4G 7G 8G 9G14G16G27G30C20C23C25C28
                                C32C34E 1E 4E 9E13E19E21E26E31
  22386995.783   117644448.296    22386997.320    91670997.868                  
  21168790.259   111242757.203    21168789.598    86682671.140                  
  20499882.165   107727565.937    20499884.613    83943547.622                  
  20953412.799   110110895.503    20953414.801    85800689.750                  
  24619440.617   129376024.433    24619442.029   100812486.340                  
  24004608.796   126145076.265    24004608.046    98294866.207                  
  21628253.641   113657211.692    21628255.357    88564054.958                  
  23497801.706   123481741.792    23497803.886    96219529.302                  
                 131199128.095                   131199128.095    25195406.759  
                 115925917.387                   115925917.387    22262343.855  
                 128596298.067                   128596298.067    24695564.674  
                 127559426.989                   127559426.989    24496448.168  
                 128772723.603                   128772723.603    24729453.848  
                 130740298.503                   130740298.503    25107298.842  
  23989086.351   126063472.119                                                  
  24432859.766   128395558.891                                                  
  24591495.949   129229178.422                                                  
  26970309.899   141729891.199                                                  
  26325754.102   138342747.797                                                  
  26143789.142   137386513.642                                                  
  26270759.522   138053735.785                                                  
  25669832.052   134895853.995                                                  
 21  8 31  6 18 10.0000000  0 22G 4G 7G 8G 9G14G16G27G30C20C23C25C28
                                C32C34E 1E 4E 9E13E19E21E26E31
  22387619.966   117647728.288    22387621.485    91673553.703                  
  21168447.853   111240957.890    21168447.192    86681269.078                  
  20499871.372   107727509.269    20499873.820    83943503.466                  
  20953706.727   110112440.032    20953708.728    85801893.277                  
  24618905.672   129373213.243    24618907.084   100810295.800                  
  24005222.883   126148303.302    24005222.115    98297380.781                  
  21628634.788   113659214.605    21628636.503    88565615.668                  
  23497263.545   123478913.711    23497265.707    96217325.605                  
                 131199072.571                   131199072.571    25195396.073  
                 115926137.663                   115926137.663    22262386.151  
                 128598264.031                   128598264.031    24695942.229  
                 127556289.422                   127556289.422    24495845.624  
                 128775047.974                   128775047.974    24729900.216  
                 130742067.079                   130742067.079    25107638.478  
  23989163.831   126063879.182                                                  
  24433047.087   128396543.231                                                  
  24591177.326   129227504.116                                                  
  26970252.861   141729591.506                                                  
  26326330.271   138345775.640                                                  
  26144141.948   137388367.644                                                  
  26270315.995   138051405.105                                                  
  25669553.153   134894388.332                                                  
 21  8 31  6 18 11.0000000  0 22G 4G 7G 8G 9G14G16G27G30C20C23C25C28
                                C32C34E 1E 4E 9E13E19E21E26E31
  22388244.184   117651008.590    22388245.703    91676109.785                  
  21168105.501   111239158.747    21168104.839    86679867.149                  
  20499860.722   107727453.298    20499863.188    83943459.847                  
  20954000.744   110113985.163    20954002.745    85803097.278                  
  24618370.763   129370402.194    24618372.139   100808105.370                  
  24005836.952   126151530.320    24005836.202    98299895.341                  
  21629016.041   113661218.121    21629017.757    88567176.850                  
  23496725.383   123476085.660    23496727.545    96215121.929                  
                 131199017.573                   131199017.573    25195385.513  
                 115926358.124                   115926358.124    22262428.501  
                 128600230.101                   128600230.101    24696319.801  
                 127553151.989                   127553151.989    24495243.099  
                 128777372.606                   128777372.606    24730346.638  
                 130743836.112                   130743836.112    25107978.204  
  23989241.312   126064286.384                                                  
  24433234.480   128397528.023                                                  
  24590858.775   129225830.181                                                  
  26970195.913   141729292.281                                                  
  26326906.476   138348803.609                                                  
  26144494.736   137390221.646                                                  
  26269872.521   138049074.625                                                  
  25669274.289   134892922.781                                                  
 21  8 31  6 18 12.0000000  0 22G 4G 7G 8G 9G14G16G27G30C20C23C25C28
                                C32C34E 1E 4E 9E13E19E21E26E31
  22388868.456   117654289.207    22388869.975    91678666.105                  
  21167763.166   111237359.804    21167762.523    86678465.375                  
  20499850.197   107727398.030    20499852.663    83943416.788                  
  20954294.886   110115530.895    20954296.887    85804301.738                  
  24617835.854   129367591.301    24617837.265   100805915.064                  
  24006451.039   126154757.333    24006450.289    98302409.894                  
  21629397.402   113663222.226    21629399.135    88568738.493                  
  23496187.222   123473257.653    23496189.402    96212918.285                  
                 131198963.105                   131198963.105    25195375.059  
                 115926578.763                   115926578.763    22262470.886  
                 128602196.281                   128602196.281    24696697.374  
                 127550014.693                   127550014.693    24494640.627  
                 128779697.503                   128779697.503    24730793.113  
                 130745605.611                   130745605.611    25108318.019  
  23989318.827   126064693.691                                                  
  24433421.962   128398513.241                                                  
  24590540.314   129224156.630                                                  
  26970139.053   141728993.519                                                  
  26327482.698   138351831.652                                                  
  26144847.560   137392075.660                                                  
  26269429.084   138046744.309                                                  
  25668995.425   134891457.343                                                  
 21  8 31  6 18 13.0000000  0 22G 4G 7G 8G 9G14G16G27G30C20C23C25C28
                                C32C34E 1E 4E 9E13E19E21E26E31
  22389492.800   117657570.128    22389494.319    91681222.672                  
  21167420.885   111235561.043    21167420.224    86677063.743                  
  20499839.815   107727343.461    20499842.281    83943374.265                  
  20954589.135   110117077.235    20954591.136    85805506.680                  
  24617300.980   129364780.551    24617302.374   100803724.871                  
  24007065.126   126157984.340    24007064.357    98304924.445                  
  21629778.888   113665226.932    21629780.621    88570300.602                  
  23495649.078   123470429.664    23495651.241    96210714.656                  
                 131198909.163                   131198909.163    25195364.695  
                 115926799.582                   115926799.582    22262513.271  
                 128604162.571                   128604162.571    24697074.982  
                 127546877.527                   127546877.527    24494038.155  
                 128782022.668                   128782022.668    24731239.642  
                 130747375.565                   130747375.565    25108657.924  
  23989396.361   126065101.139                                                  
  24433609.515   128399498.913                                                  
  24590221.923   129222483.442                                                  
  26970082.301   141728695.217                                                  
  26328058.920   138354859.774                                                  
  26145200.366   137393929.671                                                  
  26268985.682   138044414.208                                                  
  25668716.579   134889992.044                                                  
 21  8 31  6 18 14.0000000  0 22G 4G 7G 8G 9G14G16G27G30C20C23C25C28
                                C32C34E 1E 4E 9E13E19E21E26E31
  22390117.197   117660851.376    22390118.716    91683779.483                  
  21167078.621   111233762.488    21167077.960    86675662.269                  
  20499829.559   107727289.582    20499832.025    83943332.281                  
  20954883.527   110118624.177    20954885.528    85806712.089                  
  24616766.142   129361969.954    24616767.536   100801534.798                  
  24007679.195   126161211.333    24007678.444    98307438.984                  
  21630160.481   113667232.223    21630162.196    88571863.164                  
  23495110.935   123467601.718    23495113.097    96208511.067                  
                 131198855.750                   131198855.750    25195354.456  
                 115927020.581                   115927020.581    22262555.728  
                 128606128.963                   128606128.963    24697452.608  
                 127543740.501                   127543740.501    24493435.718  
                 128784348.094                   128784348.094    24731686.207  
                 130749145.985                   130749145.985    25108997.918  
  23989473.913   126065508.720                                                  
  24433797.175   128400485.032                                                  
  24589903.605   129220810.637                                                  
  26970025.621   141728397.383                                                  
  26328635.179   138357888.001                                                  
  26145553.172   137395783.690                                                  
  26268542.298   138042084.282                                                  
  25668437.768   134888526.871                                                  
 21  8 31  6 18 15.0000000  0 22G 4G 7G 8G 9G14G16G27G30C20C23C25C28
                                C32C34E 1E 4E 9E13E19E21E26E31
  22390741.666   117664132.923    22390743.185    91686336.535                  
  21166736.394   111231964.125    21166735.768    86674260.950                  
  20499819.445   107727236.395    20499821.893    83943290.836                  
  20955178.008   110120171.723    20955179.992    85807917.969                  
  24616231.340   129359159.509    24616232.734   100799344.839                  
  24008293.282   126164438.313    24008292.513    98309953.513                  
  21630542.181   113669238.124    21630543.914    88573426.203                  
  23494572.791   123464773.805    23494574.954    96206307.496                  
                 131198802.864                   131198802.864    25195344.307  
                 115927241.758                   115927241.758    22262598.203  
                 128608095.469                   128608095.469    24697830.252  
                 127540603.608                   127540603.608    24492833.318  
                 128786673.785                   128786673.785    24732132.843  
                 130750916.859                   130750916.859    25109338.001  
  23989551.500   126065916.411                                                  
  24433984.925   128401471.590                                                  
  24589585.339   129219138.206                                                  
  26969969.048   141728100.003                                                  
  26329211.455   138360916.328                                                  
  26145905.978   137397637.719                                                  
  26268098.967   138039754.550                                                  
  25668158.958   134887061.816                                                  
 21  8 31  6 18 16.0000000  0 22G 4G 7G 8G 9G14G16G27G30C20C23C25C28
                                C32C34E 1E 4E 9E13E19E21E26E31
  22391366.188   117667414.833    22391367.707    91688893.886                  
  21166394.220   111230165.942    21166393.577    86672859.761                  
  20499809.456   107727183.845    20499811.922    83943249.859                  
  20955472.597   110121719.841    20955474.616    85809124.286                  
  24615696.556   129356349.253    24615697.968   100797155.058                  
  24008907.369   126167665.282    24008906.600    98312468.031                  
  21630924.024   113671244.594    21630925.739    88574989.684                  
  23494034.684   123461945.930    23494036.846    96204103.957                  
                 131198750.500                   131198750.500    25195334.246  
                 115927463.118                   115927463.118    22262640.695  
                 128610062.082                   128610062.082    24698207.914  
                 127537466.856                   127537466.856    24492230.935  
                 128788999.738                   128788999.738    24732579.497  
                 130752688.198                   130752688.198    25109678.156  
  23989629.123   126066324.215                                                  
  24434172.746   128402458.689                                                  
  24589267.164   129217466.202                                                  
  26969912.546   141727803.083                                                  
  26329787.748   138363944.665                                                  
  26146258.784   137399491.747                                                  
  26267655.672   138037425.103                                                  
  25667880.201   134885596.789                                                  
 21  8 31  6 18 17.0000000  0 22G 4G 7G 8G 9G14G16G27G30C20C23C25C28
                                C32C34E 1E 4E 9E13E19E21E26E31
  22391990.764   117670697.005    22391992.283    91691451.423                  
  21166052.082   111228367.974    21166051.439    86671458.747                  
  20499799.592   107727132.055    20499802.058    83943209.505                  
  20955767.329   110123268.590    20955769.312    85810331.105                  
  24615161.808   129353539.093    24615163.202   100794965.321                  
  24009521.420   126170892.239    24009520.651    98314982.544                  
  21631305.939   113673251.671    21631307.672    88576553.641                  
  23493496.558   123459118.069    23493498.720    96201900.429                  
                 131198698.664                   131198698.664    25195324.275  
                 115927684.661                   115927684.661    22262683.242  
                 128612028.806                   128612028.806    24698585.629  
                 127534330.234                   127534330.234    24491628.588  
                 128791325.958                   128791325.958    24733026.241  
                 130754459.996                   130754459.996    25110018.417  
  23989706.746   126066732.153                                                  
  24434360.639   128403446.148                                                  
  24588949.059   129215794.531                                                  
  26969856.115   141727506.625                                                  
  26330364.060   138366973.180                                                  
  26146611.608   137401345.773                                                  
  26267212.396   138035095.761                                                  
  25667601.462   134884131.992                                                  
 21  8 31  6 18 18.0000000  0 22G 4G 7G 8G 9G14G16G27G30C20C23C25C28
                                C32C34E 1E 4E 9E13E19E21E26E31
  22392615.376   117673979.485    22392616.913    91694009.195                  
  21165709.979   111226570.193    21165709.318    86670057.878                  
  20499789.872   107727080.981    20499792.337    83943169.700                  
  20956062.168   110124817.935    20956064.151    85811538.382                  
  24614627.077   129350729.091    24614628.471   100792775.703                  
  24010135.489   126174119.185    24010134.738    98317497.042                  
  21631687.996   113675259.336    21631689.712    88578118.050                  
  23492958.432   123456290.250    23492960.595    96199696.934                  
                 131198647.356                   131198647.356    25195314.447  
                 115927906.379                   115927906.379    22262725.823  
                 128613995.634                   128613995.634    24698963.326  
                 127531193.751                   127531193.751    24491026.259  
                 128793652.440                   128793652.440    24733473.020  
                 130756232.251                   130756232.251    25110358.769  
  23989784.405   126067140.220                                                  
  24434548.639   128404434.042                                                  
  24588631.026   129214123.225                                                  
  26969799.792   141727210.645                                                  
  26330940.372   138370001.792                                                  
  26146964.414   137403199.807                                                  
  26266769.172   138032766.598                                                  
  25667322.741   134882667.321                                                  
 21  8 31  6 18 19.0000000  0 22G 4G 7G 8G 9G14G16G27G30C20C23C25C28
                                C32C34E 1E 4E 9E13E19E21E26E31
  22393240.077   117677262.290    22393241.614    91696567.223                  
  21165367.895   111224772.620    21165367.251    86668657.168                  
  20499780.294   107727030.602    20499782.760    83943130.442                  
  20956357.096   110126367.875    20956359.097    85812746.126                  
  24614092.383   129347919.234    24614093.776   100790586.203                  
  24010749.558   126177346.122    24010748.807    98320011.536                  
  21632070.161   113677267.611    21632071.876    88579682.933                  
  23492420.325   123453462.466    23492422.505    96197493.461                  
                 131198596.575                   131198596.575    25195304.673  
                 115928128.277                   115928128.277    22262768.441  
                 128615962.570                   128615962.570    24699341.060  
                 127528057.403                   127528057.403    24490423.948  
                 128795979.184                   128795979.184    24733919.835  
                 130758004.968                   130758004.968    25110699.174  
  23989862.081   126067548.425                                                  
  24434736.693   128405422.379                                                  
  24588313.047   129212452.300                                                  
  26969743.558   141726915.128                                                  
  26331516.719   138373030.492                                                  
  26147317.220   137405053.851                                                  
  26266326.003   138030437.620                                                  
  25667044.056   134881202.778                                                  
 21  8 31  6 18 20.0000000  0 22G 4G 7G 8G 9G14G16G27G30C20C23C25C28
                                C32C34E 1E 4E 9E13E19E21E26E31
  22393864.832   117680545.398    22393866.386    91699125.489                  
  21165025.882   111222975.247    21165025.221    86667256.617                  
  20499770.841   107726980.919    20499773.307    83943091.728                  
  20956652.167   110127918.441    20956654.168    85813954.359                  
  24613557.706   129345109.529    24613559.100   100788396.820                  
  24011363.627   126180573.046    24011362.858    98322526.023                  
  21632452.415   113679276.470    21632454.166    88581248.278                  
  23491882.217   123450634.711    23491884.397    96195290.016                  
                 131198546.320                   131198546.320    25195295.024  
                 115928350.361                   115928350.361    22262811.077  
                 128617929.617                   128617929.617    24699718.793  
                 127524921.191                   127524921.191    24489821.673  
                 128798306.195                   128798306.195    24734366.721  
                 130759778.145                   130759778.145    25111039.704  
  23989939.776   126067956.754                                                  
  24434924.854   128406411.165                                                  
  24587995.157   129210781.745                                                  
  26969687.414   141726620.069                                                  
  26332093.085   138376059.294                                                  
  26147670.044   137406907.894                                                  
  26265882.833   138028108.828                                                  
  25666765.389   134879738.348                                                  
 21  8 31  6 18 21.0000000  0 22G 4G 7G 8G 9G14G16G27G30C20C23C25C28
                                C32C34E 1E 4E 9E13E19E21E26E31
  22394489.658   117683828.820    22394491.177    91701683.999                  
  21164683.886   111221178.070    21164683.243    86665856.222                  
  20499761.513   107726931.923    20499763.979    83943053.551                  
  20956947.346   110129469.593    20956949.347    85815163.047                  
  24613023.065   129342299.976    24613024.458   100786207.563                  
  24011977.678   126183799.960    24011976.927    98325040.500                  
  21632834.812   113681285.921    21632836.546    88582814.091                  
  23491344.127   123447807.009    23491346.307    96193086.609                  
                 131198496.591                   131198496.591    25195285.482  
                 115928572.622                   115928572.622    22262853.784  
                 128619896.774                   128619896.774    24700096.580  
                 127521785.112                   127521785.112    24489219.415  
                 128800633.468                   128800633.468    24734813.643  
                 130761551.778                   130761551.778    25111380.323  
  23990017.506   126068365.206                                                  
  24435113.122   128407400.394                                                  
  24587677.339   129209111.572                                                  
  26969631.359   141726325.477                                                  
  26332669.468   138379088.185                                                  
  26148022.832   137408761.934                                                  
  26265439.717   138025780.234                                                  
  25666486.739   134878274.052                                                  
 21  8 31  6 18 22.0000000  0 22G 4G 7G 8G 9G14G16G27G30C20C23C25C28
                                C32C34E 1E 4E 9E13E19E21E26E31
  22395114.520   117687112.550    22395116.057    91704242.745                  
  21164341.945   111219381.093    21164341.284    86664455.976                  
  20499752.329   107726883.604    20499754.777    83943015.902                  
  20957242.613   110131021.353    20957244.632    85816372.210                  
  24612488.459   129339490.571    24612489.853   100784018.414                  
  24012591.747   126187026.858    24012590.978    98327554.969                  
  21633217.317   113683295.971    21633219.032    88584380.364                  
  23490806.037   123444979.316    23490808.199    96190883.214                  
                 131198447.386                   131198447.386    25195276.011  
                 115928795.058                   115928795.058    22262896.508  
                 128621864.035                   128621864.035    24700474.367  
                 127518649.177                   127518649.177    24488617.193  
                 128802961.005                   128802961.005    24735260.619  
                 130763325.876                   130763325.876    25111721.014  
  23990095.254   126068773.792                                                  
  24435301.443   128408390.066                                                  
  24587359.574   129207441.774                                                  
  26969575.375   141726031.351                                                  
  26333245.851   138382117.155                                                  
  26148375.656   137410615.983                                                  
  26264996.637   138023451.826                                                  
  25666208.107   134876809.874                                                  
 21  8 31  6 18 23.0000000  0 22G 4G 7G 8G 9G14G16G27G30C20C23C25C28
                                C32C34E 1E 4E 9E13E19E21E26E31
  22395739.453   117690396.597    22395741.008    91706801.745                  
  21164000.021   111217584.310    21163999.360    86663055.887                  
  20499743.251   107726835.981    20499745.717    83942978.789                  
  20957538.042   110132573.714    20957540.043    85817581.840                  
  24611953.872   129336681.317    24611955.265   100781829.388                  
  24013205.798   126190253.751    24013205.047    98330069.426                  
  21633599.928   113685306.609    21633601.661    88585947.089                  
  23490267.965   123442151.669    23490270.127    96188679.856                  
                 131198398.710                   131198398.710    25195266.684  
                 115929017.683                   115929017.683    22262939.233  
                 128623831.410                   128623831.410    24700852.172  
                 127515513.372                   127515513.372    24488015.007  
                 128805288.801                   128805288.801    24735707.666  
                 130765100.431                   130765100.431    25112061.794  
  23990173.020   126069182.494                                                  
  24435489.854   128409380.178                                                  
  24587041.898   129205772.351                                                  
  26969519.499   141725737.695                                                  
  26333822.288   138385146.233                                                  
  26148728.479   137412470.044                                                  
  26264553.592   138021123.605                                                  
  25665929.494   134875345.828                                                  
 21  8 31  6 18 24.0000000  0 22G 4G 7G 8G 9G14G16G27G30C20C23C25C28
                                C32C34E 1E 4E 9E13E19E21E26E31
  22396364.458   117693680.946    22396365.977    91709360.976                  
  21163658.133   111215787.735    21163657.508    86661655.961                  
  20499734.335   107726789.080    20499736.801    83942942.242                  
  20957833.560   110134126.683    20957835.561    85818791.946                  
  24611419.320   129333872.211    24611420.714   100779640.474                  
  24013819.867   126193480.632    24013819.098    98332583.879                  
  21633982.647   113687317.844    21633984.380    88587514.286                  
  23489729.875   123439324.055    23489732.037    96186476.520                  
                 131198350.563                   131198350.563    25195257.445  
                 115929240.485                   115929240.485    22262982.012  
                 128625798.890                   128625798.890    24701230.012  
                 127512377.704                   127512377.704    24487412.821  
                 128807616.862                   128807616.862    24736154.732  
                 130766875.445                   130766875.445    25112402.681  
  23990250.822   126069591.327                                                  
  24435678.355   128410370.742                                                  
  24586724.276   129204103.305                                                  
  26969463.712   141725444.491                                                  
  26334398.707   138388175.409                                                  
  26149081.303   137414324.093                                                  
  26264110.583   138018795.569                                                  
  25665650.933   134873881.908                                                  
 21  8 31  6 18 25.0000000  0 22G 4G 7G 8G 9G14G16G27G30C20C23C25C28
                                C32C34E 1E 4E 9E13E19E21E26E31
  22396989.499   117696965.609    22396991.035    91711920.454                  
  21163316.299   111213991.351    21163315.655    86660256.179                  
  20499725.543   107726742.862    20499727.991    83942906.231                  
  20958129.185   110135680.242    20958131.204    85820002.511                  
  24610884.786   129331063.251    24610886.180   100777451.672                  
  24014433.900   126196707.501    24014433.167    98335098.320                  
  21634365.473   113689329.582    21634367.206    88589081.876                  
  23489191.803   123436496.465    23489193.983    96184273.203                  
                 131198302.942                   131198302.942    25195248.278  
                 115929463.464                   115929463.464    22263024.862  
                 128627766.477                   128627766.477    24701607.853  
                 127509242.172                   127509242.172    24486810.689  
                 128809945.188                   128809945.188    24736601.868  
                 130768650.919                   130768650.919    25112743.640  
  23990328.642   126070000.277                                                  
  24435866.944   128411361.750                                                  
  24586406.762   129202434.628                                                  
  26969407.996   141725151.753                                                  
  26334975.162   138391204.669                                                  
  26149434.091   137416178.151                                                  
  26263667.592   138016467.730                                                  
  25665372.373   134872418.102                                                  
 21  8 31  6 18 26.0000000  0 22G 4G 7G 8G 9G14G16G27G30C20C23C25C28
                                C32C34E 1E 4E 9E13E19E21E26E31
  22397614.628   117700250.586    22397616.147    91714480.176                  
  21162974.500   111212195.181    21162973.857    86658856.566                  
  20499716.877   107726697.328    20499719.342    83942870.750                  
  20958424.935   110137234.408    20958426.936    85821213.552                  
  24610350.306   129328254.453    24610351.681   100775263.000                  
  24015047.969   126199934.352    24015047.201    98337612.750                  
  21634748.424   113691342.009    21634750.157    88590649.997                  
  23488653.731   123433668.921    23488655.893    96182069.922                  
                 131198255.845                   131198255.845    25195239.237  
                 115929686.630                   115929686.630    22263067.694  
                 128629734.175                   128629734.175    24701985.747  
                 127506106.777                   127506106.777    24486208.556  
                 128812273.778                   128812273.778    24737049.040  
                 130770426.852                   130770426.852    25113084.688  
  23990406.479   126070409.360                                                  
  24436055.605   128412353.194                                                  
  24586089.283   129200766.341                                                  
  26969352.388   141724859.477                                                  
  26335551.616   138394234.032                                                  
  26149786.915   137418032.215                                                  
  26263224.673   138014140.078                                                  
  25665093.867   134870954.429                                                  
 21  8 31  6 18 27.0000000  0 22G 4G 7G 8G 9G14G16G27G30C20C23C25C28
                                C32C34E 1E 4E 9E13E19E21E26E31
  22398239.776   117703535.871    22398241.313    91717040.136                  
  21162632.737   111210399.199    21162632.076    86657457.102                  
  20499708.335   107726652.496    20499710.801    83942835.815                  
  20958720.792   110138789.184    20958722.794    85822425.063                  
  24609815.825   129325445.793    24609817.219   100773074.433                  
  24015662.002   126203161.204    24015661.252    98340127.180                  
  21635131.482   113693355.038    21635133.215    88592218.595                  
  23488115.677   123430841.410    23488117.839    96179866.664                  
                 131198209.274                   131198209.274    25195230.302  
                 115929909.970                   115929909.970    22263110.597  
                 128631701.980                   128631701.980    24702363.641  
                 127502971.519                   127502971.519    24485606.460  
                 128814602.629                   128814602.629    24737496.284  
                 130772203.245                   130772203.245    25113425.826  
  23990484.352   126070818.578                                                  
  24436244.356   128413345.096                                                  
  24585771.893   129199098.421                                                  
  26969296.869   141724567.672                                                  
  26336128.107   138397263.478                                                  
  26150139.739   137419886.284                                                  
  26262781.754   138011812.618                                                  
  25664815.360   134869490.890                                                  
 21  8 31  6 18 28.0000000  0 22G 4G 7G 8G 9G14G16G27G30C20C23C25C28
                                C32C34E 1E 4E 9E13E19E21E26E31
  22398865.013   117706821.465    22398866.532    91719600.339                  
  21162290.992   111208603.419    21162290.367    86656057.788                  
  20499699.937   107726608.367    20499702.403    83942801.430                  
  20959016.775   110140344.556    20959018.776    85823637.039                  
  24609281.381   129322637.285    24609282.774   100770885.983                  
  24016276.053   126206388.046    24016275.303    98342641.603                  
  21635514.665   113695368.644    21635516.399    88593787.637                  
  23487577.623   123428013.925    23487579.803    96177663.429                  
                 131198163.229                   131198163.229    25195221.457  
                 115930133.493                   115930133.493    22263153.519  
                 128633669.893                   128633669.893    24702741.553  
                 127499836.397                   127499836.397    24485004.399  
                 128816931.743                   128816931.743    24737943.564  
                 130773980.097                   130773980.097    25113767.035  
  23990562.261   126071227.901                                                  
  24436433.178   128414337.430                                                  
  24585454.557   129197430.871                                                  
  26969241.421   141724276.325                                                  
  26336704.615   138400293.040                                                  
  26150492.563   137421740.360                                                  
  26262338.906   138009485.336                                                  
  25664536.853   134868027.466                                                  
 21  8 31  6 18 29.0000000  0 22G 4G 7G 8G 9G14G16G27G30C20C23C25C28
                                C32C34E 1E 4E 9E13E19E21E26E31
  22399490.304   117710107.366    22399491.841    91722160.781                  
  21161949.318   111206807.833    21161948.675    86654658.632                  
  20499691.681   107726564.911    20499694.147    83942767.566                  
  20959312.865   110141900.530    20959314.884    85824849.493                  
  24608746.954   129319828.927    24608748.365   100768697.657                  
  24016890.104   126209614.872    24016889.336    98345156.007                  
  21635897.956   113697382.853    21635899.671    88595357.148                  
  23487039.587   123425186.461    23487041.749    96175460.215                  
                 131198117.714                   131198117.714    25195212.719  
                 115930357.194                   115930357.194    22263196.476  
                 128635637.917                   128635637.917    24703119.500  
                 127496701.415                   127496701.415    24484402.356  
                 128819261.118                   128819261.118    24738390.897  
                 130775757.411                   130775757.411    25114108.369  
  23990640.152   126071637.356                                                  
  24436622.107   128415330.218                                                  
  24585137.329   129195763.708                                                  
  26969186.063   141723985.442                                                  
  26337281.141   138403322.665                                                  
  26150845.387   137423594.432                                                  
  26261896.075   138007158.254                                                  
  25664258.418   134866564.168                                                  
 21  8 31  6 18 30.0000000  0 22G 4G 7G 8G 9G14G16G27G30C20C23C25C28
                                C32C34E 1E 4E 9E13E19E21E26E31
  22400115.648   117713393.582    22400117.185    91724721.469                  
  21161607.681   111205012.452    21161607.019    86653259.637                  
  20499683.533   107726522.159    20499685.999    83942734.257                  
  20959609.079   110143457.108    20959611.081    85826062.411                  
  24608212.581   129317020.718    24608213.974   100766509.440                  
  24017504.138   126212841.697    24017503.405    98347670.414                  
  21636281.354   113699397.645    21636283.105    88596927.118                  
  23486501.532   123422359.061    23486503.712    96173257.046                  
                 131198072.722                   131198072.722    25195204.088  
                 115930581.081                   115930581.081    22263239.486  
                 128637606.048                   128637606.048    24703497.466  
                 127493566.567                   127493566.567    24483800.348  
                 128821590.758                   128821590.758    24738838.284  
                 130777535.179                   130777535.179    25114449.756  
  23990718.115   126072046.941                                                  
  24436811.126   128416323.444                                                  
  24584820.136   129194096.918                                                  
  26969130.794   141723695.023                                                  
  26337857.685   138406352.409                                                  
  26151198.193   137425448.520                                                  
  26261453.281   138004831.371                                                  
  25663979.983   134865100.999                                                  
 21  8 31  6 18 31.0000000  0 22G 4G 7G 8G 9G14G16G27G30C20C23C25C28
                                C32C34E 1E 4E 9E13E19E21E26E31
  22400741.064   117716680.108    22400742.583    91727282.398                  
  21161266.061   111203217.256    21161265.399    86651860.781                  
  20499675.546   107726480.109    20499677.994    83942701.488                  
  20959905.401   110145014.285    20959907.403    85827275.789                  
  24607678.225   129314212.654    24607679.619   100764321.336                  
  24018118.189   126216068.501    24018117.438    98350184.810                  
  21636664.876   113701413.030    21636666.592    88598497.548                  
  23485963.496   123419531.673    23485965.676    96171053.882                  
                 131198028.257                   131198028.257    25195195.547  
                 115930805.145                   115930805.145    22263282.497  
                 128639574.289                   128639574.289    24703875.432  
                 127490431.856                   127490431.856    24483198.359  
                 128823920.656                   128823920.656    24739285.706  
                 130779313.409                   130779313.409    25114791.251  
  23990796.077   126072456.651                                                  
  24437000.198   128417317.113                                                  
  24584503.014   129192430.500                                                  
  26969075.614   141723405.073                                                  
  26338434.211   138409382.219                                                  
  26151551.017   137427302.598                                                  
  26261010.522   138002504.665                                                  
  25663701.584   134863637.942                                                  
 21  8 31  6 18 32.0000000  0 22G 4G 7G 8G 9G14G16G27G30C20C23C25C28
                                C32C34E 1E 4E 9E13E19E21E26E31
  22401366.516   117719966.946    22401368.052    91729843.566                  
  21160924.476   111201422.257    21160923.833    86650462.082                  
  20499667.683   107726438.759    20499670.113    83942669.265                  
  20960201.849   110146572.066    20960203.832    85828489.644                  
  24607143.906   129311404.748    24607145.300   100762133.359                  
  24018732.222   126219295.288    24018731.471    98352699.191                  
  21637048.507   113703429.008    21637050.240    88600068.442                  
  23485425.478   123416704.329    23485427.658    96168850.757                  
                 131197984.320                   131197984.320    25195187.095  
                 115931029.389                   115931029.389    22263325.561  
                 128641542.635                   128641542.635    24704253.433  
                 127487297.281                   127487297.281    24482596.387  
                 128826250.819                   128826250.819    24739733.200  
                 130781092.099                   130781092.099    25115132.836  
  23990874.058   126072866.476                                                  
  24437189.377   128418311.228                                                  
  24584186.000   129190764.461                                                  
  26969020.542   141723115.575                                                  
  26339010.791   138412412.133                                                  
  26151903.841   137429156.682                                                  
  26260567.799   138000178.149                                                  
  25663423.184   134862175.020                                                  
 21  8 31  6 18 33.0000000  0 22G 4G 7G 8G 9G14G16G27G30C20C23C25C28
                                C32C34E 1E 4E 9E13E19E21E26E31
  22401992.039   117723254.085    22401993.575    91732404.976                  
  21160582.946   111199627.463    21160582.302    86649063.544                  
  20499659.946   107726398.114    20499662.394    83942637.598                  
  20960498.385   110148130.440    20960500.386    85829703.964                  
  24606609.604   129308596.985    24606610.998   100759945.492                  
  24019346.255   126222522.075    24019345.505    98355213.566                  
  21637432.244   113705445.587    21637433.977    88601639.798                  
  23484887.459   123413877.012    23484889.639    96166647.657                  
                 131197940.910                   131197940.910    25195178.768  
                 115931253.811                   115931253.811    22263368.662  
                 128643511.095                   128643511.095    24704631.452  
                 127484162.842                   127484162.842    24481994.451  
                 128828581.247                   128828581.247    24740180.712  
                 130782871.245                   130782871.245    25115474.491  
  23990952.074   126073276.454                                                  
  24437378.646   128419305.786                                                  
  24583869.021   129189098.801                                                  
  26968965.541   141722826.561                                                  
  26339587.407   138415442.145                                                  
  26152256.664   137431010.767                                                  
  26260125.112   137997851.827                                                  
  25663144.821   134860712.218                                                  
 21  8 31  6 18 34.0000000  0 22G 4G 7G 8G 9G14G16G27G30C20C23C25C28
                                C32C34E 1E 4E 9E13E19E21E26E31
  22402617.615   117726541.542    22402619.152    91734966.628                  
  21160241.433   111197832.872    21160240.807    86647665.157                  
  20499652.334   107726358.179    20499654.800    83942606.480                  
  20960795.046   110149689.413    20960797.048    85830918.746                  
  24606075.320   129305789.364    24606076.714   100757757.738                  
  24019960.306   126225748.848    24019959.538    98357727.934                  
  21637816.106   113707462.745    21637817.822    88603211.613                  
  23484349.441   123411049.735    23484351.621    96164444.582                  
                 131197898.026                   131197898.026    25195170.548  
                 115931478.419                   115931478.419    22263411.797  
                 128645479.656                   128645479.656    24705009.507  
                 127481028.547                   127481028.547    24481392.533  
                 128830911.934                   128830911.934    24740628.313  
                 130784650.851                   130784650.851    25115816.254  
  23991030.126   126073686.534                                                  
  24437567.986   128420300.781                                                  
  24583552.132   129187433.516                                                  
  26968910.612   141722537.993                                                  
  26340164.004   138418472.254                                                  
  26152609.488   137432864.863                                                  
  26259682.461   137995525.698                                                  
  25662866.475   134859249.536                                                  
 21  8 31  6 18 35.0000000  0 22G 4G 7G 8G 9G14G16G27G30C20C23C25C28
                                C32C34E 1E 4E 9E13E19E21E26E31
  22403243.263   117729829.310    22403244.800    91737528.523                  
  21159899.974   111196038.480    21159899.348    86646266.929                  
  20499644.882   107726318.943    20499647.312    83942575.906                  
  20961091.815   110151248.999    20961093.817    85832134.008                  
  24605541.072   129302981.918    24605542.484   100755570.118                  
  24020574.322   126228975.602    24020573.571    98360242.288                  
  21638200.058   113709480.507    21638201.791    88604783.895                  
  23483811.440   123408222.491    23483813.620    96162241.535                  
                 131197855.669                   131197855.669    25195162.400  
                 115931703.207                   115931703.207    22263454.951  
                 128647448.331                   128647448.331    24705387.562  
                 127477894.382                   127477894.382    24480790.669  
                 128833242.888                   128833242.888    24741075.932  
                 130786430.919                   130786430.919    25116158.107  
  23991108.178   126074096.741                                                  
  24437757.397   128421296.243                                                  
  24583235.314   129185768.613                                                  
  26968855.807   141722249.901                                                  
  26340740.638   138421502.441                                                  
  26152962.294   137434718.956                                                  
  26259239.863   137993199.749                                                  
  25662588.183   134857787.001                                                  
 21  8 31  6 18 36.0000000  0 22G 4G 7G 8G 9G14G16G27G30C20C23C25C28
                                C32C34E 1E 4E 9E13E19E21E26E31
  22403868.965   117733117.383    22403870.502    91740090.660                  
  21159558.568   111194244.282    21159557.907    86644868.851                  
  20499637.538   107726280.402    20499640.004    83942545.874                  
  20961388.727   110152809.183    20961390.728    85833349.738                  
  24605006.878   129300174.599    24605008.254   100753382.598                  
  24021188.355   126232202.348    24021187.604    98362756.634                  
  21638584.135   113711498.855    21638585.886    88606356.632                  
  23483273.440   123405395.276    23483275.602    96160038.513                  
                 131197813.835                   131197813.835    25195154.359  
                 115931928.173                   115931928.173    22263498.176  
                 128649417.114                   128649417.114    24705765.635  
                 127474760.359                   127474760.359    24480188.804  
                 128835574.098                   128835574.098    24741523.640  
                 130788211.446                   130788211.446    25116500.012  
  23991186.265   126074507.080                                                  
  24437946.916   128422292.133                                                  
  24582918.568   129184104.079                                                  
  26968801.057   141721962.266                                                  
  26341317.289   138424532.738                                                  
  26153315.136   137436573.055                                                  
  26258797.283   137990874.005                                                  
  25662309.873   134856324.575                                                  
 21  8 31  6 18 37.0000000  0 22G 4G 7G 8G 9G14G16G27G30C20C23C25C28
                                C32C34E 1E 4E 9E13E19E21E26E31
  22404494.720   117736405.770    22404496.257    91742653.039                  
  21159217.163   111192450.284    21159216.519    86643470.934                  
  20499630.337   107726242.544    20499632.785    83942516.371                  
  20961685.728   110154369.970    20961687.747    85834565.933                  
  24604472.684   129297367.450    24604474.077   100751195.207                  
  24021802.388   126235429.085    24021801.638    98365270.977                  
  21638968.336   113713517.812    21638970.052    88607929.847                  
  23482735.439   123402568.105    23482737.619    96157835.520                  
                 131197772.527                   131197772.527    25195146.443  
                 115932153.322                   115932153.322    22263541.401  
                 128651386.004                   128651386.004    24706143.761  
                 127471626.474                   127471626.474    24479586.975  
                 128837905.569                   128837905.569    24741971.367  
                 130789992.425                   130789992.425    25116842.043  
  23991264.353   126074917.544                                                  
  24438136.525   128423288.466                                                  
  24582601.875   129182439.930                                                  
  26968746.413   141721675.101                                                  
  26341893.940   138427563.113                                                  
  26153667.960   137438427.159                                                  
  26258354.739   137988548.443                                                  
  25662031.616   134854862.277                                                  
 21  8 31  6 18 38.0000000  0 22G 4G 7G 8G 9G14G16G27G30C20C23C25C28
                                C32C34E 1E 4E 9E13E19E21E26E31
  22405120.547   117739694.453    22405122.084    91745215.647                  
  21158875.829   111190656.476    21158875.185    86642073.164                  
  20499623.261   107726205.385    20499625.727    83942487.423                  
  20961982.836   110155931.360    20961984.855    85835782.601                  
  24603938.543   129294560.438    24603939.919   100749007.926                  
  24022416.421   126238655.808    24022415.653    98367785.306                  
  21639352.646   113715537.349    21639354.379    88609503.513                  
  23482197.457   123399740.964    23482199.619    96155632.555                  
                 131197731.751                   131197731.751    25195138.598  
                 115932378.645                   115932378.645    22263584.680  
                 128653355.004                   128653355.004    24706521.887  
                 127468492.722                   127468492.722    24478985.165  
                 128840237.308                   128840237.308    24742419.164  
                 130791773.871                   130791773.871    25117184.164  
  23991342.494   126075328.132                                                  
  24438326.204   128424285.251                                                  
  24582285.272   129180776.142                                                  
  26968691.859   141721388.391                                                  
  26342470.627   138430593.588                                                  
  26154020.784   137440281.264                                                  
  26257912.248   137986223.074                                                  
  25661753.378   134853400.106                                                  
 21  8 31  6 18 39.0000000  0 22G 4G 7G 8G 9G14G16G27G30C20C23C25C28
                                C32C34E 1E 4E 9E13E19E21E26E31
  22405746.428   117742983.462    22405747.947    91747778.516                  
  21158534.512   111188862.871    21158533.851    86640675.543                  
  20499616.328   107726168.913    20499618.776    83942458.996                  
  20962280.087   110157493.352    20962282.089    85836999.738                  
  24603404.402   129291753.589    24603405.796   100746820.782                  
  24023030.419   126241882.554    24023029.668    98370299.671                  
  21639737.062   113717557.464    21639738.795    88611077.624                  
  23481659.474   123396913.863    23481661.636    96153429.624                  
                 131197691.481                   131197691.481    25195130.879  
                 115932604.151                   115932604.151    22263627.977  
                 128655324.112                   128655324.112    24706900.014  
                 127465359.089                   127465359.089    24478383.407  
                 128842569.301                   128842569.301    24742866.998  
                 130793555.788                   130793555.788    25117526.338  
  23991420.653   126075738.844                                                  
  24438515.955   128425282.474                                                  
  24581968.740   129179112.744                                                  
  26968637.377   141721102.130                                                  
  26343047.314   138433624.184                                                  
  26154373.608   137442135.360                                                  
  26257469.775   137983897.879                                                  
  25661475.157   134851938.058                                                  
 21  8 31  6 18 40.0000000  0 22G 4G 7G 8G 9G14G16G27G30C20C23C25C28
                                C32C34E 1E 4E 9E13E19E21E26E31
  22406372.362   117746272.788    22406373.881    91750341.625                  
  21158193.232   111187069.474    21158192.606    86639278.091                  
  20499609.519   107726133.134    20499611.968    83942431.118                  
  20962577.446   110159055.946    20962579.447    85838217.348                  
  24602870.297   129288946.897    24602871.708   100744633.749                  
  24023644.434   126245109.253    24023643.702    98372813.985                  
  21640121.603   113719578.184    21640123.319    88612652.211                  
  23481121.491   123394086.789    23481123.671    96151226.711                  
                 131197651.755                   131197651.755    25195123.249  
                 115932829.841                   115932829.841    22263671.327  
                 128657293.331                   128657293.331    24707278.194  
                 127462225.613                   127462225.613    24477781.632  
                 128844901.557                   128844901.557    24743314.885  
                 130795338.147                   130795338.147    25117868.619  
  23991498.848   126076149.684                                                  
  24438705.814   128426280.145                                                  
  24581652.279   129177449.727                                                  
  26968583.001   141720816.355                                                  
  26343624.037   138436654.841                                                  
  26154726.431   137443989.486                                                  
  26257027.338   137981572.907                                                  
  25661196.954   134850476.128                                                  
 21  8 31  6 18 41.0000000  0 22G 4G 7G 8G 9G14G16G27G30C20C23C25C28
                                C32C34E 1E 4E 9E13E19E21E26E31
  22406998.331   117749562.401    22406999.886    91752904.960                  
  21157852.005   111185276.276    21157851.362    86637880.794                  
  20499602.836   107726098.058    20499605.302    83942403.786                  
  20962874.894   110160619.133    20962876.895    85839435.411                  
  24602336.227   129286140.320    24602337.621   100742446.804                  
  24024258.467   126248335.946    24024257.717    98375328.284                  
  21640506.234   113721599.497    21640507.967    88614227.258                  
  23480583.544   123391259.756    23480585.706    96149023.829                  
                 131197612.556                   131197612.556    25195115.726  
                 115933055.708                   115933055.708    22263714.695  
                 128659262.657                   128659262.657    24707656.374  
                 127459092.277                   127459092.277    24477179.929  
                 128847234.079                   128847234.079    24743762.825  
                 130797120.966                   130797120.966    25118211.007  
  23991577.043   126076560.642                                                  
  24438895.744   128427278.251                                                  
  24581335.873   129175787.077                                                  
  26968528.715   141720531.051                                                  
  26344200.759   138439685.592                                                  
  26155079.255   137445843.602                                                  
  26256584.937   137979248.104                                                  
  25660918.787   134849014.330                                                  
 21  8 31  6 18 42.0000000  0 22G 4G 7G 8G 9G14G16G27G30C20C23C25C28
                                C32C34E 1E 4E 9E13E19E21E26E31
  22407624.408   117752852.332    22407625.945    91755468.542                  
  21157510.796   111183483.279    21157510.153    86636483.653                  
  20499596.296   107726063.684    20499598.762    83942377.001                  
  20963172.484   110162182.921    20963174.486    85840653.949                  
  24601802.176   129283333.902    24601803.588   100740259.989                  
  24024872.483   126251562.618    24024871.714    98377842.574                  
  21640890.972   113723621.399    21640892.723    88615802.771                  
  23480045.579   123388432.753    23480047.742    96146820.969                  
                 131197573.879                   131197573.879    25195108.275  
                 115933281.758                   115933281.758    22263758.117  
                 128661232.090                   128661232.090    24708034.607  
                 127455959.077                   127455959.077    24476578.225  
                 128849566.865                   128849566.865    24744210.802  
                 130798904.241                   130798904.241    25118553.467  
  23991655.256   126076971.743                                                  
  24439085.763   128428276.805                                                  
  24581019.555   129174124.803                                                  
  26968474.500   141720246.204                                                  
  26344777.518   138442716.440                                                  
  26155432.097   137447697.728                                                  
  26256142.572   137976923.493                                                  
  25660640.638   134847552.660                                                  
 21  8 31  6 18 43.0000000  0 22G 4G 7G 8G 9G14G16G27G30C20C23C25C28
                                C32C34E 1E 4E 9E13E19E21E26E31
  22408250.521   117756142.573    22408252.040    91758032.362                  
  21157169.641   111181690.477    21157168.997    86635086.665                  
  20499589.881   107726030.008    20499592.347    83942350.763                  
  20963470.182   110163747.319    20963472.184    85841872.961                  
  24601268.178   129280527.660    24601269.554   100738073.304                  
  24025486.498   126254789.282    24025485.748    98380356.855                  
  21641275.853   113725643.897    21641277.604    88617378.743                  
  23479507.615   123385605.781    23479509.777    96144618.134                  
                 131197535.729                   131197535.729    25195100.966  
                 115933507.989                   115933507.989    22263801.557  
                 128663201.629                   128663201.629    24708412.823  
                 127452826.020                   127452826.020    24475976.539  
                 128851899.906                   128851899.906    24744658.832  
                 130800687.976                   130800687.976    25118895.998  
  23991733.522   126077382.956                                                  
  24439275.853   128429275.809                                                  
  24580703.327   129172462.917                                                  
  26968420.393   141719961.812                                                  
  26345354.276   138445747.379                                                  
  26155784.921   137449551.844                                                  
  26255700.260   137974599.090                                                  
  25660362.525   134846091.114                                                  
 21  8 31  6 18 44.0000000  0 22G 4G 7G 8G 9G14G16G27G30C20C23C25C28
                                C32C34E 1E 4E 9E13E19E21E26E31
  22408876.687   117759433.120    22408878.224    91760596.425                  
  21156828.521   111179897.878    21156827.878    86633689.837                  
  20499583.627   107725997.016    20499586.057    83942325.050                  
  20963767.987   110165312.316    20963769.989    85843092.437                  
  24600734.180   129277721.532    24600735.574   100735886.711                  
  24026100.496   126258015.925    24026099.763    98382871.125                  
  21641660.841   113727666.988    21641662.574    88618955.175                  
  23478969.686   123382778.839    23478971.848    96142415.320                  
                 131197498.109                   131197498.109    25195093.747  
                 115933734.399                   115933734.399    22263845.032  
                 128665171.281                   128665171.281    24708791.075  
                 127449693.097                   127449693.097    24475374.907  
                 128854233.210                   128854233.210    24745106.915  
                 130802472.173                   130802472.173    25119238.637  
  23991811.806   126077794.290                                                  
  24439466.051   128430275.247                                                  
  24580387.135   129170801.400                                                  
  26968366.357   141719677.904                                                  
  26345931.088   138448778.406                                                  
  26156137.745   137451405.970                                                  
  26255257.984   137972274.863                                                  
  25660084.411   134844629.683                                                  
 21  8 31  6 18 45.0000000  0 22G 4G 7G 8G 9G14G16G27G30C20C23C25C28
                                C32C34E 1E 4E 9E13E19E21E26E31
  22409502.925   117762723.981    22409504.444    91763160.729                  
  21156487.437   111178105.476    21156486.794    86632293.160                  
  20499577.462   107725964.720    20499579.928    83942299.886                  
  20964065.900   110166877.915    20964067.919    85844312.384                  
  24600200.218   129274915.562    24600201.612   100733700.241                  
  24026714.529   126261242.565    24026713.761    98385385.390                  
  21642045.936   113729690.669    21642047.652    88620532.069                  
  23478431.721   123379951.930    23478433.901    96140212.531                  
                 131197461.011                   131197461.011    25195086.617  
                 115933960.987                   115933960.987    22263888.561  
                 128667141.040                   128667141.040    24709169.344  
                 127446560.313                   127446560.313    24474773.275  
                 128856566.778                   128856566.778    24745555.053  
                 130804256.824                   130804256.824    25119581.365  
  23991890.108   126078205.749                                                  
  24439656.321   128431275.134                                                  
  24580071.032   129169140.253                                                  
  26968312.428   141719394.442                                                  
  26346507.883   138451809.518                                                  
  26156490.587   137453260.101                                                  
  26254815.743   137969950.827                                                  
  25659806.333   134843168.380                                                  
 21  8 31  6 18 46.0000000  0 22G 4G 7G 8G 9G14G16G27G30C20C23C25C28
                                C32C34E 1E 4E 9E13E19E21E26E31
  22410129.199   117766015.144    22410130.735    91765725.276                  
  21156146.407   111176313.274    21156145.763    86630896.636                  
  20499571.458   107725933.119    20499573.907    83942275.262                  
  20964363.937   110168444.109    20964365.956    85845532.793                  
  24599666.292   129272109.751    24599667.703   100731513.895                  
  24027328.526   126264469.188    24027327.758    98387899.642                  
  21642431.139   113731714.943    21642432.872    88622109.421                  
  23477893.792   123377125.058    23477895.954    96138009.778                  
                 131197424.446                   131197424.446    25195079.595  
                 115934187.759                   115934187.759    22263932.108  
                 128669110.907                   128669110.907    24709547.631  
                 127443427.669                   127443427.669    24474171.697  
                 128858900.605                   128858900.605    24746003.244  
                 130806041.934                   130806041.934    25119924.182  
  23991968.428   126078617.341                                                  
  24439846.679   128432275.461                                                  
  24579755.000   129167479.493                                                  
  26968258.571   141719111.450                                                  
  26347084.695   138454840.733                                                  
  26156843.392   137455114.238                                                  
  26254373.521   137967626.984                                                  
  25659528.274   134841707.207                                                  
 21  8 31  6 18 47.0000000  0 22G 4G 7G 8G 9G14G16G27G30C20C23C25C28
                                C32C34E 1E 4E 9E13E19E21E26E31
  22410755.562   117769306.618    22410757.080    91768290.059                  
  21155805.394   111174521.271    21155804.733    86629500.270                  
  20499565.580   107725902.210    20499568.028    83942251.180                  
  20964662.100   110170010.902    20964664.101    85846753.675                  
  24599132.401   129269304.090    24599133.795   100729327.663                  
  24027942.524   126267695.796    24027941.773    98390413.879                  
  21642816.466   113733739.800    21642818.182    88623687.239                  
  23477355.863   123374298.222    23477358.025    96135807.046                  
                 131197388.398                   131197388.398    25195072.680  
                 115934414.710                   115934414.710    22263975.672  
                 128671080.882                   128671080.882    24709925.954  
                 127440295.159                   127440295.159    24473570.118  
                 128861234.691                   128861234.691    24746451.488  
                 130807827.501                   130807827.501    25120267.088  
  23992046.766   126079029.056                                                  
  24440037.127   128433276.234                                                  
  24579439.040   129165819.105                                                  
  26968204.803   141718828.921                                                  
  26347661.542   138457872.039                                                  
  26157196.234   137456968.375                                                  
  26253931.334   137965303.336                                                  
  25659250.267   134840246.157                                                  
 21  8 31  6 18 48.0000000  0 22G 4G 7G 8G 9G14G16G27G30C20C23C25C28
                                C32C34E 1E 4E 9E13E19E21E26E31
  22411381.960   117772598.400    22411383.497    91770855.082                  
  21155464.418   111172729.461    21155463.774    86628104.055                  
  20499559.826   107725872.032    20499562.274    83942227.660                  
  20964960.351   110171578.306    20964962.353    85847975.028                  
  24598598.528   129266498.575    24598599.922   100727141.550                  
  24028556.539   126270922.407    24028555.789    98392928.122                  
  21643201.883   113735765.253    21643203.617    88625265.512                  
  23476817.934   123371471.409    23476820.096    96133604.335                  
                 131197352.883                   131197352.883    25195065.836  
                 115934641.845                   115934641.845    22264019.308  
                 128673050.970                   128673050.970    24710304.277  
                 127437162.794                   127437162.794    24472968.575  
                 128863569.044                   128863569.044    24746899.786  
                 130809613.527                   130809613.527    25120610.066  
  23992125.140   126079440.900                                                  
  24440227.647   128434277.450                                                  
  24579123.151   129164159.103                                                  
  26968151.143   141718546.853                                                  
  26348238.408   138460903.439                                                  
  26157549.058   137458822.512                                                  
  26253489.200   137962979.872                                                  
  25658972.261   134838785.224                                                  
 21  8 31  6 18 49.0000000  0 22G 4G 7G 8G 9G14G16G27G30C20C23C25C28
                                C32C34E 1E 4E 9E13E19E21E26E31
  22412008.412   117775890.493    22412009.967    91773420.347                  
  21155123.495   111170937.848    21155122.833    86626707.995                  
  20499554.215   107725842.523    20499556.663    83942204.668                  
  20965258.746   110173146.302    20965260.748    85849196.839                  
  24598064.673   129263693.216    24598066.085   100724955.558                  
  24029170.537   126274148.997    24029169.786    98395442.343                  
  21643587.443   113737791.302    21643589.159    88626844.251                  
  23476280.022   123368644.643    23476282.185    96131401.665                  
                 131197317.891                   131197317.891    25195059.117  
                 115934869.157                   115934869.157    22264062.962  
                 128675021.159                   128675021.159    24710682.636  
                 127434030.563                   127434030.563    24472367.086  
                 128865903.653                   128865903.653    24747348.120  
                 130811400.012                   130811400.012    25120953.134  
  23992203.513   126079852.867                                                  
  24440418.256   128435279.112                                                  
  24578807.334   129162499.472                                                  
  26968097.535   141718265.257                                                  
  26348815.256   138463934.926                                                  
  26157901.900   137460676.655                                                  
  26253047.103   137960656.604                                                  
  25658694.273   134837324.429                                                  
 21  8 31  6 18 50.0000000  0 22G 4G 7G 8G 9G14G16G27G30C20C23C25C28
                                C32C34E 1E 4E 9E13E19E21E26E31
  22412634.936   117779182.903    22412636.473    91775985.863                  
  21154782.607   111169146.441    21154781.946    86625312.093                  
  20499548.711   107725813.710    20499551.177    83942182.219                  
  20965557.248   110174714.899    20965559.232    85850419.125                  
  24597530.872   129260888.004    24597532.266   100722769.679                  
  24029784.534   126277375.570    24029783.784    98397956.554                  
  21643973.075   113739817.929    21643974.826    88628423.441                  
  23475742.111   123365817.915    23475744.273    96129199.015                  
                 131197283.425                   131197283.425    25195052.523  
                 115935096.652                   115935096.652    22264106.634  
                 128676991.460                   128676991.460    24711061.012  
                 127430898.468                   127430898.468    24471765.579  
                 128868238.524                   128868238.524    24747796.507  
                 130813186.957                   130813186.957    25121296.308  
  23992281.940   126080264.949                                                  
  24440608.954   128436281.224                                                  
  24578491.607   129160840.224                                                  
  26968044.036   141717984.125                                                  
  26349392.157   138466966.508                                                  
  26158254.742   137462530.813                                                  
  26252605.041   137958333.539                                                  
  25658416.320   134835863.754                                                  
 21  8 31  6 18 51.0000000  0 22G 4G 7G 8G 9G14G16G27G30C20C23C25C28
                                C32C34E 1E 4E 9E13E19E21E26E31
  22413261.513   117782475.609    22413263.068    91778551.606                  
  21154441.738   111167355.233    21154441.094    86623916.347                  
  20499543.386   107725785.598    20499545.834    83942160.313                  
  20965855.840   110176284.090    20965857.859    85851641.871                  
  24596997.088   129258082.932    24596998.482   100720583.911                  
  24030398.514   126280602.125    24030397.763    98400470.757                  
  21644358.867   113741845.169    21644360.582    88630003.106                  
  23475204.218   123362991.220    23475206.380    96126996.395                  
                 131197249.480                   131197249.480    25195046.001  
                 115935324.316                   115935324.316    22264150.360  
                 128678961.876                   128678961.876    24711439.425  
                 127427766.504                   127427766.504    24471164.126  
                 128870573.636                   128870573.636    24748244.948  
                 130814974.344                   130814974.344    25121639.554  
  23992360.385   126080677.168                                                  
  24440799.742   128437283.766                                                  
  24578175.915   129159181.351                                                  
  26967990.643   141717703.454                                                  
  26349969.077   138469998.204                                                  
  26158607.565   137464384.962                                                  
  26252162.997   137956010.645                                                  
  25658138.385   134834403.206                                                  
 21  8 31  6 18 52.0000000  0 22G 4G 7G 8G 9G14G16G27G30C20C23C25C28
                                C32C34E 1E 4E 9E13E19E21E26E31
  22413888.162   117785768.612    22413889.699    91781117.585                  
  21154100.922   111165564.219    21154100.279    86622520.754                  
  20499538.168   107725758.184    20499540.617    83942138.950                  
  20966154.556   110177853.894    20966156.575    85852865.095                  
  24596463.323   129255278.019    24596464.717   100718398.262                  
  24031012.511   126283828.671    24031011.761    98402984.944                  
  21644744.748   113743872.985    21644746.464    88631583.227                  
  23474666.325   123360164.551    23474668.487    96124793.801                  
                 131197216.066                   131197216.066    25195039.586  
                 115935552.167                   115935552.167    22264194.121  
                 128680932.394                   128680932.394    24711817.837  
                 127424634.692                   127424634.692    24470562.708  
                 128872909.027                   128872909.027    24748693.425  
                 130816762.205                   130816762.205    25121982.908  
  23992438.866   126081089.505                                                  
  24440990.601   128438286.755                                                  
  24577860.312   129157522.848                                                  
  26967937.322   141717423.247                                                  
  26350545.996   138473029.956                                                  
  26158960.407   137466239.110                                                  
  26251721.007   137953687.950                                                  
  25657860.486   134832942.784                                                  
 21  8 31  6 18 53.0000000  0 22G 4G 7G 8G 9G14G16G27G30C20C23C25C28
                                C32C34E 1E 4E 9E13E19E21E26E31
  22414514.864   117789061.941    22414516.401    91783683.813                  
  21153760.142   111163773.410    21153759.498    86621125.316                  
  20499533.076   107725731.460    20499535.542    83942118.128                  
  20966453.398   110179424.284    20966455.417    85854088.778                  
  24595929.593   129252473.253    24595931.005   100716212.730                  
  24031626.509   126287055.194    24031625.741    98405499.120                  
  21645130.719   113745901.387    21645132.453    88633163.797                  
  23474128.413   123357337.926    23474130.593    96122591.231                  
                 131197183.180                   131197183.180    25195033.260  
                 115935780.206                   115935780.206    22264237.918  
                 128682903.020                   128682903.020    24712196.267  
                 127421503.016                   127421503.016    24469961.272  
                 128875244.680                   128875244.680    24749141.955  
                 130818550.519                   130818550.519    25122326.315  
  23992517.347   126081501.971                                                  
  24441181.531   128439290.183                                                  
  24577544.799   129155864.723                                                  
  26967884.072   141717143.491                                                  
  26351122.933   138476061.813                                                  
  26159313.249   137468093.265                                                  
  26251279.035   137951365.442                                                  
  25657582.587   134831482.476                                                  
 21  8 31  6 18 54.0000000  0 22G 4G 7G 8G 9G14G16G27G30C20C23C25C28
                                C32C34E 1E 4E 9E13E19E21E26E31
  22415141.620   117792355.574    22415143.157    91786250.281                  
  21153419.397   111161982.810    21153418.754    86619730.043                  
  20499528.126   107725705.438    20499530.574    83942097.850                  
  20966752.364   110180995.294    20966754.366    85855312.937                  
  24595395.899   129249668.657    24595397.293   100714027.333                  
  24032240.506   126290281.720    24032239.738    98408013.294                  
  21645516.833   113747930.402    21645518.584    88634744.849                  
  23473590.538   123354511.327    23473592.700    96120388.691                  
                 131197150.819                   131197150.819    25195027.042  
                 115936008.422                   115936008.422    22264281.733  
                 128684873.757                   128684873.757    24712574.715  
                 127418371.480                   127418371.480    24469359.908  
                 128877580.592                   128877580.592    24749590.539  
                 130820339.293                   130820339.293    25122669.847  
  23992595.863   126081914.566                                                  
  24441372.587   128440294.061                                                  
  24577229.339   129154206.985                                                  
  26967830.948   141716864.211                                                  
  26351699.906   138479093.762                                                  
  26159666.055   137469947.423                                                  
  26250837.116   137949043.140                                                  
  25657304.724   134830022.301                                                  
 21  8 31  6 18 55.0000000  0 22G 4G 7G 8G 9G14G16G27G30C20C23C25C28
                                C32C34E 1E 4E 9E13E19E21E26E31
  22415768.448   117795649.513    22415769.985    91788816.984                  
  21153078.707   111160192.415    21153078.063    86618334.930                  
  20499523.301   107725680.093    20499525.767    83942078.101                  
  20967051.420   110182566.900    20967053.422    85856537.562                  
  24594862.241   129246864.204    24594863.616   100711842.043                  
  24032854.486   126293508.243    24032853.718    98410527.465                  
  21645903.054   113749959.993    21645904.787    88636326.348                  
  23473052.662   123351684.778    23473054.842    96118186.184                  
                 131197118.988                   131197118.988    25195020.949  
                 115936236.822                   115936236.822    22264325.601  
                 128686844.601                   128686844.601    24712953.199  
                 127415240.083                   127415240.083    24468758.562  
                 128879916.766                   128879916.766    24750039.177  
                 130822128.526                   130822128.526    25123013.432  
  23992674.398   126082327.282                                                  
  24441563.678   128441298.388                                                  
  24576913.933   129152549.621                                                  
  26967777.877   141716585.406                                                  
  26352276.879   138482125.804                                                  
  26160018.897   137471801.595                                                  
  26250395.233   137946721.020                                                  
  25657026.878   134828562.251                                                  
 21  8 31  6 18 56.0000000  0 22G 4G 7G 8G 9G14G16G27G30C20C23C25C28
                                C32C34E 1E 4E 9E13E19E21E26E31
  22416395.311   117798943.757    22416396.866    91791383.925                  
  21152738.034   111158402.210    21152737.372    86616939.968                  
  20499518.620   107725655.452    20499521.068    83942058.903                  
  20967350.601   110184139.101    20967352.621    85857762.656                  
  24594328.582   129244059.887    24594329.976   100709656.860                  
  24033468.466   126296734.731    24033467.697    98413041.609                  
  21646289.382   113751990.177    21646291.116    88637908.309                  
  23472514.805   123348858.253    23472516.967    96115983.699                  
                 131197087.680                   131197087.680    25195014.927  
                 115936465.399                   115936465.399    22264369.506  
                 128688815.555                   128688815.555    24713331.718  
                 127412108.823                   127412108.823    24468157.216  
                 128882253.198                   128882253.198    24750487.886  
                 130823918.216                   130823918.216    25123357.143  
  23992752.968   126082740.124                                                  
  24441754.877   128442303.152                                                  
  24576598.634   129150892.637                                                  
  26967724.913   141716307.059                                                  
  26352853.887   138485157.940                                                  
  26160371.738   137473655.759                                                  
  26249953.403   137944399.103                                                  
  25656749.069   134827102.328                                                  
 21  8 31  6 18 57.0000000  0 22G 4G 7G 8G 9G14G16G27G30C20C23C25C28
                                C32C34E 1E 4E 9E13E19E21E26E31
  22417022.246   117802238.304    22417023.783    91793951.106                  
  21152397.414   111156612.200    21152396.753    86615545.152                  
  20499514.063   107725631.504    20499516.511    83942040.242                  
  20967649.907   110185711.895    20967651.909    85858988.210                  
  24593794.960   129241255.699    24593796.353   100707471.781                  
  24034082.445   126299961.210    24034081.677    98415555.753                  
  21646675.818   113754020.944    21646677.551    88639490.727                  
  23471976.947   123346031.754    23471979.092    96113781.230                  
                 131197056.895                   131197056.895    25195008.994  
                 115936694.156                   115936694.156    22264413.428  
                 128690786.617                   128690786.617    24713710.238  
                 127408977.708                   127408977.708    24467555.941  
                 128884589.889                   128884589.889    24750936.595  
                 130825708.362                   130825708.362    25123700.925  
  23992831.538   126083153.077                                                  
  24441946.182   128443308.347                                                  
  24576283.388   129149236.012                                                  
  26967672.038   141716029.167                                                  
  26353430.878   138488190.161                                                  
  26160724.580   137475509.925                                                  
  26249511.574   137942077.364                                                  
  25656471.277   134825642.513                                                  
 21  8 31  6 18 58.0000000  0 22G 4G 7G 8G 9G14G16G27G30C20C23C25C28
                                C32C34E 1E 4E 9E13E19E21E26E31
  22417649.234   117805533.167    22417650.789    91796518.532                  
  21152056.813   111154822.403    21152056.187    86614150.508                  
  20499509.614   107725608.246    20499512.080    83942022.117                  
  20967949.303   110187285.302    20967951.322    85860214.241                  
  24593261.373   129238451.698    24593262.784   100705286.848                  
  24034696.425   126303187.683    24034695.657    98418069.886                  
  21647062.378   113756052.304    21647064.112    88641073.601                  
  23471439.072   123343205.320    23471441.234    96111578.813                  
                 131197026.640                   131197026.640    25195003.205  
                 115936923.094                   115936923.094    22264457.403  
                 128692757.790                   128692757.790    24714088.775  
                 127405846.727                   127405846.727    24466954.666  
                 128886926.845                   128886926.845    24751385.393  
                 130827498.968                   130827498.968    25124044.779  
  23992910.144   126083566.180                                                  
  24442137.542   128444314.012                                                  
  24575968.215   129147579.798                                                  
  26967619.235   141715751.738                                                  
  26354007.923   138491222.474                                                  
  26161077.422   137477364.106                                                  
  26249069.798   137939755.819                                                  
  25656193.503   134824182.845                                                  
 21  8 31  6 18 59.0000000  0 22G 4G 7G 8G 9G14G16G27G30C20C23C25C28
                                C32C34E 1E 4E 9E13E19E21E26E31
  22418276.276   117808828.335    22418277.813    91799086.196                  
  21151716.283   111153032.801    21151715.622    86612756.008                  
  20499505.343   107725585.671    20499507.773    83942004.528                  
  20968248.841   110188859.308    20968250.843    85861440.742                  
  24592727.821   129235647.836    24592729.215   100703102.015                  
  24035310.405   126306414.141    24035309.636    98420584.007                  
  21647449.064   113758084.257    21647450.780    88642656.941                  
  23470901.214   123340378.903    23470903.394    96109376.411                  
                 131196996.911                   131196996.911    25194997.487  
                 115937152.214                   115937152.214    22264501.397  
                 128694729.067                   128694729.067    24714467.349  
                 127402715.886                   127402715.886    24466353.427  
                 128889264.059                   128889264.059    24751834.245  
                 130829290.030                   130829290.030    25124388.739  
  23992988.785   126083979.391                                                  
  24442329.008   128445320.102                                                  
  24575653.112   129145923.930                                                  
  26967566.540   141715474.788                                                  
  26354584.967   138494254.880                                                  
  26161430.263   137479218.281                                                  
  26248628.076   137937434.468                                                  
  25655915.765   134822723.289                                                  
 21  8 31  6 19  0.0000000  0 22G 4G 7G 8G 9G14G16G27G30C20C23C25C28
                                C32C34E 1E 4E 9E13E19E21E26E31
  22418903.407   117812123.812    22418904.944    91801654.097                  
  21151375.753   111151243.392    21151375.127    86611361.663                  
  20499501.180   107725563.801    20499503.628    83941987.484                  
  20968548.451   110190433.897    20968550.488    85862667.695                  
  24592194.306   129232844.102    24592195.682   100700917.288                  
  24035924.366   126309640.593    24035923.616    98423098.128                  
  21647835.821   113760116.788    21647837.555    88644240.734                  
  23470363.374   123337552.516    23470365.554    96107174.031                  
                 131196967.702                   131196967.702    25194991.876  
                 115937381.515                   115937381.515    22264545.426  
                 128696700.458                   128696700.458    24714845.922  
                 127399585.187                   127399585.187    24465752.206  
                 128891601.533                   128891601.533    24752283.115  
                 130831081.552                   130831081.552    25124732.772  
  23993067.445   126084392.723                                                  
  24442520.546   128446326.633                                                  
  24575338.099   129144268.458                                                  
  26967513.915   141715198.301                                                  
  26355162.047   138497287.380                                                  
  26161783.105   137481072.457                                                  
  26248186.371   137935113.319                                                  
  25655638.044   134821263.855                                                  
 21  8 31  6 19  1.0000000  0 22G 4G 7G 8G 9G14G16G27G30C20C23C25C28
                                C32C34E 1E 4E 9E13E19E21E26E31
  22419530.556   117815419.596    22419532.093    91804222.241                  
  21151035.277   111149454.188    21151034.633    86609967.481                  
  20499497.141   107725542.620    20499499.607    83941970.979                  
  20968848.222   110192009.098    20968850.223    85863895.121                  
  24591660.808   129230040.560    24591662.184   100698732.712                  
  24036538.346   126312867.031    24036537.578    98425612.235                  
  21648222.721   113762149.929    21648224.455    88645825.000                  
  23469825.553   123334726.173    23469827.715    96104971.688                  
                 131196939.029                   131196939.029    25194986.372  
                 115937610.997                   115937610.997    22264589.491  
                 128698671.953                   128698671.953    24715224.548  
                 127396454.628                   127396454.628    24465151.003  
                 128893939.262                   128893939.262    24752732.056  
                 130832873.527                   130832873.527    25125076.893  
  23993146.122   126084806.187                                                  
  24442712.156   128447333.621                                                  
  24575023.140   129142613.358                                                  
  26967461.398   141714922.269                                                  
  26355739.127   138500319.965                                                  
  26162135.947   137482926.641                                                  
  26247744.703   137932792.347                                                  
  25655360.342   134819804.551                                                  
 21  8 31  6 19  2.0000000  0 22G 4G 7G 8G 9G14G16G27G30C20C23C25C28
                                C32C34E 1E 4E 9E13E19E21E26E31
  22420157.777   117818715.683    22420159.314    91806790.616                  
  21150694.854   111147665.187    21150694.193    86608573.454                  
  20499493.246   107725522.143    20499495.694    83941955.028                  
  20969148.082   110193584.902    20969150.083    85865123.019                  
  24591127.329   129227237.140    24591128.723   100696548.231                  
  24037152.308   126316093.454    24037151.557    98428126.324                  
  21648609.729   113764183.652    21648611.462    88647409.718                  
  23469287.713   123331899.853    23469289.875    96102769.358                  
                 131196910.875                   131196910.875    25194980.958  
                 115937840.661                   115937840.661    22264633.592  
                 128700643.559                   128700643.559    24715603.157  
                 127393324.208                   127393324.208    24464549.835  
                 128896277.253                   128896277.253    24753181.033  
                 130834665.965                   130834665.965    25125421.122  
  23993224.817   126085219.774                                                  
  24442903.855   128448341.038                                                  
  24574708.252   129140958.632                                                  
  26967408.953   141714646.704                                                  
  26356316.225   138503352.641                                                  
  26162488.789   137484780.828                                                  
  26247303.088   137930471.571                                                  
  25655082.675   134818345.379                                                  
 21  8 31  6 19  3.0000000  0 22G 4G 7G 8G 9G14G16G27G30C20C23C25C28
                                C32C34E 1E 4E 9E13E19E21E26E31
  22420785.087   117822012.081    22420786.623    91809359.242                  
  21150354.467   111145876.382    21150353.806    86607179.582                  
  20499489.475   107725502.362    20499491.941    83941939.610                  
  20969448.067   110195161.300    20969450.069    85866351.383                  
  24590593.885   129224433.876    24590595.279   100694363.867                  
  24037766.287   126319319.871    24037765.519    98430640.418                  
  21648996.843   113766217.973    21648998.576    88648994.901                  
  23468749.909   123329073.562    23468752.053    96100567.054                  
                 131196883.246                   131196883.246    25194975.669  
                 115938070.500                   115938070.500    22264677.746  
                 128702615.272                   128702615.272    24715981.802  
                 127390193.925                   127390193.925    24463948.703  
                 128898615.505                   128898615.505    24753630.082  
                 130836458.856                   130836458.856    25125765.440  
  23993303.548   126085633.493                                                  
  24443095.661   128449348.906                                                  
  24574393.436   129139304.286                                                  
  26967356.596   141714371.605                                                  
  26356893.341   138506385.423                                                  
  26162841.613   137486635.023                                                  
  26246861.473   137928151.000                                                  
  25654805.026   134816886.313                                                  
 21  8 31  6 19  4.0000000  0 22G 4G 7G 8G 9G14G16G27G30C20C23C25C28
                                C32C34E 1E 4E 9E13E19E21E26E31
  22421412.415   117825308.782    22421413.951    91811928.093                  
  21150014.098   111144087.774    21150013.436    86605785.860                  
  20499485.848   107725483.262    20499488.296    83941924.726                  
  20969748.160   110196738.296    20969750.161    85867580.211                  
  24590060.459   129221630.762    24590061.853   100692179.625                  
  24038380.231   126322546.274    24038379.481    98433154.496                  
  21649384.083   113768252.884    21649385.798    88650580.546                  
  23468212.087   123326247.322    23468214.231    96098364.789                  
                 131196856.148                   131196856.148    25194970.469  
                 115938300.522                   115938300.522    22264721.918  
                 128704587.093                   128704587.093    24716360.482  
                 127387063.785                   127387063.785    24463347.572  
                 128900954.017                   128900954.017    24754079.184  
                 130838252.207                   130838252.207    25126109.812  
  23993382.297   126086047.329                                                  
  24443287.521   128450357.218                                                  
  24574078.708   129137650.329                                                  
  26967304.347   141714096.973                                                  
  26357470.457   138509418.267                                                  
  26163194.454   137488489.216                                                  
  26246419.911   137925830.617                                                  
  25654527.395   134815427.387                                                  
 21  8 31  6 19  5.0000000  0 22G 4G 7G 8G 9G14G16G27G30C20C23C25C28
                                C32C34E 1E 4E 9E13E19E21E26E31
  22422039.814   117828605.793    22422041.368    91814497.195                  
  21149673.764   111142299.372    21149673.121    86604392.297                  
  20499482.346   107725464.836    20499484.794    83941910.371                  
  20970048.359   110198315.899    20970050.361    85868809.512                  
  24589527.086   129218827.797    24589528.480   100689995.497                  
  24038994.193   126325772.656    24038993.442    98435668.560                  
  21649771.412   113770288.364    21649773.145    88652166.637                  
  23467674.265   123323421.110    23467676.445    96096162.546                  
                 131196829.571                   131196829.571    25194965.358  
                 115938530.731                   115938530.731    22264766.126  
                 128706559.028                   128706559.028    24716739.162  
                 127383933.784                   127383933.784    24462746.493  
                 128903292.784                   128903292.784    24754528.304  
                 130840046.011                   130840046.011    25126454.291  
  23993461.081   126086461.298                                                  
  24443479.487   128451365.970                                                  
  24573764.035   129135996.743                                                  
  26967252.188   141713822.805                                                  
  26358047.626   138512451.216                                                  
  26163547.296   137490343.418                                                  
  26245978.421   137923510.428                                                  
  25654249.800   134813968.579                                                  
 21  8 31  6 19  6.0000000  0 22G 4G 7G 8G 9G14G16G27G30C20C23C25C28
                                C32C34E 1E 4E 9E13E19E21E26E31
  22422667.285   117831903.121    22422668.821    91817066.544                  
  21149333.484   111140511.181    21149332.841    86602998.901                  
  20499478.968   107725447.130    20499481.416    83941896.574                  
  20970348.684   110199894.098    20970350.685    85870039.278                  
  24588993.714   129216024.985    24588995.126   100687811.485                  
  24039608.155   126328999.035    24039607.404    98438182.621                  
  21650158.866   113772324.437    21650160.599    88653753.187                  
  23467136.461   123320594.928    23467138.641    96093960.331                  
                 131196803.523                   131196803.523    25194960.355  
                 115938761.114                   115938761.114    22264810.352  
                 128708531.067                   128708531.067    24717117.879  
                 127380803.925                   127380803.925    24462145.433  
                 128905631.816                   128905631.816    24754977.496  
                 130841840.278                   130841840.278    25126798.877  
  23993539.884   126086875.384                                                  
  24443671.526   128452375.156                                                  
  24573449.433   129134343.543                                                  
  26967200.082   141713549.091                                                  
  26358624.796   138515484.285                                                  
  26163900.138   137492197.625                                                  
  26245536.913   137921190.409                                                  
  25653972.222   134812509.894                                                  
 21  8 31  6 19  7.0000000  0 22G 4G 7G 8G 9G14G16G27G30C20C23C25C28
                                C32C34E 1E 4E 9E13E19E21E26E31
  22423294.809   117835200.769    22423296.346    91819636.137                  
  21148993.240   111138723.192    21148992.597    86601605.668                  
  20499475.734   107725430.151    20499478.200    83941883.344                  
  20970649.116   110201472.890    20970651.117    85871269.503                  
  24588460.395   129213222.320    24588461.789   100685627.594                  
  24040222.116   126332225.402    24040221.366    98440696.671                  
  21650546.445   113774361.097    21650548.160    88655340.195                  
  23466598.657   123317768.779    23466600.837    96091758.132                  
                 131196777.999                   131196777.999    25194955.459  
                 115938991.679                   115938991.679    22264854.632  
                 128710503.216                   128710503.216    24717496.595  
                 127377674.206                   127377674.206    24461544.426  
                 128907971.106                   128907971.106    24755426.723  
                 130843634.995                   130843634.995    25127143.535  
  23993618.704   126087289.604                                                  
  24443863.654   128453384.794                                                  
  24573134.920   129132690.735                                                  
  26967148.083   141713275.847                                                  
  26359201.983   138518517.457                                                  
  26164252.979   137494051.833                                                  
  26245095.477   137918870.610                                                  
  25653694.663   134811051.329                                                  
 21  8 31  6 19  8.0000000  0 22G 4G 7G 8G 9G14G16G27G30C20C23C25C28
                                C32C34E 1E 4E 9E13E19E21E26E31
  22423922.351   117838498.649    22423923.906    91822205.914                  
  21148653.032   111136935.356    21148652.389    86600212.551                  
  20499472.643   107725413.821    20499475.073    83941870.617                  
  20970949.655   110203052.281    20970951.674    85872500.199                  
  24587927.076   129210419.793    24587928.488   100683443.805                  
  24040836.060   126335451.732    24040835.328    98443210.696                  
  21650934.113   113776398.379    21650935.847    88656927.687                  
  23466060.871   123314942.688    23466063.033    96089555.985                  
                 131196753.004                   131196753.004    25194950.652  
                 115939222.426                   115939222.426    22264898.965  
                 128712475.473                   128712475.473    24717875.364  
                 127374544.624                   127374544.624    24460943.420  
                 128910310.653                   128910310.653    24755876.022  
                 130845430.175                   130845430.175    25127488.282  
  23993697.542   126087703.925                                                  
  24444055.889   128454394.890                                                  
  24572820.461   129131038.239                                                  
  26967096.173   141713003.087                                                  
  26359779.188   138521550.603                                                  
  26164605.821   137495906.017                                                  
  26244654.076   137916551.008                                                  
  25653417.139   134809592.900                                                  
 21  8 31  6 19  9.0000000  0 22G 4G 7G 8G 9G14G16G27G30C20C23C25C28
                                C32C34E 1E 4E 9E13E19E21E26E31
  22424550.001   117841796.896    22424551.537    91824775.972                  
  21148312.859   111135147.763    21148312.216    86598819.617                  
  20499469.659   107725398.227    20499472.125    83941858.468                  
  20971250.319   110204632.282    20971252.338    85873731.367                  
  24587393.829   129207617.439    24587395.205   100681260.152                  
  24041450.022   126338678.078    24041449.272    98445724.726                  
  21651321.907   113778436.227    21651323.640    88658515.621                  
  23465523.103   123312116.617    23465525.265    96087353.852                  
                 131196728.532                   131196728.532    25194945.952  
                 115939453.355                   115939453.355    22264943.298  
                 128714447.841                   128714447.841    24718254.116  
                 127371415.187                   127371415.187    24460342.449  
                 128912650.458                   128912650.458    24756325.356  
                 130847225.811                   130847225.811    25127833.119  
  23993776.398   126088118.389                                                  
  24444248.159   128455405.414                                                  
  24572506.074   129129386.168                                                  
  26967044.353   141712730.776                                                  
  26360356.393   138524583.933                                                  
  26164958.681   137497760.233                                                  
  26244212.694   137914231.582                                                  
  25653139.615   134808134.590                                                  
 21  8 31  6 19 10.0000000  0 22G 4G 7G 8G 9G14G16G27G30C20C23C25C28
                                C32C34E 1E 4E 9E13E19E21E26E31
  22425177.704   117845095.439    22425179.240    91827346.265                  
  21147972.740   111133360.364    21147972.079    86597426.839                  
  20499466.817   107725383.312    20499469.283    83941846.843                  
  20971551.108   110206212.881    20971553.128    85874963.005                  
  24586860.581   129204815.222    24586861.957   100679076.605                  
  24042063.984   126341904.402    24042063.216    98448238.747                  
  21651709.808   113780474.677    21651711.541    88660104.023                  
  23464985.317   123309290.585    23464987.479    96085151.749                  
                 131196704.587                   131196704.587    25194941.360  
                 115939684.465                   115939684.465    22264987.684  
                 128716420.313                   128716420.313    24718632.922  
                 127368285.887                   127368285.887    24459741.478  
                 128914990.522                   128914990.522    24756774.744  
                 130849021.901                   130849021.901    25128178.044  
  23993855.308   126088532.980                                                  
  24444440.555   128456416.382                                                  
  24572191.775   129127734.475                                                  
  26966992.640   141712458.935                                                  
  26360933.634   138527617.340                                                  
  26165311.522   137499614.444                                                  
  26243771.365   137911912.352                                                  
  25652862.145   134806676.413                                                  
 21  8 31  6 19 11.0000000  0 22G 4G 7G 8G 9G14G16G27G30C20C23C25C28
                                C32C34E 1E 4E 9E13E19E21E26E31
  22425805.442   117848394.284    22425806.979    91829916.796                  
  21147632.639   111131573.171    21147631.996    86596034.223                  
  20499464.119   107725369.097    20499466.585    83941835.765                  
  20971852.005   110207794.077    20971854.006    85876195.105                  
  24586327.352   129202013.156    24586328.746   100676893.176                  
  24042677.928   126345130.708    24042677.159    98450752.751                  
  21652097.816   113782513.704    21652099.567    88661692.874                  
  23464447.549   123306464.582    23464449.729    96082949.667                  
                 131196681.167                   131196681.167    25194936.857  
                 115939915.755                   115939915.755    22265032.107  
                 128718392.899                   128718392.899    24719011.745  
                 127365156.729                   127365156.729    24459140.560  
                 128917330.848                   128917330.848    24757224.186  
                 130850818.453                   130850818.453    25128523.042  
  23993934.217   126088947.682                                                  
  24444633.022   128457427.789                                                  
  24571877.549   129126083.155                                                  
  26966940.999   141712187.551                                                  
  26361510.893   138530650.852                                                  
  26165664.364   137501468.663                                                  
  26243330.053   137909593.314                                                  
  25652584.675   134805218.344                                                  
 21  8 31  6 19 12.0000000  0 22G 4G 7G 8G 9G14G16G27G30C20C23C25C28
                                C32C34E 1E 4E 9E13E19E21E26E31
  22426433.253   117851693.437    22426434.807    91832487.563                  
  21147292.574   111129786.188    21147291.949    86594641.769                  
  20499461.546   107725355.587    20499463.994    83941825.237                  
  20972153.008   110209375.882    20972155.028    85877427.676                  
  24585794.158   129199211.242    24585795.552   100674709.866                  
  24043291.854   126348356.999    24043291.121    98453266.746                  
  21652485.949   113784553.325    21652487.682    88663282.191                  
  23463909.780   123303638.617    23463911.960    96080747.621                  
                 131196658.274                   131196658.274    25194932.461  
                 115940147.222                   115940147.222    22265076.565  
                 128720365.590                   128720365.590    24719390.568  
                 127362027.711                   127362027.711    24458539.661  
                 128919671.430                   128919671.430    24757673.663  
                 130852615.456                   130852615.456    25128868.146  
  23994013.163   126089362.522                                                  
  24444825.561   128458439.651                                                  
  24571563.375   129124432.214                                                  
  26966889.447   141711916.634                                                  
  26362088.152   138533684.427                                                  
  26166017.206   137503322.879                                                  
  26242888.814   137907274.480                                                  
  25652307.241   134803760.419                                                  
 21  8 31  6 19 13.0000000  0 22G 4G 7G 8G 9G14G16G27G30C20C23C25C28
                                C32C34E 1E 4E 9E13E19E21E26E31
  22427061.116   117854992.899    22427062.653    91835058.569                  
  21146952.580   111127999.391    21146951.919    86593249.457                  
  20499459.098   107725342.766    20499461.564    83941815.249                  
  20972454.119   110210958.278    20972456.139    85878660.714                  
  24585261.018   129196409.480    24585262.394   100672526.680                  
  24043905.798   126351583.281    24043905.065    98455780.730                  
  21652874.189   113786593.533    21652875.922    88664871.961                  
  23463372.012   123300812.685    23463374.192    96078545.593                  
                 131196635.905                   131196635.905    25194928.155  
                 115940378.876                   115940378.876    22265121.041  
                 128722338.391                   128722338.391    24719769.427  
                 127358898.833                   127358898.833    24457938.797  
                 128922012.273                   128922012.273    24758123.194  
                 130854412.918                   130854412.918    25129213.322  
  23994092.126   126089777.480                                                  
  24445018.207   128459451.942                                                  
  24571249.274   129122781.651                                                  
  26966837.984   141711646.175                                                  
  26362665.464   138536718.109                                                  
  26166370.066   137505177.099                                                  
  26242447.574   137904955.835                                                  
  25652029.842   134802302.603                                                  
 21  8 31  6 19 14.0000000  0 22G 4G 7G 8G 9G14G16G27G30C20C23C25C28
                                C32C34E 1E 4E 9E13E19E21E26E31
  22427689.034   117858292.668    22427690.589    91837629.821                  
  21146612.604   111126212.796    21146611.943    86591857.310                  
  20499456.793   107725330.644    20499459.259    83941805.806                  
  20972755.355   110212541.263    20972757.357    85879894.207                  
  24584727.878   129193607.857    24584729.272   100670343.595                  
  24044519.742   126354809.554    24044518.991    98458294.707                  
  21653262.536   113788634.333    21653264.252    88666462.195                  
  23462834.280   123297986.796    23462836.442    96076343.605                  
                 131196614.062                   131196614.062    25194923.956  
                 115940610.706                   115940610.706    22265165.553  
                 128724311.302                   128724311.302    24720148.304  
                 127355770.097                   127355770.097    24457337.951  
                 128924353.372                   128924353.372    24758572.779  
                 130856210.840                   130856210.840    25129558.605  
  23994171.107   126090192.566                                                  
  24445210.924   128460464.685                                                  
  24570935.279   129121131.467                                                  
  26966786.592   141711376.188                                                  
  26363242.759   138539751.862                                                  
  26166722.907   137507031.321                                                  
  26242006.405   137902637.371                                                  
  25651752.443   134800844.921                                                  
 21  8 31  6 19 15.0000000  0 22G 4G 7G 8G 9G14G16G27G30C20C23C25C28
                                C32C34E 1E 4E 9E13E19E21E26E31
  22428317.023   117861592.734    22428318.560    91840201.301                  
  21146272.664   111124426.407    21146272.003    86590465.316                  
  20499454.613   107725319.220    20499457.079    83941796.902                  
  20973056.699   110214124.844    20973058.718    85881128.168                  
  24584194.773   129190806.394    24584196.185   100668160.637                  
  24045133.685   126358035.807    24045132.917    98460808.673                  
  21653651.009   113790675.714    21653652.742    88668052.884                  
  23462296.547   123295160.928    23462298.691    96074141.630                  
                 131196592.745                   131196592.745    25194919.882  
                 115940842.717                   115940842.717    22265210.118  
                 128726284.321                   128726284.321    24720527.199  
                 127352641.503                   127352641.503    24456737.141  
                 128926694.730                   128926694.730    24759022.399  
                 130858009.215                   130858009.215    25129903.960  
  23994250.124   126090607.773                                                  
  24445403.713   128461477.859                                                  
  24570621.321   129119481.665                                                  
  26966735.308   141711106.668                                                  
  26363820.071   138542785.727                                                  
  26167075.767   137508885.555                                                  
  26241565.237   137900319.124                                                  
  25651475.080   134799387.360                                                  
 21  8 31  6 19 16.0000000  0 22G 4G 7G 8G 9G14G16G27G30C20C23C25C28
                                C32C34E 1E 4E 9E13E19E21E26E31
  22428945.083   117864893.156    22428946.620    91842773.078                  
  21145932.759   111122640.176    21145932.098    86589073.434                  
  20499452.576   107725308.471    20499455.042    83941788.528                  
  20973358.167   110215709.071    20973360.186    85882362.640                  
  24583661.705   129188005.108    24583663.098   100665977.833                  
  24045747.612   126361262.016    24045746.861    98463322.581                  
  21654039.589   113792717.641    21654041.304    88669643.968                  
  23461758.797   123292335.101    23461760.959    96071939.684                  
                 131196571.957                   131196571.957    25194915.879  
                 115941074.915                   115941074.915    22265254.701  
                 128728257.445                   128728257.445    24720906.111  
                 127349513.046                   127349513.046    24456136.367  
                 128929036.347                   128929036.347    24759472.109  
                 130859808.047                   130859808.047    25130249.404  
  23994329.158   126091023.206                                                  
  24445596.591   128462491.341                                                  
  24570307.433   129117832.255                                                  
  26966684.096   141710837.596                                                  
  26364397.437   138545819.668                                                  
  26167428.609   137510739.739                                                  
  26241124.140   137898000.972                                                  
  25651197.735   134797929.925                                                  
 21  8 31  6 19 17.0000000  0 22G 4G 7G 8G 9G14G16G27G30C20C23C25C28
                                C32C34E 1E 4E 9E13E19E21E26E31
  22429573.179   117868193.835    22429574.716    91845345.031                  
  21145592.908   111120854.188    21145592.247    86587681.755                  
  20499450.664   107725298.418    20499453.112    83941780.692                  
  20973659.742   110217293.863    20973661.762    85883597.548                  
  24583128.654   129185203.954    24583130.065   100663795.113                  
  24046361.538   126364488.234    24046360.805    98465836.515                  
  21654428.258   113794760.208    21654429.991    88671235.579                  
  23461221.064   123289509.324    23461223.244    96069737.782                  
                 131196551.690                   131196551.690    25194912.001  
                 115941307.289                   115941307.289    22265299.338  
                 128730230.685                   128730230.685    24721285.060  
                 127346384.734                   127346384.734    24455535.592  
                 128931378.223                   128931378.223    24759921.819  
                 130861607.336                   130861607.336    25130594.937  
  23994408.229   126091438.665                                                  
  24445789.577   128463505.410                                                  
  24569993.635   129116183.216                                                  
  26966633.008   141710569.024                                                  
  26364974.785   138548853.673                                                  
  26167781.432   137512593.946                                                  
  26240683.061   137895683.095                                                  
  25650920.426   134796472.602                                                  
 21  8 31  6 19 18.0000000  0 22G 4G 7G 8G 9G14G16G27G30C20C23C25C28
                                C32C34E 1E 4E 9E13E19E21E26E31
  22430201.311   117871494.825    22430202.866    91847917.232                  
  21145253.057   111119068.397    21145252.414    86586290.230                  
  20499448.877   107725289.060    20499451.343    83941773.398                  
  20973961.443   110218879.249    20973963.444    85884832.911                  
  24582595.639   129182402.938    24582597.032   100661612.503                  
  24046975.481   126367714.443    24046974.713    98468350.441                  
  21654817.052   113796803.368    21654818.803    88672827.651                  
  23460683.332   123286683.577    23460685.512    96067535.899                  
                 131196531.949                   131196531.949    25194908.195  
                 115941539.844                   115941539.844    22265343.993  
                 128732204.026                   128732204.026    24721664.026  
                 127343256.562                   127343256.562    24454934.854  
                 128933720.354                   128933720.354    24760371.600  
                 130863407.078                   130863407.078    25130940.560  
  23994487.299   126091854.253                                                  
  24445982.634   128464519.917                                                  
  24569679.927   129114534.543                                                  
  26966581.974   141710300.894                                                  
  26365552.151   138551887.802                                                  
  26168134.292   137514448.180                                                  
  26240242.018   137893365.426                                                  
  25650643.116   134795015.402                                                  
 21  8 31  6 19 19.0000000  0 22G 4G 7G 8G 9G14G16G27G30C20C23C25C28
                                C32C34E 1E 4E 9E13E19E21E26E31
  22430829.533   117874796.121    22430831.087    91850489.667                  
  21144913.278   111117282.809    21144912.634    86584898.860                  
  20499447.233   107725280.386    20499449.699    83941766.641                  
  20974263.233   110220465.245    20974265.234    85886068.750                  
  24582062.659   129179602.072    24582064.053   100659430.012                  
  24047589.407   126370940.628    24047588.639    98470864.354                  
  21655205.971   113798847.106    21655207.705    88674420.177                  
  23460145.635   123283857.867    23460147.797    96065334.047                  
                 131196512.738                   131196512.738    25194904.514  
                 115941772.582                   115941772.582    22265388.683  
                 128734177.482                   128734177.482    24722042.992  
                 127340128.530                   127340128.530    24454334.168  
                 128936062.745                   128936062.745    24760821.435  
                 130865207.282                   130865207.282    25131286.254  
  23994566.405   126092269.968                                                  
  24446175.780   128465534.878                                                  
  24569366.254   129112886.257                                                  
  26966531.048   141710033.238                                                  
  26366129.553   138554922.019                                                  
  26168487.134   137516302.423                                                  
  26239801.029   137891047.937                                                  
  25650365.861   134793558.337                                                  
 21  8 31  6 19 20.0000000  0 22G 4G 7G 8G 9G14G16G27G30C20C23C25C28
                                C32C34E 1E 4E 9E13E19E21E26E31
  22431457.825   117878097.719    22431459.362    91853062.339                  
  21144573.534   111115497.426    21144572.873    86583507.652                  
  20499445.714   107725272.433    20499448.180    83941760.445                  
  20974565.166   110222051.831    20974567.167    85887305.050                  
  24581529.698   129176801.361    24581531.092   100657247.638                  
  24048203.316   126374166.808    24048202.565    98473378.258                  
  21655594.998   113800891.442    21655596.749    88676013.164                  
  23459607.920   123281032.184    23459610.082    96063132.214                  
                 131196494.049                   131196494.049    25194900.922  
                 115942005.500                   115942005.500    22265433.427  
                 128736151.044                   128736151.044    24722421.994  
                 127337000.646                   127337000.646    24453733.483  
                 128938405.394                   128938405.394    24761271.323  
                 130867007.937                   130867007.937    25131632.055  
  23994645.547   126092685.794                                                  
  24446368.998   128466550.282                                                  
  24569052.653   129111238.350                                                  
  26966480.192   141709766.038                                                  
  26366706.955   138557956.329                                                  
  26168839.993   137518156.672                                                  
  26239360.039   137888730.647                                                  
  25650088.623   134792101.407                                                  
 21  8 31  6 19 21.0000000  0 22G 4G 7G 8G 9G14G16G27G30C20C23C25C28
                                C32C34E 1E 4E 9E13E19E21E26E31
  22432086.154   117881399.625    22432087.708    91855635.255                  
  21144233.826   111113712.245    21144233.183    86582116.605                  
  20499444.338   107725265.179    20499446.804    83941754.792                  
  20974867.188   110223639.015    20974869.207    85888541.817                  
  24580996.772   129174000.794    24580998.166   100655065.380                  
  24048817.242   126377392.964    24048816.473    98475892.144                  
  21655984.131   113802936.368    21655985.865    88677606.613                  
  23459070.223   123278206.539    23459072.386    96060930.415                  
                 131196475.887                   131196475.887    25194897.438  
                 115942238.599                   115942238.599    22265478.171  
                 128738124.715                   128738124.715    24722801.014  
                 127333872.896                   127333872.896    24453132.816  
                 128940748.302                   128940748.302    24761721.265  
                 130868809.054                   130868809.054    25131977.964  
  23994724.671   126093101.746                                                  
  24446562.305   128467566.118                                                  
  24568739.158   129109590.816                                                  
  26966429.444   141709499.309                                                  
  26367284.392   138560990.728                                                  
  26169192.853   137520010.929                                                  
  26238919.121   137886413.548                                                  
  25649811.403   134790644.591                                                  
 21  8 31  6 19 22.0000000  0 22G 4G 7G 8G 9G14G16G27G30C20C23C25C28
                                C32C34E 1E 4E 9E13E19E21E26E31
  22432714.536   117884701.836    22432716.073    91858208.406                  
  21143894.154   111111927.273    21143893.493    86580725.715                  
  20499443.105   107725258.624    20499445.553    83941749.684                  
  20975169.335   110225226.793    20975171.337    85889779.046                  
  24580463.882   129171200.388    24580465.258   100652883.243                  
  24049431.132   126380619.105    24049430.399    98478406.023                  
  21656373.372   113804981.863    21656375.124    88679200.503                  
  23458532.527   123275380.932    23458534.689    96058728.643                  
                 131196458.249                   131196458.249    25194894.043  
                 115942471.878                   115942471.878    22265522.987  
                 128740098.495                   128740098.495    24723180.052  
                 127330745.288                   127330745.288    24452532.203  
                 128943091.466                   128943091.466    24762171.243  
                 130870610.625                   130870610.625    25132323.926  
  23994803.867   126093517.827                                                  
  24446755.701   128468582.399                                                  
  24568425.718   129107943.663                                                  
  26966378.768   141709233.034                                                  
  26367861.848   138564025.212                                                  
  26169545.695   137521865.172                                                  
  26238478.220   137884096.645                                                  
  25649534.200   134789187.898                                                  
 21  8 31  6 19 23.0000000  0 22G 4G 7G 8G 9G14G16G27G30C20C23C25C28
                                C32C34E 1E 4E 9E13E19E21E26E31
  22433342.972   117888004.349    22433344.544    91860781.789                  
  21143554.517   111110142.501    21143553.874    86579334.983                  
  20499441.980   107725252.767    20499444.445    83941745.118                  
  20975471.608   110226815.174    20975473.591    85891016.751                  
  24579930.992   129168400.120    24579932.404   100650701.218                  
  24050045.058   126383845.246    24050044.325    98480919.894                  
  21656762.738   113807027.966    21656764.472    88680794.871                  
  23457994.848   123272555.364    23457996.992    96056526.902                  
                 131196441.140                   131196441.140    25194890.755  
                 115942705.337                   115942705.337    22265567.820  
                 128742072.384                   128742072.384    24723559.143  
                 127327617.825                   127327617.825    24451931.607  
                 128945434.888                   128945434.888    24762621.256  
                 130872412.650                   130872412.650    25132669.977  
  23994883.062   126093934.026                                                  
  24446949.187   128469599.124                                                  
  24568112.349   129106296.894                                                  
  26966328.181   141708967.226                                                  
  26368439.303   138567059.792                                                  
  26169898.554   137523719.429                                                  
  26238037.374   137881779.934                                                  
  25649257.016   134787731.329                                                  
 21  8 31  6 19 24.0000000  0 22G 4G 7G 8G 9G14G16G27G30C20C23C25C28
                                C32C34E 1E 4E 9E13E19E21E26E31
  22433971.497   117891307.165    22433973.033    91863355.414                  
  21143214.934   111108357.930    21143214.273    86577944.407                  
  20499440.997   107725247.614    20499443.463    83941741.105                  
  20975773.952   110228404.172    20975775.989    85892254.927                  
  24579398.156   129165600.019    24579399.567   100648519.320                  
  24050658.984   126387071.379    24050658.216    98483433.762                  
  21657152.212   113809074.647    21657153.945    88682389.692                  
  23457457.169   123269729.833    23457459.313    96054325.192                  
                 131196424.554                   131196424.554    25194887.574  
                 115942938.979                   115942938.979    22265612.671  
                 128744046.380                   128744046.380    24723938.217  
                 127324490.499                   127324490.499    24451331.047  
                 128947778.567                   128947778.567    24763071.341  
                 130874215.134                   130874215.134    25133016.136  
  23994962.294   126094350.369                                                  
  24447142.744   128470616.301                                                  
  24567799.033   129104650.505                                                  
  26966277.683   141708701.890                                                  
  26369016.776   138570094.470                                                  
  26170251.414   137525573.684                                                  
  26237596.563   137879463.418                                                  
  25648979.868   134786274.895                                                  
 21  8 31  6 19 25.0000000  0 22G 4G 7G 8G 9G14G16G27G30C20C23C25C28
                                C32C34E 1E 4E 9E13E19E21E26E31
  22434600.057   117894610.297    22434601.594    91865929.281                  
  21142875.387   111106573.563    21142874.726    86576553.993                  
  20499440.139   107725243.133    20499442.605    83941737.613                  
  20976076.456   110229993.751    20976078.458    85893493.560                  
  24578865.337   129162800.060    24578866.749   100646337.535                  
  24051272.874   126390297.485    24051272.142    98485947.613                  
  21657541.792   113811121.915    21657543.525    88683984.961                  
  23456919.472   123266904.341    23456921.634    96052123.507                  
                 131196408.497                   131196408.497    25194884.501  
                 115943172.802                   115943172.802    22265657.576  
                 128746020.489                   128746020.489    24724317.326  
                 127321363.319                   127321363.319    24450730.505  
                 128950122.504                   128950122.504    24763521.462  
                 130876018.071                   130876018.071    25133362.366  
  23995041.543   126094766.828                                                  
  24447336.373   128471633.909                                                  
  24567485.825   129103004.487                                                  
  26966227.274   141708437.012                                                  
  26369594.285   138573129.203                                                  
  26170604.256   137527427.944                                                  
  26237155.788   137877147.103                                                  
  25648702.737   134784818.581                                                  
 21  8 31  6 19 26.0000000  0 22G 4G 7G 8G 9G14G16G27G30C20C23C25C28
                                C32C34E 1E 4E 9E13E19E21E26E31
  22435228.672   117897913.723    22435230.226    91868503.379                  
  21142535.858   111104789.392    21142535.215    86575163.730                  
  20499439.424   107725239.339    20499441.872    83941734.656                  
  20976379.068   110231583.923    20976381.052    85894732.652                  
  24578332.554   129160000.250    24578333.948   100644155.867                  
  24051886.800   126393523.583    24051886.032    98488461.453                  
  21657931.480   113813169.773    21657933.213    88685580.696                  
  23456381.829   123264078.872    23456383.973    96049921.843                  
                 131196392.961                   131196392.961    25194881.517  
                 115943406.805                   115943406.805    22265702.517  
                 128747994.703                   128747994.703    24724696.453  
                 127318236.281                   127318236.281    24450129.980  
                 128952466.700                   128952466.700    24763971.636  
                 130877821.466                   130877821.466    25133708.704  
  23995120.828   126095183.400                                                  
  24447530.091   128472651.966                                                  
  24567172.653   129101358.852                                                  
  26966176.973   141708172.612                                                  
  26370171.776   138576164.054                                                  
  26170957.115   137529282.216                                                  
  26236715.013   137874830.969                                                  
  25648425.642   134783362.379                                                  
 21  8 31  6 19 27.0000000  0 22G 4G 7G 8G 9G14G16G27G30C20C23C25C28
                                C32C34E 1E 4E 9E13E19E21E26E31
  22435857.357   117901217.466    22435858.894    91871077.722                  
  21142196.382   111103005.423    21142195.739    86573773.624                  
  20499438.835   107725236.237    20499441.300    83941732.242                  
  20976681.752   110233174.699    20976683.789    85895972.218                  
  24577799.807   129157200.586    24577801.201   100641974.311                  
  24052500.708   126396749.668    24052499.940    98490975.286                  
  21658321.292   113815218.211    21658323.026    88687176.878                  
  23455844.168   123261253.450    23455846.312    96047720.218                  
                 131196377.954                   131196377.954    25194878.622  
                 115943640.991                   115943640.991    22265747.493  
                 128749969.028                   128749969.028    24725075.598  
                 127315109.386                   127315109.386    24449529.474  
                 128954811.152                   128954811.152    24764421.882  
                 130879625.316                   130879625.316    25134055.095  
  23995200.112   126095600.100                                                  
  24447723.917   128473670.460                                                  
  24566859.587   129099713.594                                                  
  26966126.743   141707908.668                                                  
  26370749.321   138579198.980                                                  
  26171309.975   137531136.480                                                  
  26236274.327   137872515.044                                                  
  25648148.547   134781906.308                                                  
 21  8 31  6 19 28.0000000  0 22G 4G 7G 8G 9G14G16G27G30C20C23C25C28
                                C32C34E 1E 4E 9E13E19E21E26E31
  22436486.097   117904521.499    22436487.634    91873652.298                  
  21141856.942   111101221.660    21141856.299    86572383.679                  
  20499438.388   107725233.840    20499440.836    83941730.371                  
  20976984.596   110234766.077    20976986.597    85897212.257                  
  24577267.078   129154401.087    24577268.454   100639792.884                  
  24053114.599   126399975.733    24053113.848    98493489.100                  
  21658711.212   113817267.255    21658712.946    88688773.539                  
  23455306.507   123258428.058    23455308.651    96045518.613                  
                 131196363.470                   131196363.470    25194875.834  
                 115943875.355                   115943875.355    22265792.505  
                 128751943.457                   128751943.457    24725454.778  
                 127311982.630                   127311982.630    24448929.021  
                 128957155.860                   128957155.860    24764872.163  
                 130881429.621                   130881429.621    25134401.593  
  23995279.433   126096016.930                                                  
  24447917.813   128474689.397                                                  
  24566546.576   129098068.719                                                  
  26966076.603   141707645.198                                                  
  26371326.865   138582234.019                                                  
  26171662.834   137532990.755                                                  
  26235833.641   137870199.306                                                  
  25647871.506   134780450.367                                                  
 21  8 31  6 19 29.0000000  0 22G 4G 7G 8G 9G14G16G27G30C20C23C25C28
                                C32C34E 1E 4E 9E13E19E21E26E31
  22437114.908   117907825.844    22437116.445    91876227.109                  
  21141517.538   111099438.105    21141516.895    86570993.898                  
  20499438.066   107725232.152    20499440.514    83941729.059                  
  20977287.547   110236358.048    20977289.548    85898452.749                  
  24576734.385   129151601.723    24576735.761   100637611.559                  
  24053728.507   126403201.790    24053727.738    98496002.911                  
  21659101.240   113819316.876    21659102.973    88690370.645                  
  23454768.864   123255602.703    23454771.026    96043317.036                  
                 131196349.513                   131196349.513    25194873.154  
                 115944109.901                   115944109.901    22265837.535  
                 128753918.000                   128753918.000    24725833.959  
                 127308856.016                   127308856.016    24448328.604  
                 128959500.823                   128959500.823    24765322.481  
                 130883234.387                   130883234.387    25134748.180  
  23995358.772   126096433.880                                                  
  24448111.799   128475708.778                                                  
  24566233.636   129096424.219                                                  
  26966026.551   141707382.192                                                  
  26371904.428   138585269.128                                                  
  26172015.694   137534845.027                                                  
  26235393.026   137867883.774                                                  
  25647594.464   134778994.546                                                  
 21  8 31  6 19 30.0000000  0 22G 4G 7G 8G 9G14G16G27G30C20C23C25C28
                                C32C34E 1E 4E 9E13E19E21E26E31
  22437743.754   117911130.493    22437745.291    91878802.161                  
  21141178.187   111097654.753    21141177.544    86569604.268                  
  20499437.888   107725231.175    20499440.318    83941728.297                  
  20977590.606   110237950.620    20977592.607    85899693.714                  
  24576201.691   129148802.521    24576203.103   100635430.364                  
  24054342.379   126406427.817    24054341.647    98498516.700                  
  21659491.374   113821367.090    21659493.125    88691968.214                  
  23454231.203   123252777.375    23454233.383    96041115.484                  
                 131196336.079                   131196336.079    25194870.581  
                 115944344.634                   115944344.634    22265882.619  
                 128755892.653                   128755892.653    24726213.176  
                 127305729.548                   127305729.548    24447728.187  
                 128961846.046                   128961846.046    24765772.852  
                 130885039.602                   130885039.602    25135094.857  
  23995438.146   126096850.956                                                  
  24448305.857   128476728.610                                                  
  24565920.767   129094780.097                                                  
  26965976.608   141707119.632                                                  
  26372482.008   138588304.336                                                  
  26172368.536   137536699.302                                                  
  26234952.412   137865568.421                                                  
  25647317.441   134777538.851                                                  
 21  8 31  6 19 31.0000000  0 22G 4G 7G 8G 9G14G16G27G30C20C23C25C28
                                C32C34E 1E 4E 9E13E19E21E26E31
  22438372.655   117914435.448    22438374.191    91881377.448                  
  21140838.855   111095871.597    21140838.211    86568214.801                  
  20499437.816   107725230.899    20499440.282    83941728.078                  
  20977893.754   110239543.790    20977895.773    85900935.144                  
  24575669.051   129146003.462    24575670.445   100633249.282                  
  24054956.287   126409653.835    24054955.537    98501030.476                  
  21659881.633   113823417.894    21659883.385    88693566.243                  
  23453693.577   123249952.106    23453695.740    96038913.973                  
                 131196323.171                   131196323.171    25194868.097  
                 115944579.538                   115944579.538    22265927.738  
                 128757867.411                   128757867.411    24726592.392  
                 127302603.220                   127302603.220    24447127.806  
                 128964191.527                   128964191.527    24766223.276  
                 130886845.278                   130886845.278    25135441.623  
  23995517.538   126097268.164                                                  
  24448500.022   128477748.871                                                  
  24565607.987   129093136.366                                                  
  26965926.717   141706857.554                                                  
  26373059.607   138591339.642                                                  
  26172721.395   137538553.583                                                  
  26234511.851   137863253.273                                                  
  25647040.453   134776083.274                                                  
 21  8 31  6 19 32.0000000  0 22G 4G 7G 8G 9G14G16G27G30C20C23C25C28
                                C32C34E 1E 4E 9E13E19E21E26E31
  22439001.644   117917740.708    22439003.181    91883952.973                  
  21140499.576   111094088.644    21140498.914    86566825.489                  
  20499437.905   107725231.304    20499440.353    83941728.398                  
  20978197.063   110241137.554    20978199.064    85902177.040                  
  24575136.447   129143204.556    24575137.841   100631068.313                  
  24055570.178   126412879.841    24055569.427    98503544.247                  
  21660272.000   113825469.284    21660273.733    88695164.731                  
  23453155.952   123247126.857    23453158.114    96036712.481                  
                 131196310.790                   131196310.790    25194865.738  
                 115944814.629                   115944814.629    22265972.875  
                 128759842.276                   128759842.276    24726971.662  
                 127299477.034                   127299477.034    24446527.460  
                 128966537.264                   128966537.264    24766673.754  
                 130888651.406                   130888651.406    25135788.461  
  23995596.948   126097685.489                                                  
  24448694.258   128478769.578                                                  
  24565295.262   129091493.007                                                  
  26965876.934   141706595.936                                                  
  26373637.223   138594375.020                                                  
  26173074.255   137540407.863                                                  
  26234071.344   137860938.316                                                  
  25646763.501   134774627.826                                                  
 21  8 31  6 19 33.0000000  0 22G 4G 7G 8G 9G14G16G27G30C20C23C25C28
                                C32C34E 1E 4E 9E13E19E21E26E31
  22439630.652   117921046.265    22439632.206    91886528.734                  
  21140160.314   111092305.890    21140159.689    86565436.328                  
  20499438.102   107725232.402    20499440.568    83941729.253                  
  20978500.443   110242731.922    20978502.462    85903419.407                  
  24574603.861   129140405.793    24574605.237   100628887.462                  
  24056184.068   126416105.833    24056183.317    98506058.007                  
  21660662.474   113827521.262    21660664.225    88696763.673                  
  23452618.345   123244301.640    23452620.507    96034511.016                  
                 131196298.935                   131196298.935    25194863.451  
                 115945049.902                   115945049.902    22266018.066  
                 128761817.255                   128761817.255    24727350.932  
                 127296350.993                   127296350.993    24445927.133  
                 128968883.257                   128968883.257    24767124.286  
                 130890457.993                   130890457.993    25136135.406  
  23995676.376   126098102.921                                                  
  24448888.584   128479790.730                                                  
  24564982.607   129089850.024                                                  
  26965827.240   141706334.788                                                  
  26374214.857   138597410.475                                                  
  26173427.115   137542262.156                                                  
  26233630.855   137858623.547                                                  
  25646486.567   134773172.504                                                  
 21  8 31  6 19 34.0000000  0 22G 4G 7G 8G 9G14G16G27G30C20C23C25C28
                                C32C34E 1E 4E 9E13E19E21E26E31
  22440259.749   117924352.129    22440261.303    91889104.730                  
  21139821.124   111090523.336    21139820.481    86564047.325                  
  20499438.441   107725234.177    20499440.907    83941730.637                  
  20978803.966   110244326.886    20978805.967    85904662.233                  
  24574071.293   129137607.195    24574072.704   100626706.734                  
  24056797.940   126419331.804    24056797.208    98508571.751                  
  21661053.073   113829573.818    21661054.806    88698363.067                  
  23452080.719   123241476.468    23452082.882    96032309.583                  
                 131196287.606                   131196287.606    25194861.271  
                 115945285.356                   115945285.356    22266063.274  
                 128763792.339                   128763792.339    24727730.220  
                 127293225.089                   127293225.089    24445326.841  
                 128971229.509                   128971229.509    24767574.853  
                 130892265.030                   130892265.030    25136482.423  
  23995755.839   126098520.501                                                  
  24449082.981   128480812.323                                                  
  24564670.025   129088207.426                                                  
  26965777.636   141706074.100                                                  
  26374792.509   138600446.042                                                  
  26173779.974   137544116.443                                                  
  26233190.401   137856308.980                                                  
  25646209.633   134771717.302                                                  
 21  8 31  6 19 35.0000000  0 22G 4G 7G 8G 9G14G16G27G30C20C23C25C28
                                C32C34E 1E 4E 9E13E19E21E26E31
  22440888.899   117927658.278    22440890.436    91891680.938                  
  21139481.953   111088740.987    21139481.291    86562658.479                  
  20499438.924   107725236.583    20499441.408    83941732.477                  
  20979107.596   110245922.410    20979109.598    85905905.481                  
  24573538.742   129134809.008    24573540.100   100624526.449                  
  24057411.795   126422557.896    24057411.044    98511085.645                  
  21661443.779   113831626.981    21661445.495    88699962.936                  
  23451543.112   123238651.351    23451545.274    96030108.200                  
                 131196276.821                   131196276.821    25194859.198  
                 115945520.999                   115945520.999    22266108.537  
                 128765767.544                   128765767.544    24728109.543  
                 127290099.357                   127290099.357    24444726.567  
                 128973576.063                   128973576.063    24768025.474  
                 130894072.571                   130894072.571    25136829.546  
  23995835.338   126098938.188                                                  
  24449277.467   128481834.357                                                  
  24564357.531   129086565.188                                                  
  26965728.103   141705814.023                                                  
  26375370.179   138603481.641                                                  
  26174132.816   137545970.900                                                  
  26232749.966   137853994.856                                                  
  25645932.735   134770262.341                                                  
 21  8 31  6 19 36.0000000  0 22G 4G 7G 8G 9G14G16G27G30C20C23C25C28
                                C32C34E 1E 4E 9E13E19E21E26E31
  22441518.103   117930964.750    22441519.640    91894257.405                  
  21139142.816   111086958.835    21139142.173    86561269.789                  
  20499439.531   107725239.747    20499441.997    83941734.942                  
  20979411.334   110247518.562    20979413.335    85907149.233                  
  24573006.245   129132010.694    24573007.603   100622345.950                  
  24058025.685   126425783.829    24058024.917    98513599.355                  
  21661834.575   113833680.699    21661836.326    88701563.238                  
  23451005.522   123235826.249    23451007.685    96027906.819                  
                 131196266.548                   131196266.548    25194857.233  
                 115945756.819                   115945756.819    22266153.817  
                 128767742.852                   128767742.852    24728488.885  
                 127286973.747                   127286973.747    24444126.328  
                 128975922.827                   128975922.827    24768476.149  
                 130895880.527                   130895880.527    25137176.741  
  23995914.838   126099356.006                                                  
  24449472.043   128482856.827                                                  
  24564045.091   129084923.343                                                  
  26965678.677   141705554.269                                                  
  26375947.866   138606517.372                                                  
  26174485.675   137547825.192                                                  
  26232309.584   137851680.677                                                  
  25645655.854   134768807.382                                                  
 21  8 31  6 19 37.0000000  0 22G 4G 7G 8G 9G14G16G27G30C20C23C25C28
                                C32C34E 1E 4E 9E13E19E21E26E31
  22442147.361   117934271.518    22442148.897    91896834.110                  
  21138803.716   111085176.871    21138803.073    86559881.250                  
  20499440.282   107725243.629    20499442.748    83941737.965                  
  20979715.179   110249115.310    20979717.198    85908393.452                  
  24572473.766   129129212.539    24572475.124   100620165.567                  
  24058639.558   126429009.741    24058638.807    98516113.055                  
  21662225.513   113835735.015    21662227.246    88703164.004                  
  23450467.915   123233001.171    23450470.077    96025705.457                  
                 131196256.796                   131196256.796    25194855.356  
                 115945992.823                   115945992.823    22266199.133  
                 128769718.270                   128769718.270    24728868.244  
                 127283848.276                   127283848.276    24443526.126  
                 128978269.855                   128978269.855    24768926.859  
                 130897688.940                   130897688.940    25137524.026  
  23995994.373   126099773.948                                                  
  24449666.708   128483879.746                                                  
  24563732.741   129083281.875                                                  
  26965629.323   141705294.960                                                  
  26376525.554   138609553.203                                                  
  26174838.535   137549679.485                                                  
  26231869.237   137849366.688                                                  
  25645379.027   134767352.547                                                  
 21  8 31  6 19 38.0000000  0 22G 4G 7G 8G 9G14G16G27G30C20C23C25C28
                                C32C34E 1E 4E 9E13E19E21E26E31
  22442776.672   117937578.589    22442778.227    91899411.046                  
  21138464.687   111083395.121    21138464.026    86558492.871                  
  20499441.140   107725248.204    20499443.606    83941741.532                  
  20980019.167   110250712.665    20980021.168    85909638.145                  
  24571941.323   129126414.528    24571942.681   100617985.301                  
  24059253.412   126432235.648    24059252.662    98518626.751                  
  21662616.559   113837789.921    21662618.274    88704765.230                  
  23449930.343   123230176.142    23449932.505    96023504.136                  
                 131196247.575                   131196247.575    25194853.587  
                 115946229.004                   115946229.004    22266244.484  
                 128771693.798                   128771693.798    24729247.622  
                 127280722.957                   127280722.957    24442925.923  
                 128980617.136                   128980617.136    24769377.641  
                 130899497.810                   130899497.810    25137871.400  
  23996073.943   126100192.013                                                  
  24449861.445   128484903.106                                                  
  24563420.462   129081640.793                                                  
  26965580.076   141705036.136                                                  
  26377103.277   138612589.112                                                  
  26175191.395   137551533.781                                                  
  26231428.945   137847052.882                                                  
  25645102.200   134765897.833                                                  
 21  8 31  6 19 39.0000000  0 22G 4G 7G 8G 9G14G16G27G30C20C23C25C28
                                C32C34E 1E 4E 9E13E19E21E26E31
  22443406.055   117940885.962    22443407.591    91901988.220                  
  21138125.658   111081613.579    21138124.997    86557104.657                  
  20499442.140   107725253.468    20499444.624    83941745.632                  
  20980323.244   110252310.610    20980325.263    85910883.297                  
  24571408.916   129123616.675    24571410.274   100615805.156                  
  24059867.302   126435461.540    24059866.534    98521140.431                  
  21663007.694   113839845.411    21663009.445    88706366.911                  
  23449392.754   123227351.145    23449394.916    96021302.840                  
                 131196238.875                   131196238.875    25194851.926  
                 115946465.368                   115946465.368    22266289.872  
                 128773669.428                   128773669.428    24729627.017  
                 127277597.774                   127277597.774    24442325.756  
                 128982964.671                   128982964.671    24769828.441  
                 130901307.130                   130901307.130    25138218.863  
  23996153.514   126100610.204                                                  
  24450056.253   128485926.906                                                  
  24563108.236   129080000.087                                                  
  26965530.918   141704777.761                                                  
  26377681.019   138615625.116                                                  
  26175544.254   137553388.073                                                  
  26230988.688   137844739.292                                                  
  25644825.391   134764443.262                                                  
 21  8 31  6 19 40.0000000  0 22G 4G 7G 8G 9G14G16G27G30C20C23C25C28
                                C32C34E 1E 4E 9E13E19E21E26E31
  22444035.473   117944193.640    22444037.046    91904565.633                  
  21137786.683   111079832.234    21137786.039    86555716.598                  
  20499443.284   107725259.390    20499445.732    83941750.251                  
  20980627.446   110253909.160    20980629.448    85912128.918                  
  24570876.526   129120818.969    24570877.884   100613625.125                  
  24060481.157   126438687.417    24060480.407    98523654.097                  
  21663398.954   113841901.488    21663400.705    88707969.046                  
  23448855.200   123224526.187    23448857.362    96019101.578                  
                 131196230.704                   131196230.704    25194850.335  
                 115946701.915                   115946701.915    22266335.295  
                 128775645.175                   128775645.175    24730006.447  
                 127274472.739                   127274472.739    24441725.625  
                 128985312.464                   128985312.464    24770279.312  
                 130903116.907                   130903116.907    25138566.397  
  23996233.121   126101028.513                                                  
  24450251.168   128486951.146                                                  
  24562796.100   129078359.766                                                  
  26965481.832   141704519.875                                                  
  26378258.760   138618661.199                                                  
  26175897.132   137555242.378                                                  
  26230548.466   137842425.899                                                  
  25644548.636   134762988.805                                                  
 21  8 31  6 19 41.0000000  0 22G 4G 7G 8G 9G14G16G27G30C20C23C25C28
                                C32C34E 1E 4E 9E13E19E21E26E31
  22444664.981   117947501.629    22444666.518    91907143.285                  
  21137447.743   111078051.091    21137447.100    86554328.692                  
  20499444.535   107725266.016    20499447.001    83941755.414                  
  20980931.738   110255508.293    20980933.757    85913374.996                  
  24570344.154   129118021.407    24570345.512   100611445.206                  
  24061095.012   126441913.289    24061094.261    98526167.761                  
  21663790.339   113843958.149    21663792.055    88709571.641                  
  23448317.646   123221701.270    23448319.808    96016900.344                  
                 131196223.054                   131196223.054    25194848.888  
                 115946938.637                   115946938.637    22266380.753  
                 128777621.026                   128777621.026    24730385.878  
                 127271347.844                   127271347.844    24441125.512  
                 128987660.515                   128987660.515    24770730.237  
                 130904927.140                   130904927.140    25138914.039  
  23996312.745   126101446.942                                                  
  24450446.155   128487975.829                                                  
  24562484.018   129076719.808                                                  
  26965432.853   141704262.442                                                  
  26378836.537   138621697.382                                                  
  26176249.991   137557096.685                                                  
  26230108.281   137840112.688                                                  
  25644271.880   134761534.464                                                  
 21  8 31  6 19 42.0000000  0 22G 4G 7G 8G 9G14G16G27G30C20C23C25C28
                                C32C34E 1E 4E 9E13E19E21E26E31
  22445294.525   117950809.917    22445296.079    91909721.172                  
  21137108.839   111076270.148    21137108.196    86552940.944                  
  20499445.946   107725273.352    20499448.394    83941761.128                  
  20981236.154   110257108.034    20981238.174    85914621.547                  
  24569811.836   129115224.009    24569813.194   100609265.413                  
  24061708.884   126445139.134    24061708.133    98528681.406                  
  21664181.814   113846015.403    21664183.547    88711174.696                  
  23447780.074   123218876.382    23447782.237    96014699.133                  
                 131196215.933                   131196215.933    25194847.494  
                 115947175.547                   115947175.547    22266426.266  
                 128779596.993                   128779596.993    24730765.345  
                 127268223.095                   127268223.095    24440525.434  
                 128990008.820                   128990008.820    24771181.197  
                 130906737.829                   130906737.829    25139261.753  
  23996392.405   126101865.509                                                  
  24450641.231   128489000.952                                                  
  24562172.042   129075080.250                                                  
  26965383.964   141704005.464                                                  
  26379414.314   138624733.635                                                  
  26176602.869   137558950.983                                                  
  26229668.113   137837799.680                                                  
  25643995.161   134760080.245                                                  
 21  8 31  6 19 43.0000000  0 22G 4G 7G 8G 9G14G16G27G30C20C23C25C28
                                C32C34E 1E 4E 9E13E19E21E26E31
  22445924.140   117954118.505    22445925.676    91912299.290                  
  21136769.989   111074489.410    21136769.345    86551553.357                  
  20499447.483   107725281.389    20499449.931    83941767.393                  
  20981540.696   110258708.371    20981542.715    85915868.563                  
  24569279.536   129112426.758    24569280.894   100607085.737                  
  24062322.739   126448364.961    24062321.988    98531195.040                  
  21664573.413   113848073.235    21664575.147    88712778.199                  
  23447242.521   123216051.532    23447244.701    96012497.949                  
                 131196209.335                   131196209.335    25194846.243  
                 115947412.633                   115947412.633    22266471.778  
                 128781573.063                   128781573.063    24731144.811  
                 127265098.485                   127265098.485    24439925.392  
                 128992357.378                   128992357.378    24771632.211  
                 130908548.973                   130908548.973    25139609.555  
  23996472.065   126102284.193                                                  
  24450836.397   128490026.524                                                  
  24561860.103   129073441.058                                                  
  26965335.145   141703748.961                                                  
  26379992.127   138627769.997                                                  
  26176955.728   137560805.297                                                  
  26229228.017   137835486.871                                                  
  25643718.459   134758626.155                                                  
 21  8 31  6 19 44.0000000  0 22G 4G 7G 8G 9G14G16G27G30C20C23C25C28
                                C32C34E 1E 4E 9E13E19E21E26E31
  22446553.808   117957427.404    22446555.345    91914877.653                  
  21136431.156   111072708.878    21136430.513    86550165.929                  
  20499449.145   107725290.137    20499451.593    83941774.207                  
  20981845.363   110260309.306    20981847.364    85917116.047                  
  24568747.289   129109629.647    24568748.647   100604906.175                  
  24062936.593   126451590.785    24062935.843    98533708.667                  
  21664965.120   113850131.645    21664966.836    88714382.155                  
  23446704.985   123213226.718    23446707.147    96010296.797                  
                 131196203.266                   131196203.266    25194845.064  
                 115947649.901                   115947649.901    22266517.344  
                 128783549.242                   128783549.242    24731524.314  
                 127261974.023                   127261974.023    24439325.386  
                 128994706.194                   128994706.194    24772083.279  
                 130910360.570                   130910360.570    25139957.465  
  23996551.761   126102702.997                                                  
  24451031.633   128491052.530                                                  
  24561548.253   129071802.257                                                  
  26965286.417   141703492.927                                                  
  26380569.939   138630806.429                                                  
  26177308.606   137562659.610                                                  
  26228787.939   137833174.258                                                  
  25643441.775   134757172.192                                                  
 21  8 31  6 19 45.0000000  0 22G 4G 7G 8G 9G14G16G27G30C20C23C25C28
                                C32C34E 1E 4E 9E13E19E21E26E31
  22447183.513   117960736.593    22447185.067    91917456.242                  
  21136092.378   111070928.539    21136091.716    86548778.652                  
  20499450.932   107725299.565    20499453.398    83941781.559                  
  20982150.119   110261910.831    20982152.121    85918363.989                  
  24568215.042   129106832.692    24568216.400   100602726.728                  
  24063550.465   126454816.598    24063549.697    98536222.285                  
  21665356.934   113852190.665    21665358.668    88715986.587                  
  23446167.467   123210401.950    23446169.629    96008095.675                  
                 131196197.718                   131196197.718    25194843.992  
                 115947887.355                   115947887.355    22266562.946  
                 128785525.533                   128785525.533    24731903.834  
                 127258849.704                   127258849.704    24438725.380  
                 128997055.270                   128997055.270    24772534.400  
                 130912172.620                   130912172.620    25140305.446  
  23996631.475   126103121.922                                                  
  24451226.978   128492078.980                                                  
  24561236.474   129070163.819                                                  
  26965237.795   141703237.354                                                  
  26381147.788   138633842.953                                                  
  26177661.465   137564513.923                                                  
  26228347.896   137830861.831                                                  
  25643165.127   134755718.354                                                  
 21  8 31  6 19 46.0000000  0 22G 4G 7G 8G 9G14G16G27G30C20C23C25C28
                                C32C34E 1E 4E 9E13E19E21E26E31
  22447813.306   117964046.093    22447814.843    91920035.071                  
  21135753.617   111069148.406    21135752.973    86547391.535                  
  20499452.862   107725309.692    20499455.328    83941789.445                  
  20982455.001   110263512.961    20982457.002    85919612.399                  
  24567682.813   129104035.890    24567684.171   100600547.401                  
  24064164.302   126458042.390    24064163.552    98538735.890                  
  21665748.856   113854250.258    21665750.607    88717591.464                  
  23445629.913   123207577.212    23445632.075    96005894.583                  
                 131196192.700                   131196192.700    25194843.045  
                 115948124.987                   115948124.987    22266608.583  
                 128787501.930                   128787501.930    24732283.408  
                 127255725.527                   127255725.527    24438125.392  
                 128999404.595                   128999404.595    24772985.558  
                 130913985.127                   130913985.127    25140653.517  
  23996711.242   126103540.976                                                  
  24451422.375   128493105.875                                                  
  24560924.767   129068525.775                                                  
  26965189.263   141702982.245                                                  
  26381725.618   138636879.570                                                  
  26178014.325   137566368.242                                                  
  26227907.907   137828549.606                                                  
  25642888.496   134754264.638                                                  
 21  8 31  6 19 47.0000000  0 22G 4G 7G 8G 9G14G16G27G30C20C23C25C28
                                C32C34E 1E 4E 9E13E19E21E26E31
  22448443.136   117967355.898    22448444.672    91922614.138                  
  21135414.927   111067368.469    21135414.284    86546004.571                  
  20499454.917   107725320.500    20499457.383    83941797.867                  
  20982759.971   110265115.680    20982762.008    85920861.269                  
  24567150.638   129101239.246    24567151.996   100598368.198                  
  24064778.157   126461268.165    24064777.406    98541249.476                  
  21666140.902   113856310.434    21666142.635    88719196.796                  
  23445092.395   123204752.503    23445094.557    96003693.511                  
                 131196188.204                   131196188.204    25194842.151  
                 115948362.802                   115948362.802    22266654.239  
                 128789478.439                   128789478.439    24732662.964  
                 127252601.493                   127252601.493    24437525.458  
                 129001754.179                   129001754.179    24773436.768  
                 130915798.091                   130915798.091    25141001.677  
  23996790.992   126103960.159                                                  
  24451617.880   128494133.214                                                  
  24560613.149   129066888.112                                                  
  26965140.802   141702727.602                                                  
  26382303.503   138639916.281                                                  
  26178367.202   137568222.561                                                  
  26227467.936   137826237.574                                                  
  25642611.884   134752811.044                                                  
 21  8 31  6 19 48.0000000  0 22G 4G 7G 8G 9G14G16G27G30C20C23C25C28
                                C32C34E 1E 4E 9E13E19E21E26E31
  22449073.019   117970666.000    22449074.573    91925193.442                  
  21135076.256   111065588.738    21135075.594    86544617.770                  
  20499457.115   107725332.020    20499459.580    83941806.844                  
  20983065.085   110266719.001    20983067.104    85922110.612                  
  24566618.481   129098442.746    24566619.839   100596189.110                  
  24065391.993   126464493.925    24065391.243    98543763.059                  
  21666533.056   113858371.218    21666534.807    88720802.602                  
  23444554.877   123201927.838    23444557.057    96001492.473                  
                 131196184.235                   131196184.235    25194841.401  
                 115948600.792                   115948600.792    22266699.948  
                 128791455.052                   128791455.052    24733042.537  
                 127249477.604                   127249477.604    24436925.559  
                 129004104.016                   129004104.016    24773888.015  
                 130917611.508                   130917611.508    25141349.927  
  23996870.795   126104379.465                                                  
  24451813.457   128495160.993                                                  
  24560301.567   129065250.825                                                  
  26965092.413   141702473.418                                                  
  26382881.387   138642953.077                                                  
  26178720.062   137570076.886                                                  
  26227028.019   137823925.751                                                  
  25642335.307   134751357.579                                                  
 21  8 31  6 19 49.0000000  0 22G 4G 7G 8G 9G14G16G27G30C20C23C25C28
                                C32C34E 1E 4E 9E13E19E21E26E31
  22449702.973   117973976.410    22449704.528    91927772.976                  
  21134737.620   111063809.212    21134736.959    86543231.124                  
  20499459.438   107725344.251    20499461.903    83941816.374                  
  20983370.306   110268322.927    20983372.325    85923360.422                  
  24566086.359   129095646.393    24566087.717   100594010.133                  
  24066005.848   126467719.667    24066005.080    98546276.625                  
  21666925.316   113860432.571    21666927.068    88722408.851                  
  23444017.376   123199103.215    23444019.539    95999291.468                  
                 131196180.789                   131196180.789    25194840.740  
                 115948838.970                   115948838.970    22266745.675  
                 128793431.778                   128793431.778    24733422.165  
                 127246353.861                   127246353.861    24436325.678  
                 129006454.109                   129006454.109    24774339.333  
                 130919425.379                   130919425.379    25141698.265  
  23996950.616   126104798.886                                                  
  24452009.123   128496189.203                                                  
  24559990.074   129063613.913                                                  
  26965044.148   141702219.711                                                  
  26383459.289   138645989.970                                                  
  26179072.922   137571931.214                                                  
  26226588.119   137821614.113                                                  
  25642058.748   134749904.229                                                  
 21  8 31  6 19 50.0000000  0 22G 4G 7G 8G 9G14G16G27G30C20C23C25C28
                                C32C34E 1E 4E 9E13E19E21E26E31
  22450332.999   117977287.117    22450334.536    91930352.749                  
  21134399.020   111062029.892    21134398.376    86541844.641                  
  20499461.903   107725357.174    20499464.352    83941826.444                  
  20983675.634   110269927.457    20983677.653    85924610.708                  
  24565554.255   129092850.195    24565555.613   100591831.278                  
  24066619.685   126470945.398    24066618.916    98548790.179                  
  21667317.702   113862494.511    21667319.436    88724015.558                  
  23443479.876   123196278.620    23443482.038    95997090.487                  
                 131196177.867                   131196177.867    25194840.186  
                 115949077.329                   115949077.329    22266791.455  
                 128795408.609                   128795408.609    24733801.774  
                 127243230.263                   127243230.263    24435725.815  
                 129008804.458                   129008804.458    24774790.704  
                 130921239.707                   130921239.707    25142046.676  
  23997030.454   126105218.439                                                  
  24452204.878   128497217.874                                                  
  24559678.652   129061977.398                                                  
  26964995.956   141701966.468                                                  
  26384037.209   138649026.921                                                  
  26179425.799   137573785.547                                                  
  26226148.273   137819302.672                                                  
  25641782.207   134748451.017                                                  
 21  8 31  6 19 51.0000000  0 22G 4G 7G 8G 9G14G16G27G30C20C23C25C28
                                C32C34E 1E 4E 9E13E19E21E26E31
  22450963.061   117980598.125    22450964.598    91932932.753                  
  21134060.473   111060250.774    21134059.812    86540458.315                  
  20499464.494   107725370.784    20499466.960    83941837.050                  
  20983981.087   110271532.568    20983983.106    85925861.441                  
  24565022.205   129090054.153    24565023.563   100589652.543                  
  24067233.521   126474171.122    24067232.753    98551303.726                  
  21667710.177   113864557.035    21667711.929    88725622.719                  
  23442942.376   123193454.070    23442944.556    95994889.539                  
                 131196175.474                   131196175.474    25194839.721  
                 115949315.891                   115949315.891    22266837.253  
                 128797385.565                   128797385.565    24734181.437  
                 127240106.810                   127240106.810    24435125.987  
                 129011155.074                   129011155.074    24775242.094  
                 130923054.485                   130923054.485    25142395.175  
  23997110.329   126105638.115                                                  
  24452400.722   128498246.973                                                  
  24559367.321   129060341.243                                                  
  26964947.852   141701713.701                                                  
  26384615.147   138652063.976                                                  
  26179778.659   137575639.875                                                  
  26225708.463   137816991.427                                                  
  25641505.702   134746997.910                                                  
 21  8 31  6 19 52.0000000  0 22G 4G 7G 8G 9G14G16G27G30C20C23C25C28
                                C32C34E 1E 4E 9E13E19E21E26E31
  22451593.176   117983909.439    22451594.731    91935512.996                  
  21133721.962   111058471.855    21133721.319    86539072.147                  
  20499467.228   107725385.081    20499469.676    83941848.192                  
  20984286.647   110273138.280    20984288.666    85927112.646                  
  24564490.155   129087258.246    24564491.513   100587473.914                  
  24067847.358   126477396.824    24067846.607    98553817.262                  
  21668102.778   113866620.140    21668104.529    88727230.331                  
  23442404.894   123190629.546    23442407.056    95992688.609                  
                 131196173.604                   131196173.604    25194839.364  
                 115949554.611                   115949554.611    22266883.105  
                 128799362.617                   128799362.617    24734561.101  
                 127236983.497                   127236983.497    24434526.178  
                 129013505.929                   129013505.929    24775693.554  
                 130924869.719                   130924869.719    25142743.782  
  23997190.203   126106057.902                                                  
  24452596.638   128499276.519                                                  
  24559056.042   129058705.476                                                  
  26964899.856   141701461.382                                                  
  26385193.084   138655101.133                                                  
  26180131.536   137577494.215                                                  
  26225268.688   137814680.372                                                  
  25641229.197   134745544.933                                                  
 21  8 31  6 19 53.0000000  0 22G 4G 7G 8G 9G14G16G27G30C20C23C25C28
                                C32C34E 1E 4E 9E13E19E21E26E31
  22452223.363   117987221.052    22452224.918    91938093.473                  
  21133383.487   111056693.148    21133382.844    86537686.140                  
  20499470.087   107725400.073    20499472.536    83941859.874                  
  20984592.314   110274744.586    20984594.316    85928364.312                  
  24563958.141   129084462.497    24563959.499   100585295.411                  
  24068461.177   126480622.507    24068460.426    98556330.781                  
  21668495.503   113868683.829    21668497.219    88728838.403                  
  23441867.411   123187805.066    23441869.573    95990487.718                  
                 131196172.261                   131196172.261    25194839.096  
                 115949793.513                   115949793.513    22266928.975  
                 128801339.777                   128801339.777    24734940.799  
                 127233860.329                   127233860.329    24433926.404  
                 129015857.046                   129015857.046    24776145.069  
                 130926685.407                   130926685.407    25143092.460  
  23997270.114   126106477.825                                                  
  24452792.644   128500306.504                                                  
  24558744.835   129057070.090                                                  
  26964851.913   141701209.518                                                  
  26385771.058   138658138.363                                                  
  26180484.396   137579348.546                                                  
  26224828.932   137812369.527                                                  
  25640952.745   134744092.079                                                  
 21  8 31  6 19 54.0000000  0 22G 4G 7G 8G 9G14G16G27G30C20C23C25C28
                                C32C34E 1E 4E 9E13E19E21E26E31
  22452853.604   117990532.973    22452855.158    91940674.191                  
  21133045.066   111054914.644    21133044.405    86536300.292                  
  20499473.054   107725415.746    20499475.520    83941872.087                  
  20984898.107   110276351.495    20984900.126    85929616.450                  
  24563426.162   129081666.901    24563427.520   100583117.025                  
  24069074.996   126483848.188    24069074.263    98558844.297                  
  21668888.318   113870748.108    21668890.033    88730446.934                  
  23441329.965   123184980.630    23441332.127    95988286.856                  
                 131196171.441                   131196171.441    25194838.935  
                 115950032.593                   115950032.593    22266974.898  
                 128803317.047                   128803317.047    24735320.498  
                 127230737.304                   127230737.304    24433326.666  
                 129018208.415                   129018208.415    24776596.619  
                 130928501.552                   130928501.552    25143441.228  
  23997350.042   126106897.870                                                  
  24452988.720   128501336.933                                                  
  24558433.700   129055435.083                                                  
  26964804.096   141700958.154                                                  
  26386349.031   138661175.679                                                  
  26180837.273   137581202.894                                                  
  26224389.246   137810058.863                                                  
  25640676.293   134742639.356                                                  
 21  8 31  6 19 55.0000000  0 22G 4G 7G 8G 9G14G16G27G30C20C23C25C28
                                C32C34E 1E 4E 9E13E19E21E26E31
  22453483.898   117993845.188    22453485.435    91943255.138                  
  21132706.662   111053136.347    21132706.001    86534914.609                  
  20499476.181   107725432.129    20499478.647    83941884.851                  
  20985204.007   110277958.989    20985206.026    85930869.042                  
  24562894.201   129078871.457    24562895.559   100580938.755                  
  24069688.832   126487073.851    24069688.082    98561357.798                  
  21669281.258   113872812.977    21669282.973    88732055.923                  
  23440792.482   123182156.217    23440794.644    95986086.020                  
                 131196171.144                   131196171.144    25194838.881  
                 115950271.859                   115950271.859    22267020.840  
                 128805294.425                   128805294.425    24735700.233  
                 127227614.427                   127227614.427    24432726.946  
                 129020560.035                   129020560.035    24777048.223  
                 130930318.148                   130930318.148    25143790.085  
  23997430.006   126107318.042                                                  
  24453184.904   128502367.801                                                  
  24558122.636   129053800.460                                                  
  26964756.332   141700707.223                                                  
  26386927.041   138664213.097                                                  
  26181190.169   137583057.234                                                  
  26223949.579   137807748.413                                                  
  25640399.878   134741186.746                                                  
 21  8 31  6 19 56.0000000  0 22G 4G 7G 8G 9G14G16G27G30C20C23C25C28
                                C32C34E 1E 4E 9E13E19E21E26E31
  22454114.263   117997157.711    22454115.800    91945836.324                  
  21132368.294   111051358.251    21132367.633    86533529.079                  
  20499479.415   107725449.205    20499481.899    83941898.161                  
  20985510.014   110279567.085    20985512.015    85932122.106                  
  24562362.276   129076076.163    24562363.634   100578760.606                  
  24070302.669   126490299.488    24070301.901    98563871.281                  
  21669674.305   113874878.429    21669676.020    88733665.364                  
  23440255.018   123179331.849    23440257.198    95983885.211                  
                 131196171.380                   131196171.380    25194838.917  
                 115950511.305                   115950511.305    22267066.817  
                 128807271.913                   128807271.913    24736080.003  
                 127224491.693                   127224491.693    24432127.261  
                 129022911.913                   129022911.913    24777499.862  
                 130932135.202                   130932135.202    25144139.013  
  23997509.987   126107738.335                                                  
  24453381.142   128503399.110                                                  
  24557811.661   129052166.216                                                  
  26964708.675   141700456.771                                                  
  26387505.068   138667250.583                                                  
  26181543.028   137584911.582                                                  
  26223509.965   137805438.157                                                  
  25640123.479   134739734.264                                                  
 21  8 31  6 19 57.0000000  0 22G 4G 7G 8G 9G14G16G27G30C20C23C25C28
                                C32C34E 1E 4E 9E13E19E21E26E31
  22454744.665   118000470.536    22454746.219    91948417.742                  
  21132029.980   111049580.359    21132029.319    86532143.707                  
  20499482.828   107725466.964    20499485.276    83941911.997                  
  20985816.146   110281175.781    20985818.165    85933375.634                  
  24561830.387   129073281.016    24561831.745   100576582.567                  
  24070916.488   126493525.110    24070915.719    98566384.755                  
  21670067.459   113876944.460    21670069.174    88735275.263                  
  23439717.571   123176507.516    23439719.733    95981684.430                  
                 131196172.133                   131196172.133    25194839.060  
                 115950750.935                   115950750.935    22267112.847  
                 128809249.512                   128809249.512    24736459.756  
                 127221369.106                   127221369.106    24431527.577  
                 129025264.048                   129025264.048    24777951.556  
                 130933952.711                   130933952.711    25144488.067  
  23997589.987   126108158.750                                                  
  24453577.487   128504430.862                                                  
  24557500.758   129050532.356                                                  
  26964661.126   141700206.788                                                  
  26388083.095   138670288.180                                                  
  26181895.906   137586765.930                                                  
  26223070.352   137803128.089                                                  
  25639847.099   134738281.918                                                  
 21  8 31  6 19 58.0000000  0 22G 4G 7G 8G 9G14G16G27G30C20C23C25C28
                                C32C34E 1E 4E 9E13E19E21E26E31
  22455375.137   118003783.657    22455376.674    91950999.399                  
  21131691.702   111047802.667    21131691.041    86530758.497                  
  20499486.313   107725485.430    20499488.778    83941926.386                  
  20986122.385   110282785.071    20986124.404    85934629.626                  
  24561298.515   129070486.025    24561299.873   100574404.653                  
  24071530.289   126496750.714    24071529.538    98568898.206                  
  21670460.720   113879011.089    21670462.454    88736885.621                  
  23439180.142   123173683.215    23439182.305    95979483.680                  
                 131196173.415                   131196173.415    25194839.292  
                 115950990.739                   115950990.739    22267158.896  
                 128811227.215                   128811227.215    24736839.562  
                 127218246.660                   127218246.660    24430927.964  
                 129027616.429                   129027616.429    24778403.320  
                 130935770.673                   130935770.673    25144837.174  
  23997670.022   126108579.289                                                  
  24453773.903   128505463.064                                                  
  24557189.926   129048898.875                                                  
  26964613.648   141699957.275                                                  
  26388661.140   138673325.833                                                  
  26182248.783   137588620.282                                                  
  26222630.827   137800818.232                                                  
  25639570.755   134736829.689                                                  
 21  8 31  6 19 59.0000000  0 22G 4G 7G 8G 9G14G16G27G30C20C23C25C28
                                C32C34E 1E 4E 9E13E19E21E26E31
  22456005.664   118007097.086    22456007.218    91953581.290                  
  21131353.459   111046025.181    21131352.798    86529373.442                  
  20499489.976   107725504.586    20499492.442    83941941.313                  
  20986428.714   110284394.954    20986430.733    85935884.077                  
  24560766.679   129067691.180    24560768.037   100572226.852                  
  24072144.107   126499976.310    24072143.339    98571411.657                  
  21670854.107   113881078.297    21670855.822    88738496.429                  
  23438642.696   123170858.952    23438644.858    95977282.958                  
                 131196175.218                   131196175.218    25194839.667  
                 115951230.732                   115951230.732    22267204.980  
                 128813205.032                   128813205.032    24737219.386  
                 127215124.359                   127215124.359    24430328.333  
                 129029969.069                   129029969.069    24778855.121  
                 130937589.086                   130937589.086    25145186.388  
  23997750.058   126108999.957                                                  
  24453970.427   128506495.699                                                  
  24556879.148   129047265.778                                                  
  26964566.241   141699708.208                                                  
  26389239.221   138676363.589                                                  
  26182601.643   137590474.636                                                  
  26222191.303   137798508.554                                                  
  25639294.428   134735377.574                                                  
 21  8 31  6 20  0.0000000  0 22G 4G 7G 8G 9G14G16G27G30C20C23C25C28
                                C32C34E 1E 4E 9E13E19E21E26E31
  22456636.244   118010410.804    22456637.798    91956163.407                  
  21131015.234   111044247.906    21131014.609    86527988.551                  
  20499493.764   107725524.441    20499496.212    83941956.784                  
  20986735.203   110286005.440    20986737.223    85937139.004                  
  24560234.862   129064896.487    24560236.220   100570049.172                  
  24072757.926   126503201.882    24072757.158    98573925.095                  
  21671247.583   113883146.082    21671249.316    88740107.691                  
  23438105.267   123168034.733    23438107.411    95975082.266                  
                 131196177.550                   131196177.550    25194840.096  
                 115951470.902                   115951470.902    22267251.100  
                 128815182.954                   128815182.954    24737599.228  
                 127212002.206                   127212002.206    24429728.756  
                 129032321.965                   129032321.965    24779306.957  
                 130939407.952                   130939407.952    25145535.674  
  23997830.147   126109420.739                                                  
  24454167.004   128507528.777                                                  
  24556568.460   129045633.054                                                  
  26964518.942   141699459.625                                                  
  26389817.302   138679401.429                                                  
  26182954.520   137592328.999                                                  
  26221751.814   137796199.087                                                  
  25639018.120   134733925.594                                                  
 21  8 31  6 20  1.0000000  0 22G 4G 7G 8G 9G14G16G27G30C20C23C25C28
                                C32C34E 1E 4E 9E13E19E21E26E31
  22457266.877   118013724.835    22457268.432    91958745.769                  
  21130677.081   111042470.816    21130676.438    86526603.805                  
  20499497.659   107725544.991    20499500.125    83941972.802                  
  20987041.782   110287616.514    20987043.801    85938394.386                  
  24559703.079   129062101.944    24559704.437   100567871.606                  
  24073371.727   126506427.445    24073370.959    98576438.516                  
  21671641.184   113885214.461    21671642.917    88741719.414                  
  23437567.838   123165210.550    23437570.001    95972881.606                  
                 131196180.405                   131196180.405    25194840.632  
                 115951711.255                   115951711.255    22267297.256  
                 128817160.986                   128817160.986    24737979.087  
                 127208880.198                   127208880.198    24429129.215  
                 129034675.117                   129034675.117    24779758.864  
                 130941227.278                   130941227.278    25145885.067  
  23997910.236   126109841.653                                                  
  24454363.688   128508562.293                                                  
  24556257.825   129044000.714                                                  
  26964471.714   141699211.499                                                  
  26390395.400   138682439.370                                                  
  26183307.398   137594183.350                                                  
  26221312.379   137793889.799                                                  
  25638741.847   134732473.732                                                  
 21  8 31  6 20  2.0000000  0 22G 4G 7G 8G 9G14G16G27G30C20C23C25C28
                                C32C34E 1E 4E 9E13E19E21E26E31
  22457897.582   118017039.159    22457899.137    91961328.360                  
  21130338.963   111040693.937    21130338.302    86525219.222                  
  20499501.716   107725566.239    20499504.182    83941989.354                  
  20987348.486   110289228.187    20987350.487    85939650.237                  
  24559171.333   129059307.554    24559172.691   100565694.159                  
  24073985.528   126509652.988    24073984.760    98578951.926                  
  21672034.892   113887283.426    21672036.643    88743331.597                  
  23437030.428   123162386.407    23437032.608    95970680.968                  
                 131196183.790                   131196183.790    25194841.294  
                 115951951.789                   115951951.789    22267343.447  
                 128819139.128                   128819139.128    24738358.965  
                 127205758.333                   127205758.333    24428529.691  
                 129037028.519                   129037028.519    24780210.808  
                 130943047.054                   130943047.054    25146234.513  
  23997990.360   126110262.688                                                  
  24454560.444   128509596.249                                                  
  24555947.279   129042368.753                                                  
  26964424.594   141698963.844                                                  
  26390973.517   138685477.378                                                  
  26183660.275   137596037.713                                                  
  26220872.980   137791580.720                                                  
  25638465.592   134731021.995                                                  
 21  8 31  6 20  3.0000000  0 22G 4G 7G 8G 9G14G16G27G30C20C23C25C28
                                C32C34E 1E 4E 9E13E19E21E26E31
  22458528.341   118020353.792    22458529.878    91963911.188                  
  21130000.863   111038917.266    21130000.220    86523834.805                  
  20499505.897   107725588.201    20499508.363    83942006.469                  
  20987655.279   110290840.452    20987657.281    85940906.548                  
  24558639.605   129056513.317    24558640.963   100563516.829                  
  24074599.311   126512878.516    24074598.561    98581465.324                  
  21672428.725   113889352.969    21672430.459    88744944.226                  
  23436493.017   123159562.297    23436495.179    95968480.363                  
                 131196187.695                   131196187.695    25194842.044  
                 115952192.503                   115952192.503    22267389.656  
                 128821117.378                   128821117.378    24738738.860  
                 127202636.614                   127202636.614    24427930.203  
                 129039382.174                   129039382.174    24780662.805  
                 130944867.285                   130944867.285    25146584.085  
  23998070.503   126110683.840                                                  
  24454757.271   128510630.665                                                  
  24555636.805   129040737.173                                                  
  26964377.562   141698716.640                                                  
  26391551.651   138688515.480                                                  
  26184013.135   137597892.082                                                  
  26220433.616   137789271.843                                                  
  25638189.354   134729570.383                                                  
 21  8 31  6 20  4.0000000  0 22G 4G 7G 8G 9G14G16G27G30C20C23C25C28
                                C32C34E 1E 4E 9E13E19E21E26E31
  22459159.153   118023668.727    22459160.708    91966494.250                  
  21129662.817   111037140.798    21129662.156    86522450.542                  
  20499510.203   107725610.849    20499512.651    83942024.113                  
  20987962.198   110292453.316    20987964.217    85942163.325                  
  24558107.912   129053719.220    24558109.252   100561339.613                  
  24075213.112   126516104.044    24075212.362    98583978.718                  
  21672822.666   113891423.102    21672824.381    88746557.321                  
  23435955.624   123156738.228    23435957.786    95966279.792                  
                 131196192.124                   131196192.124    25194842.884  
                 115952433.403                   115952433.403    22267435.919  
                 128823095.739                   128823095.739    24739118.774  
                 127199515.042                   127199515.042    24427330.715  
                 129041736.085                   129041736.085    24781114.837  
                 130946687.968                   130946687.968    25146933.728  
  23998150.681   126111105.124                                                  
  24454954.206   128511665.504                                                  
  24555326.402   129039105.972                                                  
  26964330.620   141698469.917                                                  
  26392129.803   138691553.676                                                  
  26184366.012   137599746.454                                                  
  26219994.307   137786963.157                                                  
  25637913.153   134728118.890                                                  
 21  8 31  6 20  5.0000000  0 22G 4G 7G 8G 9G14G16G27G30C20C23C25C28
                                C32C34E 1E 4E 9E13E19E21E26E31
  22459790.019   118026983.958    22459791.574    91969077.551                  
  21129324.807   111035364.532    21129324.163    86521066.441                  
  20499514.635   107725634.183    20499517.101    83942042.298                  
  20988269.241   110294066.784    20988271.242    85943420.571                  
  24557576.237   129050925.294    24557577.595   100559162.528                  
  24075826.913   126519329.531    24075826.163    98586492.085                  
  21673216.696   113893493.813    21673218.447    88748170.860                  
  23435418.213   123153914.208    23435420.393    95964079.257                  
                 131196197.082                   131196197.082    25194843.849  
                 115952674.481                   115952674.481    22267482.218  
                 128825074.207                   128825074.207    24739498.723  
                 127196393.613                   127196393.613    24426731.281  
                 129044090.249                   129044090.249    24781566.941  
                 130948509.106                   130948509.106    25147283.443  
  23998230.877   126111526.523                                                  
  24455151.212   128512700.784                                                  
  24555016.053   129037475.161                                                  
  26964283.768   141698223.650                                                  
  26392707.973   138694591.965                                                  
  26184718.908   137601600.820                                                  
  26219554.997   137784654.671                                                  
  25637636.987   134726667.535                                                  
 21  8 31  6 20  6.0000000  0 22G 4G 7G 8G 9G14G16G27G30C20C23C25C28
                                C32C34E 1E 4E 9E13E19E21E26E31
  22460420.956   118030299.500    22460422.493    91971661.091                  
  21128986.832   111033588.475    21128986.189    86519682.501                  
  20499519.227   107725658.211    20499521.675    83942061.020                  
  20988576.374   110295680.848    20988578.393    85944678.281                  
  24557044.598   129048131.505    24557045.956   100556985.547                  
  24076440.696   126522555.006    24076439.964    98589005.442                  
  21673610.868   113895565.102    21673612.584    88749784.847                  
  23434880.838   123151090.195    23434883.000    95961878.730                  
                 131196202.563                   131196202.563    25194844.885  
                 115952915.739                   115952915.739    22267528.552  
                 128827052.786                   128827052.786    24739878.672  
                 127193272.333                   127193272.333    24426131.883  
                 129046444.669                   129046444.669    24782019.081  
                 130950330.700                   130950330.700    25147633.265  
  23998311.074   126111948.047                                                  
  24455348.307   128513736.509                                                  
  24554705.793   129035844.738                                                  
  26964236.987   141697977.851                                                  
  26393286.161   138697630.349                                                  
  26185071.785   137603455.192                                                  
  26219115.758   137782346.372                                                  
  25637360.821   134725216.280                                                  
 21  8 31  6 20  7.0000000  0 22G 4G 7G 8G 9G14G16G27G30C20C23C25C28
                                C32C34E 1E 4E 9E13E19E21E26E31
  22461051.947   118033615.345    22461053.484    91974244.863                  
  21128648.893   111031812.617    21128648.268    86518298.715                  
  20499523.927   107725682.936    20499526.393    83942080.290                  
  20988883.632   110297295.508    20988885.669    85945936.457                  
  24556512.994   129045337.875    24556514.352   100554808.695                  
  24077054.497   126525780.476    24077053.747    98591518.793                  
  21674005.113   113897636.961    21674006.864    88751399.285                  
  23434343.463   123148266.223    23434345.625    95959678.230                  
                 131196208.567                   131196208.567    25194846.047  
                 115953157.180                   115953157.180    22267574.922  
                 128829031.469                   128829031.469    24740258.656  
                 127190151.195                   127190151.195    24425532.502  
                 129048799.339                   129048799.339    24782471.257  
                 130952152.747                   130952152.747    25147983.158  
  23998391.323   126112369.669                                                  
  24455545.474   128514772.657                                                  
  24554395.622   129034214.710                                                  
  26964190.295   141697732.508                                                  
  26393864.367   138700668.830                                                  
  26185424.662   137605309.570                                                  
  26218676.538   137780038.255                                                  
  25637084.656   134723765.137                                                  
 21  8 31  6 20  8.0000000  0 22G 4G 7G 8G 9G14G16G27G30C20C23C25C28
                                C32C34E 1E 4E 9E13E19E21E26E31
  22461682.974   118036931.445    22461684.528    91976828.840                  
  21128311.026   111030036.956    21128310.364    86516915.085                  
  20499528.787   107725708.390    20499531.235    83942100.121                  
  20989191.015   110298910.763    20989193.034    85947195.098                  
  24555981.427   129042544.383    24555982.785   100552631.950                  
  24077668.280   126529005.913    24077667.512    98594032.120                  
  21674399.500   113899709.462    21674401.233    88753014.223                  
  23433806.105   123145442.333    23433808.267    95957477.798                  
                 131196215.098                   131196215.098    25194847.298  
                 115953398.804                   115953398.804    22267621.328  
                 128831010.266                   128831010.266    24740638.677  
                 127187030.202                   127187030.202    24424933.139  
                 129051154.265                   129051154.265    24782923.504  
                 130953975.242                   130953975.242    25148333.159  
  23998471.609   126112791.481                                                  
  24455742.748   128515809.289                                                  
  24554085.505   129032584.997                                                  
  26964143.692   141697487.661                                                  
  26394442.573   138703707.304                                                  
  26185777.540   137607163.939                                                  
  26218237.353   137777730.399                                                  
  25636808.561   134722314.172                                                  
 21  8 31  6 20  9.0000000  0 22G 4G 7G 8G 9G14G16G27G30C20C23C25C28
                                C32C34E 1E 4E 9E13E19E21E26E31
  22462314.072   118040247.891    22462315.627    91979413.079                  
  21127973.158   111028261.515    21127972.497    86515531.625                  
  20499533.737   107725734.497    20499536.203    83942120.465                  
  20989498.505   110300526.608    20989500.524    85948454.200                  
  24555449.859   129039751.046    24555451.217   100550455.324                  
  24078282.063   126532231.347    24078281.295    98596545.446                  
  21674793.994   113901782.503    21674795.728    88754629.577                  
  23433268.712   123142618.448    23433270.874    95955277.366                  
                 131196222.152                   131196222.152    25194848.638  
                 115953640.608                   115953640.608    22267667.734  
                 128832989.173                   128832989.173    24741018.697  
                 127183909.361                   127183909.361    24424333.794  
                 129053509.440                   129053509.440    24783375.787  
                 130955798.194                   130955798.194    25148683.249  
  23998551.877   126113213.370                                                  
  24455940.093   128516846.341                                                  
  24553775.460   129030955.706                                                  
  26964097.197   141697243.259                                                  
  26395020.815   138706745.949                                                  
  26186130.417   137609018.319                                                  
  26217798.222   137775422.702                                                  
  25636532.485   134720863.296                                                  
 21  8 31  6 20 10.0000000  0 22G 4G 7G 8G 9G14G16G27G30C20C23C25C28
                                C32C34E 1E 4E 9E13E19E21E26E31
  22462945.224   118043564.613    22462946.778    91981997.540                  
  21127635.344   111026486.277    21127634.701    86514148.320                  
  20499538.847   107725761.292    20499541.296    83942141.348                  
  20989806.102   110302143.046    20989808.121    85949713.762                  
  24554918.345   129036957.871    24554919.703   100548278.824                  
  24078895.846   126535456.770    24078895.078    98599058.757                  
  21675188.596   113903856.137    21675190.311    88756245.393                  
  23432731.355   123139794.605    23432733.535    95953076.969                  
                 131196229.736                   131196229.736    25194850.103  
                 115953882.593                   115953882.593    22267714.211  
                 128834968.185                   128834968.185    24741398.736  
                 127180788.662                   127180788.662    24423734.503  
                 129055864.875                   129055864.875    24783828.123  
                 130957621.603                   130957621.603    25149033.392  
  23998632.180   126113635.393                                                  
  24456137.528   128517883.835                                                  
  24553465.504   129029326.800                                                  
  26964050.774   141696999.336                                                  
  26395599.056   138709784.661                                                  
  26186483.295   137610872.712                                                  
  26217359.126   137773115.205                                                  
  25636256.408   134719412.563                                                  
 21  8 31  6 20 11.0000000  0 22G 4G 7G 8G 9G14G16G27G30C20C23C25C28
                                C32C34E 1E 4E 9E13E19E21E26E31
  22463576.447   118046881.652    22463578.002    91984582.243                  
  21127297.566   111024711.243    21127296.923    86512765.179                  
  20499544.083   107725788.794    20499546.531    83942162.773                  
  20990113.825   110303760.083    20990115.844    85950973.786                  
  24554386.849   129034164.839    24554388.207   100546102.438                  
  24079509.612   126538682.160    24079508.861    98601572.051                  
  21675583.323   113905930.355    21675585.038    88757861.672                  
  23432194.016   123136970.806    23432196.178    95950876.606                  
                 131196237.840                   131196237.840    25194851.658  
                 115954124.761                   115954124.761    22267760.724  
                 128836947.307                   128836947.307    24741778.828  
                 127177668.105                   127177668.105    24423135.247  
                 129058220.560                   129058220.560    24784280.495  
                 130959445.462                   130959445.462    25149383.643  
  23998712.519   126114057.534                                                  
  24456335.034   128518921.762                                                  
  24553155.601   129027698.277                                                  
  26964004.457   141696755.868                                                  
  26396177.316   138712823.462                                                  
  26186836.172   137612727.092                                                  
  26216920.066   137770807.898                                                  
  25635980.368   134717961.942                                                  
 21  8 31  6 20 12.0000000  0 22G 4G 7G 8G 9G14G16G27G30C20C23C25C28
                                C32C34E 1E 4E 9E13E19E21E26E31
  22464207.724   118050198.993    22464209.261    91987167.180                  
  21126959.842   111022936.419    21126959.180    86511382.199                  
  20499549.444   107725816.982    20499551.892    83942184.738                  
  20990421.636   110305377.718    20990423.656    85952234.286                  
  24553855.388   129031371.966    24553856.746   100543926.169                  
  24080123.377   126541907.550    24080122.644    98604085.339                  
  21675978.139   113908005.168    21675979.854    88759478.407                  
  23431656.676   123134147.030    23431658.838    95948676.266                  
                 131196246.470                   131196246.470    25194853.302  
                 115954367.112                   115954367.112    22267807.255  
                 128838926.540                   128838926.540    24742158.902  
                 127174547.700                   127174547.700    24422535.992  
                 129060576.497                   129060576.497    24784732.939  
                 130961269.774                   130961269.774    25149733.983  
  23998792.876   126114479.804                                                  
  24456532.648   128519960.140                                                  
  24552845.788   129026070.134                                                  
  26963958.212   141696512.866                                                  
  26396755.629   138715862.347                                                  
  26187189.068   137614581.485                                                  
  26216481.042   137768500.796                                                  
  25635704.345   134716511.441                                                  
 21  8 31  6 20 13.0000000  0 22G 4G 7G 8G 9G14G16G27G30C20C23C25C28
                                C32C34E 1E 4E 9E13E19E21E26E31
  22464839.036   118053516.624    22464840.591    91989752.352                  
  21126622.135   111021161.796    21126621.474    86509999.374                  
  20499554.947   107725845.869    20499557.396    83942207.245                  
  20990729.573   110306995.958    20990731.592    85953495.247                  
  24553323.945   129028579.234    24553325.304   100541750.016                  
  24080737.160   126545132.923    24080736.391    98606598.617                  
  21676373.062   113910080.551    21676374.795    88761095.591                  
  23431119.337   123131323.296    23431121.499    95946475.953                  
                 131196255.624                   131196255.624    25194855.053  
                 115954609.644                   115954609.644    22267853.840  
                 128840905.884                   128840905.884    24742539.012  
                 127171427.437                   127171427.437    24421936.772  
                 129062932.688                   129062932.688    24785185.419  
                 130963094.540                   130963094.540    25150084.412  
  23998873.269   126114902.201                                                  
  24456730.315   128520998.958                                                  
  24552536.029   129024442.360                                                  
  26963912.056   141696270.331                                                  
  26397333.924   138718901.329                                                  
  26187541.945   137616435.886                                                  
  26216042.036   137766193.897                                                  
  25635428.358   134715061.064                                                  
 21  8 31  6 20 14.0000000  0 22G 4G 7G 8G 9G14G16G27G30C20C23C25C28
                                C32C34E 1E 4E 9E13E19E21E26E31
  22465470.421   118056834.567    22465471.975    91992337.755                  
  21126284.482   111019387.379    21126283.821    86508616.712                  
  20499560.576   107725875.448    20499563.042    83942230.296                  
  20991037.635   110308614.785    20991039.654    85954756.668                  
  24552792.539   129025786.657    24552793.897   100539573.980                  
  24081350.925   126548358.278    24081350.175    98609111.876                  
  21676768.128   113912156.524    21676769.844    88762713.230                  
  23430582.015   123128499.620    23430584.178    95944275.684                  
                 131196265.304                   131196265.304    25194856.911  
                 115954852.355                   115954852.355    22267900.442  
                 128842885.332                   128842885.332    24742919.140  
                 127168307.325                   127168307.325    24421337.588  
                 129065289.128                   129065289.128    24785637.934  
                 130964919.757                   130964919.757    25150434.913  
  23998953.662   126115324.711                                                  
  24456928.072   128522038.219                                                  
  24552226.341   129022814.980                                                  
  26963866.008   141696028.268                                                  
  26397912.219   138721940.376                                                  
  26187894.823   137618290.270                                                  
  26215603.101   137763887.189                                                  
  25635152.389   134713610.813                                                  
 21  8 31  6 20 15.0000000  0 22G 4G 7G 8G 9G14G16G27G30C20C23C25C28
                                C32C34E 1E 4E 9E13E19E21E26E31
  22466101.858   118060152.809    22466103.413    91994923.396                  
  21125946.865   111017613.168    21125946.203    86507234.202                  
  20499566.348   107725905.734    20499568.796    83942253.894                  
  20991345.804   110310234.210    20991347.824    85956018.558                  
  24552261.167   129022994.233    24552262.526   100537398.063                  
  24081964.672   126551583.609    24081963.940    98611625.121                  
  21677163.284   113914233.083    21677164.999    88764331.323                  
  23430044.676   123125675.964    23430046.856    95942075.426                  
                 131196275.507                   131196275.507    25194858.877  
                 115955095.250                   115955095.250    22267947.081  
                 128844864.890                   128844864.890    24743299.303  
                 127165187.356                   127165187.356    24420738.422  
                 129067645.828                   129067645.828    24786090.520  
                 130966745.431                   130966745.431    25150785.521  
  23999034.072   126115747.342                                                  
  24457125.935   128523077.915                                                  
  24551916.742   129021187.978                                                  
  26963820.013   141695786.664                                                  
  26398490.568   138724979.535                                                  
  26188247.700   137620144.668                                                  
  26215164.185   137761580.692                                                  
  25634876.420   134712160.676                                                  
 21  8 31  6 20 16.0000000  0 22G 4G 7G 8G 9G14G16G27G30C20C23C25C28
                                C32C34E 1E 4E 9E13E19E21E26E31
  22466733.367   118063471.403    22466734.922    91997509.340                  
  21125609.283   111015839.141    21125608.622    86505851.832                  
  20499572.245   107725936.704    20499574.693    83942278.019                  
  20991654.099   110311854.245    20991656.100    85957280.919                  
  24551729.796   129020201.962    24551731.154   100535222.262                  
  24082578.438   126554808.923    24082577.705    98614138.337                  
  21677558.547   113916310.250    21677560.280    88765949.906                  
  23429507.372   123122852.368    23429509.534    95939875.214                  
                 131196286.240                   131196286.240    25194860.932  
                 115955338.325                   115955338.325    22267993.754  
                 128846844.559                   128846844.559    24743679.466  
                 127162067.535                   127162067.535    24420139.291  
                 129070002.777                   129070002.777    24786543.143  
                 130968571.555                   130968571.555    25151136.201  
  23999114.536   126116170.067                                                  
  24457323.888   128524118.177                                                  
  24551607.197   129019561.351                                                  
  26963774.143   141695545.531                                                  
  26399068.917   138728018.766                                                  
  26188600.577   137621999.066                                                  
  26214725.321   137759274.345                                                  
  25634600.504   134710710.477                                                  
 21  8 31  6 20 17.0000000  0 22G 4G 7G 8G 9G14G16G27G30C20C23C25C28
                                C32C34E 1E 4E 9E13E19E21E26E31
  22467364.912   118066790.241    22467366.485    92000095.441                  
  21125271.719   111014065.332    21125271.076    86504469.636                  
  20499578.267   107725968.388    20499580.715    83942302.703                  
  20991962.482   110313474.859    20991964.501    85958543.735                  
  24551198.479   129017409.828    24551199.837   100533046.569                  
  24083192.203   126558034.219    24083191.452    98616651.555                  
  21677953.917   113918387.957    21677955.668    88767568.894                  
  23428970.069   123120028.789    23428972.249    95937675.023                  
                 131196297.493                   131196297.493    25194863.094  
                 115955581.581                   115955581.581    22268040.482  
                 128848824.336                   128848824.336    24744059.666  
                 127158947.860                   127158947.860    24419540.197  
                 129072359.977                   129072359.977    24786995.819  
                 130970398.136                   130970398.136    25151486.988  
  23999195.018   126116592.945                                                  
  24457521.877   128525158.750                                                  
  24551297.741   129017935.112                                                  
  26963728.345   141695304.848                                                  
  26399647.283   138731058.086                                                  
  26188953.455   137623853.467                                                  
  26214286.476   137756968.241                                                  
  25634324.606   134709260.590                                                  
 21  8 31  6 20 18.0000000  0 22G 4G 7G 8G 9G14G16G27G30C20C23C25C28
                                C32C34E 1E 4E 9E13E19E21E26E31
  22467996.546   118070109.384    22467998.101    92002681.781                  
  21124934.227   111012291.730    21124933.584    86503087.605                  
  20499584.413   107726000.778    20499586.897    83942327.938                  
  20992270.973   110315096.063    20992272.992    85959807.008                  
  24550667.179   129014617.862    24550668.555   100530871.004                  
  24083805.968   126561259.504    24083805.200    98619164.759                  
  21678349.394   113920466.265    21678351.145    88769188.348                  
  23428432.765   123117205.242    23428434.945    95935474.856                  
                 131196309.269                   131196309.269    25194865.363  
                 115955825.022                   115955825.022    22268087.227  
                 128850804.223                   128850804.223    24744439.883  
                 127155828.327                   127155828.327    24418941.120  
                 129074717.433                   129074717.433    24787448.548  
                 130972225.167                   130972225.167    25151837.846  
  23999275.501   126117015.943                                                  
  24457719.973   128526199.775                                                  
  24550988.357   129016309.255                                                  
  26963682.636   141695064.675                                                  
  26400225.668   138734097.488                                                  
  26189306.332   137625707.883                                                  
  26213847.684   137754662.331                                                  
  25634048.726   134707810.828                                                  
