     2.11           OBSERVATION DATA    M (MIXED)           RINEX VERSION / TYPE
CONVBIN 2.4.3                           20210901 190901 UTC PGM / RUN BY / DATE 
log: logs/21_09_01_09_42_28_mami_P1.rtcm                    COMMENT             
format: RTCM 3, station ID: 835                             COMMENT             
0835                                                        MARKER NAME         
                                                            MARKER NUMBER       
                                                            OBSERVER / AGENCY   
                                                            REC # / TYPE / VERS 
                                                            ANT # / TYPE        
  1529850.9450 -4473632.6100  4266634.9760                  APPROX POSITION XYZ 
        0.0000        0.0000        0.0000                  ANTENNA: DELTA H/E/N
     1     1                                                WAVELENGTH FACT L1/2
     5    C1    L1    C2    L2    P2                        # / TYPES OF OBSERV 
  2021     9     1     9    42   33.0000000     GPS         TIME OF FIRST OBS   
  2021     9     1    10    12   32.0000000     GPS         TIME OF LAST OBS    
                                                            END OF HEADER       
 21  9  1  9 42 33.0000000  0 25G22G19G21G 1G14G 3G30G 7G17G 8R13R14
                                R17R23R24E13E15E21E26E27C11C23C25C28
                                C34
  23116378.762   121477397.2661                   94657715.2331   23116379.316  
  23251118.432   122185462.6541                   95209445.5261   23251119.844  
  22331787.471   117354360.2431                   91444992.3101   22331789.061  
  20165997.559   105973057.4831   20166002.384    82576432.7941   20166002.616  
  20510186.337   107781766.4581   20510188.857    83985809.8071   20510189.107  
  23860314.989   125386796.3001   23860321.135    97704026.2251   23860320.492  
  21878227.871   114970863.7861   21878232.392    89587703.3991   21878231.552  
  23307055.872   122479394.5001   23307056.998    95438490.0871   23307054.746  
  21426386.878   112596428.8761   21426388.040    87737493.1101   21426387.879  
                                  24567931.532   100601571.281                  
  19948763.972   106525296.005    19948772.477    82853023.772                  
  19797782.289   105533328.392    19797788.704    82081492.393                  
                                  23092283.510    96111144.455                  
  19731558.689   105550556.226                                                  
  19608704.743   104856570.217    19608712.980    81555160.458                  
  23540228.270   123704762.554                                                  
  23891523.737   125550816.990                                                  
  24211382.393   127231668.793                                                  
  27154411.780   142697389.272                                                  
  23762560.783   124873111.136                                                  
                 118543900.203    22765106.006   118543900.203                  
                 116341793.246    22342216.887   116341793.246                  
                              4   25014631.178                4                 
                 119983895.197    23041645.183   119983895.197                  
                 129144615.185    24800864.343   129144615.185                  
 21  9  1  9 42 34.0000000  0 25G22G19G21G 1G14G 3G30G 7G17G 8R13R14
                                R17R23R24E13E15E21E26E27C11C23C25C28
                                C34
  23116064.643   121475746.6301                   94656429.0231   23116065.197  
  23250577.197   122182618.8531                   95207229.5821   23250578.645  
  22332273.544   117356914.9471                   91446982.9871   22332275.206  
  20166166.010   105973941.9931   20166170.763    82577122.0181   20166170.924  
  20509940.960   107780476.9231   20509943.408    83984804.9751   20509943.729  
  23859755.009   125383852.7991   23859760.727    97701732.5971   23859760.352  
  21878673.060   114973203.3721   21878677.581    89589526.4531   21878676.777  
  23307736.521   122482971.1641   23307737.325    95441277.1051   23307735.377  
  21426118.110   112595016.7231   21426119.683    87736392.7331   21426119.129  
                                  24568496.586   100603887.233                  
  19949234.142   106527806.748    19949242.576    82854976.561                  
  19797419.048   105531392.375    19797425.623    82079986.611                  
                                  23091616.674    96108366.303                  
  19731917.106   105552473.966                                                  
  19608482.059   104855379.215    19608490.064    81554234.116                  
  23539981.088   123703463.691                                                  
  23891810.392   125552323.239                                                  
  24211106.138   127230217.092                                                  
  27153855.053   142694463.298                                                  
  23762797.583   124874355.307                                                  
                 118545926.946    22765495.283   118545926.946                  
                 116343013.949    22342451.346   116343013.949                  
                              4   25015263.331                4                 
                 119981957.708    23041273.222   119981957.708                  
                 129147299.692    24801379.757   129147299.692                  
 21  9  1  9 42 35.0000000  0 25G22G19G21G 1G14G 3G30G 7G17G 8R13R14
                                R17R23R24E13E15E21E26E27C11C23C25C28
                                C34
  23115750.469   121474096.7341                   94655143.3921   23115751.291  
  23250036.195   122179775.5051                   95205013.9861   23250037.642  
  22332759.849   117359470.2211                   91448974.1091   22332761.458  
  20166334.551   105974827.4571   20166339.340    82577811.9921   20166339.411  
  20509695.725   107779188.0751   20509697.995    83983800.6781   20509698.477  
  23859195.065   125380909.7591   23859200.944    97699439.3231   23859200.355  
  21879118.392   114975543.6941   21879122.877    89591350.0811   21879122.144  
  23308417.134   122486548.2481   23308416.955    95444064.4501   23308416.098  
  21425849.414   112593605.0951   21425850.700    87735292.7631   21425850.504  
                                  24569062.195   100606203.393                  
  19949704.365   106530318.439    19949712.102    82856930.114                  
  19797056.003   105529457.302    19797062.703    82078481.547                  
                                  23090949.409    96105588.569                  
  19732275.702   105554392.473                                                  
  19608259.500   104854189.115    19608267.559    81553308.494                  
  23539734.067   123702165.476                                                  
  23892097.101   125553830.064                                                  
  24210829.955   127228765.931                                                  
  27153298.790   142691537.689                                                  
  23763034.455   124875600.073                                                  
                 118547954.131    22765884.721   118547954.131                  
                 116344235.423    22342685.931   116344235.423                  
                              4   25015896.055                4                 
                 119980020.775    23040901.367   119980020.775                  
                 129149984.502    24801895.349   129149984.502                  
 21  9  1  9 42 36.0000000  0 25G22G19G21G 1G14G 3G30G 7G17G 8R13R14
                                R17R23R24E13E15E21E26E27C11C23C25C28
                                C34
  23115436.797   121472447.2331                   94653858.0651   23115437.404  
  23249495.371   122176932.2561                   95202798.4651   23249496.550  
  22333246.298   117362025.7381                   91450965.4191   22333247.745  
  20166503.217   105975713.5401   20166507.970    82578502.4441   20166508.023  
  20509450.509   107777899.5681   20509452.778    83982796.6421   20509453.314  
  23858635.372   125377966.8771   23858640.929    97697146.1691   23858640.357  
  21879563.831   114977884.4451   21879568.280    89593174.0401   21879567.565  
  23309097.801   122490125.4171   23309098.784    95446851.8411   23309096.800  
  21425580.824   112592193.6481   21425582.111    87734192.9371   21425581.914  
                                  24569627.338   100608519.541                  
  19950174.803   106532830.750    19950182.683    82858884.099                  
  19796692.976   105527522.863    19796699.962    82076976.988                  
                                  23090282.359    96102811.004                  
  19732634.458   105556311.399                                                  
  19608037.085   104852999.582    19608045.465    81552383.306                  
  23539486.992   123700867.570                                                  
  23892383.952   125555337.129                                                  
  24210553.843   127227314.972                                                  
  27152742.135   142688612.161                                                  
  23763271.434   124876845.122                                                  
                 118549981.432    22766274.176   118549981.432                  
                 116345457.344    22342920.551   116345457.344                  
                              4   25016528.654                4                 
                 119978084.050    23040529.477   119978084.050                  
                 129152669.337    24802411.049   129152669.337                  
 21  9  1  9 42 37.0000000  0 25G22G19G21G 1G14G 3G30G 7G17G 8R13R14
                                R17R23R24E13E15E21E26E27C11C23C25C28
                                C34
  23115122.891   121470798.0471                   94652572.9871   23115123.553  
  23248954.494   122174089.0131                   95200582.9531   23248955.494  
  22333732.639   117364581.3911                   91452956.8361   22333734.051  
  20166672.025   105976600.1481   20166676.635    82579193.3101   20166676.725  
  20509205.417   107776611.3271   20509207.615    83981792.8231   20509208.169  
  23858075.249   125375024.0331   23858080.682    97694853.0341   23858080.324  
  21880009.287   114980225.4921   21880013.630    89594998.2331   21880013.076  
  23309778.521   122493702.5831   23309778.772    95449639.2471   23309777.521  
  21425312.306   112590782.2731   21425313.289    87733093.1611   21425313.307  
                                  24570192.911   100610835.510                  
  19950645.240   106535343.586    19950652.888    82860838.555                  
  19796330.127   105525588.975    19796337.239    82075472.848                  
                                  23089615.683    96100033.556                  
  19732993.232   105558230.641                                                  
  19607814.705   104851810.479    19607823.210    81551458.439                  
  23539240.042   123699569.877                                                  
  23892670.750   125556844.338                                                  
  24210277.766   127225864.110                                                  
  27152185.657   142685686.528                                                  
  23763508.359   124878090.343                                                  
                 118552008.757    22766663.560   118552008.757                  
                 116346679.605    22343155.261   116346679.605                  
                              4   25017161.468                4                 
                 119976147.445    23040157.623   119976147.445                  
                 129155354.051    24802926.660   129155354.051                  
 21  9  1  9 42 38.0000000  0 25G22G19G21G 1G14G 3G30G 7G17G 8R13R14
                                R17R23R24E13E15E21E26E27C11C23C25C28
                                C34
  23114809.094   121469149.4651                   94651288.3731   23114809.826  
  23248413.688   122171246.0761                   95198367.6751   23248414.545  
  22334218.998   117367137.4921                   91454948.6031   22334220.463  
  20166840.923   105977487.5551   20166845.408    82579884.7941   20166845.569  
  20508960.415   107775323.6241   20508962.577    83980789.4151   20508963.131  
  23857515.020   125372081.5501   23857520.702    97692560.1901   23857520.416  
  21880454.780   114982567.1471   21880458.908    89596822.8991   21880458.676  
  23310459.331   122497280.0101   23310459.206    95452426.8481   23310458.259  
  21425043.789   112589371.2751   21425044.629    87731993.6781   21425044.789  
                                  24570758.537   100613151.585                  
  19951116.018   106537857.236    19951123.648    82862793.605                  
  19795967.493   105523655.923    19795974.623    82073969.366                  
                                  23088948.668    96097256.422                  
  19733352.221   105560150.492                                                  
  19607592.485   104850622.104    19607601.080    81550534.143                  
  23538993.181   123698272.684                                                  
  23892957.601   125558351.984                                                  
  24210001.797   127224413.657                                                  
  27151629.234   142682761.185                                                  
  23763745.410   124879336.043                                                  
                 118554036.407    22767053.033   118554036.407                  
                 116347902.504    22343390.060   116347902.504                  
                              4   25017794.174                4                 
                 119974211.250    23039785.858   119974211.250                  
                 129158038.959    24803442.271   129158038.959                  
 21  9  1  9 42 39.0000000  0 25G22G19G21G 1G14G 3G30G 7G17G 8R13R14
                                R17R23R24E13E15E21E26E27C11C23C25C28
                                C34
  23114495.314   121467501.5351                   94650004.2741   23114496.243  
  23247872.649   122168403.5131                   95196152.6961   23247873.614  
  22334705.554   117369694.0831                   91456940.7521   22334706.983  
  20167009.982   105978375.8481   20167014.485    82580576.9721   20167014.592  
  20508715.556   107774036.5311   20508717.664    83979786.4881   20508718.236  
  23856955.040   125369139.4691   23856960.955    97690267.6461   23856960.562  
  21880900.576   114984909.4821   21880904.901    89598648.0951   21880904.418  
  23311140.195   122500857.8101   23311140.498    95455214.7511   23311139.158  
  21424775.289   112587960.7331   21424776.111    87730894.5571   21424776.379  
                                  24571324.663   100615467.816                  
  19951586.831   106540371.763    19951594.246    82864749.341                  
  19795604.966   105521723.758    19795611.953    82072466.580                  
                                  23088281.886    96094479.645                  
  19733711.299   105562071.031                                                  
  19607370.373   104849434.548    19607378.986    81549610.486                  
  23538746.428   123696976.080                                                  
  23893244.649   125559860.135                                                  
  24209725.917   127222963.663                                                  
  27151072.328   142679836.129                                                  
  23763982.603   124880582.268                                                  
                 118556064.415    22767442.470   118556064.415                  
                 116349126.097    22343625.055   116349126.097                  
                 130277520.910    25018427.131   130277520.910                  
                 119972275.538    23039414.075   119972275.538                  
                 129160724.118    24803957.953   129160724.118                  
 21  9  1  9 42 40.0000000  0 25G22G19G21G 1G14G 3G30G 7G17G 8R13R14
                                R17R23R24E13E15E21E26E27C11C23C25C28
                                C34
  23114181.837   121465853.9741                   94648720.4581   23114182.713  
  23247331.736   122165561.0041                   95193937.7521   23247332.755  
  22335192.092   117372250.8741                   91458933.0591   22335193.521  
  20167179.166   105979264.7241   20167183.651    82581269.6011   20167183.758  
  20508470.679   107772749.7551   20508473.019    83978783.8051   20508473.377  
  23856394.989   125366197.4911   23856401.226    97687975.2091   23856400.690  
  21881346.373   114987252.1791   21881350.679    89600473.5731   21881350.215  
  23311821.004   122504435.6421   23311821.791    95458002.6701   23311820.039  
  21424506.914   112586550.3261   21424507.879    87729795.5381   21424507.986  
                                  24571889.914   100617783.974                  
  19952057.858   106542886.892    19952064.970    82866705.546                  
  19795242.618   105519792.173    19795249.569    82070964.243                  
                                  23087615.210    96091702.883                  
  19734070.538   105563991.931                                                  
  19607148.404   104848247.529    19607157.053    81548687.242                  
  23538499.746   123695679.735                                                  
  23893531.697   125561368.483                                                  
  24209450.091   127221513.832                                                  
  27150515.672   142676911.109                                                  
  23764219.779   124881828.725                                                  
                 118558092.519    22767831.926   118558092.519                  
                 116350350.094    22343860.104   116350350.094                  
                 130280816.023    25019059.926   130280816.023                  
                 119970339.997    23039042.417   119970339.997                  
                 129163409.209    24804473.671   129163409.209                  
 21  9  1  9 42 41.0000000  0 25G22G19G21G 1G14G 3G30G 7G17G 8R13R14
                                R17R23R24E13E15E21E26E27C11C23C25C28
                                C34
  23113868.147   121464206.5861                   94647436.7771   23113869.219  
  23246791.073   122162718.3661                   95191722.7091   23246791.824  
  22335678.736   117374807.6731                   91460925.3681   22335680.059  
  20167348.368   105980153.9851   20167353.103    82581962.5341   20167352.996  
  20508225.927   107771463.0931   20508228.321    83977781.2091   20508228.553  
  23855835.153   125363255.4361   23855841.443    97685682.6991   23855840.889  
  21881792.151   114989595.0691   21881796.708    89602299.1971   21881796.047  
  23312502.011   122508013.3391   23312503.011    95460790.4971   23312500.849  
  21424238.450   112585139.8861   21424239.808    87728696.4941   21424239.593  
                                  24572454.468   100620099.880                  
  19952528.796   106545402.391    19952535.837    82868662.061                  
  19794880.288   105517860.985    19794887.364    82069462.189                  
                                  23086947.838    96088926.148                  
  19734429.741   105565913.022                                                  
  19606926.525   104847060.857    19606934.852    81547764.275                  
  23538253.046   123694383.480                                                  
  23893818.728   125562876.860                                                  
  24209174.211   127220063.979                                                  
  27149959.034   142673985.846                                                  
  23764457.008   124883075.232                                                  
                 118560120.515    22768221.310   118560120.515                  
                 116351574.310    22344095.118   116351574.310                  
                 130284110.994    25019692.669   130284110.994                  
                 119968404.454    23038670.616   119968404.454                  
                 129166094.097    24804989.210   129166094.097                  
 21  9  1  9 42 42.0000000  0 25G22G19G21G 1G14G 3G30G 7G17G 8R13R14
                                R17R23R24E13E15E21E26E27C11C23C25C28
                                C34
  23113554.795   121462560.1351                   94646153.8301   23113555.885  
  23246249.981   122159876.3791                   95189508.1741   23246250.946  
  22336165.399   117377365.2541                   91462918.2901   22336166.722  
  20167517.820   105981044.4061   20167522.537    82582656.3661   20167522.430  
  20507981.353   107770177.3171   20507983.855    83976779.3061   20507983.891  
  23855275.656   125360314.0681   23855281.660    97683390.7341   23855281.106  
  21882238.109   114991938.9011   21882242.683    89604125.5571   21882242.058  
  23313183.071   122511591.6551   23313184.697    95463578.7861   23313181.820  
  21423970.236   112583730.1711   21423971.790    87727598.0151   21423971.308  
                                  24573019.987   100622416.148                  
  19953000.002   106547919.059    19953007.597    82870619.478                  
  19794518.172   105515930.954    19794525.338    82067961.052                  
                                  23086279.894    96086150.045                  
  19734789.123   105567835.072                                                  
  19606704.860   104845875.259    19606712.883    81546842.157                  
  23538006.507   123693088.068                                                  
  23894105.883   125564385.996                                                  
  24208898.564   127218614.867                                                  
  27149402.611   142671061.231                                                  
  23764694.309   124884322.551                                                  
                 118562149.157    22768610.801   118562149.157                  
                 116352799.493    22344330.363   116352799.493                  
                 130287406.578    25020325.482   130287406.578                  
                 119966469.655    23038299.012   119966469.655                  
                 129168779.477    24805504.910   129168779.477                  
 21  9  1  9 42 43.0000000  0 25G22G19G21G 1G14G 3G30G 7G17G 8R13R14
                                R17R23R24E13E15E21E26E27C11C23C25C28
                                C34
  23113241.605   121460913.9531                   94644871.0951   23113242.606  
  23245709.265   122157034.3251                   95187293.5861   23245710.104  
  22336652.062   117379922.9331                   91464911.2831   22336653.402  
  20167687.307   105981935.3101   20167691.900    82583350.5771   20167691.971  
  20507736.798   107768891.7681   20507739.335    83975777.5791   20507739.264  
  23854716.088   125357372.7001   23854722.324    97681098.7631   23854721.395  
  21882684.137   114994283.0081   21882688.819    89605952.1331   21882688.140  
  23313863.916   122515169.9301   23313864.631    95466367.0621   23313862.772  
  21423701.950   112582320.4971   21423703.701    87726499.5681   21423703.022  
                                  24573586.453   100624732.278                  
  19953471.173   106550436.215    19953479.357    82872577.265                  
  19794156.164   105514001.435    19794163.133    82066460.318                  
                                  23085612.825    96083373.934                  
  19735148.433   105569757.408                                                  
  19606483.266   104844690.059    19606491.217    81545920.309                  
  23537760.022   123691792.835                                                  
  23894393.092   125565895.248                                                  
  24208622.862   127217165.816                                                  
  27148846.205   142668136.472                                                  
  23764931.645   124885569.997                                                  
                 118564177.781    22769000.220   118564177.781                  
                 116354024.988    22344565.698   116354024.988                  
                 130290702.153    25020958.742   130290702.153                  
                 119964534.937    23037927.354   119964534.937                  
                 129171464.746    24806020.735   129171464.746                  
 21  9  1  9 42 44.0000000  0 25G22G19G21G 1G14G 3G30G 7G17G 8R13R14
                                R17R23R24E13E15E21E26E27C11C23C25C28
                                C34
  23112928.397   121459267.9711                   94643588.5121   23112929.344  
  23245168.602   122154192.2001                   95185078.9521   23245169.245  
  22337138.814   117382480.6721                   91466904.3261   22337140.119  
  20167856.902   105982826.6461   20167861.441    82584045.1241   20167861.584  
  20507492.350   107767606.3651   20507494.673    83974775.9641   20507494.655  
  23854156.519   125354431.3031   23854162.380    97678806.7651   23854161.665  
  21883130.255   114996627.3311   21883135.044    89607778.8821   21883134.258  
  23314544.672   122518748.0911   23314545.155    95469155.2371   23314543.707  
  21423433.629   112580910.8211   21423435.094    87725401.1141   21423434.737  
                                  24574151.864   100627048.207                  
  19953942.808   106552953.793    19953950.902    82874535.364                  
  19793794.138   105512072.366    19793801.214    82064959.921                  
                                  23084945.793    96080597.866                  
  19735507.761   105571679.969                                                  
  19606261.690   104843505.223    19606269.195    81544998.784                  
  23537513.590   123690497.713                                                  
  23894680.318   125567404.543                                                  
  24208347.143   127215716.782                                                  
  27148289.817   142665211.596                                                  
  23765169.035   124886817.531                                                  
                 118566206.321    22769389.729   118566206.321                  
                 116355250.727    22344801.051   116355250.727                  
                 130293997.591    25021591.645   130293997.591                  
                 119962600.239    23037555.732   119962600.239                  
                 129174149.800    24806536.292   129174149.800                  
 21  9  1  9 42 45.0000000  0 25G22G19G21G 1G14G 3G30G 7G17G 8R13R14
                                R17R23R24E13E15E21E26E27C11C23C25C28
                                C34
  23112615.600   121457622.9781                   94642306.7021   23112616.296  
  23244627.867   122151350.7291                   95182864.8171   23244628.528  
  22337625.656   117385039.2061                   91468897.9891   22337627.014  
  20168026.712   105983719.1501   20168031.465    82584740.5841   20168031.429  
  20507247.866   107766321.8721   20507250.117    83973775.0631   20507250.224  
  23853597.129   125351490.5811   23853602.633    97676515.2981   23853602.061  
  21883576.623   114998972.6241   21883581.019    89609606.3831   21883580.573  
  23315225.661   122522326.8941   23315226.447    95471943.9101   23315224.767  
  21423165.397   112579501.8741   21423167.273    87724303.2361   21423166.648  
                                  24574717.419   100629364.475                  
  19954414.854   106555472.565    19954423.127    82876494.403                  
  19793432.415   105510144.479    19793439.652    82063460.467                  
  23084277.527   123528672.048    23084278.671    96077822.312                  
  19735867.375   105573603.525                                                  
  19606040.203   104842321.498    19606047.976    81544078.111                  
  23537267.212   123689203.466                                                  
  23894967.670   125568914.634                                                  
  24208071.478   127214268.511                                                  
  27147733.322   142662287.321                                                  
  23765406.514   124888065.889                                                  
                 118568235.544    22769779.381   118568235.544                  
                 116356477.467    22345036.637   116356477.467                  
                 130297293.658    25022224.513   130297293.658                  
                 119960666.315    23037184.271   119960666.315                  
                 129176835.400    24807052.117   129176835.400                  
 21  9  1  9 42 46.0000000  0 25G22G19G21G 1G14G 3G30G 7G17G 8R13R14
                                R17R23R24E13E15E21E26E27C11C23C25C28
                                C34
  23112302.838   121455978.5631                   94641025.3421   23112303.356  
  23244087.133   122148509.5671                   95180650.9201   23244087.955  
  22338112.640   117387598.1681                   91470891.9811   22338113.963  
  20168196.735   105984612.4871   20168201.328    82585436.6861   20168201.435  
  20507003.471   107765037.9191   20507005.526    83972774.5801   20507005.901  
  23853037.614   125348550.2201   23853043.029    97674224.1071   23853042.457  
  21884023.027   115001318.5161   21884027.548    89611434.3511   21884026.994  
  23315906.685   122525905.9771   23315907.829    95474732.8121   23315905.881  
  21422897.379   112578093.3251   21422899.434    87723205.6641   21422898.630  
                                  24575283.402   100631680.857                  
  19954886.667   106557992.143    19954894.762    82878454.056                  
  19793070.907   105508217.404    19793077.965    82061961.629                  
  23083609.422   123525103.927    23083611.977    96075047.104                  
  19736227.007   105575527.713                                                  
  19605818.949   104841138.510    19605826.937    81543158.005                  
  23537020.959   123687909.732                                                  
  23895255.129   125570425.165                                                  
  24207795.938   127212820.628                                                  
  27147176.863   142659363.304                                                  
  23765644.154   124889314.726                                                  
                 118570265.073    22770169.194   118570265.073                  
                 116357704.828    22345272.365   116357704.828                  
                 130300590.039    25022857.505   130300590.039                  
                 119958732.810    23036812.845   119958732.810                  
                 129179521.189    24807567.907   129179521.189                  
 21  9  1  9 42 47.0000000  0 25G22G19G21G 1G14G 3G30G 7G17G 8R13R14
                                R17R23R24E13E15E21E26E27C11C23C25C28
                                C34
  23111990.094   121454334.2071                   94639744.0201   23111990.416  
  23243546.684   122145668.1501                   95178436.8351   23243547.238  
  22338599.589   117390157.0371                   91472885.9061   22338600.894  
  20168366.688   105985506.0731   20168371.298    82586132.9851   20168371.476  
  20506759.041   107763753.9741   20506761.149    83971774.1031   20506761.560  
  23852477.832   125345609.6651   23852483.371    97671932.7541   23852482.889  
  21884469.431   115003664.4691   21884473.952    89613262.3641   21884473.434  
  23316587.798   122529484.8031   23316588.352    95477521.5161   23316586.941  
  21422629.326   112576684.6011   21422631.381    87722107.9581   21422630.524  
                                  24575848.850   100633996.898                  
  19955358.481   106560511.993    19955366.290    82880413.948                  
  19792709.452   105506290.603    19792716.332    82060463.010                  
  23082941.389   123521535.671    23082945.141    96072271.773                  
  19736586.729   105577451.977                                                  
  19605597.713   104839955.705    19605606.111    81542238.034                  
  23536774.724   123686615.951                                                  
  23895542.516   125571935.587                                                  
  24207520.504   127211372.610                                                  
  27146620.547   142656438.945                                                  
  23765881.741   124890563.489                                                  
                 118572294.372    22770559.025   118572294.372                  
                 116358932.306    22345508.129   116358932.306                  
                 130303886.149    25023490.390   130303886.149                  
                 119956799.159    23036441.384   119956799.159                  
                 129182206.621    24808083.750   129182206.621                  
 21  9  1  9 42 48.0000000  0 25G22G19G21G 1G14G 3G30G 7G17G 8R13R14
                                R17R23R24E13E15E21E26E27C11C23C25C28
                                C34
  23111677.458   121452690.2141                   94638462.9831   23111677.547  
  23243006.164   122142826.7911                   95176222.7821   23243006.557  
  22339086.556   117392716.1041                   91474879.9881   22339087.878  
  20168536.872   105986400.2461   20168541.286    82586829.7441   20168541.643  
  20506514.860   107762470.3471   20506516.969    83970773.8741   20506517.291  
  23851918.460   125342669.2121   23851923.785    97669641.4931   23851923.302  
  21884915.907   115006010.7931   21884920.249    89615090.6681   21884919.963  
  23317268.912   122533063.6801   23317270.949    95480310.2421   23317267.983  
  21422361.255   112575276.0401   21422363.185    87721010.3751   21422362.452  
                                  24576414.172   100636312.864                  
  19955830.634   106563032.430    19955838.175    82882374.285                  
  19792348.158   105504364.424    19792355.145    82058964.871                  
  23082273.659   123517967.574    23082278.305    96069496.608                  
  19736946.503   105579376.625                                                  
  19605376.584   104838773.407    19605384.893    81541318.476                  
  23536528.560   123685322.452                                                  
  23895829.975   125573446.217                                                  
  24207245.018   127209924.759                                                  
  27146064.177   142653514.623                                                  
  23766119.470   124891812.478                                                  
                 118574323.755    22770948.837   118574323.755                  
                 116360160.171    22345743.964   116360160.171                  
                 130307182.315    25024123.150   130307182.315                  
                 119954865.700    23036070.012   119954865.700                  
                 129184892.012    24808599.307   129184892.012                  
 21  9  1  9 42 49.0000000  0 25G22G19G21G 1G14G 3G30G 7G17G 8R13R14
                                R17R23R24E13E15E21E26E27C11C23C25C28
                                C34
  23111365.018   121451047.1731                   94637182.6931   23111364.857  
  23242465.519   122139986.0921                   95174009.2531   23242465.965  
  22339573.683   117395275.9471                   91476874.6701   22339575.005  
  20168707.307   105987295.5881   20168711.756    82587527.4141   20168712.006  
  20506270.716   107761187.6201   20506272.699    83969774.3471   20506273.200  
  23851358.873   125339729.4641   23851364.466    97667350.7781   23851363.930  
  21885362.507   115008358.0871   21885366.742    89616919.7271   21885366.635  
  23317949.865   122536643.1791   23317951.812    95483099.4591   23317949.186  
  21422093.452   112573868.2121   21422094.953    87719913.3671   21422094.524  
                                  24576980.298   100638629.148                  
  19956302.734   106565554.050    19956310.096    82884335.550                  
  19791987.168   105502439.450    19791993.959    82057467.660                  
  23081605.393   123514400.271    23081611.826    96066721.988                  
  19737306.350   105581302.248                                                  
  19605155.669   104837592.220    19605164.032    81540399.784                  
  23536282.540   123684029.804                                                  
  23896117.595   125574957.637                                                  
  24206969.692   127208477.656                                                  
  27145507.771   142650590.918                                                  
  23766357.289   124893062.289                                                  
                 118576353.810    22771338.811   118576353.810                  
                 116361389.030    22345979.978   116361389.030                  
                 130310479.117    25024756.392   130310479.117                  
                 119952933.004    23035698.801   119952933.004                  
                 129187577.930    24809115.150   129187577.930                  
 21  9  1  9 42 50.0000000  0 25G22G19G21G 1G14G 3G30G 7G17G 8R13R14
                                R17R23R24E13E15E21E26E27C11C23C25C28
                                C34
  23111052.203   121449404.0341                   94635902.3251   23111052.149  
  23241924.999   122137144.9771                   95171795.3971   23241925.267  
  22340060.936   117397835.5231                   91478869.1451   22340062.079  
  20168877.831   105988191.0201   20168882.209    82588225.1541   20168882.388  
  20506026.589   107759904.7201   20506028.787    83968774.6821   20506029.091  
  23850799.305   125336789.3231   23850805.077    97665059.7611   23850804.433  
  21885809.143   115010705.2621   21885813.486    89618748.6961   21885813.307  
  23318631.014   122540222.2641   23318632.247    95485888.3571   23318630.246  
  21421825.470   112572460.0401   21421827.007    87718816.0881   21421826.560  
                                  24577546.049   100640945.029                  
  19956775.048   106568075.778    19956782.481    82886296.906                  
  19791626.125   105500514.563    19791633.129    82055970.521                  
  23080937.753   123510832.592    23080944.990    96063947.122                  
  19737666.143   105583227.736                                                  
  19604934.790   104836411.072    19604943.349    81539481.132                  
  23536036.519   123682736.951                                                  
  23896405.161   125576468.770                                                  
  24206694.259   127207030.231                                                  
  27144951.258   142647666.702                                                  
  23766595.019   124894311.860                                                  
                 118578383.452    22771728.606   118578383.452                  
                 116362617.808    22346215.938   116362617.808                  
                 130313775.475    25025389.349   130313775.475                  
                 119950999.996    23035327.590   119950999.996                  
                 129190263.326    24809631.064   129190263.326                  
 21  9  1  9 42 51.0000000  0 25G22G19G21G 1G14G 3G30G 7G17G 8R13R14
                                R17R23R24E13E15E21E26E27C11C23C25C28
                                C34
  23110739.584   121447761.7201                   94634622.6001   23110739.567  
  23241384.657   122134304.4011                   95169581.9641   23241384.711  
  22340548.099   117400395.7671                   91480864.1361   22340549.278  
  20169048.373   105989087.5121   20169052.822    82588923.7211   20169052.983  
  20505782.606   107758622.6071   20505784.964    83967775.6351   20505785.143  
  23850239.897   125333849.7891   23850245.669    97662769.2171   23850244.990  
  21886255.923   115013053.2931   21886260.426    89620578.3331   21886260.122  
  23319312.020   122543801.8601   23319314.040    95488677.6501   23319311.520  
  21421557.632   112571052.4941   21421559.115    87717719.2991   21421558.686  
                                  24578111.693   100643261.175                  
  19957247.183   106570598.571    19957254.545    82888259.080                  
  19791265.331   105498590.727    19791272.318    82054474.197                  
  23080269.934   123507265.535    23080278.404    96061172.737                  
  19738026.096   105585154.082                                                  
  19604714.107   104835230.975    19604722.488    81538563.274                  
  23535790.677   123681444.855                                                  
  23896692.835   125577980.586                                                  
  24206418.897   127205583.451                                                  
  27144394.549   142644743.017                                                  
  23766832.927   124895562.140                                                  
                 118580413.673    22772118.508   118580413.673                  
                 116363847.461    22346451.970   116363847.461                  
                 130317072.347    25026022.359   130317072.347                  
                 119949067.650    23034956.433   119949067.650                  
                 129192949.145    24810147.032   129192949.145                  
 21  9  1  9 42 52.0000000  0 25G22G19G21G 1G14G 3G30G 7G17G 8R13R14
                                R17R23R24E13E15E21E26E27C11C23C25C28
                                C34
  23110427.162   121446119.7671                   94633343.1561   23110427.055  
  23240844.298   122131463.8731                   95167368.5701   23240844.209  
  22341035.387   117402956.2111                   91482859.2871   22341036.513  
  20169219.040   105989984.5751   20169223.704    82589622.7321   20169223.686  
  20505538.676   107757340.7931   20505541.088    83966776.8171   20505541.249  
  23849680.472   125330910.3611   23849686.386    97660478.7541   23849685.761  
  21886702.845   115015401.6761   21886707.312    89622408.2371   21886707.008  
  23319993.188   122547381.5061   23319994.957    95491466.9841   23319992.777  
  21421289.864   112569645.0891   21421291.258    87716622.6171   21421290.829  
                                  24578677.462   100645577.244                  
  19957719.640   106573121.936    19957726.788    82890221.674                  
  19790904.538   105496667.453    19790911.489    82052978.334                  
  23079601.829   123503698.669    23079610.764    96058398.519                  
  19738386.068   105587080.788                                                  
  19604493.479   104834051.394    19604501.663    81537645.806                  
  23535544.853   123680153.014                                                  
  23896980.598   125579492.596                                                  
  24206143.571   127204136.838                                                  
  27143837.840   142641819.270                                                  
  23767070.889   124896812.641                                                  
                 118582443.952    22772508.392   118582443.952                  
                 116365077.510    22346688.127   116365077.510                  
                 130320369.266    25026655.190   130320369.266                  
                 119947135.474    23034585.347   119947135.474                  
                 129195634.926    24810663.054   129195634.926                  
 21  9  1  9 42 53.0000000  0 25G22G19G21G 1G14G 3G30G 7G17G 8R13R14
                                R17R23R24E13E15E21E26E27C11C23C25C28
                                C34
  23110114.687   121444478.1101                   94632063.9431   23110114.580  
  23240303.546   122128623.3381                   95165155.1691   23240303.724  
  22341522.640   117405516.7821                   91484854.5371   22341523.765  
  20169389.886   105990882.1531   20169394.710    82590322.1451   20169394.478  
  20505294.710   107756059.2311   20505297.283    83965778.1951   20505297.372  
  23849121.064   125327970.9711   23849127.175    97658188.3131   23849126.461  
  21887149.767   115017750.3561   21887154.574    89624238.3771   21887153.930  
  23320674.301   122550961.1191   23320675.445    95494256.3001   23320674.087  
  21421022.151   112568237.7591   21421024.313    87715525.9971   21421022.990  
                                  24579242.731   100647893.180                  
  19958192.329   106575645.819    19958199.531    82892184.681                  
  19790543.816   105494744.700    19790550.946    82051482.862                  
  23078934.082   123500131.856    23078943.177    96055624.341                  
  19738746.200   105589007.803                                                  
  19604272.957   104832872.199    19604280.909    81536728.652                  
  23535299.082   123678861.381                                                  
  23897268.342   125581004.737                                                  
  24205868.299   127202690.311                                                  
  27143281.577   142638895.500                                                  
  23767308.886   124898063.305                                                  
                 118584474.228    22772898.241   118584474.228                  
                 116366307.901    22346924.392   116366307.901                  
                 130323666.170    25027288.129   130323666.170                  
                 119945203.399    23034214.332   119945203.399                  
                 129198320.590    24811178.897   129198320.590                  
 21  9  1  9 42 54.0000000  0 25G22G19G21G 1G14G 3G30G 7G17G 8R13R14
                                R17R23R24E13E15E21E26E27C11C23C25C28
                                C34
  23109802.497   121442837.0081                   94630785.1621   23109802.247  
  23239763.061   122125783.0831                   95162941.9851   23239763.222  
  22342009.910   117408077.7721                   91486850.1161   22342011.125  
  20169560.892   105991780.5081   20169565.824    82591022.1621   20169565.431  
  20505050.905   107754778.1921   20505053.532    83964779.9851   20505053.603  
  23848562.175   125325031.8771   23848568.071    97655898.1171   23848567.142  
  21887596.886   115020099.6231   21887601.567    89626068.9771   21887600.996  
  23321355.647   122554540.9931   23321355.826    95497045.8131   23321355.432  
  21420754.491   112566830.7821   21420756.671    87714429.6551   21420755.205  
                                  24579808.393   100650209.162                  
  19958665.376   106578170.499    19958672.452    82894148.312                  
  19790183.201   105492822.766    19790190.349    82049988.024                  
  23078266.691   123496565.450    23078276.966    96052850.498                  
  19739106.439   105590935.409                                                  
  19604052.543   104831693.699    19604060.530    81535812.034                  
  23535053.455   123677570.227                                                  
  23897556.159   125582517.293                                                  
  24205593.152   127201244.167                                                  
  27142725.118   142635971.930                                                  
  23767546.973   124899314.419                                                  
                 118586504.794    22773288.214   118586504.794                  
                 116367538.883    22347160.709   116367538.883                  
                 130326963.304    25027921.407   130326963.304                  
                 119943271.717    23033843.353   119943271.717                  
                 129201006.400    24811694.740   129201006.400                  
 21  9  1  9 42 55.0000000  0 25G22G19G21G 1G14G 3G30G 7G17G 8R13R14
                                R17R23R24E13E15E21E26E27C11C23C25C28
                                C34
  23109490.665   121441196.6961                   94629506.9991   23109490.057  
  23239222.631   122122943.3001                   95160729.1741   23239222.845  
  22342497.377   117410639.3571                   91488846.1561   22342498.574  
  20169732.167   105992679.8661   20169736.759    82591722.9581   20169736.563  
  20504807.332   107753497.8721   20504809.888    83963782.3331   20504809.959  
  23848002.946   125322093.3321   23848008.682    97653608.3421   23848007.931  
  21888044.183   115022449.6701   21888048.686    89627900.1801   21888048.186  
  23322037.064   122558121.2931   23322037.636    95499835.6611   23322036.778  
  21420486.938   112565424.3631   21420489.010    87713333.7441   21420487.545  
                                  24580374.108   100652525.400                  
  19959138.405   106580696.166    19959146.285    82896112.754                  
  19789822.872   105490901.853    19789829.734    82048493.980                  
  23077599.945   123492999.636    23077610.577    96050077.070                  
  19739466.929   105592863.818                                                  
  19603832.360   104830516.140    19603840.312    81534896.164                  
  23534807.952   123676279.756                                                  
  23897844.136   125584030.453                                                  
  24205318.040   127199798.594                                                  
  27142168.676   142633048.800                                                  
  23767785.239   124900566.184                                                  
                 118588535.838    22773678.223   118588535.838                  
                 116368770.679    22347397.224   116368770.679                  
                 130330260.923    25028554.435   130330260.923                  
                 119941340.617    23033472.589   119941340.617                  
                 129203692.576    24812210.654   129203692.576                  
 21  9  1  9 42 56.0000000  0 25G22G19G21G 1G14G 3G30G 7G17G 8R13R14
                                R17R23R24E13E15E21E26E27C11C23C25C28
                                C34
  23109178.672   121439556.6881                   94628229.0641   23109177.939  
  23238681.968   122120103.5371                   95158516.3671   23238682.432  
  22342984.647   117413201.0991                   91490842.3161   22342986.059  
  20169903.513   105993579.7471   20169908.141    82592424.1671   20169907.784  
  20504563.635   107752217.8061   20504566.172    83962784.8841   20504566.404  
  23847443.485   125319154.8141   23847449.685    97651318.5851   23847448.810  
  21888491.409   115024800.0431   21888495.787    89629731.6401   21888495.447  
  23322718.231   122561701.5991   23322719.304    95502625.5101   23322718.088  
  21420219.403   112564018.0371   21420221.154    87712237.9081   21420219.903  
                                  24580939.931   100654841.491                  
  19959611.595   106583222.382    19959620.350    82898077.565                  
  19789462.633   105488981.499    19789469.566    82047000.363                  
  23076933.019   123489433.863    23076944.830    96047303.699                  
  19739827.562   105594792.574                                                  
  19603612.321   104829339.074    19603620.041    81533980.673                  
  23534562.450   123674989.505                                                  
  23898132.095   125585543.772                                                  
  24205042.875   127198353.140                                                  
  27141612.664   142630125.649                                                  
  23768023.468   124901818.120                                                  
                 118590566.937    22774068.322   118590566.937                  
                 116370002.833    22347633.863   116370002.833                  
                 130333558.534    25029187.678   130333558.534                  
                 119939409.647    23033101.896   119939409.647                  
                 129206378.662    24812726.658   129206378.662                  
 21  9  1  9 42 57.0000000  0 25G22G19G21G 1G14G 3G30G 7G17G 8R13R14
                                R17R23R24E13E15E21E26E27C11C23C25C28
                                C34
  23108866.536   121437917.1331                   94626951.4951   23108865.892  
  23238141.376   122117263.8891                   95156303.6521   23238141.966  
  22343472.132   117415763.1011                   91492838.6821   22343473.580  
  20170074.913   105994480.2741   20170079.701    82593125.8761   20170079.148  
  20504320.169   107750938.1231   20504322.617    83961787.7281   20504322.903  
  23846884.595   125316216.4921   23846890.706    97649028.9901   23846889.724  
  21888938.778   115027150.8501   21888942.959    89631563.4381   21888942.780  
  23323399.452   122565281.9991   23323401.668    95505415.4301   23323399.470  
  21419951.725   112562611.9321   21419953.440    87711142.2391   21419952.296  
                                  24581505.485   100657157.555                  
  19960084.909   106585749.230    19960093.683    82900042.919                  
  19789102.483   105487061.797    19789109.487    82045507.268                  
  23076266.326   123485868.297    23076277.708    96044530.524                  
  19740188.230   105596721.779                                                  
  19603392.372   104828162.593    19603400.430    81533065.637                  
  23534317.054   123673699.598                                                  
  23898420.072   125587057.360                                                  
  24204767.835   127196907.910                                                  
  27141056.758   142627202.513                                                  
  23768261.788   124903070.361                                                  
                 118592598.158    22774458.474   118592598.158                  
                 116371235.452    22347870.574   116371235.452                  
                 130336856.267    25029821.081   130336856.267                  
                 119937478.919    23032731.203   119937478.919                  
                 129209064.757    24813242.608   129209064.757                  
 21  9  1  9 42 58.0000000  0 25G22G19G21G 1G14G 3G30G 7G17G 8R13R14
                                R17R23R24E13E15E21E26E27C11C23C25C28
                                C34
  23108554.739   121436278.3431                   94625674.5191   23108553.988  
  23237601.106   122114424.7511                   95154091.3391   23237601.731  
  22343959.688   117418325.7491                   91494835.5451   22343961.225  
  20170246.348   105995381.8101   20170251.065    82593828.3731   20170250.708  
  20504076.686   107749659.1851   20504079.188    83960791.1461   20504079.527  
  23846325.402   125313278.7071   23846331.728    97646739.8171   23846330.602  
  21889386.165   115029502.4521   21889390.328    89633395.8551   21889390.292  
  23324080.798   122568862.9001   23324082.281    95508205.7521   23324080.941  
  21419684.297   112561206.3981   21419685.691    87710047.0231   21419684.815  
                                  24582071.040   100659473.892                  
  19960558.563   106588277.118    19960567.355    82902009.043                  
  19788742.475   105485143.105    19788749.712    82044014.956                  
  23075600.008   123482303.367    23075611.676    96041757.773                  
  19740549.256   105598651.804                                                  
  19603172.565   104826987.059    19603180.731    81532151.334                  
  23534071.677   123672410.381                                                  
  23898708.175   125588571.574                                                  
  24204492.956   127195463.272                                                  
  27140500.603   142624279.870                                                  
  23768500.142   124904323.273                                                  
                 118594629.893    22774848.734   118594629.893                  
                 116372468.899    22348107.339   116372468.899                  
                 130340154.442    25030454.216   130340154.442                  
                 119935548.789    23032360.546   119935548.789                  
                 129211751.224    24813758.362   129211751.224                  
 21  9  1  9 42 59.0000000  0 25G22G19G21G 1G14G 3G30G 7G17G 8R13R14
                                R17R23R24E13E15E21E26E27C11C23C25C28
                                C34
  23108243.014   121434640.1521                   94624398.0061   23108242.210  
  23237060.836   122111585.8691                   95151879.2261   23237061.479  
  22344447.352   117420888.8021                   91496832.7301   22344448.942  
  20170418.087   105996284.1411   20170422.805    82594531.4891   20170422.429  
  20503833.471   107748380.7721   20503836.026    83959794.9851   20503836.240  
  23845766.387   125310341.2541   23845772.409    97644450.8921   23845771.605  
  21889833.801   115031854.6411   21889837.697    89635228.7341   21889837.876  
  23324762.412   122572444.0541   23324763.198    95510996.2571   23324762.412  
  21419416.869   112559801.2231   21419418.013    87708952.0791   21419417.441  
                                  24582637.166   100661790.285                  
  19961032.021   106590805.818    19961040.223    82903975.816                  
  19788382.683   105483225.198    19788390.152    82042523.244                  
  23074934.583   123478738.841    23074945.251    96038985.352                  
  19740910.317   105600582.412                                                  
  19602952.847   104825812.226    19602961.281    81531237.583                  
  23533826.442   123671121.662                                                  
  23898996.438   125590086.201                                                  
  24204218.112   127194019.018                                                  
  27139944.483   142621357.408                                                  
  23768738.640   124905576.620                                                  
                 118596661.914    22775239.083   118596661.914                  
                 116373702.963    22348344.371   116373702.963                  
                 130343452.904    25031087.762   130343452.904                  
                 119933619.055    23031990.050   119933619.055                  
                 129214437.868    24814274.187   129214437.868                  
 21  9  1  9 43  0.0000000  0 25G22G19G21G 1G14G 3G30G 7G17G 8R13R14
                                R17R23R24E13E15E21E26E27C11C23C25C28
                                C34
  23107931.342   121433002.0751                   94623121.5781   23107930.449  
  23236520.120   122108746.8111                   95149666.9751   23236521.245  
  22344935.051   117423451.8051                   91498829.8751   22344936.659  
  20170589.898   105997186.7981   20170594.615    82595234.8571   20170594.204  
  20503590.237   107747102.4111   20503592.811    83958798.8601   20503592.971  
  23845207.534   125307403.6361   23845213.145    97642161.8351   23845212.608  
  21890281.260   115034206.9421   21890285.530    89637061.6911   21890285.495  
  23325443.811   122576025.0061   23325444.615    95513786.5971   23325443.901  
  21419149.406   112558395.9481   21419150.656    87707857.0591   21419149.977  
                                  24583202.614   100664106.399                  
  19961505.872   106593334.819    19961513.341    82905942.840                  
  19788023.069   105481307.612    19788030.359    82041031.798                  
  23074268.390   123475174.165    23074277.879    96036212.850                  
  19741271.540   105602513.134                                                  
  19602733.165   104824637.653    19602741.885    81530324.024                  
  23533581.279   123669832.955                                                  
  23899284.665   125591600.781                                                  
  24203943.251   127192574.677                                                  
  27139388.524   142618434.671                                                  
  23768977.138   124906829.955                                                  
                 118598693.760    22775629.378   118598693.760                  
                 116374937.170    22348581.422   116374937.170                  
                 130346751.149    25031720.915   130346751.149                  
                 119931689.246    23031619.536   119931689.246                  
                 129217124.207    24814789.958   129217124.207                  
 21  9  1  9 43  1.0000000  0 25G22G19G21G 1G14G 3G30G 7G17G 8R13R14
                                R17R23R24E13E15E21E26E27C11C23C25C28
                                C34
  23107619.796   121431364.4421                   94621845.5051   23107618.742  
  23235979.725   122105907.8991                   95147454.8381   23235981.029  
  22345422.840   117426015.0781                   91500827.2301   22345424.430  
  20170761.798   105998090.1211   20170766.515    82595938.7481   20170766.104  
  20503347.112   107745824.4621   20503349.613    83957803.0501   20503349.792  
  23844648.626   125304466.2391   23844654.023    97639872.9581   23844653.630  
  21890728.950   115036559.7041   21890733.435    89638895.0141   21890733.221  
  23326125.300   122579606.0891   23326125.854    95516577.0611   23326125.461  
  21418882.139   112556990.8931   21418883.050    87706762.2111   21418882.603  
                                  24583768.275   100666422.482                  
  19961979.508   106595864.514    19961986.745    82907910.353                  
  19787663.383   105479390.717    19787670.727    82039540.870                  
  23073602.430   123471609.734    23073612.204    96033440.508                  
  19741632.851   105604444.318                                                  
  19602513.501   104823463.689    19602522.579    81529410.952                  
  23533336.134   123668544.612                                                  
  23899572.910   125593115.646                                                  
  24203668.479   127191130.588                                                  
  27138832.101   142615512.125                                                  
  23769215.761   124908083.610                                                  
                 118600725.789    22776019.852   118600725.789                  
                 116376171.868    22348818.562   116376171.868                  
                 130350049.524    25032354.319   130350049.524                  
                 119929759.704    23031249.075   119929759.704                  
                 129219810.592    24815305.837   129219810.592                  
 21  9  1  9 43  2.0000000  0 25G22G19G21G 1G14G 3G30G 7G17G 8R13R14
                                R17R23R24E13E15E21E26E27C11C23C25C28
                                C34
  23107308.124   121429727.7031                   94620570.1241   23107307.195  
  23235439.615   122103069.5661                   95145243.1541   23235440.991  
  22345910.700   117428579.0841                   91502825.1551   22345912.344  
  20170933.877   105998994.5441   20170938.594    82596643.4891   20170938.219  
  20503104.075   107744547.3371   20503106.380    83956807.8911   20503106.737  
  23844089.880   125301529.4721   23844095.008    97637584.5641   23844094.758  
  21891176.855   115038913.3601   21891181.465    89640729.0321   21891181.108  
  23326806.825   122583187.7451   23326807.182    95519367.9501   23326807.003  
  21418614.961   112555586.5101   21418615.997    87705667.8871   21418615.300  
                                  24584334.420   100668738.941                  
  19962453.180   106598395.322    19962460.381    82909878.738                  
  19787303.983   105477474.969    19787311.435    82038050.846                  
  23072936.505   123468046.002    23072946.833    96030668.693                  
  19741994.181   105606376.408                                                  
  19602294.052   104822290.765    19602303.344    81528498.671                  
  23533091.168   123667257.058                                                  
  23899861.334   125594631.236                                                  
  24203393.743   127189687.189                                                  
  27138275.409   142612590.037                                                  
  23769454.509   124909338.023                                                  
                 118602758.406    22776410.200   118602758.406                  
                 116377407.488    22349055.844   116377407.488                  
                 130353348.464    25032987.847   130353348.464                  
                 119927830.857    23030878.722   119927830.857                  
                 129222497.449    24815821.876   129222497.449                  
 21  9  1  9 43  3.0000000  0 25G22G19G21G 1G14G 3G30G 7G17G 8R13R14
                                R17R23R24E13E15E21E26E27C11C23C25C28
                                C34
  23106996.560   121428091.3321                   94619295.0251   23106995.738  
  23234899.488   122100231.3261                   95143031.5411   23234900.882  
  22346398.756   117431143.3111                   91504823.2541   22346400.275  
  20171106.080   105999899.5661   20171110.976    82597348.6981   20171110.440  
  20502861.038   107743270.5471   20502863.486    83955812.9871   20502863.790  
  23843530.776   125298592.8231   23843535.976    97635296.2631   23843535.851  
  21891624.778   115041267.3981   21891629.942    89642563.3451   21891629.084  
  23327488.296   122586769.4481   23327489.475    95522158.8871   23327488.653  
  21418347.819   112554182.2911   21418348.748    87704573.6881   21418348.069  
                                  24584900.350   100671055.255                  
  19962926.977   106600926.729    19962934.661    82911847.601                  
  19786944.602   105475559.830    19786952.089    82036561.296                  
  23072271.009   123464482.492    23072280.980    96027897.053                  
  19742355.546   105608308.895                                                  
  19602074.656   104821118.372    19602084.180    81527586.805                  
  23532846.237   123665969.792                                                  
  23900149.758   125596147.040                                                  
  24203119.042   127188243.962                                                  
  27137719.647   142609668.013                                                  
  23769693.329   124910592.678                                                  
                 118604791.101    22776800.656   118604791.101                  
                 116378643.517    22349293.252   116378643.517                  
                 130356647.482    25033621.536   130356647.482                  
                 119925902.199    23030508.440   119925902.199                  
                 129225184.271    24816337.844   129225184.271                  
 21  9  1  9 43  4.0000000  0 25G22G19G21G 1G14G 3G30G 7G17G 8R13R14
                                R17R23R24E13E15E21E26E27C11C23C25C28
                                C34
  23106685.264   121426455.2391                   94618020.1521   23106684.353  
  23234359.254   122097393.0401                   95140819.8941   23234360.773  
  22346886.902   117433707.6171                   91506821.4141   22346888.243  
  20171278.356   106000805.0491   20171283.252    82598054.2691   20171282.769  
  20502618.109   107741993.9681   20502620.646    83954818.2521   20502620.897  
  23842971.958   125295656.1731   23842977.229    97633007.9721   23842976.926  
  21892072.808   115043621.7001   21892078.240    89644397.8621   21892077.079  
  23328169.767   122590351.1151   23328170.785    95524949.7991   23328170.231  
  21418080.695   112552778.1111   21418081.892    87703479.5241   21418080.856  
                                  24585465.779   100673371.447                  
  19963401.078   106603458.601    19963409.780    82913816.847                  
  19786585.363   105473645.179    19786592.939    82035072.119                  
  23071605.370   123460919.017    23071614.769    96025125.452                  
  19742716.947   105610241.665                                                  
  19601855.439   104819946.388    19601864.999    81526675.266                  
  23532601.307   123664682.698                                                  
  23900438.200   125597662.947                                                  
  24202844.378   127186800.806                                                  
  27137163.920   142606745.901                                                  
  23769932.077   124911847.475                                                  
                 118606823.785    22777191.041   118606823.785                  
                 116379879.855    22349530.678   116379879.855                  
                 130359946.454    25034255.082   130359946.454                  
                 119923973.616    23030138.068   119923973.616                  
                 129227870.944    24816853.652   129227870.944                  
 21  9  1  9 43  5.0000000  0 25G22G19G21G 1G14G 3G30G 7G17G 8R13R14
                                R17R23R24E13E15E21E26E27C11C23C25C28
                                C34
  23106374.021   121424819.0901                   94616745.2281   23106372.985  
  23233818.984   122094554.4101                   95138607.9741   23233820.539  
  22347374.870   117436271.7141                   91508819.4151   22347376.156  
  20171450.649   106001710.7021   20171455.438    82598759.9751   20171455.134  
  20502375.055   107740717.2751   20502377.753    83953823.4241   20502377.949  
  23842413.033   125292719.2401   23842418.322    97630719.4551   23842417.983  
  21892520.874   115045975.9551   21892526.091    89646232.3471   21892525.019  
  23328851.220   122593932.4011   23328853.239    95527740.4161   23328851.756  
  21417813.517   112551373.6601   21417815.090    87702385.1491   21417813.571  
                                  24586031.530   100675687.234                  
  19963875.179   106605990.646    19963883.613    82915786.213                  
  19786226.070   105471730.678    19786233.647    82033583.059                  
  23070940.267   123457355.271    23070949.309    96022353.698                  
  19743078.277   105612174.373                                                  
  19601636.311   104818774.472    19601645.817    81525763.781                  
  23532356.429   123663395.464                                                  
  23900726.606   125599178.630                                                  
  24202569.731   127185357.392                                                  
  27136607.586   142603823.348                                                  
  23770170.825   124913102.087                                                  
                 118608856.140    22777581.336   118608856.140                  
                 116381116.179    22349768.086   116381116.179                  
                 130363245.033    25034888.861   130363245.033                  
                 119922044.798    23029767.715   119922044.798                  
                 129230557.155    24817369.566   129230557.155                  
 21  9  1  9 43  6.0000000  0 25G22G19G21G 1G14G 3G30G 7G17G 8R13R14
                                R17R23R24E13E15E21E26E27C11C23C25C28
                                C34
  23106062.922   121423184.1511                   94615471.2471   23106061.867  
  23233278.750   122091716.6751                   95136396.7391   23233280.537  
  22347862.980   117438836.8511                   91510818.2181   22347864.267  
  20171623.210   106002617.7721   20171627.981    82599466.7831   20171627.749  
  20502132.375   107739441.7401   20502134.966    83952829.5031   20502135.217  
  23841854.143   125289783.2361   23841859.540    97628431.6571   23841859.361  
  21892969.172   115048331.4141   21892974.282    89648067.7691   21892973.210  
  23329532.923   122597514.5641   23329535.550    95530531.7101   23329533.441  
  21417546.393   112549970.2081   21417548.413    87701291.5501   21417546.501  
                                  24586597.031   100678003.541                  
  19964349.602   106608524.132    19964358.054    82917756.723                  
  19785867.189   105469817.593    19785874.640    82032095.107                  
  23070275.200   123453792.516    23070284.778    96019582.611                  
  19743439.892   105614108.309                                                  
  19601417.326   104817603.931    19601426.976    81524853.358                  
  23532111.731   123662109.325                                                  
  23901015.209   125600695.362                                                  
  24202295.263   127183914.991                                                  
  27136051.752   142600901.668                                                  
  23770409.805   124914357.769                                                  
                 118610889.399    22777971.864   118610889.399                  
                 116382353.741    22350005.780   116382353.741                  
                 130366544.481    25035522.675   130366544.481                  
                 119920116.992    23029397.576   119920116.992                  
                 129233244.148    24817885.588   129233244.148                  
 21  9  1  9 43  7.0000000  0 25G22G19G21G 1G14G 3G30G 7G17G 8R13R14
                                R17R23R24E13E15E21E26E27C11C23C25C28
                                C34
  23105751.750   121421549.1841                   94614197.2471   23105750.768  
  23232738.784   122088878.6231                   95134185.2771   23232740.410  
  22348351.180   117441401.7961                   91512816.8771   22348352.359  
  20171795.753   106003525.0391   20171800.560    82600173.7451   20171800.399  
  20501889.553   107738166.1391   20501892.251    83951835.5281   20501892.484  
  23841295.218   125286846.9801   23841300.829    97626143.6651   23841300.633  
  21893417.380   115050686.8661   21893422.276    89649903.1881   21893421.454  
  23330214.697   122601096.3991   23330217.199    95533322.7451   23330215.019  
  21417279.234   112548566.5021   21417281.074    87700197.7561   21417279.377  
                                  24587161.942   100680319.484                  
  19964823.756   106611057.802    19964832.101    82919727.357                  
  19785508.289   105467904.720    19785515.580    82030607.323                  
  23069609.900   123450229.565    23069618.674    96016811.457                  
  19743801.436   105616042.233                                                  
  19601198.520   104816433.541    19601207.794    81523943.055                  
  23531866.997   123660823.095                                                  
  23901303.793   125602211.905                                                  
  24202020.777   127182472.366                                                  
  27135495.508   142597979.565                                                  
  23770648.714   124915613.302                                                  
                 118612922.359    22778362.302   118612922.359                  
                 116383591.315    22350243.455   116383591.315                  
                 130369843.621    25036156.275   130369843.621                  
                 119918188.994    23029027.330   119918188.994                  
                 129235930.729    24818401.609   129235930.729                  
 21  9  1  9 43  8.0000000  0 25G22G19G21G 1G14G 3G30G 7G17G 8R13R14
                                R17R23R24E13E15E21E26E27C11C23C25C28
                                C34
  23105440.651   121419914.7611                   94612923.6661   23105439.757  
  23232198.907   122086040.7971                   95131973.9981   23232200.408  
  22348839.433   117443967.1091                   91514815.8211   22348840.523  
  20171968.529   106004433.0391   20171973.389    82600881.2771   20171973.210  
  20501646.749   107736891.0001   20501649.590    83950841.9141   20501649.858  
  23840736.704   125283910.9821   23840742.083    97623855.8681   23840741.904  
  21893865.714   115053042.8381   21893870.557    89651739.0111   21893869.788  
  23330896.329   122604678.4361   23330898.027    95536113.9451   23330896.776  
  21417012.110   112547163.1111   21417013.861    87699104.2021   21417012.288  
                                  24587727.193   100682635.456                  
  19965298.357   106613592.230    19965306.845    82921698.586                  
  19785149.676   105465992.638    19785156.788    82029120.137                  
  23068944.762   123446666.915    23068952.696    96014040.530                  
  19744163.069   105617976.706                                                  
  19600979.839   104815263.835    19600988.809    81523033.277                  
  23531622.281   123659537.290                                                  
  23901592.485   125603728.813                                                  
  24201746.326   127181030.064                                                  
  27134939.424   142595057.711                                                  
  23770887.623   124916869.229                                                  
                 118614955.548    22778752.669   118614955.548                  
                 116384829.453    22350481.185   116384829.453                  
                 130373142.951    25036789.964   130373142.951                  
                 119916261.325    23028657.173   119916261.325                  
                 129238617.393    24818917.738   129238617.393                  
 21  9  1  9 43  9.0000000  0 25G22G19G21G 1G14G 3G30G 7G17G 8R13R14
                                R17R23R24E13E15E21E26E27C11C23C25C28
                                C34
  23105129.783   121418281.3891                   94611650.9111   23105128.926  
  23231659.352   122083203.7341                   95129763.2991   23231660.692  
  22349327.739   117446533.3071                   91516815.4541   22349328.865  
  20172141.554   106005342.3221   20172146.540    82601589.8071   20172146.254  
  20501404.391   107735616.8781   20501407.161    83949849.0911   20501407.393  
  23840178.047   125280975.7941   23840183.676    97621568.7091   23840183.318  
  21894314.280   115055399.8871   21894318.998    89653575.6721   21894318.319  
  23331578.050   122608261.1981   23331579.516    95538905.7061   23331578.515  
  21416745.218   112545760.5621   21416746.504    87698011.3041   21416745.397  
                                  24588293.588   100684951.857                  
  19965773.370   106616127.945    19965781.929    82923670.812                  
  19784791.259   105464081.860    19784798.585    82027633.986                  
  23068279.569   123443105.104    23068287.253    96011270.180                  
  19744524.881   105619912.258                                                  
  19600761.354   104814095.360    19600769.932    81522124.476                  
  23531377.815   123658252.450                                                  
  23901881.356   125605246.615                                                  
  24201472.073   127179588.622                                                  
  27134383.107   142592136.467                                                  
  23771126.782   124918126.085                                                  
                 118616989.514    22779143.232   118616989.514                  
                 116386068.690    22350719.254   116386068.690                  
                 130376443.030    25037423.886   130376443.030                  
                 119914334.522    23028287.249   119914334.522                  
                 129241304.724    24819433.903   129241304.724                  
 21  9  1  9 43 10.0000000  0 25G22G19G21G 1G14G 3G30G 7G17G 8R13R14
                                R17R23R24E13E15E21E26E27C11C23C25C28
                                C34
  23104819.005   121416648.0981                   94610378.2171   23104818.130  
  23231119.368   122080366.4401                   95127552.4161   23231120.744  
  22349816.136   117449099.4121                   91518815.0141   22349817.172  
  20172314.580   106006251.8901   20172319.548    82602298.5611   20172319.351  
  20501161.873   107734342.7721   20501164.535    83948856.2821   20501164.929  
  23839619.247   125278040.4271   23839625.305    97619281.4141   23839624.608  
  21894762.757   115057756.9941   21894767.796    89655412.3791   21894766.867  
  23332259.557   122611843.7341   23332261.147    95541697.2831   23332260.290  
  21416478.380   112544357.8671   21416479.220    87696918.2951   21416478.469  
                                  24588859.267   100687267.941                  
  19966248.185   106618663.959    19966256.620    82925643.262                  
  19784432.914   105462171.365    19784440.115    82026148.043                  
  23067613.859   123439543.121    23067621.114    96008499.809                  
  19744886.693   105621847.896                                                  
  19600542.941   104812927.076    19600551.626    81521215.801                  
  23531133.331   123656967.593                                                  
  23902170.226   125606764.329                                                  
  24201197.765   127178147.068                                                  
  27133826.541   142589214.942                                                  
  23771365.923   124919382.889                                                  
                 118619023.271    22779533.741   118619023.271                  
                 116387308.028    22350957.269   116387308.028                  
                 130379742.848    25038057.539   130379742.848                  
                 119912407.606    23027917.253   119912407.606                  
                 129243991.709    24819949.942   129243991.709                  
 21  9  1  9 43 11.0000000  0 25G22G19G21G 1G14G 3G30G 7G17G 8R13R14
                                R17R23R24E13E15E21E26E27C11C23C25C28
                                C34
  23104508.227   121415015.4001                   94609105.9871   23104507.423  
  23230579.170   122077529.4271                   95125341.7541   23230580.921  
  22350304.585   117451665.9371                   91520814.9061   22350305.550  
  20172487.874   106007162.2501   20172492.877    82603007.9351   20172492.591  
  20500919.480   107733069.2071   20500922.089    83947863.8931   20500922.571  
  23839060.572   125275105.3801   23839066.772    97616994.3601   23839066.111  
  21895211.555   115060114.6971   21895216.094    89657249.5481   21895215.540  
  23332941.367   122615426.5341   23332943.029    95544489.0731   23332942.011  
  21416211.631   112542955.5351   21416212.364    87695825.5731   21416211.613  
                                  24589425.090   100689584.106                  
  19966723.555   106621200.782    19966731.614    82927616.330                  
  19784074.711   105460261.674    19784081.770    82024662.732                  
  23066948.113   123435981.585    23066954.617    96005729.693                  
  19745248.684   105623784.129                                                  
  19600324.796   104811759.487    19600333.016    81520307.668                  
  23530888.972   123655683.229                                                  
  23902459.097   125608282.463                                                  
  24200923.476   127176705.890                                                  
  27133270.600   142586293.696                                                  
  23771605.135   124920640.145                                                  
                 118621057.304    22779924.305   118621057.304                  
                 116388547.995    22351195.428   116388547.995                  
                 130383042.942    25038691.568   130383042.942                  
                 119910481.085    23027547.382   119910481.085                  
                 129246678.867    24820466.017   129246678.867                  
 21  9  1  9 43 12.0000000  0 25G22G19G21G 1G14G 3G30G 7G17G 8R13R14
                                R17R23R24E13E15E21E26E27C11C23C25C28
                                C34
  23104197.431   121413382.8021                   94607833.8331   23104196.806  
  23230039.275   122074692.2231                   95123130.9501   23230041.026  
  22350792.946   117454232.3931                   91522814.7441   22350793.929  
  20172661.311   106008072.9321   20172666.386    82603717.5571   20172665.921  
  20500677.158   107731795.6831   20500679.785    83946871.5341   20500680.213  
  23838501.825   125272170.1811   23838508.205    97614707.1961   23838507.597  
  21895660.300   115062472.5091   21895664.821    89659086.8041   21895664.231  
  23333623.214   122619009.1201   23333624.786    95547280.7051   23333623.768  
  21415944.721   112541553.0891   21415945.668    87694732.7601   21415944.757  
                                  24589990.984   100691900.079                  
  19967198.710   106623737.914    19967206.805    82929589.653                  
  19783716.545   105458352.292    19783723.621    82023177.646                  
  23066282.188   123432419.949    23066288.817    96002959.526                  
  19745610.657   105625720.457                                                  
  19600106.580   104810592.105    19600114.639    81519399.711                  
  23530644.523   123654398.880                                                  
  23902747.968   125609800.530                                                  
  24200649.222   127175264.615                                                  
  27132714.962   142583372.212                                                  
  23771844.419   124921897.371                                                  
                 118623091.162    22780314.814   118623091.162                  
                 116389788.093    22351433.568   116389788.093                  
                 130386342.841    25039325.060   130386342.841                  
                 119908554.486    23027177.439   119908554.486                  
                 129249365.715    24820982.021   129249365.715                  
 21  9  1  9 43 13.0000000  0 25G22G19G21G 1G14G 3G30G 7G17G 8R13R14
                                R17R23R24E13E15E21E26E27C11C23C25C28
                                C34
  23103886.760   121411750.5621                   94606561.9571   23103886.260  
  23229499.255   122071855.0721                   95120920.1831   23229501.132  
  22351281.378   117456799.0441                   91524814.7301   22351282.343  
  20172834.747   106008984.1931   20172839.590    82604427.6311   20172839.340  
  20500434.925   107730522.4841   20500437.534    83945879.4341   20500437.927  
  23837943.383   125269235.1191   23837949.833    97612420.1401   23837949.137  
  21896109.009   115064830.6931   21896113.423    89660924.3501   21896113.012  
  23334304.774   122622591.7681   23334307.293    95550072.3671   23334305.542  
  21415677.865   112540150.7711   21415678.669    87693640.0431   21415677.901  
                                  24590556.253   100694215.893                  
  19967673.937   106626275.639    19967682.049    82931563.428                  
  19783358.432   105456443.484    19783365.365    82021693.020                  
  23065616.156   123428858.497    23065622.946    96000189.485                  
  19745972.612   105627657.174                                                  
  19599888.381   104809425.260    19599896.315    81518492.158                  
  23530400.182   123653114.795                                                  
  23903036.874   125611318.804                                                  
  24200374.932   127173823.508                                                  
  27132159.075   142580450.722                                                  
  23772083.668   124923154.832                                                  
                 118625125.110    22780705.342   118625125.110                  
                 116391028.601    22351671.762   116391028.601                  
                 130389642.758    25039958.553   130389642.758                  
                 119906628.067    23026807.443   119906628.067                  
                 129252052.520    24821498.097   129252052.520                  
 21  9  1  9 43 14.0000000  0 25G22G19G21G 1G14G 3G30G 7G17G 8R13R14
                                R17R23R24E13E15E21E26E27C11C23C25C28
                                C34
  23103576.626   121410119.6581                   94605291.1251   23103575.875  
  23228959.575   122069018.9691                   95118710.2331   23228961.451  
  22351770.113   117459366.8831                   91526815.6411   22351770.989  
  20173008.488   106009897.0061   20173013.348    82605138.9161   20173013.045  
  20500192.961   107729250.5621   20500195.373    83944888.3231   20500195.891  
  23837385.476   125266301.1251   23837391.605    97610133.9111   23837390.783  
  21896558.004   115067190.2131   21896562.471    89662762.9341   21896562.025  
  23334986.727   122626175.4071   23334989.354    95552864.8271   23334987.478  
  21415411.188   112538749.5721   21415412.082    87692548.1981   21415411.277  
                                  24591121.986   100696532.365                  
  19968149.735   106628814.907    19968157.348    82933538.427                  
  19783000.622   105454536.255    19783007.377    82020209.617                  
  23064950.481   123425298.133    23064958.165    95997420.357                  
  19746334.852   105629595.249                                                  
  19599670.451   104808259.959    19599678.384    81517585.826                  
  23530156.074   123651831.959                                                  
  23903326.066   125612838.241                                                  
  24200100.857   127172383.539                                                  
  27131603.813   142577530.239                                                  
  23772323.166   124924413.499                                                  
                 118627160.097    22781096.012   118627160.097                  
                 116392270.472    22351910.242   116392270.472                  
                 130392943.692    25040592.224   130392943.692                  
                 119904702.790    23026437.698   119904702.790                  
                 129254740.246    24822014.100   129254740.246                  
 21  9  1  9 43 15.0000000  0 25G22G19G21G 1G14G 3G30G 7G17G 8R13R14
                                R17R23R24E13E15E21E26E27C11C23C25C28
                                C34
  23103266.205   121408488.5241                   94604020.1091   23103265.472  
  23228419.895   122066182.3111                   95116499.8431   23228421.682  
  22352258.706   117461934.2931                   91528816.2201   22352259.564  
  20173182.282   106010809.7901   20173187.017    82605850.1711   20173186.731  
  20499950.943   107727978.3381   20499953.391    83943896.9821   20499953.784  
  23836827.141   125263366.6331   23836832.894    97607847.2931   23836832.340  
  21897006.963   115069549.4951   21897011.502    89664601.3361   21897010.984  
  23335668.645   122629758.4981   23335670.682    95555656.8321   23335669.467  
  21415144.457   112537347.9131   21415146.137    87691455.9931   21415144.546  
                                  24591687.701   100698848.305                  
  19968625.194   106631354.171    19968632.538    82935513.404                  
  19782642.867   105452629.043    19782649.514    82018726.230                  
  23064284.288   123421737.330    23064292.311    95994650.834                  
  19746697.129   105631533.074                                                  
  19599452.431   104807094.574    19599460.347    81516679.406                  
  23529911.911   123650548.775                                                  
  23903615.187   125614357.276                                                  
  24199826.764   127170943.132                                                  
  27131047.354   142574609.063                                                  
  23772562.593   124925671.790                                                  
                 118629194.546    22781486.558   118629194.546                  
                 116393512.140    22352148.686   116393512.140                  
                 130396244.056    25041226.003   130396244.056                  
                 119902777.078    23026067.773   119902777.078                  
                 129257427.303    24822530.068   129257427.303                  
 21  9  1  9 43 16.0000000  0 25G22G19G21G 1G14G 3G30G 7G17G 8R13R14
                                R17R23R24E13E15E21E26E27C11C23C25C28
                                C34
  23102955.838   121406857.7661                   94602749.3861   23102955.141  
  23227880.215   122063345.7231                   95114289.5221   23227881.948  
  22352747.299   117464501.9121                   91530816.9621   22352748.192  
  20173356.023   106011723.1541   20173360.776    82606561.8861   20173360.561  
  20499708.889   107726706.4451   20499711.498    83942905.8951   20499711.748  
  23836268.752   125260432.2611   23836274.630    97605560.7701   23836273.987  
  21897456.030   115071909.1551   21897460.801    89666440.0351   21897460.032  
  23336350.545   122633341.6471   23336352.224    95558448.9031   23336351.385  
  21414877.637   112535946.3851   21414879.477    87690363.8911   21414877.869  
                                  24592252.291   100701164.141                  
  19969100.367   106633894.014    19969108.015    82937488.848                  
  19782285.290   105450722.456    19782291.901    82017243.327                  
  23063618.381   123418176.649    23063627.262    95991881.446                  
  19747059.316   105633471.293                                                  
  19599234.500   104805929.700    19599242.380    81515773.398                  
  23529667.803   123649265.887                                                  
  23903904.254   125615876.516                                                  
  24199552.725   127169502.896                                                  
  27130491.502   142571687.972                                                  
  23772802.056   124926930.320                                                  
                 118631229.093    22781877.192   118631229.093                  
                 116394754.218    22352387.149   116394754.218                  
                 130399544.496    25041859.674   130399544.496                  
                 119900851.557    23025697.866   119900851.557                  
                 129260114.331    24823046.108   129260114.331                  
 21  9  1  9 43 17.0000000  0 25G22G19G21G 1G14G 3G30G 7G17G 8R13R14
                                R17R23R24E13E15E21E26E27C11C23C25C28
                                C34
  23102645.900   121405228.2751                   94601479.6491   23102645.078  
  23227340.445   122060510.1011                   95112079.9461   23227342.375  
  22353236.088   117467070.6261                   91532818.5571   22353236.999  
  20173530.192   106012637.9891   20173534.820    82607274.7471   20173534.659  
  20499467.121   107725435.7591   20499469.694    83941915.7491   20499469.909  
  23835710.559   125257498.8951   23835716.491    97603275.0261   23835715.705  
  21897905.382   115074270.0771   21897909.974    89668279.7121   21897909.313  
  23337032.766   122636925.7331   23337034.321    95561241.6881   23337033.535  
  21414611.031   112534545.9021   21414612.979    87689272.6081   21414611.353  
                                  24592817.685   100703480.584                  
  19969576.273   106636435.344    19969584.260    82939465.423                  
  19781927.998   105448817.351    19781934.717    82015761.576                  
  23062952.867   123414617.068    23062962.391    95989112.837                  
  19747421.825   105635410.797                                                  
  19599016.927   104804766.199    19599025.218    81514868.460                  
  23529423.855   123647984.164                                                  
  23904193.518   125617396.857                                                  
  24199278.936   127168063.711                                                  
  27129935.686   142568767.735                                                  
  23773041.715   124928189.984                                                  
                 118633264.600    22782268.095   118633264.600                  
                 116395997.593    22352625.986   116395997.593                  
                 130402845.867    25042493.721   130402845.867                  
                 119898927.107    23025328.210   119898927.107                  
                 129262802.196    24823562.290   129262802.196                  
 21  9  1  9 43 18.0000000  0 25G22G19G21G 1G14G 3G30G 7G17G 8R13R14
                                R17R23R24E13E15E21E26E27C11C23C25C28
                                C34
  23102335.819   121403598.8991                   94600210.0151   23102335.032  
  23226800.961   122057674.2941                   95109870.2291   23226802.748  
  22353724.788   117469639.3041                   91534820.1271   22353725.806  
  20173704.326   106013553.1671   20173709.007    82607987.8731   20173708.811  
  20499225.443   107724165.1521   20499227.944    83940925.6661   20499228.105  
  23835152.509   125254565.4151   23835158.192    97600989.1951   23835157.459  
  21898354.645   115076631.1351   21898359.309    89670119.4941   21898358.612  
  23337714.702   122640509.6331   23337715.970    95564034.3451   23337715.559  
  21414344.461   112533145.3301   21414346.552    87688181.2561   21414344.890  
                                  24593383.275   100705796.760                  
  19970052.447   106638977.015    19970060.059    82941442.280                  
  19781570.761   105446912.589    19781577.247    82014280.102                  
  23062287.389   123411057.403    23062297.610    95986344.162                  
  19747784.441   105637350.444                                                  
  19598799.282   104803602.964    19598807.931    81513963.715                  
  23529179.925   123646702.476                                                  
  23904482.728   125618917.165                                                  
  24199005.075   127166624.475                                                  
  27129379.924   142565847.363                                                  
  23773281.375   124929449.655                                                  
                 118635299.962    22782658.855   118635299.962                  
                 116397241.119    22352864.752   116397241.119                  
                 130406147.025    25043127.428   130406147.025                  
                 119897002.595    23024958.500   119897002.595                  
                 129265489.795    24824078.383   129265489.795                  
 21  9  1  9 43 19.0000000  0 25G22G19G21G 1G14G 3G30G 7G17G 8R13R14
                                R17R23R24E13E15E21E26E27C11C23C25C28
                                C34
  23102026.006   121401969.8291                   94598940.6091   23102025.005  
  23226261.263   122054838.4931                   95107660.5121   23226263.122  
  22354213.666   117472208.1051                   91536821.7881   22354214.631  
  20173878.602   106014468.8441   20173883.052    82608701.3901   20173883.069  
  20498983.746   107722894.7821   20498986.194    83939935.7671   20498986.355  
  23834594.424   125251631.9531   23834599.892    97598703.3681   23834599.177  
  21898804.122   115078992.4791   21898808.786    89671959.5031   21898807.982  
  23338396.566   122644093.5101   23338398.263    95566826.9671   23338397.584  
  21414077.909   112531744.8301   21414080.035    87687089.9571   21414078.391  
                                  24593949.437   100708112.790                  
  19970528.620   106641519.190    19970536.268    82943419.541                  
  19781213.702   105445008.321    19781219.760    82012799.002                  
  23061622.286   123407497.855    23061634.205    95983575.657                  
  19748146.986   105639290.387                                                  
  19598581.834   104802440.156    19598590.661    81513059.299                  
  23528936.030   123645420.982                                                  
  23904772.099   125620437.591                                                  
  24198731.286   127165185.319                                                  
  27128824.072   142562926.842                                                  
  23773521.106   124930709.470                                                  
                 118637335.323    22783049.704   118637335.323                  
                 116398484.976    22353103.625   116398484.976                  
                 130409448.192    25043761.331   130409448.192                  
                 119895078.194    23024588.825   119895078.194                  
                 129268177.253    24824594.441   129268177.253                  
 21  9  1  9 43 20.0000000  0 25G22G19G21G 1G14G 3G30G 7G17G 8R13R14
                                R17R23R24E13E15E21E26E27C11C23C25C28
                                C34
  23101716.014   121400341.3011                   94597671.6281   23101715.102  
  23225721.851   122052002.9271                   95105450.9751   23225723.513  
  22354702.563   117474777.2771                   91538823.7401   22354703.528  
  20174052.914   106015385.2731   20174057.453    82609415.4871   20174057.471  
  20498742.068   107721624.9021   20498744.337    83938946.2511   20498744.694  
  23834036.643   125248698.7921   23834041.396    97596417.7941   23834041.020  
  21899253.636   115081354.3551   21899258.174    89673799.9261   21899257.442  
  23339078.626   122647677.5961   23339080.109    95569619.7491   23339079.806  
  21413811.392   112530344.6551   21413813.376    87685998.9091   21413811.982  
                                  24594515.403   100710428.891                  
  19971004.991   106644062.098    19971012.621    82945397.358                  
  19780856.590   105443104.824    19780862.665    82011318.507                  
  23060957.326   123403938.626    23060969.477    95980807.391                  
  19748509.620   105641230.873                                                  
  19598364.511   104801278.062    19598373.535    81512155.462                  
  23528692.279   123644139.934                                                  
  23905061.488   125621958.398                                                  
  24198457.408   127163746.497                                                  
  27128267.631   142560006.511                                                  
  23773760.944   124931969.689                                                  
                 118639370.923    22783440.464   118639370.923                  
                 116399729.409    22353342.605   116399729.409                  
                 130412749.548    25044395.235   130412749.548                  
                 119893154.136    23024219.276   119893154.136                  
                 129270864.839    24825110.570   129270864.839                  
 21  9  1  9 43 21.0000000  0 25G22G19G21G 1G14G 3G30G 7G17G 8R13R14
                                R17R23R24E13E15E21E26E27C11C23C25C28
                                C34
  23101406.165   121398712.6791                   94596402.5751   23101405.200  
  23225182.010   122049166.9851                   95103241.1611   23225183.833  
  22355191.477   117477346.1901                   91540825.4901   22355192.371  
  20174227.263   106016301.8271   20174231.801    82610129.6881   20174231.891  
  20498500.246   107720354.8731   20498502.480    83937956.6171   20498502.998  
  23833478.182   125245765.2801   23833483.185    97594131.9471   23833482.721  
  21899703.041   115083716.1551   21899707.491    89675640.2921   21899706.919  
  23339760.544   122651261.2881   23339762.688    95572412.2531   23339761.848  
  21413544.929   112528944.1751   21413546.591    87684907.6261   21413545.483  
                                  24595080.797   100712744.532                  
  19971481.343   106646605.131    19971488.580    82947375.254                  
  19780499.602   105441201.464    19780505.731    82009838.113                  
  23060292.509   123400379.075    23060304.571    95978038.882                  
  19748872.218   105643171.267                                                  
  19598147.259   104800116.036    19598156.247    81511251.660                  
  23528448.456   123642858.704                                                  
  23905350.859   125623478.947                                                  
  24198183.529   127162307.397                                                  
                                                                                
  23774000.764   124933229.703                                                  
                 118641406.171    22783831.224   118641406.171                  
                 116400973.796    22353581.532   116400973.796                  
                 130416050.523    25045029.353   130416050.523                  
                 119891229.817    23023849.655   119891229.817                  
                 129273551.932    24825626.663   129273551.932                  
 21  9  1  9 43 22.0000000  0 25G22G19G21G 1G14G 3G30G 7G17G 8R13R14
                                R17R23R24E13E15E21E26E27C11C23C25C28
                                C34
  23101096.620   121397085.2161                   94595134.4201   23101095.494  
  23224642.598   122046331.8821                   95101031.9841   23224644.242  
  22355680.392   117479916.0891                   91542828.0091   22355681.410  
  20174401.861   106017219.7581   20174406.560    82610844.9581   20174406.578  
  20498258.764   107719085.9561   20498261.087    83936967.8481   20498261.516  
  23832920.132   125242832.6861   23832924.939    97591846.8201   23832924.671  
  21900152.715   115086079.1141   21900157.165    89677481.5581   21900156.611  
  23340442.730   122654845.8071   23340445.053    95575205.3851   23340444.052  
  21413278.592   112527544.6331   21413279.968    87683817.0741   21413279.163  
                                  24595646.065   100715060.642                  
  19971957.839   106649149.530    19971965.540    82949354.234                  
  19780142.794   105439299.521    19780149.066    82008358.817                  
  23059627.567   123396820.486    23059639.093    95975271.095                  
  19749234.995   105645112.837                                                  
  19597930.329   104798955.349    19597939.032    81510348.910                  
  23528204.812   123641578.539                                                  
  23905640.391   125625000.491                                                  
  24197909.901   127160869.256                                                  
  27127156.535   142554165.914                                                  
  23774240.709   124934490.738                                                  
                 118643442.263    22784222.126   118643442.263                  
                 116402219.369    22353820.709   116402219.369                  
                 130419352.318    25045663.256   130419352.318                  
                 119889306.445    23023480.231   119889306.445                  
                 129276239.762    24826142.881   129276239.762                  
 21  9  1  9 43 23.0000000  0 25G22G19G21G 1G14G 3G30G 7G17G 8R13R14
                                R17R23R24E13E15E21E26E27C11C23C25C28
                                C34
  23100786.914   121395457.8391                   94593866.3401   23100785.788  
  23224102.900   122043496.5541                   95098822.6301   23224104.669  
  22356169.413   117482485.8971                   91544830.4591   22356170.432  
  20174576.477   106018137.9611   20174581.605    82611560.4391   20174581.301  
  20498017.300   107717817.0621   20498019.677    83935979.1001   20498020.034  
  23832362.065   125239899.9081   23832367.193    97589561.5381   23832366.604  
  21900602.372   115088442.1401   21900606.892    89679322.8731   21900606.303  
  23341124.844   122658430.0841   23341127.095    95577998.3211   23341126.184  
  21413012.272   112526144.9511   21413013.987    87682726.4131   21413012.808  
                                  24596211.959   100717376.514                  
  19972434.227   106651694.218    19972442.018    82951333.424                  
  19779785.949   105437397.890    19779792.114    82006879.785                  
  23058962.911   123393261.793    23058974.133    95972503.199                  
  19749597.915   105647054.486                                                  
  19597713.292   104797794.873    19597722.102    81509446.317                  
  23527961.186   123640298.356                                                  
  23905929.887   125626521.935                                                  
  24197636.183   127159430.992                                                  
  27126601.326   142551245.609                                                  
  23774480.708   124935751.721                                                  
                 118645478.171    22784612.975   118645478.171                  
                 116403465.053    22354059.904   116403465.053                  
                 130422653.875    25046297.428   130422653.875                  
                 119887382.974    23023110.825   119887382.974                  
                 129278927.244    24826658.760   129278927.244                  
 21  9  1  9 43 24.0000000  0 25G22G19G21G 1G14G 3G30G 7G17G 8R13R14
                                R17R23R24E13E15E21E26E27C11C23C25C28
                                C34
  23100477.315   121393831.1361                   94592598.7771   23100476.225  
  23223563.219   122040661.6101                   95096613.5871   23223565.131  
  22356658.381   117485056.2151                   91546833.3021   22356659.543  
  20174751.361   106019057.0631   20174756.257    82612276.6181   20174756.203  
  20497775.854   107716548.7881   20497778.356    83934990.8341   20497778.695  
  23831804.301   125236967.5571   23831809.108    97587276.5871   23831808.643  
  21901052.206   115090805.8561   21901056.245    89681164.7291   21901056.102  
  23341807.119   122662014.7001   23341809.781    95580791.5261   23341808.245  
  21412745.970   112524745.7151   21412747.649    87681636.1011   21412746.559  
                                  24596777.317   100719692.482                  
  19972911.187   106654239.801    19972918.656    82953313.343                  
  19779429.337   105435497.149    19779435.824    82005401.429                  
  23058297.915   123389703.562    23058308.851    95969735.691                  
  19749960.995   105648996.827                                                  
  19597496.487   104796635.206    19597505.225    81508544.355                  
  23527717.738   123639018.752                                                  
  23906219.490   125628043.887                                                  
  24197362.537   127157993.194                                                  
  27126045.636   142548325.678                                                  
  23774720.778   124937013.243                                                  
                 118647514.414    22785003.932   118647514.414                  
                 116404711.437    22354299.241   116404711.437                  
                 130425955.780    25046931.492   130425955.780                  
                 119885459.983    23022741.490   119885459.983                  
                 129281614.987    24827174.781   129281614.987                  
 21  9  1  9 43 25.0000000  0 25G22G19G21G 1G14G 3G30G 7G17G 8R13R14
                                R17R23R24E13E15E21E26E27C11C23C25C28
                                C34
  23100167.895   121392205.2991                   94591331.8931   23100166.823  
  23223023.968   122037827.2081                   95094404.9721   23223025.862  
  22357147.528   117487627.2291                   91548836.6901   22357148.814  
  20174926.352   106019977.2441   20174931.266    82612993.6451   20174931.320  
  20497534.747   107715281.3231   20497537.088    83934003.2021   20497537.499  
  23831246.323   125234035.8171   23831250.898    97584992.1121   23831250.790  
  21901502.095   115093170.4371   21901506.169    89683007.2601   21901506.044  
  23342489.215   122665599.8771   23342491.717    95583585.1681   23342490.538  
  21412479.954   112523347.1311   21412481.669    87680546.2931   21412480.418  
                                  24597342.550   100722008.768                  
  19973388.433   106656786.481    19973395.848    82955294.083                  
  19779073.029   105433597.507    19779079.480    82003923.915                  
  23057633.134   123386145.995    23057643.427    95966968.669                  
  19750324.201   105650940.065                                                  
  19597279.754   104795476.543    19597288.635    81507643.177                  
  23527474.326   123637739.925                                                  
  23906509.200   125629566.552                                                  
  24197089.087   127156556.063                                                  
  27125489.766   142545406.315                                                  
  23774960.956   124938275.493                                                  
                 118649551.270    22785395.013   118649551.270                  
                 116405958.737    22354538.686   116405958.737                  
                 130429258.218    25047565.735   130429258.218                  
                 119883537.673    23022372.209   119883537.673                  
                 129284303.190    24827690.982   129284303.190                  
 21  9  1  9 43 26.0000000  0 25G22G19G21G 1G14G 3G30G 7G17G 8R13R14
                                R17R23R24E13E15E21E26E27C11C23C25C28
                                C34
  23099858.529   121390579.6881                   94590065.1861   23099857.457  
  23222484.806   122034992.7541                   95092196.3061   23222486.504  
  22357636.871   117490198.3141                   91550840.1301   22357638.086  
  20175101.451   106020897.8541   20175106.401    82613711.0051   20175106.508  
  20497293.533   107714014.0431   20497295.963    83933015.7111   20497296.357  
  23830688.452   125231104.0511   23830693.062    97582707.6281   23830692.884  
  21901952.108   115095535.2391   21901956.486    89684849.9611   21901956.075  
  23343171.580   122669184.9371   23343173.670    95586378.7051   23343172.777  
  21412213.830   112521948.5551   21412215.599    87679456.4941   21412214.313  
                                  24597908.373   100724324.848                  
  19973865.571   106659333.609    19973872.844    82957275.165                  
  19778716.846   105431698.284    19778723.261    82002446.756                  
  23056968.281   123382588.419    23056978.502    95964201.689                  
  19750687.478   105652883.538                                                  
  19597063.092   104794318.211    19597071.759    81506742.238                  
  23527230.986   123636461.228                                                  
  23906798.839   125631089.266                                                  
  24196815.620   127155118.958                                                  
                                                                                
  23775201.151   124939537.846                                                  
                 118651588.036    22785786.184   118651588.036                  
                 116407206.282    22354778.220   116407206.282                  
                 130432560.568    25048199.907   130432560.568                  
                 119881615.392    23022002.981   119881615.392                  
                 129286991.198    24828207.236   129286991.198                  
 21  9  1  9 43 27.0000000  0 25G22G19G21G 1G14G 3G30G 7G17G 8R13R14
                                R17R23R24E13E15E21E26E27C11C23C25C28
                                C34
  23099549.377   121388954.9541                   94588799.1571   23099548.287  
  23221945.662   122032158.8721                   95089988.0841   23221947.163  
  22358126.339   117492770.1001                   91552844.1211   22358127.501  
  20175276.817   106021819.5611   20175281.767    82614429.2161   20175281.910  
  20497052.659   107712747.5821   20497055.018    83932028.8611   20497055.339  
  23830130.438   125228172.9131   23830135.513    97580423.6061   23830135.192  
  21902402.354   115097900.9261   21902406.500    89686693.3561   21902406.249  
  23343853.962   122672770.5691   23343855.391    95589172.7021   23343855.159  
  21411947.868   112520550.6221   21411949.494    87678367.1971   21411948.332  
                                  24598474.267   100726641.312                  
  19974342.549   106661881.825    19974349.786    82959257.132                  
  19778360.734   105429800.166    19778367.488    82000970.437                  
  23056303.250   123379031.521    23056314.186    95961435.236                  
  19751050.970   105654827.914                                                  
  19596846.609   104793160.919    19596855.132    81505842.110                  
  23526987.878   123635183.311                                                  
  23907088.729   125632612.700                                                  
  24196542.295   127153682.534                                                  
  27124377.991   142539567.787                                                  
  23775441.507   124940800.941                                                  
                 118653625.401    22786177.516   118653625.401                  
                 116408454.731    22355018.023   116408454.731                  
                 130435863.468    25048834.168   130435863.468                  
                 119879693.794    23021633.932   119879693.794                  
                 129289679.663    24828723.668   129289679.663                  
 21  9  1  9 43 28.0000000  0 25G22G19G21G 1G14G 3G30G 7G17G 8R13R14
                                R17R23R24E13E15E21E26E27C11C23C25C28
                                C34
  23099240.207   121387330.4611                   94587533.3211   23099239.171  
  23221406.464   122029324.9341                   95087779.8211   23221407.912  
  22358615.736   117495341.9561                   91554848.1601   22358616.933  
  20175452.345   106022741.7151   20175457.366    82615147.7781   20175457.384  
  20496811.606   107711481.3091   20496814.000    83931042.1521   20496814.358  
  23829572.603   125225241.7481   23829578.071    97578139.5881   23829577.356  
  21902852.564   115100266.8551   21902856.817    89688536.9341   21902856.513  
  23344536.594   122676356.1271   23344537.970    95591966.6431   23344537.524  
  21411681.887   112519152.7241   21411683.638    87677277.9261   21411682.370  
                                  24599039.982   100728957.520                  
  19974819.795   106664430.497    19974826.728    82961239.449                  
  19778004.711   105427902.545    19778011.466    81999494.509                  
  23055638.790   123375474.701    23055649.530    95958668.850                  
  19751414.515   105656772.537                                                  
  19596630.358   104792004.011    19596638.846    81504942.321                  
  23526744.681   123633905.555                                                  
  23907378.582   125634136.201                                                  
  24196268.988   127152246.153                                                  
  27123822.318   142536648.654                                                  
  23775681.846   124942064.142                                                  
                 118655662.723    22786568.847   118655662.723                  
                 116409703.467    22355257.879   116409703.467                  
                 130439166.295    25049468.536   130439166.295                  
                 119877772.263    23021264.883   119877772.263                  
                 129292367.959    24829239.886   129292367.959                  
 21  9  1  9 43 29.0000000  0 25G22G19G21G 1G14G 3G30G 7G17G 8R13R14
                                R17R23R24E13E15E21E26E27C11C23C25C28
                                C34
  23098931.037   121385706.2201                   94586267.6811   23098930.090  
  23220867.266   122026490.9291                   95085571.5101   23220868.571  
  22359105.151   117497913.8851                   91556852.2641   22359106.366  
  20175627.980   106023664.3231   20175632.876    82615866.6931   20175632.929  
  20496570.678   107710215.2331   20496573.090    83930055.5971   20496573.430  
  23829014.554   125222310.6011   23829020.611    97575855.5821   23829019.575  
  21903302.881   115102633.0271   21903307.259    89690380.7051   21903306.777  
  23345218.887   122679941.6091   23345220.513    95594760.5281   23345219.852  
  21411415.889   112517754.8501   21411417.676    87676188.6741   21411416.407  
                                  24599606.234   100731273.578                  
  19975296.880   106666979.625    19975304.045    82963222.095                  
  19777648.814   105426005.415    19777655.247    81998018.957                  
  23054974.634   123371917.911    23054985.124    95955902.419                  
  19751778.221   105658717.403                                                  
  19596414.000   104790847.507    19596422.916    81504042.813                  
  23526501.590   123632627.934                                                  
  23907668.525   125635659.781                                                  
  24195995.592   127150809.817                                                  
  27123266.270   142533729.356                                                  
  23775922.273   124943327.463                                                  
                 118657700.009    22786960.143   118657700.009                  
                 116410952.483    22355497.788   116410952.483                  
                 130442469.041    25050102.833   130442469.041                  
                 119875850.778    23020895.888   119875850.778                  
                 129295056.077    24829756.087   129295056.077                  
 21  9  1  9 43 30.0000000  0 25G22G19G21G 1G14G 3G30G 7G17G 8R13R14
                                R17R23R24E13E15E21E26E27C11C23C25C28
                                C34
  23098622.028   121384082.2881                   94585002.2791   23098621.063  
  23220328.158   122023656.9621                   95083363.2311   23220329.266  
  22359594.530   117500485.9761                   91558856.4911   22359595.852  
  20175803.757   106024587.4681   20175808.635    82616586.0271   20175808.617  
  20496329.803   107708949.4231   20496332.341    83929069.2541   20496332.537  
  23828456.558   125219379.5211   23828462.919    97573571.6261   23828461.758  
  21903753.288   115104999.5241   21903757.433    89692224.7261   21903757.112  
  23345901.091   122683527.0771   23345903.378    95597554.3971   23345902.199  
  21411149.801   112516357.0781   21411151.767    87675099.5011   21411150.409  
                                  24600171.574   100733589.493                  
  19975774.197   106669529.293    19975781.684    82965205.184                  
  19777293.042   105424108.836    19777299.600    81996543.844                  
  23054310.085   123368361.229    23054319.913    95953136.103                  
  19752141.927   105660662.597                                                  
  19596197.785   104789691.487    19596206.880    81503143.683                  
  23526258.518   123631350.548                                                  
  23907958.485   125637183.520                                                  
  24195722.232   127149373.601                                                  
  27122711.615   142530810.137                                                  
  23776162.790   124944590.966                                                  
                 118659737.322    22787351.457   118659737.322                  
                 116412201.857    22355737.751   116412201.857                  
                 130445771.784    25050736.897   130445771.784                  
                 119873929.439    23020526.911   119873929.439                  
                 129297744.123    24830272.376   129297744.123                  
 21  9  1  9 43 31.0000000  0 25G22G19G21G 1G14G 3G30G 7G17G 8R13R14
                                R17R23R24E13E15E21E26E27C11C23C25C28
                                C34
  23098313.001   121382458.6341                   94583737.0941   23098312.090  
  23219788.978   122020822.8981                   95081154.8691   23219789.907  
  22360083.962   117503058.1231                   91560860.7611   22360085.320  
  20175979.535   106025511.0591   20175984.467    82617305.7081   20175984.377  
  20496088.911   107707683.8041   20496091.663    83928083.0601   20496091.699  
  23827898.669   125216448.4151   23827905.209    97571287.6411   23827904.047  
  21904203.641   115107366.2571   21904207.715    89694068.9291   21904207.483  
  23346583.241   122687112.4651   23346585.635    95600348.2031   23346584.492  
  21410883.767   112514959.3241   21410885.697    87674010.3421   21410884.446  
                                  24600736.968   100735905.267                  
  19976251.300   106672079.423    19976259.305    82967188.616                  
  19776937.341   105422212.703    19776944.185    81995069.086                  
  23053645.000   123364804.540    23053655.222    95950369.829                  
  19752505.705   105662608.015                                                  
  19595981.605   104788535.857    19595990.540    81502244.870                  
  23526015.392   123630073.309                                                  
  23908248.518   125638707.326                                                  
  24195448.925   127147937.432                                                  
                                                                                
  23776403.272   124945854.575                                                  
                 118661774.588    22787742.735   118661774.588                  
                 116413451.498    22355977.696   116413451.498                  
                 130449074.469    25051371.069   130449074.469                  
                 119872008.141    23020157.897   119872008.141                  
                 129300431.980    24830788.648   129300431.980                  
 21  9  1  9 43 32.0000000  0 25G22G19G21G 1G14G 3G30G 7G17G 8R13R14
                                R17R23R24E13E15E21E26E27C11C23C25C28
                                C34
  23098003.939   121380835.6411                   94582472.4241   23098003.224  
  23219249.673   122017989.2191                   95078946.8101   23219250.638  
  22360573.645   117505630.7661                   91562865.4171   22360574.878  
  20176155.527   106026435.5281   20176160.459    82618026.0741   20176160.316  
  20495848.179   107706418.7931   20495851.039    83927097.3321   20495850.985  
  23827340.977   125213517.7311   23827347.374    97569003.9961   23827346.337  
  21904654.083   115109733.6581   21904658.372    89695913.6601   21904657.996  
  23347265.569   122690698.1941   23347267.392    95603142.2801   23347266.749  
  21410617.841   112513562.0131   21410619.753    87672921.5301   21410618.591  
                                  24601302.701   100738221.171                  
  19976728.528   106674630.406    19976737.016    82969172.711                  
  19776581.819   105420317.478    19776588.842    81993595.015                  
  23052980.040   123361248.339    23052991.995    95947603.890                  
  19752869.500   105664554.123                                                  
  19595765.694   104787381.058    19595774.432    81501346.683                  
  23525772.391   123628796.639                                                  
  23908538.603   125640231.634                                                  
  24195175.708   127146501.721                                                  
  27121601.431   142524971.665                                                  
  23776643.914   124947118.735                                                  
                 118663812.206    22788134.192   118663812.206                  
                 116414701.845    22356217.838   116414701.845                  
                 130452377.485    25052005.169   130452377.485                  
                 119870087.325    23019789.045   119870087.325                  
                 129303120.090    24831304.992   129303120.090                  
 21  9  1  9 43 33.0000000  0 25G22G19G21G 1G14G 3G30G 7G17G 8R13R14
                                R17R23R24E13E15E21E26E27C11C23C25C28
                                C34
  23097695.251   121379213.4451                   94581208.3711   23097694.501  
  23218710.743   122015156.0381                   95076739.1361   23218711.494  
  22361063.345   117508204.0451                   91564870.5681   22361064.596  
  20176331.554   106027361.0031   20176336.593    82618747.2231   20176336.451  
  20495607.537   107705154.5331   20495610.379    83926112.1971   20495610.396  
  23826783.517   125210587.5761   23826789.878    97566720.7531   23826788.681  
  21905104.722   115112101.8461   21905109.368    89697759.0011   21905108.635  
  23347948.023   122694284.3951   23347949.506    95605936.7201   23347949.202  
  21410352.057   112512165.2771   21410353.879    87671833.1691   21410352.825  
                                  24601867.166   100740537.308                  
  19977206.292   106677182.415    19977215.012    82971157.579                  
  19776226.422   105418423.300    19776233.552    81992121.770                  
  23052315.116   123357692.714    23052327.768    95944838.392                  
  19753233.510   105666501.037                                                  
  19595549.979   104786227.187    19595558.878    81500449.226                  
  23525529.533   123627520.676                                                  
  23908828.832   125641756.579                                                  
  24194902.580   127145066.617                                                  
                                                                                
  23776884.627   124948383.538                                                  
                 118665850.336    22788525.720   118665850.336                  
                 116415953.013    22356458.159   116415953.013                  
                 130455680.961    25052639.394   130455680.961                  
                 119868167.111    23019420.264   119868167.111                  
                 129305808.566    24831821.406   129305808.566                  
 21  9  1  9 43 34.0000000  0 25G22G19G21G 1G14G 3G30G 7G17G 8R13R14
                                R17R23R24E13E15E21E26E27C11C23C25C28
                                C34
  23097386.564   121377591.8631                   94579944.8051   23097385.885  
  23218171.617   122012323.1661                   95074531.7061   23218172.439  
  22361552.992   117510777.7621                   91566876.0611   22361554.368  
  20176507.814   106028287.3171   20176512.675    82619469.0261   20176512.728  
  20495366.985   107703890.8391   20495369.736    83925127.4951   20495369.915  
  23826226.307   125207657.7961   23826232.400    97564437.8151   23826231.132  
  21905555.432   115114470.6711   21905559.918    89699604.8381   21905559.399  
  23348630.387   122697870.8991   23348631.799    95608731.3891   23348631.728  
  21410086.291   112510768.9521   21410088.203    87670745.1221   21410087.131  
                                  24602433.292   100742853.551                  
  19977684.324   106679735.270    19977692.955    82973143.148                  
  19775871.275   105416529.968    19775878.155    81990649.170                  
  23051650.907   123354137.525    23051664.112    95942073.271                  
  19753597.592   105668448.588                                                  
  19595334.353   104785074.069    19595343.270    81499552.359                  
  23525286.783   123626245.236                                                  
  23909119.078   125643281.970                                                  
  24194629.595   127143631.924                                                  
  27120490.907   142519134.645                                                  
  23777125.359   124949648.843                                                  
                 118667888.806    22788917.266   118667888.806                  
                 116417204.843    22356698.604   116417204.843                  
                 130458984.733    25053273.798   130458984.733                  
                 119866247.327    23019051.608   119866247.327                  
                 129308497.266    24832337.964   129308497.266                  
 21  9  1  9 43 35.0000000  0 25G22G19G21G 1G14G 3G30G 7G17G 8R13R14
                                R17R23R24E13E15E21E26E27C11C23C25C28
                                C34
  23097077.912   121375970.4481                   94578681.3651   23097077.323  
  23217632.509   122009490.1641                   95072324.1701   23217633.402  
  22362042.693   117513351.4841                   91568881.5571   22362044.158  
  20176684.128   106029214.0021   20176689.203    82620191.1161   20176689.078  
  20495126.485   107702627.2631   20495129.237    83924142.8901   20495129.470  
  23825668.829   125204727.9401   23825675.048    97562154.8011   23825673.565  
  21906006.250   115116839.6541   21906010.789    89701450.7991   21906010.217  
  23349312.752   122701457.2411   23349314.271    95611525.9461   23349314.217  
  21409820.560   112509372.5631   21409822.419    87669657.0281   21409821.400  
                                  24602999.883   100745169.592                  
  19978162.446   106682288.496    19978171.309    82975128.990                  
  19775516.021   105414637.009    19775522.597    81989176.875                  
  23050986.465   123350582.298    23051000.278    95939308.099                  
  19753961.637   105670396.306                                                  
  19595118.853   104783921.250    19595127.591    81498655.710                  
  23525044.050   123624969.869                                                  
  23909409.396   125644807.361                                                  
  24194356.628   127142197.205                                                  
                                                                                
  23777366.144   124950914.174                                                  
                 118669927.151    22789308.794   118669927.151                  
                 116418456.872    22356939.050   116418456.872                  
                 130462288.366    25053907.970   130462288.366                  
                 119864327.526    23018682.935   119864327.526                  
                 129311185.710    24832854.218   129311185.710                  
 21  9  1  9 43 36.0000000  0 25G22G19G21G 1G14G 3G30G 7G17G 8R13R14
                                R17R23R24E13E15E21E26E27C11C23C25C28
                                C34
  23096769.547   121374349.7501                   94577418.4811   23096768.939  
  23217093.257   122006657.5591                   95070116.9451   23217094.454  
  22362532.519   117515925.7411                   91570887.4711   22362534.037  
  20176860.728   106030141.5921   20176865.677    82620913.9181   20176865.606  
  20494886.272   107701364.3321   20494889.024    83923158.7881   20494889.149  
  23825111.441   125201798.5241   23825117.409    97559872.1371   23825116.194  
  21906457.193   115119209.3361   21906461.839    89703297.3021   21906461.160  
  23349995.420   122705043.9701   23349996.939    95614320.7911   23349996.796  
  21409554.920   112507976.6571   21409556.421    87668569.3101   21409555.777  
                                  24603565.455   100747485.770                  
  19978640.657   106684842.643    19978649.806    82977115.564                  
  19775161.124   105412744.995    19775167.700    81987705.311                  
  23050322.041   123347027.600    23050336.587    95936543.301                  
  19754325.897   105672344.744                                                  
  19594903.478   104782769.260    19594912.251    81497759.723                  
  23524801.442   123623695.112                                                  
  23909699.786   125646333.292                                                  
  24194083.643   127140762.988                                                  
  27119380.847   142513297.830                                                  
  23777607.072   124952180.080                                                  
                 118671965.909    22789700.358   118671965.909                  
                 116419709.627    22357179.638   116419709.627                  
                 130465592.354    25054542.392   130465592.354                  
                 119862408.231    23018314.422   119862408.231                  
                 129313874.443    24833370.526   129313874.443                  
 21  9  1  9 43 37.0000000  0 25G22G19G21G 1G14G 3G30G 7G17G 8R13R14
                                R17R23R24E13E15E21E26E27C11C23C25C28
                                C34
  23096461.163   121372729.0391                   94576155.5891   23096460.538  
  23216554.131   122003824.6331                   95067909.4681   23216555.328  
  22363022.255   117518499.8041                   91572893.2321   22363023.845  
  20177037.274   106031069.3921   20177042.188    82621636.8771   20177042.170  
  20494645.880   107700101.3481   20494648.864    83922174.6481   20494648.811  
  23824553.749   125198868.8451   23824559.699    97557589.2741   23824558.716  
  21906908.010   115121579.0111   21906912.620    89705143.8001   21906912.066  
  23350677.945   122708630.3501   23350679.714    95617115.3611   23350679.285  
  21409289.368   112506580.5351   21409290.422    87667481.4201   21409290.154  
                                  24604130.527   100749801.587                  
  19979118.760   106687396.977    19979128.124    82979102.264                  
  19774806.156   105410853.211    19774812.857    81986233.921                  
  23049657.707   123343472.638    23049672.592    95933778.387                  
  19754690.229   105674293.179                                                  
  19594688.174   104781617.384    19594696.858    81496863.822                  
  23524558.817   123622420.250                                                  
  23909990.229   125647859.035                                                  
  24193810.711   127139328.565                                                  
  27118825.282   142510379.234                                                  
  23777847.893   124953445.843                                                  
                 118674004.373    22790091.957   118674004.373                  
                 116420962.417    22357420.138   116420962.417                  
                 130468896.044    25055176.671   130468896.044                  
                 119860488.747    23017945.837   119860488.747                  
                 129316562.750    24833886.744   129316562.750                  
 21  9  1  9 43 38.0000000  0 26G22G19G21G 1G14G 3G30G 7G17G 8R13R14
                                R17R23R24E 1E13E15E21E26E27C11C23C25
                                C28C34
  23096153.137   121371109.6311                   94574893.7201   23096152.368  
  23216015.219   122000992.7411                   95065702.7961   23216016.416  
  22363512.384   117521075.0291                   91574899.9011   22363513.903  
  20177214.177   106031998.7311   20177219.037    82622361.0331   20177219.037  
  20494405.738   107698839.6201   20494408.597    83921191.4851   20494408.722  
  23823996.503   125195940.2421   23824002.257    97555307.2481   23824001.381  
  21907359.114   115123950.0041   21907363.795    89706991.3301   21907363.206  
  23351360.524   122712217.7401   23351362.668    95619910.7461   23351362.061  
  21409023.852   112505185.5011   21409024.942    87666394.3831   21409024.728  
                                  24604695.796   100752118.033                  
  19979597.507   106689952.874    19979606.531    82981090.161                  
  19774451.438   105408962.981    19774458.407    81984763.735                  
  23048993.801   123339918.809    23049008.382    95931014.282                  
  19755054.703   105676242.956                                                  
  19594473.013   104780467.022    19594482.037    81495969.098                  
  28191998.899   148149954.199                                                  
  23524316.441   123621146.617                                                  
  23910280.797   125649385.940                                                  
  24193537.905   127137895.257                                                  
  27118270.520   142507461.635                                                  
  23778088.946   124954712.794                                                  
                 118676043.841    22790483.611   118676043.841                  
                 116422216.557    22357660.958   116422216.557                  
                 130472200.692    25055811.325   130472200.692                  
                 119858570.380    23017577.468   119858570.380                  
                 129319251.959    24834403.248   129319251.959                  
 21  9  1  9 43 39.0000000  0 25G22G19G21G 1G14G 3G30G 7G17G 8R13R14
                                R17R23R24E 1E13E15E21E27C11C23C25C28
                                C34
  23095844.842   121369490.2241                   94573631.8391   23095844.217  
  23215476.182   121998160.5111                   95063495.8641   23215477.451  
  22364002.264   117523650.0631                   91576906.4241   22364003.925  
  20177391.045   106032928.2471   20177395.780    82623085.3331   20177395.923  
  20494165.775   107697577.8341   20494168.456    83920208.2751   20494168.616  
  23823438.614   125193011.3771   23823444.922    97553025.0231   23823444.029  
  21907810.164   115126320.9771   21907814.774    89708838.8411   21907814.363  
  23352042.960   122715804.7771   23352045.837    95622705.8401   23352044.729  
  21408758.283   112503790.2351   21408759.373    87665307.1601   21408759.266  
                                  24605261.762   100754434.088                  
  19980075.825   106692508.956    19980084.724    82983078.241                  
  19774096.917   105407072.947    19774103.850    81983293.704                  
  23048329.752   123336364.732    23048344.619    95928250.030                  
  19755419.213   105678192.720                                                  
  19594257.870   104779316.831    19594266.983    81495074.516                  
  28191472.746   148147188.942                                                  
  23524074.084   123619872.870                                                  
  23910571.312   125650912.663                                                  
  24193265.027   127136461.741                                                  
  23778330.053   124955979.595                                                  
                 118678083.020    22790875.246   118678083.020                  
                 116423470.719    22357901.743   116423470.719                  
                 130475505.040    25056446.175   130475505.040                  
                 119856651.821    23017209.116   119856651.821                  
                 129321940.744    24834919.341   129321940.744                  
 21  9  1  9 43 40.0000000  0 26G22G19G21G 1G14G 3G30G 7G17G 8R13R14
                                R17R23R24E 1E13E15E21E26E27C11C23C25
                                C28C34
  23095536.709   121367871.4761                   94572370.4801   23095536.155  
  23214937.360   121995328.6691                   95061289.2331   23214938.521  
  22364492.339   117526225.6111                   91578913.3401   22364494.055  
  20177568.091   106033858.6521   20177572.915    82623810.3261   20177572.987  
  20493925.919   107696316.6731   20493928.385    83919225.5501   20493928.618  
  23822880.922   125190082.9151   23822887.784    97550743.1091   23822886.730  
  21908261.517   115128692.6341   21908265.752    89710686.8801   21908265.663  
  23352725.289   122719392.1731   23352728.916    95625501.2221   23352727.433  
  21408492.856   112502395.4131   21408493.893    87664220.2861   21408493.857  
                                  24605827.584   100756750.315                  
  19980554.822   106695065.918    19980564.293    82985066.973                  
  19773742.396   105405183.833    19773749.293    81981824.400                  
  23047666.079   123332811.169    23047680.017    95925486.134                  
  19755783.867   105680143.177                                                  
  19594042.870   104778167.478    19594052.233    81494180.575                  
  28190946.539   148144423.884                                                  
  23523831.887   123618599.707                                                  
  23910861.987   125652439.893                                                  
  24192992.274   127135028.691                                                  
  27117162.033   142501625.968                                                  
  23778571.213   124957246.943                                                  
                 118680122.584    22791266.864   118680122.584                  
                 116424725.585    22358142.689   116424725.585                  
                 130478809.714    25057080.901   130478809.714                  
                 119854733.735    23016840.799   119854733.735                  
                 129324629.769    24835435.809   129324629.769                  
 21  9  1  9 43 41.0000000  0 26G22G19G21G 1G14G 3G30G 7G17G 8R13R14
                                R17R23R24E 1E13E15E21E26E27C11C23C25
                                C28C34
  23095228.719   121366253.2451                   94571109.5231   23095228.218  
  23214398.358   121992497.0111                   95059082.7471   23214399.574  
  22364982.415   117528801.4731                   91580920.5071   22364984.220  
  20177745.262   106034789.7651   20177750.033    82624535.8661   20177750.176  
  20493686.081   107695055.9511   20493688.386    83918243.1721   20493688.708  
  23822323.712   125187154.7171   23822330.628    97548461.3921   23822329.466  
  21908712.942   115131064.7891   21908717.016    89712535.3111   21908717.034  
  23353407.957   122722979.7531   23353411.513    95628296.7411   23353410.190  
  21408227.412   112501000.8721   21408228.788    87663133.6331   21408228.502  
                                  24606393.514   100759066.585                  
  19981033.605   106697623.586    19981043.790    82987056.277                  
  19773388.124   105403295.460    19773395.236    81980355.659                  
  23047002.423   123329257.902    23047016.272    95922722.465                  
  19756148.573   105682094.139                                                  
  19593827.977   104777018.749    19593837.519    81493287.105                  
  28190420.529   148141658.877                                                  
  23523589.690   123617326.945                                                  
  23911152.627   125653967.444                                                  
  24192719.593   127133595.935                                                  
  27116607.736   142498708.422                                                  
  23778812.391   124958514.654                                                  
                 118682162.356    22791658.535   118682162.356                  
                 116425980.978    22358383.689   116425980.978                  
                 130482114.553    25057715.537   130482114.553                  
                 119852815.961    23016472.501   119852815.961                  
                 129327318.882    24835952.153   129327318.882                  
 21  9  1  9 43 42.0000000  0 26G22G19G21G 1G14G 3G30G 7G17G 8R13R14
                                R17R23R24E 1E13E15E21E26E27C11C23C25
                                C28C34
  23094920.674   121364634.9591                   94569848.5251   23094920.281  
  23213859.447   121989665.0071                   95056875.9881   23213860.626  
  22365472.455   117531377.1231                   91582927.5071   22365474.349  
  20177922.576   106035721.0321   20177927.276    82625261.5291   20177927.401  
  20493446.225   107693795.1221   20493448.477    83917260.7051   20493448.781  
  23821766.413   125184226.2051   23821773.346    97546179.4301   23821772.131  
  21909164.350   115133436.8771   21909168.710    89714383.6931   21909168.424  
  23354090.446   122726566.9371   23354093.752    95631091.9341   23354092.894  
  21407961.878   112499606.0551   21407963.183    87662046.7621   21407963.076  
                                  24606958.997   100761382.402                  
  19981512.655   106700181.412    19981523.269    82989045.703                  
  19773033.960   105401407.248    19773040.947    81978887.063                  
  23046338.518   123325704.345    23046352.420    95919958.639                  
  19756513.191   105684045.033                                                  
  19593613.138   104775870.089    19593622.537    81492393.703                  
  28189894.357   148138893.335                                                  
  23523347.440   123616054.032                                                  
  23911443.284   125655494.783                                                  
  24192446.965   127132162.938                                                  
  27116052.617   142495790.491                                                  
  23779053.552   124959782.174                                                  
                 118684201.780    22792050.170   118684201.780                  
                 116427236.353    22358624.724   116427236.353                  
                 130485419.032    25058350.048   130485419.032                  
                 119850897.951    23016104.149   119850897.951                  
                 129330007.524    24836468.407   129330007.524                  
 21  9  1  9 43 43.0000000  0 26G22G19G21G 1G14G 3G30G 7G17G 8R13R14
                                R17R23R24E 1E13E15E21E26E27C11C23C25
                                C28C34
  23094612.898   121363017.2001                   94568587.9321   23094612.398  
  23213320.624   121986833.2201                   95054669.4061   23213321.589  
  22365962.621   117533953.1261                   91584934.7841   22365964.550  
  20178099.855   106036653.0431   20178104.644    82625987.7731   20178104.769  
  20493206.298   107692534.7731   20493208.764    83916278.6151   20493208.943  
  23821209.561   125181297.9921   23821215.976    97543897.6901   23821214.779  
  21909615.828   115135809.5011   21909620.010    89716232.4921   21909619.902  
  23354773.257   122730154.3361   23354776.777    95633887.3051   23354775.580  
  21407696.613   112498211.5521   21407697.899    87660960.1321   21407697.738  
                                  24607524.570   100763698.260                  
  19981991.920   106702739.966    19982001.462    82991035.677                  
  19772679.832   105399519.771    19772686.801    81977419.014                  
  23045674.576   123322151.111    23045688.693    95917195.019                  
  19756878.023   105685996.458                                                  
  19593398.495   104774722.107    19593407.608    81491500.824                  
  28189368.043   148136127.844                                                  
  23523105.261   123614781.567                                                  
  23911733.960   125657022.472                                                  
  24192174.320   127130730.270                                                  
  27115496.783   142492872.661                                                  
  23779294.837   124961050.090                                                  
                 118686241.457    22792441.841   118686241.457                  
                 116428492.295    22358865.831   116428492.295                  
                 130488723.735    25058984.595   130488723.735                  
                 119848980.285    23015735.850   119848980.285                  
                 129332696.285    24836984.714   129332696.285                  
 21  9  1  9 43 44.0000000  0 26G22G19G21G 1G14G 3G30G 7G17G 8R13R14
                                R17R23R24E 1E13E15E21E26E27C11C23C25
                                C28C34
  23094305.176   121361400.0341                   94567327.8011   23094304.640  
  23212781.891   121984001.7301                   95052463.0521   23212782.784  
  22366452.893   117536529.5421                   91586942.3791   22366454.841  
  20178277.312   106037585.8481   20178282.226    82626714.6321   20178282.280  
  20492966.549   107691274.9591   20492968.997    83915296.9421   20492969.212  
  23820652.673   125178370.0851   23820658.856    97541616.2151   23820657.569  
  21910067.414   115138182.7131   21910071.578    89718081.7451   21910071.506  
  23355456.050   122733742.0041   23355458.856    95636682.8931   23355458.391  
  21407431.293   112496817.3961   21407432.598    87659873.7811   21407432.455  
                                  24608090.142   100766014.233                  
  19982471.400   106705299.349    19982480.674    82993026.322                  
  19772325.954   105397633.098    19772332.619    81975951.602                  
  23045010.903   123318598.250    23045025.609    95914431.648                  
  19757242.747   105687948.472                                                  
  19593183.960   104773574.875    19593192.966    81490608.550                  
  28188841.800   148133362.505                                                  
  23522863.243   123613509.577                                                  
  23912024.707   125658550.598                                                  
  24191901.728   127129297.983                                                  
  27114941.217   142489955.164                                                  
  23779536.176   124962318.468                                                  
                 118688281.421    22792833.494   118688281.421                  
                 116429748.848    22359107.134   116429748.848                  
                 130492028.711    25059619.499   130492028.711                  
                 119847063.013    23015367.606   119847063.013                  
                 129335385.218    24837501.057   129335385.218                  
 21  9  1  9 43 45.0000000  0 26G22G19G21G 1G14G 3G30G 7G17G 8R13R14
                                R17R23R24E 1E13E15E21E26E27C11C23C25
                                C28C34
  23093997.328   121359782.8361                   94566067.6461   23093996.846  
  23212243.247   121981169.9021                   95050256.4401   23212243.890  
  22366943.165   117539105.7711                   91588949.8321   22366945.095  
  20178454.805   106038518.8321   20178459.666    82627441.6331   20178459.827  
  20492726.765   107690015.0651   20492729.231    83914315.2111   20492729.463  
  23820095.159   125175441.8931   23820101.485    97539334.5131   23820100.341  
  21910519.107   115140555.8931   21910523.325    89719930.9741   21910523.092  
  23356138.754   122737329.3081   23356141.042    95639478.1951   23356141.095  
  21407166.099   112495422.9961   21407167.636    87658787.2401   21407167.136  
                                  24608655.750   100768329.826                  
  19982951.147   106707858.914    19982959.850    82995017.090                  
  19771972.147   105395746.619    19771978.723    81974484.351                  
  23044347.033   123315045.168    23044362.954    95911668.145                  
  19757607.490   105689900.452                                                  
  19592969.496   104772427.750    19592978.466    81489716.346                  
  28188315.522   148130596.655                                                  
  23522621.153   123612237.473                                                  
  23912315.525   125660078.518                                                  
  24191629.154   127127865.468                                                  
  27114385.455   142487037.231                                                  
  23779777.569   124963586.680                                                  
                 118690321.075    22793225.058   118690321.075                  
                 116431005.418    22359348.420   116431005.418                  
                 130495333.295    25060254.189   130495333.295                  
                 119845145.515    23014999.379   119845145.515                  
                 129338073.694    24838017.293   129338073.694                  
 21  9  1  9 43 46.0000000  0 26G22G19G21G 1G14G 3G30G 7G17G 8R13R14
                                R17R23R24E 1E13E15E21E26E27C11C23C25
                                C28C34
  23093689.820   121358167.0591                   94564808.6011   23093689.320  
  23211704.335   121978339.1751                   95048050.6761   23211705.211  
  22367433.724   117541683.2231                   91590958.2341   22367435.546  
  20178632.656   106039453.4371   20178637.516    82628169.8961   20178637.695  
  20492487.302   107688756.5271   20492489.875    83913334.5271   20492489.965  
  23819538.128   125172514.8831   23819544.150    97537053.7341   23819543.292  
  21910970.908   115142930.4721   21910975.500    89721781.2951   21910974.964  
  23356821.851   122740917.7101   23356823.335    95642274.3521   23356823.978  
  21406901.012   112494029.7841   21406902.370    87657701.6191   21406902.067  
                                  24609221.287   100770646.059                  
  19983431.074   106710420.089    19983439.025    82997009.129                  
  19771618.787   105393861.821    19771625.417    81973018.388                  
  23043683.217   123311493.309    23043700.961    95908905.601                  
  19757972.661   105691853.873                                                  
  19592755.300   104771282.186    19592764.252    81488825.350                  
  28187789.369   148127831.750                                                  
  23522379.350   123610966.681                                                  
  23912606.540   125661607.674                                                  
  24191356.794   127126434.167                                                  
  27113829.764   142484120.351                                                  
  23780019.229   124964856.164                                                  
                 118692361.828    22793616.890   118692361.828                  
                 116432263.411    22359589.991   116432263.411                  
                 130498638.942    25060889.165   130498638.942                  
                 119843229.239    23014631.366   119843229.239                  
                 129340763.168    24838533.851   129340763.168                  
 21  9  1  9 43 47.0000000  0 26G22G19G21G 1G14G 3G30G 7G17G 8R13R14
                                R17R23R24E 1E13E15E21E26E27C11C23C25
                                C28C34
  23093382.420   121356551.6421                   94563549.8351   23093381.884  
  23211165.602   121975508.5031                   95045844.9511   23211166.531  
  22367924.300   117544260.8541                   91592966.7741   22367926.069  
  20178810.595   106040388.6011   20178815.617    82628898.5941   20178815.670  
  20492247.822   107687498.2881   20492250.448    83912354.0791   20492250.520  
  23818981.222   125169587.9561   23818987.333    97534773.0041   23818986.261  
  21911422.815   115145305.4001   21911427.676    89723631.8911   21911426.854  
  23357505.020   122744506.1211   23357505.127    95645070.5141   23357506.771  
  21406635.890   112492636.7111   21406637.498    87656616.1091   21406636.997  
                                  24609787.360   100772962.242                  
  19983911.411   106712981.851    19983918.022    82999001.590                  
  19771265.356   105391977.612    19771271.985    81971552.890                  
  23043019.740   123307941.592    23043039.485    95906143.206                  
  19758337.904   105693807.655                                                  
  19592541.247   104770137.086    19592550.038    81487934.712                  
  28187263.108   148125066.728                                                  
  23522137.546   123609696.147                                                  
  23912897.573   125663137.011                                                  
  24191084.416   127125003.013                                                  
                                                                                
  23780260.872   124966125.870                                                  
                 118694402.638    22794008.847   118694402.638                  
                 116433521.792    22359831.741   116433521.792                  
                 130501944.663    25061524.105   130501944.663                  
                 119841313.113    23014263.389   119841313.113                  
                 129343452.572    24839050.284   129343452.572                  
 21  9  1  9 43 48.0000000  0 26G22G19G21G 1G14G 3G30G 7G17G 8R13R14
                                R17R23R24E 1E13E15E21E26E27C11C23C25
                                C28C34
  23093075.055   121354936.1811                   94562291.0321   23093074.376  
  23210626.780   121972677.4881                   95043638.9631   23210627.780  
  22368414.751   117546838.2741                   91594975.1551   22368416.556  
  20178988.589   106041323.9271   20178993.449    82629627.4191   20178993.664  
  20492008.341   107686239.9501   20492011.039    83911373.5581   20492011.057  
  23818424.263   125166660.7441   23818430.320    97532492.0501   23818429.230  
  21911874.723   115147680.2841   21911879.369    89725482.4521   21911878.744  
  23358187.885   122748094.1711   23358188.832    95647866.3881   23358189.600  
  21406370.695   112491243.3611   21406372.018    87655530.3821   21406371.875  
                                  24610352.628   100775277.993                  
  19984391.355   106715543.760    19984397.627    83000994.188                  
  19770912.050   105390093.573    19770918.500    81970087.517                  
  23042355.816   123304389.613    23042376.419    95903380.490                  
  19758703.183   105695761.389                                                  
  19592327.193   104768992.060    19592335.556    81487044.118                  
  28186736.847   148122301.204                                                  
  23521895.743   123608425.469                                                  
  23913188.641   125664666.138                                                  
  24190812.075   127123571.615                                                  
  27112719.633   142478286.178                                                  
  23780502.461   124967395.389                                                  
                 118696443.126    22794400.715   118696443.126                  
                 116434780.168    22360073.330   116434780.168                  
                 130505249.988    25062159.009   130505249.988                  
                 119839396.767    23013895.412   119839396.767                  
                 129346141.528    24839566.842   129346141.528                  
 21  9  1  9 43 49.0000000  0 26G22G19G21G 1G14G 3G30G 7G17G 8R13R14
                                R17R23R24E 1E13E15E21E26E27C11C23C25
                                C28C34
  23092767.779   121353321.2401                   94561032.6341   23092767.010  
  23210087.760   121969846.7021                   95041433.1601   23210089.029  
  22368905.309   117549416.0581                   91596983.8181   22368907.114  
  20179166.671   106042259.9961   20179171.371    82630356.8231   20179171.800  
  20491769.021   107684982.0991   20491771.701    83910393.4121   20491771.684  
  23817867.410   125163733.8311   23817873.325    97530211.3391   23817872.271  
  21912326.631   115150055.6971   21912331.026    89727333.4231   21912330.740  
  23358870.714   122751682.4151   23358871.375    95650662.4241   23358872.483  
  21406105.698   112489850.3231   21406106.734    87654444.8981   21406106.824  
                                  24610918.058   100777593.828                  
  19984870.959   106718106.420    19984877.446    83002987.373                  
  19770558.797   105388210.276    19770565.033    81968622.737                  
  23041692.071   123300837.963    23041714.533    95900618.065                  
  19759068.586   105697715.670                                                  
  19592113.230   104767847.744    19592121.610    81486154.099                  
  28186210.533   148119535.736                                                  
  23521653.993   123607155.232                                                  
  23913479.692   125666195.625                                                  
  24190539.733   127122140.558                                                  
  27112164.478   142475369.022                                                  
  23780744.158   124968665.322                                                  
                 118698483.847    22794792.583   118698483.847                  
                 116436039.100    22360315.116   116436039.100                  
                 130508555.534    25062794.038   130508555.534                  
                 119837480.769    23013527.400   119837480.769                  
                 129348830.603    24840083.131   129348830.603                  
 21  9  1  9 43 50.0000000  0 26G22G19G21G 1G14G 3G30G 7G17G 8R13R14
                                R17R23R24E 1E13E15E21E26E27C11C23C25
                                C28C34
  23092460.485   121351706.9001                   94559774.7061   23092459.770  
  23209548.920   121967016.1981                   95039227.5721   23209550.367  
  22369395.957   117551994.2561                   91598992.8031   22369397.726  
  20179344.951   106043196.8621   20179349.847    82631086.8491   20179350.079  
  20491529.701   107683724.7781   20491532.453    83909413.6841   20491532.417  
  23817310.451   125160807.2381   23817316.330    97527930.8801   23817315.436  
  21912778.663   115152431.7021   21912782.970    89729184.8541   21912782.863  
  23359553.614   122755270.9371   23359554.650    95653458.6661   23359555.472  
  21405840.647   112488457.6631   21405841.790    87653359.7081   21405841.844  
                                  24611482.665   100779909.691                  
  19985351.118   106720669.864    19985357.176    83004981.156                  
  19770205.741   105386327.790    19770211.977    81967158.589                  
  23041028.648   123297286.695    23041050.073    95897855.987                  
  19759434.079   105699670.545                                                  
  19591899.516   104766704.197    19591907.575    81485264.673                  
  28185684.273   148116770.385                                                  
  23521412.386   123605885.484                                                  
  23913770.939   125667725.535                                                  
  24190267.516   127120709.880                                                  
  27111609.413   142472452.139                                                  
  23780985.908   124969935.703                                                  
                 118700524.858    22795184.557   118700524.858                  
                 116437298.653    22360557.152   116437298.653                  
                 130511861.356    25063428.996   130511861.356                  
                 119835565.155    23013159.548   119835565.155                  
                 129351519.826    24840599.671   129351519.826                  
 21  9  1  9 43 51.0000000  0 26G22G19G21G 1G14G 3G30G 7G17G 8R13R14
                                R17R23R24E 1E13E15E21E26E27C11C23C25
                                C28C34
  23092153.513   121350093.5781                   94558517.5751   23092152.727  
  23209010.669   121964186.4241                   95037022.5541   23209011.831  
  22369886.694   117554573.3071                   91601002.4511   22369888.516  
  20179523.444   106044134.9671   20179528.287    82631817.8401   20179528.609  
  20491290.703   107682468.4321   20491293.240    83908434.7091   20491293.348  
  23816753.652   125157881.4081   23816759.477    97525651.0121   23816758.691  
  21913230.982   115154808.7291   21913235.342    89731037.0801   21913235.163  
  23360236.354   122758860.1341   23360237.998    95656255.4431   23360238.462  
  21405575.810   112487065.7951   21405576.936    87652275.1411   21405576.971  
                                  24612048.828   100782226.032                  
  19985831.366   106723234.552    19985838.353    83006975.913                  
  19769852.899   105384446.576    19769859.028    81965695.425                  
  23040364.600   123293736.302    23040386.150    95895094.600                  
  19759799.822   105701626.469                                                  
  19591685.892   104765561.819    19591693.987    81484376.158                  
  28185158.101   148114005.601                                                  
  23521170.939   123604616.670                                                  
  23914062.293   125669256.299                                                  
  24189995.424   127119280.026                                                  
  27111054.437   142469535.899                                                  
  23781227.836   124971206.976                                                  
                 118702566.600    22795576.693   118702566.600                  
                 116438559.265    22360799.313   116438559.265                  
                 130515167.836    25064063.918   130515167.836                  
                 119833650.373    23012791.822   119833650.373                  
                 129354209.655    24841116.336   129354209.655                  
 21  9  1  9 43 52.0000000  0 26G22G19G21G 1G14G 3G30G 7G17G 8R13R14
                                R17R23R24E 1E13E15E21E26E27C11C23C25
                                C28C34
  23091846.595   121348480.9081                   94557260.9471   23091845.827  
  23208472.258   121961356.9701                   95034817.7851   23208473.312  
  22370377.484   117557152.8221                   91603012.4611   22370379.396  
  20179702.188   106045073.9091   20179707.084    82632549.4831   20179707.263  
  20491051.776   107681212.6731   20491054.117    83907456.1981   20491054.367  
  23816196.960   125154955.9711   23816203.054    97523371.4511   23816201.964  
  21913683.372   115157186.3831   21913687.982    89732889.8021   21913687.589  
  23360919.415   122762449.6601   23360921.255    95659052.4831   23360921.559  
  21405310.973   112485674.3451   21405311.723    87651190.8891   21405312.152  
                                  24612615.329   100784542.441                  
  19986311.757   106725800.098    19986319.190    83008971.333                  
  19769500.236   105382566.240    19769506.258    81964232.928                  
  23039700.926   123290186.316    23039723.852    95892333.505                  
  19760165.691   105703583.031                                                  
  19591472.357   104764420.197    19591480.166    81483488.234                  
  28184632.002   148111240.980                                                  
  23520929.565   123603348.398                                                  
  23914353.666   125670787.535                                                  
  24189723.386   127117850.612                                                  
  27110499.443   142466619.993                                                  
  23781469.819   124972478.755                                                  
                 118704608.687    22795968.775   118704608.687                  
                 116439820.543    22361041.581   116439820.543                  
                 130518474.667    25064698.912   130518474.667                  
                 119831736.044    23012424.131   119831736.044                  
                 129356899.701    24841633.090   129356899.701                  
 21  9  1  9 43 53.0000000  0 26G22G19G21G 1G14G 3G30G 7G17G 8R13R14
                                R17R23R24E 1E13E15E21E26E27C11C23C25
                                C28C34
  23091539.623   121346868.2001                   94556004.2911   23091538.908  
  23207933.721   121958527.2051                   95032612.7751   23207934.722  
  22370868.418   117559732.1261                   91605022.3081   22370870.223  
  20179881.021   106046013.0291   20179885.900    82633281.2631   20179885.971  
  20490812.867   107679956.8291   20490815.137    83906477.6201   20490815.387  
  23815640.090   125152030.2381   23815646.398    97521091.6591   23815645.290  
  21914135.905   115159564.0021   21914140.372    89734742.4901   21914139.997  
  23361602.458   122766038.8191   23361604.424    95661849.2351   23361604.531  
  21405046.279   112484282.6531   21405046.815    87650106.4541   21405047.333  
                                  24613181.152   100786858.526                  
  19986792.433   106728365.815    19986799.920    83010966.883                  
  19769147.555   105380686.092    19769153.630    81962770.599                  
  23039037.360   123286636.094    23039061.001    95889572.230                  
  19760531.398   105705539.550                                                  
  19591258.822   104763278.671    19591266.738    81482600.387                  
  28184105.723   148108475.876                                                  
  23520688.154   123602080.006                                                  
  23914645.002   125672318.569                                                  
  24189451.295   127116420.966                                                  
  27109944.216   142463703.650                                                  
  23781711.783   124973750.369                                                  
                 118706650.472    22796360.786   118706650.472                  
                 116441081.812    22361283.885   116441081.812                  
                 130521781.141    25065333.709   130521781.141                  
                 119829821.486    23012056.350   119829821.486                  
                 129359589.320    24842149.577   129359589.320                  
 21  9  1  9 43 54.0000000  0 26G22G19G21G 1G14G 3G30G 7G17G 8R13R14
                                R17R23R24E 1E13E15E21E26E27C11C23C25
                                C28C34
  23091232.687   121345255.8761                   94554747.9371   23091232.079  
  23207395.256   121955697.4961                   95030407.8091   23207396.292  
  22371359.262   117562311.6531                   91607032.3261   22371361.085  
  20180059.980   106046952.7421   20180064.626    82634013.5091   20180064.804  
  20490573.923   107678701.3051   20490576.228    83905499.2871   20490576.442  
  23815083.309   125149104.6461   23815089.832    97518811.9771   23815088.474  
  21914588.456   115161941.9941   21914592.566    89736595.4751   21914592.458  
  23362285.359   122769628.0251   23362287.682    95664646.0191   23362287.485  
  21404781.550   112482891.1021   21404782.104    87649022.1291   21404782.568  
                                  24613746.403   100789174.460                  
  19987273.199   106730932.127    19987280.293    83012962.914                  
  19768794.981   105378806.560    19768801.075    81961308.736                  
  23038373.794   123283086.003    23038396.970    95886811.014                  
  19760897.373   105707496.444                                                  
  19591045.448   104762137.688    19591053.311    81481712.959                  
  28183579.516   148105710.660                                                  
  23520446.833   123600811.890                                                  
  23914936.375   125673849.805                                                  
  24189179.275   127114991.488                                                  
  27109389.741   142460787.355                                                  
  23781953.766   124975022.220                                                  
                 118708692.329    22796752.975   118708692.329                  
                 116442343.503    22361526.242   116442343.503                  
                 130525087.632    25065968.524   130525087.632                  
                 119827907.117    23011688.624   119827907.117                  
                 129362278.887    24842666.099   129362278.887                  
 21  9  1  9 43 55.0000000  0 26G22G19G21G 1G14G 3G30G 7G17G 8R13R14
                                R17R23R24E 1E13E15E21E26E27C11C23C25
                                C28C34
  23090926.001   121343644.1481                   94553492.0451   23090925.375  
  23206856.827   121952868.0981                   95028203.0861   23206857.863  
  22371850.160   117564891.6051                   91609042.6791   22371852.036  
  20180239.063   106047893.2591   20180243.709    82634746.3771   20180243.780  
  20490335.139   107677446.3471   20490337.301    83904521.3981   20490337.623  
  23814527.065   125146179.4031   23814533.372    97516532.5691   23814531.800  
  21915041.096   115164320.6021   21915045.313    89738448.9341   21915045.063  
  23362968.867   122773217.5071   23362971.100    95667443.0091   23362970.564  
  21404516.838   112481499.9511   21404517.660    87647938.1121   21404517.839  
                                  24614312.851   100791490.556                  
  19987753.983   106733499.257    19987760.934    83014959.579                  
  19768442.497   105376927.885    19768448.733    81959847.544                  
  23037710.335   123279536.328    23037733.011    95884050.236                  
  19761263.403   105709453.972                                                  
  19590832.271   104760997.485    19590840.116    81480826.127                  
  28183053.327   148102945.626                                                  
  23520205.601   123599544.291                                                  
  23915227.818   125675381.487                                                  
  24188907.344   127113562.438                                                  
  27108835.015   142457871.293                                                  
  23782195.855   124976294.553                                                  
                 118710734.492    22797145.039   118710734.492                  
                 116443605.834    22361768.689   116443605.834                  
                 130528394.437    25066603.446   130528394.437                  
                 119825993.178    23011320.987   119825993.178                  
                 129364968.651    24843182.781   129364968.651                  
 21  9  1  9 43 56.0000000  0 26G22G19G21G 1G14G 3G30G 7G17G 8R13R14
                                R17R23R24E 1E13E15E21E26E27C11C23C25
                                C28C34
  23090619.458   121342032.6631                   94552236.3471   23090618.707  
  23206318.415   121950038.6351                   95025998.3101   23206319.398  
  22372341.129   117567471.6111                   91611053.0681   22372343.005  
  20180418.111   106048834.2111   20180422.631    82635479.5881   20180422.846  
  20490096.409   107676191.5621   20490098.553    83903543.6431   20490098.857  
  23813970.480   125143254.1391   23813976.877    97514253.1591   23813975.126  
  21915493.754   115166699.4221   21915497.810    89740302.5571   21915497.667  
  23363651.874   122776806.9071   23363653.340    95670239.9371   23363653.643  
  21404252.144   112480108.7961   21404253.055    87646854.0981   21404253.127  
                                  24614878.352   100793806.394                  
  19988234.678   106736066.837    19988241.361    83016956.565                  
  19768090.030   105375049.671    19768096.588    81958386.719                  
  23037046.912   123275986.679    23037069.856    95881289.264                  
  19761629.592   105711411.724                                                  
  19590619.111   104759857.631    19590626.867    81479939.578                  
  28182527.084   148100180.319                                                  
  23519964.441   123598276.806                                                  
  23915519.316   125676913.225                                                  
  24188635.449   127112133.402                                                  
  27108280.432   142454955.112                                                  
  23782437.998   124977566.971                                                  
                 118712776.591    22797537.265   118712776.591                  
                 116444868.426    22362011.226   116444868.426                  
                 130531701.155    25067237.922   130531701.155                  
                 119824079.277    23010953.349   119824079.277                  
                 129367658.215    24843699.160   129367658.215                  
 21  9  1  9 43 57.0000000  0 26G22G19G21G 1G14G 3G30G 7G17G 8R13R14
                                R17R23R24E 1E13E15E21E26E27C11C23C25
                                C28C34
  23090312.950   121340422.0381                   94550981.3081   23090312.218  
  23205780.075   121947209.7331                   95023793.9771   23205781.111  
  22372832.170   117570052.3111                   91613064.0041   22372834.100  
  20180597.373   106049776.2361   20180601.679    82636213.6321   20180602.108  
  20489857.750   107674937.5781   20489860.091    83902566.5151   20489860.216  
  23813413.860   125140329.5121   23813420.257    97511974.2151   23813418.631  
  21915946.591   115169079.1101   21915950.540    89742156.8591   21915950.451  
  23364335.061   122780396.8381   23364335.990    95673037.2831   23364336.794  
  21403987.540   112478718.2791   21403988.773    87645770.5781   21403988.522  
                                  24615444.121   100796122.565                  
  19988715.515   106738635.503    19988721.984    83018954.414                  
  19767737.796   105373172.550    19767744.444    81956926.742                  
  23036383.721   123272437.712    23036405.771    95878529.023                  
  19761995.836   105713370.351                                                  
  19590406.148   104758718.774    19590413.725    81479053.787                  
  28182000.931   148097415.415                                                  
  23519723.388   123597010.110                                                  
  23915810.902   125678445.650                                                  
  24188363.679   127110705.039                                                  
  27107725.223   142452039.432                                                  
  23782680.302   124978840.134                                                  
                 118714819.263    22797929.668   118714819.263                  
                 116446131.905    22362253.905   116446131.905                  
                 130535008.370    25067872.897   130535008.370                  
                 119822166.039    23010585.873   119822166.039                  
                 129370348.218    24844215.647   129370348.218                  
 21  9  1  9 43 58.0000000  0 26G22G19G21G 1G14G 3G30G 7G17G 8R13R14
                                R17R23R24E 1E13E15E21E26E27C11C23C25
                                C28C34
  23090006.461   121338812.1181                   94549726.8291   23090005.818  
  23205242.075   121944381.2271                   95021589.9491   23205242.932  
  22373323.425   117572633.5371                   91615075.3531   22373325.283  
  20180776.688   106050719.1831   20180781.048    82636948.3981   20180781.567  
  20489619.253   107673684.2551   20489621.718    83901589.9001   20489621.701  
  23812857.133   125137405.3141   23812863.619    97509695.6161   23812862.261  
  21916399.499   115171459.5021   21916403.716    89744011.7081   21916403.412  
  23365018.444   122783987.1501   23365019.301    95675834.9381   23365020.034  
  21403722.971   112477328.2271   21403724.222    87644687.4281   21403723.989  
                                  24616009.246   100798438.867                  
  19989196.675   106741205.071    19989203.197    83020952.979                  
  19767385.616   105371296.346    19767392.477    81955467.465                  
  23035720.298   123268889.241    23035741.401    95875769.183                  
  19762362.187   105715329.704                                                  
  19590193.418   104757580.760    19590201.280    81478168.662                  
  28181474.813   148094650.774                                                  
  23519482.442   123595744.019                                                  
  23916102.632   125679978.621                                                  
  24188091.980   127109277.181                                                  
  27107170.247   142449124.043                                                  
  23782922.588   124980113.855                                                  
                 118716862.345    22798322.197   118716862.345                  
                 116447396.123    22362496.602   116447396.123                  
                 130538316.004    25068507.659   130538316.004                  
                 119820253.315    23010218.379   119820253.315                  
                 129373038.508    24844732.204   129373038.508                  
 21  9  1  9 43 59.0000000  0 26G22G19G21G 1G14G 3G30G 7G17G 8R13R14
                                R17R23R24E 1E13E15E21E26E27C11C23C25
                                C28C34
  23089700.061   121337201.8251                   94548472.0531   23089699.292  
  23204703.824   121941552.0341                   95019385.3881   23204704.539  
  22373814.484   117575214.2141                   91617086.2701   22373816.378  
  20180956.183   106051661.9361   20180960.596    82637683.0111   20180960.954  
  20489380.647   107672430.5061   20489383.042    83900612.9481   20489383.131  
  23812300.281   125134480.4851   23812306.803    97507416.5311   23812305.677  
  21916852.461   115173839.4981   21916856.571    89745866.2511   21916856.303  
  23365701.380   122787576.7641   23365702.345    95678632.0311   23365703.149  
  21403458.420   112475937.5661   21403459.867    87643603.7951   21403459.349  
                                  24616574.336   100800754.527                  
  19989677.727   106743774.461    19989684.285    83022951.393                  
  19767033.507   105369419.965    19767040.440    81954008.056                  
  23035057.017   123265340.127    23035075.548    95873008.724                  
  19762728.394   105717288.665                                                  
  19589980.651   104756442.500    19589988.639    81477283.349                  
  28180948.713   148091885.265                                                  
  23519241.406   123594477.452                                                  
  23916394.147   125681511.040                                                  
  24187820.103   127107848.738                                                  
  27106614.896   142446207.991                                                  
  23783164.910   124981387.065                                                  
                 118718904.752    22798714.476   118718904.752                  
                 116448659.997    22362739.210   116448659.997                  
                 130541622.914    25069142.259   130541622.914                  
                 119818340.031    23009850.831   119818340.031                  
                 129375728.028    24845248.762   129375728.028                  
 21  9  1  9 44  0.0000000  0 26G22G19G21G 1G14G 3G30G 7G17G 8R13R14
                                R17R23R24E 1E13E15E21E26E27C11C23C25
                                C28C34
  23089393.750   121335592.3621                   94547217.9211   23089392.982  
  23204165.394   121938723.3871                   95017181.2381   23204166.216  
  22374305.667   117577795.5461                   91619097.7001   22374307.597  
  20181135.802   106052605.7491   20181140.323    82638418.4511   20181140.573  
  20489142.275   107671177.5351   20489144.741    83899636.6071   20489144.705  
  23811743.500   125131556.2601   23811750.218    97505137.9071   23811749.182  
  21917305.566   115176220.3281   21917309.640    89747721.4451   21917309.336  
  23366384.602   122791166.8771   23366384.906    95681429.5221   23366386.300  
  21403193.762   112474547.5151   21403195.173    87642520.6391   21403194.834  
                                  24617140.070   100803070.511                  
  19990159.154   106746344.892    19990166.570    83024950.634                  
  19766681.487   105367544.669    19766688.420    81952549.490                  
  23034393.826   123261791.701                                                  
  19763094.691   105719248.475                                                  
  19589768.099   104755305.259    19589776.105    81476398.833                  
  28180422.578   148089120.119                                                  
  23519000.532   123593211.628                                                  
  23916685.859   125683044.116                                                  
  24187548.440   127106420.932                                                  
  27106059.866   142443292.396                                                  
  23783407.339   124982660.980                                                  
                 118720947.709    22799106.987   118720947.709                  
                 116449924.736    22362982.103   116449924.736                  
                 130544930.341    25069777.181   130544930.341                  
                 119816427.380    23009483.479   119816427.380                  
                 129378417.950    24845765.266   129378417.950                  
 21  9  1  9 44  1.0000000  0 26G22G19G21G 1G14G 3G30G 7G17G 8R13R14
                                R17R23R24E 1E13E15E21E26E27C11C23C25
                                C28C34
  23089087.654   121333983.4681                   94545964.2401   23089086.832  
  23203627.144   121935894.9901                   95014977.2991   23203628.037  
  22374796.994   117580377.2651                   91621109.4291   22374798.870  
  20181315.529   106053550.3331   20181319.942    82639154.4891   20181320.353  
  20488903.973   107669925.0651   20488906.439    83898660.6591   20488906.368  
  23811187.291   125128632.3261   23811194.009    97502859.5241   23811192.651  
  21917758.742   115178601.7151   21917762.995    89749577.0691   21917762.477  
  23367067.645   122794757.2091   23367068.146    95684227.1881   23367069.504  
  21402929.300   112473157.8131   21402930.980    87641437.7541   21402930.408  
                                  24617706.178   100805386.499                  
  19990640.385   106748916.107    19990647.836    83026950.486                  
  19766329.789   105365670.170    19766336.776    81951091.547                  
  23033730.671   123258243.648                                                  
  19763461.060   105721208.853                                                  
  19589555.637   104754168.719    19589563.785    81475514.857                  
  28179896.371   148086355.088                                                  
  23518759.711   123591946.261                                                  
  23916977.660   125684577.585                                                  
  24187276.742   127104993.485                                                  
  27105505.354   142440377.039                                                  
  23783649.822   124983935.317                                                  
                 118722990.933    22799499.498   118722990.933                  
                 116451190.064    22363225.104   116451190.064                  
                 130548237.995    25070412.514   130548237.995                  
                 119814515.107    23009116.181   119814515.107                  
                 129381108.005    24846281.842   129381108.005                  
 21  9  1  9 44  2.0000000  0 26G22G19G21G 1G14G 3G30G 7G17G 8R13R14
                                R17R23R24E 1E13E15E21E26E27C11C23C25
                                C28C34
  23088781.718   121332375.1441                   94544710.9961   23088780.753  
  23203088.929   121933066.8601                   95012773.5591   23203089.876  
  22375288.356   117582959.3831                   91623121.4671   22375290.197  
  20181495.434   106054495.6831   20181499.901    82639891.1231   20181500.241  
  20488665.779   107668673.1211   20488668.156    83897685.1181   20488668.120  
  23810630.903   125125708.7201   23810637.657    97500581.3851   23810636.281  
  21918212.043   115180983.6741   21918216.439    89751433.1431   21918215.742  
  23367750.867   122798347.7741   23367751.832    95687025.0171   23367752.744  
  21402664.964   112471768.4571   21402666.393    87640355.1371   21402666.054  
                                  24618271.590   100807702.563                  
  19991121.883   106751488.115    19991128.709    83028950.918                  
  19765978.269   105363796.484    19765985.256    81949634.233                  
  23033067.730   123254695.930                                                  
  19763827.554   105723169.804                                                  
  19589343.192   104753032.863    19589351.251    81474631.412                  
  28179370.092   148083590.137                                                  
  23518519.015   123590681.373                                                  
  23917269.497   125686111.459                                                  
  24187005.169   127103566.407                                                  
  27104950.771   142437461.858                                                  
  23783892.429   124985210.091                                                  
                 118725034.433    22799892.080   118725034.433                  
                 116452456.000    22363468.212   116452456.000                  
                 130551545.876    25071047.651   130551545.876                  
                 119812603.207    23008749.044   119812603.207                  
                 129383798.223    24846798.453   129383798.223                  
 21  9  1  9 44  3.0000000  0 26G22G19G21G 1G14G 3G30G 7G17G 8R13R14
                                R17R23R24E 1E13E15E21E26E27C11C23C25
                                C28C34
  23088475.872   121330767.3131                   94543458.1401   23088474.800  
  23202550.732   121930238.9141                   95010569.9651   23202551.768  
  22375779.737   117585541.8241                   91625133.7581   22375781.613  
  20181675.464   106055441.7441   20181679.985    82640628.3151   20181680.271  
  20488427.710   107667421.6231   20488430.033    83896709.9221   20488429.980  
  23810074.479   125122785.3581   23810081.484    97498303.4381   23810080.001  
  21918665.452   115183366.1201   21918669.973    89753289.5931   21918669.062  
  23368434.090   122801938.5381   23368435.108    95689823.0151   23368436.091  
  21402400.556   112470379.3601   21402401.592    87639272.7251   21402401.717  
                                  24618837.359   100810018.662                  
  19991604.079   106754060.821    19991610.655    83030951.898                  
  19765626.804   105361923.527    19765633.790    81948177.498                  
  23032404.647   123251148.484                                                  
  19764194.083   105725131.247                                                  
  19589130.926   104751897.623    19589138.484    81473748.463                  
  28178843.921   148080825.246                                                  
  23518278.355   123589416.884                                                  
  23917561.459   125687645.654                                                  
  24186733.667   127102139.622                                                  
  27104395.992   142434546.815                                                  
  23784135.091   124986485.229                                                  
                 118727078.126    22800284.555   118727078.126                  
                 116453722.457    22363711.320   116453722.457                  
                 130554853.955    25071682.501   130554853.955                  
                 119810691.614    23008381.908   119810691.614                  
                 129386488.508    24847315.011   129386488.508                  
 21  9  1  9 44  4.0000000  0 26G22G19G21G 1G14G 3G30G 7G17G 8R13R14
                                R17R23R24E 1E13E15E21E26E27C11C23C25
                                C28C34
  23088169.740   121329159.5701                   94542205.3581   23088168.828  
  23202012.481   121927410.7571                   95008366.2061   23202013.607  
  22376271.224   117588124.1681                   91627145.9721   22376273.029  
  20181855.691   106056388.0861   20181860.194    82641365.7241   20181860.355  
  20488189.463   107666170.1421   20488191.964    83895734.7451   20488191.803  
  23809518.395   125119861.8081   23809524.935    97496025.3451   23809523.738  
  21919118.879   115185748.6341   21919123.560    89755146.0991   21919122.434  
  23369117.312   122805529.0241   23369119.242    95692620.8031   23369119.331  
  21402136.166   112468990.1271   21402137.095    87638190.2071   21402137.327  
                                  24619402.610   100812334.470                  
  19992086.167   106756633.816    19992092.546    83032953.128                  
  19765275.463   105360050.883    19765282.324    81946720.983                  
  23031741.635   123247600.939                                                  
  19764560.684   105727092.769                                                  
  19588918.713   104750762.591    19588925.986    81472865.647                  
  28178317.750   148078059.940                                                  
  23518037.749   123588152.378                                                  
  23917853.457   125689179.757                                                  
  24186462.183   127100712.723                                                  
  27103841.212   142431631.494                                                  
  23784377.770   124987760.306                                                  
                 118729121.600    22800677.120   118729121.600                  
                 116454989.021    22363954.589   116454989.021                  
                 130558161.766    25072317.495   130558161.766                  
                 119808779.912    23008014.896   119808779.912                  
                 129389178.467    24847831.515   129389178.467                  
 21  9  1  9 44  5.0000000  0 26G22G19G21G 1G14G 3G30G 7G17G 8R13R14
                                R17R23R24E 1E13E15E21E26E27C11C23C25
                                C28C34
  23087864.126   121327552.3631                   94540952.9901   23087862.964  
  23201474.373   121924582.8321                   95006162.6301   23201475.463  
  22376762.765   117590706.8751                   91629158.4711   22376764.463  
  20182036.026   106057335.1761   20182040.439    82642103.7191   20182040.564  
  20487951.483   107664919.1631   20487953.663    83894759.9491   20487953.717  
  23808962.186   125116938.5871   23808968.637    97493747.5171   23808967.565  
  21919572.251   115188131.6911   21919577.112    89757003.0241   21919575.879  
  23369800.695   122809119.7261   23369802.517    95695418.7481   23369802.660  
  21401871.865   112467601.2181   21401872.616    87637107.9391   21401872.991  
                                  24619967.985   100814650.317                  
  19992568.166   106759207.566    19992574.671    83034954.933                  
  19764924.354   105358179.009    19764931.216    81945265.081                  
  23031078.694   123244053.714    23031083.340    95856452.585                  
  19764927.410   105729054.831                                                  
  19588706.518   104749628.267    19588713.791    81471983.400                  
  28177791.346   148075294.730                                                  
  23517797.178   123586888.317                                                  
  23918145.472   125690714.230                                                  
  24186190.734   127099286.158                                                  
  27103286.415   142428716.366                                                  
  23784620.449   124989035.790                                                  
                 118731165.339    22801069.524   118731165.339                  
                 116456256.152    22364197.858   116456256.152                  
                 130561469.810    25072952.524   130561469.810                  
                 119806868.555    23007647.759   119806868.555                  
                 129391868.536    24848348.090   129391868.536                  
 21  9  1  9 44  6.0000000  0 26G22G19G21G 1G14G 3G30G 7G17G 8R13R14
                                R17R23R24E 1E13E15E21E26E27C11C23C25
                                C28C34
  23087558.476   121325945.9141                   94539701.2111   23087557.225  
  23200936.444   121921755.3421                   95003959.3911   23200937.391  
  22377254.414   117593290.1551                   91631171.4191   22377256.022  
  20182216.467   106058283.2171   20182220.720    82642842.4521   20182220.988  
  20487713.450   107663668.8621   20487715.576    83893785.6911   20487715.773  
  23808405.745   125114015.8321   23808412.499    97491470.0441   23808411.338  
  21920025.857   115190515.4701   21920030.645    89758860.5191   21920029.466  
  23370483.952   122812710.8631   23370485.864    95698217.0351   23370486.007  
  21401607.725   112466212.8241   21401608.494    87636026.0751   21401608.726  
                                  24620532.504   100816966.328                  
  19993050.433   106761782.281    19993056.955    83036957.457                  
  19764573.478   105356308.097    19764580.268    81943809.946                  
  23030416.075   123240507.033    23030418.827    95853694.048                  
  19765294.172   105731017.649                                                  
  19588494.485   104748494.878    19588501.793    81471101.865                  
  28177265.247   148072529.772                                                  
  23517556.804   123585624.908                                                  
  23918437.560   125692249.281                                                  
  24185919.429   127097860.140                                                  
  27102731.707   142425801.578                                                  
  23784863.253   124990311.885                                                  
                 118733209.514    22801462.017   118733209.514                  
                 116457524.063    22364441.341   116457524.063                  
                 130564778.252    25073587.858   130564778.252                  
                 119804957.748    23007280.943   119804957.748                  
                 129394558.929    24848864.845   129394558.929                  
 21  9  1  9 44  7.0000000  0 26G22G19G21G 1G14G 3G30G 7G17G 8R13R14
                                R17R23R24E 1E13E15E21E26E27C11C23C25
                                C28C34
  23087252.987   121324340.0371                   94538449.8741   23087251.611  
  23200398.729   121918928.1301                   95001756.3691   23200399.355  
  22377746.098   117595873.8461                   91633184.6831   22377747.688  
  20182397.069   106059232.0531   20182401.286    82643581.8051   20182401.554  
  20487475.595   107662419.0981   20487477.561    83892811.8491   20487477.936  
  23807849.571   125111093.4091   23807856.665    97489192.8381   23807855.164  
  21920479.551   115192899.8621   21920484.268    89760718.4841   21920483.214  
  23371167.407   122816302.2411   23371169.122    95701015.5111   23371169.515  
  21401343.657   112464824.8011   21401343.996    87634944.5001   21401344.586  
                                  24621097.880   100819282.438                  
  19993532.915   106764357.781    19993539.508    83038960.614                  
  19764222.674   105354437.989    19764229.464    81942355.410                  
  23029753.384   123236960.734    23029758.548    95850935.865                  
  19765661.273   105732981.052                                                  
  19588282.647   104747362.229    19588290.349    81470220.921                  
  28176739.308   148069764.952                                                  
  23517316.520   123584361.971                                                  
  23918729.772   125693784.743                                                  
  24185648.123   127096434.511                                                  
  27102177.124   142422887.081                                                  
  23785106.165   124991588.434                                                  
                 118735253.992    22801854.528   118735253.992                  
                 116458792.593    22364684.932   116458792.593                  
                 130568086.959    25074223.262   130568086.959                  
                 119803047.342    23006914.110   119803047.342                  
                 129397249.487    24849381.313   129397249.487                  
 21  9  1  9 44  8.0000000  0 26G22G19G21G 1G14G 3G30G 7G17G 8R13R14
                                R17R23R24E 1E13E15E21E26E27C11C23C25
                                C28C34
  23086947.427   121322734.2541                   94537198.6141   23086946.033  
  23199860.532   121916100.6951                   94999553.1631   23199861.283  
  22378237.710   117598457.4521                   91635197.8821   22378239.336  
  20182577.636   106060181.1591   20182581.853    82644321.3661   20182582.174  
  20487237.723   107661169.3671   20487239.653    83891838.0341   20487240.117  
  23807293.219   125108170.8191   23807300.421    97486915.5021   23807299.063  
  21920933.353   115195284.3031   21920937.784    89762576.4861   21920936.944  
  23371850.790   122819893.3661   23371853.023    95703813.7851   23371852.916  
  21401079.463   112463436.6341   21401079.999    87633862.8111   21401080.375  
                                  24621663.559   100821598.232                  
  19994015.110   106766933.591    19994022.115    83040964.027                  
  19763872.065   105352568.193    19763878.874    81940901.120                  
  23029091.015   123233414.349                                                  
  19766028.285   105734944.530                                                  
  19588070.917   104746229.775    19588078.458    81469340.125                  
  28176212.958   148066999.716                                                  
  23517076.217   123583099.043                                                  
  23919021.984   125695320.114                                                  
  24185376.818   127095008.754                                                  
  27101622.434   142419972.267                                                  
  23785349.076   124992864.928                                                  
                 118737298.257    22802246.949   118737298.257                  
                 116460061.227    22364928.540   116460061.227                  
                 130571395.421    25074858.542   130571395.421                  
                 119801136.822    23006547.188   119801136.822                  
                 129399939.702    24849897.835   129399939.702                  
 21  9  1  9 44  9.0000000  0 26G22G19G21G 1G14G 3G30G 7G17G 8R13R14
                                R17R23R24E 1E13E15E21E26E27C11C23C25
                                C28C34
  23086642.135   121321129.5451                   94535948.1891   23086640.634  
  23199322.675   121913274.0201                   94997350.5691   23199323.479  
  22378729.519   117601041.9501                   91637211.7761   22378731.181  
  20182758.417   106061131.5631   20182762.741    82645061.9431   20182763.045  
  20487000.065   107659920.6561   20487002.298    83890865.0111   20487002.495  
  23806737.493   125105249.0741   23806744.605    97484638.8291   23806743.193  
  21921387.333   115197669.8311   21921391.854    89764435.3411   21921390.889  
  23372534.226   122823485.2601   23372535.942    95706612.6681   23372536.442  
  21400815.520   112462049.3291   21400816.306    87632781.7901   21400816.360  
                                  24622228.971   100823914.500                  
  19994497.788   106769510.686    19994504.793    83042968.464                  
  19763521.708   105350699.737    19763528.408    81939447.881                  
  23028428.718   123229868.836                                                  
  19766395.565   105736909.090                                                  
  19587859.205   104745098.547    19587867.067    81468460.293                  
  28175686.751   148064235.125                                                  
  23516836.111   123581837.078                                                  
  23919314.250   125696856.394                                                  
  24185105.727   127093583.888                                                  
  27101067.815   142417058.192                                                  
  23785592.167   124994142.358                                                  
                 118739343.287    22802639.639   118739343.287                  
                 116461330.970    22365172.381   116461330.970                  
                 130574704.608    25075494.089   130574704.608                  
                 119799227.190    23006180.640   119799227.190                  
                 129402630.598    24850414.875   129402630.598                  
 21  9  1  9 44 10.0000000  0 26G22G19G21G 1G14G 3G30G 7G17G 8R13R14
                                R17R23R24E 1E13E15E21E26E27C11C23C25
                                C28C34
  23086336.825   121319525.0861                   94534697.9661   23086335.288  
  23198784.674   121910447.3151                   94995147.9471   23198785.621  
  22379221.346   117603626.5241                   91639225.7301   22379222.990  
  20182939.305   106062082.4151   20182943.700    82645802.8661   20182943.968  
  20486762.442   107658672.1481   20486764.730    83889892.1471   20486764.891  
  23806181.659   125102327.3171   23806188.789    97482362.1281   23806187.288  
  21921841.331   115200055.6021   21921845.799    89766294.3791   21921844.869  
  23373217.824   122827077.0481   23373218.395    95709411.4761   23373219.968  
  21400551.469   112460662.0391   21400552.327    87631700.7901   21400552.327  
                                  24622794.454   100826230.601                  
  19994980.288   106772088.241    19994988.132    83044973.229                  
  19763171.278   105348831.790    19763178.104    81937995.033                  
  23027766.420   123226323.338                                                  
  19766763.023   105738873.903                                                  
  19587647.707   104743967.735    19587655.695    81467580.754                  
  28175160.669   148061470.314                                                  
  23516596.023   123580575.280                                                  
  23919606.658   125698392.751                                                  
  24184834.618   127092159.067                                                  
  27100512.910   142414144.050                                                  
  23785835.239   124995419.909                                                  
                 118741388.282    22803032.293   118741388.282                  
                 116462601.000    22365416.257   116462601.000                  
                 130578013.757    25076129.744   130578013.757                  
                 119797317.621    23005813.950   119797317.621                  
                 129405321.287    24850931.576   129405321.287                  
 21  9  1  9 44 11.0000000  0 26G22G19G21G 1G14G 3G30G 7G17G 8R13R14
                                R17R23R24E 1E13E15E21E26E27C11C23C25
                                C28C34
  23086031.550   121317920.7551                   94533447.8381   23086030.031  
  23198246.584   121907620.4061                   94992945.1551   23198247.621  
  22379713.191   117606211.0401                   91641239.6411   22379714.817  
  20183120.157   106063033.6051   20183124.642    82646544.0561   20183124.964  
  20486524.838   107657423.7051   20486527.125    83888919.3361   20486527.304  
  23805626.022   125099405.4251   23805632.651    97480085.3151   23805631.204  
  21922295.383   115202441.4821   21922299.958    89768153.5061   21922298.921  
  23373901.081   122830668.6371   23373903.547    95712210.1001   23373903.387  
  21400287.490   112459274.6471   21400288.455    87630619.7051   21400288.312  
                                  24623360.205   100828546.388                  
  19995463.073   106774666.129    19995470.953    83046978.260                  
  19762821.010   105346964.179    19762827.460    81936542.440                  
  23027103.890   123222777.726                                                  
  19767130.446   105740838.836                                                  
  19587436.281   104742837.192    19587444.161    81466701.452                  
  28174634.373   148058705.160                                                  
  23516355.863   123579313.484                                                  
  23919899.031   125699929.055                                                  
  24184563.474   127090734.166                                                  
  27099958.488   142411229.589                                                  
  23786078.454   124996697.444                                                  
                 118743433.102    22803424.822   118743433.102                  
                 116463871.182    22365660.187   116463871.182                  
                 130581322.685    25076765.113   130581322.685                  
                 119795407.971    23005447.260   119795407.971                  
                 129408011.717    24851448.330   129408011.717                  
 21  9  1  9 44 12.0000000  0 26G22G19G21G 1G14G 3G30G 7G17G 8R13R14
                                R17R23R24E 1E13E15E21E26E27C11C23C25
                                C28C34
  23085726.294   121316316.9351                   94532198.1111   23085724.882  
  23197708.798   121904793.7161                   94990742.5381   23197709.710  
  22380205.000   117608795.8891                   91643253.8051   22380206.680  
  20183301.224   106063985.5021   20183305.745    82647285.7931   20183306.066  
  20486287.412   107656175.7221   20486289.646    83887946.8801   20486289.825  
  23805070.527   125096483.8031   23805076.674    97477808.7251   23805075.138  
  21922749.614   115204827.8691   21922754.063    89770013.0291   21922753.045  
  23374584.589   122834260.3901   23374586.466    95715008.8621   23374586.787  
  21400023.583   112457887.5481   21400024.834    87629538.8481   21400024.333  
                                  24623925.795   100830862.189                  
  19995945.840   106777244.739    19995953.917    83048983.836                  
  19762470.884   105345097.282    19762477.049    81935090.412                  
  23026441.236   123219232.411                                                  
  19767497.887   105742804.286                                                  
  19587224.837   104741707.296    19587233.110    81465822.646                  
  28174108.362   148055940.012                                                  
  23516115.864   123578052.115                                                  
  23920191.404   125701465.691                                                  
  24184292.436   127089309.565                                                  
  27099403.941   142408315.303                                                  
  23786321.634   124997975.349                                                  
                 118745478.129    22803817.440   118745478.129                  
                 116465141.889    22365904.225   116465141.889                  
                 130584631.807    25077400.696   130584631.807                  
                 119793498.644    23005080.713   119793498.644                  
                 129410702.199    24851965.031   129410702.199                  
 21  9  1  9 44 13.0000000  0 26G22G19G21G 1G14G 3G30G 7G17G 8R13R14
                                R17R23R24E 1E13E15E21E26E27C11C23C25
                                C28C34
  23085420.912   121314713.3031                   94530948.5301   23085419.679  
  23197170.637   121901966.9031                   94988539.8361   23197171.691  
  22380696.756   117611380.7451                   91645267.9781   22380698.525  
  20183482.469   106064937.7981   20183486.972    82648027.8421   20183487.276  
  20486050.058   107654927.8681   20486052.042    83886974.5291   20486052.363  
  23804514.926   125093562.1221   23804520.680    97475532.0811   23804519.143  
  21923203.880   115207214.4301   21923208.347    89771872.6861   21923207.222  
  23375267.972   122837852.0141   23375269.491    95717807.5261   23375270.206  
  21399759.568   112456500.3991   21399760.586    87628457.9581   21399760.336  
                                  24624491.689   100833177.778                  
  19996428.822   106779823.760    19996436.917    83050989.718                  
  19762120.812   105343230.794    19762126.816    81933638.684                  
  23025778.420   123215687.086                                                  
  19767865.399   105744769.923                                                  
  19587013.536   104740577.708    19587021.952    81464944.071                  
  28173582.084   148053174.611                                                  
  23515875.794   123576790.845                                                  
  23920483.813   125703002.356                                                  
  24184021.346   127087884.958                                                  
  27098849.572   142405400.882                                                  
  23786564.831   124999253.311                                                  
                 118747523.066    22804210.058   118747523.066                  
                 116466412.824    22366148.226   116466412.824                  
                 130587940.749    25078035.958   130587940.749                  
                 119791589.320    23004714.183   119791589.320                  
                 129413392.478    24852481.749   129413392.478                  
 21  9  1  9 44 14.0000000  0 26G22G19G21G 1G14G 3G30G 7G17G 8R13R14
                                R17R23R24E 1E13E15E21E26E27C11C23C25
                                C28C34
  23085116.031   121313110.8751                   94529699.8861   23085114.762  
  23196632.744   121899140.9911                   94986337.8241   23196633.976  
  22381188.833   117613966.6341                   91647282.9591   22381190.602  
  20183663.786   106065891.4991   20183668.432    82648770.9861   20183668.754  
  20485812.847   107653681.1711   20485815.045    83886003.0741   20485815.134  
  23803959.056   125090641.3601   23803964.953    97473256.1671   23803963.381  
  21923658.379   115209602.1851   21923662.721    89773733.2771   21923661.595  
  23375951.552   122841444.5011   23375952.642    95720606.8841   23375953.857  
  21399495.803   112455114.2481   21399496.750    87627377.8401   21399496.554  
                                  24625057.226   100835493.931                  
  19996911.911   106782404.183    19996920.077    83052996.721                  
  19761770.990   105341365.737    19761776.762    81932188.103                  
  23025116.069   123212142.783                                                  
  19768233.018   105746736.780                                                  
  19586802.538   104739449.476    19586810.740    81464066.552                  
  28173055.966   148050409.938                                                  
  23515635.992   123575530.672                                                  
  23920776.454   125704540.048                                                  
  24183750.415   127086461.357                                                  
  27098294.775   142402487.259                                                  
  23786808.279   125000532.343                                                  
                 118749568.890    22804602.998   118749568.890                  
                 116467684.989    22366392.496   116467684.989                  
                 130591250.590    25078671.344   130591250.590                  
                 119789680.996    23004347.761   119789680.996                  
                 129416083.531    24852998.593   129416083.531                  
 21  9  1  9 44 15.0000000  0 26G22G19G21G 1G14G 3G30G 7G17G 8R13R14
                                R17R23R24E 1E13E15E21E26E27C11C23C25
                                C28C34
  23084811.185   121311508.6741                   94528451.4181   23084809.881  
  23196094.993   121896314.9911                   94984135.7511   23196096.172  
  22381680.946   117616552.5581                   91649297.9621   22381682.679  
  20183845.371   106066845.6201   20183850.035    82649514.4571   20183850.321  
  20485575.475   107652434.6291   20485577.690    83885031.7451   20485577.941  
  23803403.062   125087720.5951   23803409.352    97470980.2391   23803407.565  
  21924112.770   115211990.1481   21924116.916    89775594.0251   21924116.004  
  23376635.042   122845036.9061   23376635.900    95723406.1491   23376637.436  
  21399232.164   112453728.0731   21399233.236    87626297.7061   21399232.771  
                                  24625623.192   100837809.828                  
  19997395.518   106784985.009    19997403.720    83055004.020                  
  19761421.275   105339501.138    19761427.065    81930737.848                  
  23024453.485   123208598.475                                                  
  19768600.727   105748703.839                                                  
  19586591.684   104738321.619    19586599.600    81463189.335                  
  28172529.795   148047645.021                                                  
  23515396.171   123574270.620                                                  
  23921069.059   125706077.775                                                  
  24183479.539   127085037.765                                                  
  27097740.103   142399573.516                                                  
  23787051.655   125001811.457                                                  
                 118751614.644    22804995.741   118751614.644                  
                 116468957.392    22366636.854   116468957.392                  
                 130594560.326    25079307.357   130594560.326                  
                 119787772.692    23003981.321   119787772.692                  
                 129418774.374    24853515.472   129418774.374                  
 21  9  1  9 44 16.0000000  0 26G22G19G21G 1G14G 3G30G 7G17G 8R13R14
                                R17R23R24E 1E13E15E21E26E27C11C23C25
                                C28C34
  23084506.429   121309907.4661                   94527203.7261   23084505.196  
  23195557.314   121893489.7071                   94981934.2281   23195558.547  
  22382173.148   117619139.3151                   91651313.6171   22382174.917  
  20184027.081   106067800.9571   20184031.870    82650258.8751   20184032.103  
  20485338.353   107651189.0491   20485340.640    83884061.1611   20485340.926  
  23802847.800   125084800.5841   23802853.679    97468704.9111   23802851.892  
  21924567.340   115214379.1291   21924571.754    89777455.5691   21924570.628  
  23377318.711   122848629.9411   23377320.122    95726205.9221   23377321.177  
  21398968.506   112452342.6931   21398969.489    87625218.1891   21398969.150  
                                  24626189.300   100840126.176                  
  19997878.786   106787567.060    19997887.113    83057012.303                  
  19761071.632   105337637.820    19761077.243    81929288.591                  
  23023791.134   123205054.988                                                  
  19768968.615   105750671.915                                                  
  19586381.008   104737194.910    19586388.942    81462313.006                  
  28172003.820   148044880.657                                                  
  23515156.512   123573011.481                                                  
  23921361.772   125707616.345                                                  
  24183208.734   127083614.983                                                  
  27097185.770   142396660.425                                                  
  23787295.192   125003091.434                                                  
                 118753661.113    22805388.699   118753661.113                  
                 116470230.836    22366881.392   116470230.836                  
                 130597870.688    25079943.315   130597870.688                  
                 119785865.206    23003615.113   119785865.206                  
                 129421465.810    24854032.495   129421465.810                  
 21  9  1  9 44 17.0000000  0 26G22G19G21G 1G14G 3G30G 7G17G 8R13R14
                                R17R23R24E 1E13E15E21E26E27C11C23C25
                                C28C34
  23084201.905   121308306.3341                   94525956.0881   23084200.529  
  23195019.653   121890664.1711                   94979732.5121   23195020.958  
  22382665.279   117621725.9551                   91653329.1811   22382667.137  
  20184208.952   106068756.5541   20184213.688    82651003.4941   20184213.956  
  20485101.249   107649943.4791   20485103.715    83883090.5841   20485103.875  
  23802291.984   125081880.3651   23802298.006    97466429.4131   23802296.165  
  21925021.946   115216768.1521   21925026.145    89779317.1471   21925025.270  
  23378002.254   122852222.7361   23378003.219    95729005.4951   23378004.828  
  21398704.885   112450957.1491   21398705.742    87624138.5401   21398705.456  
                                  24626754.551   100842442.171                  
  19998362.376   106790149.394    19998369.773    83059020.792                  
  19760722.060   105335774.793    19760727.636    81927839.572                  
  23023128.730   123201511.339                                                  
  19769336.556   105752640.044                                                  
  19586170.332   104736068.377    19586178.391    81461436.820                  
  28171477.756   148042115.869                                                  
  23514916.853   123571752.312                                                  
  23921654.484   125709154.803                                                  
  24182937.893   127082192.063                                                  
  27096631.401   142393747.043                                                  
  23787538.711   125004371.347                                                  
                 118755707.356    22805781.567   118755707.356                  
                 116471504.373    22367126.001   116471504.373                  
                 130601180.840    25080579.291   130601180.840                  
                 119783957.597    23003248.745   119783957.597                  
                 129424156.872    24854549.481   129424156.872                  
 21  9  1  9 44 18.0000000  0 26G22G19G21G 1G14G 3G30G 7G17G 8R13R14
                                R17R23R24E 1E13E15E21E26E27C11C23C25
                                C28C34
  23083897.417   121306705.6781                   94524708.8191   23083895.988  
  23194481.742   121887838.8221                   94977530.9391   23194483.225  
  22383157.570   117624312.9041                   91655344.9851   22383159.429  
  20184391.020   106069712.8441   20184395.737    82651748.6551   20184395.934  
  20484864.341   107648698.3331   20484866.789    83882120.3441   20484866.932  
  23801736.400   125078960.3681   23801742.333    97464154.0891   23801740.510  
  21925476.570   115219157.6491   21925480.858    89781179.0911   21925479.983  
  23378685.995   122855815.6661   23378687.478    95731805.1971   23378688.496  
  21398441.156   112449571.8671   21398441.853    87623059.0971   21398441.799  
                                  24627319.820   100844758.185                  
  19998846.251   106792732.405    19998853.041    83061029.778                  
  19760372.578   105333912.462    19760378.207    81926391.093                  
  23022466.432   123197967.969                                                  
  19769704.515   105754608.648                                                  
  19585959.746   104734942.450    19585968.037    81460561.097                  
  28170951.549   148039351.117                                                  
  23514677.265   123570493.512                                                  
  23921947.268   125710693.572                                                  
  24182667.159   127080769.431                                                  
  27096076.907   142390833.781                                                  
  23787782.266   125005651.605                                                  
                 118757753.767    22806174.471   118757753.767                  
                 116472778.419    22367370.628   116472778.419                  
                 130604491.120    25081215.268   130604491.120                  
                 119782050.270    23002882.555   119782050.270                  
                 129426848.008    24855066.307   129426848.008                  
 21  9  1  9 44 19.0000000  0 26G22G19G21G 1G14G 3G30G 7G17G 8R13R14
                                R17R23R24E 1E13E15E21E26E27C11C23C25
                                C28C34
  23083592.822   121305105.3561                   94523461.8221   23083591.517  
  23193944.099   121885013.4801                   94975329.3801   23193945.564  
  22383649.790   117626899.9981                   91657360.9001   22383651.738  
  20184573.069   106070669.6591   20184577.858    82652494.2231   20184578.019  
  20484627.434   107647453.4701   20484629.900    83881150.3201   20484630.043  
  23801180.298   125076040.5041   23801186.606    97461878.8771   23801184.944  
  21925931.354   115221547.4671   21925935.661    89783041.2871   21925934.767  
  23379369.646   122859408.6131   23379370.486    95734604.9031   23379372.255  
  21398177.534   112448186.6841   21398177.802    87621979.7361   21398178.195  
                                  24627885.124   100847074.078                  
  19999330.198   106795315.947    19999336.237    83063039.227                  
  19760023.274   105332050.677    19760029.010    81924943.045                  
  23021804.135   123194424.736                                                  
  19770072.509   105756577.580                                                  
  19585749.267   104733816.970    19585757.558    81459685.736                  
  28170425.467   148036586.218                                                  
  23514437.802   123569234.966                                                  
  23922240.123   125712232.487                                                  
  24182396.444   127079346.922                                                  
  27095522.610   142387920.487                                                  
  23788025.928   125006932.055                                                  
                 118759800.234    22806567.375   118759800.234                  
                 116474052.822    22367615.326   116474052.822                  
                 130607801.429    25081851.083   130607801.429                  
                 119780143.086    23002516.347   119780143.086                  
                 129429539.064    24855583.097   129429539.064                  
 21  9  1  9 44 20.0000000  0 26G22G19G21G 1G14G 3G30G 7G17G 8R13R14
                                R17R23R24E 1E13E15E21E26E27C11C23C25
                                C28C34
  23083288.280   121303505.7621                   94522215.3871   23083287.244  
  23193406.474   121882188.5571                   94973128.1441   23193408.046  
  22384142.171   117629487.6331                   91659377.2411   22384144.119  
  20184755.208   106071627.3981   20184759.997    82653240.5161   20184760.265  
  20484390.741   107646209.2671   20484393.350    83880180.8091   20484393.260  
  23800624.929   125073121.0631   23800630.915    97459603.9871   23800629.378  
  21926386.282   115223937.9891   21926390.463    89784904.0341   21926389.695  
  23380053.440   122863001.9241   23380054.673    95737404.8541   23380056.031  
  21397914.002   112446801.9881   21397913.859    87620900.7521   21397914.663  
                                  24628451.036   100849390.142                  
  19999814.198   106797900.416    19999819.934    83065049.333                  
  19759674.132   105330189.841    19759680.171    81923495.728                  
  23021142.320   123190882.017                                                  
  19770440.611   105758547.244                                                  
  19585538.877   104732692.357    19585547.239    81458811.037                  
  28169899.207   148033821.554                                                  
  23514198.429   123567977.018                                                  
  23922533.032   125713771.952                                                  
  24182125.800   127077924.932                                                  
  27094968.474   142385007.554                                                  
  23788269.750   125008213.082                                                  
                 118761847.101    22806960.476   118761847.101                  
                 116475327.973    22367860.186   116475327.973                  
                 130611112.098    25082486.899   130611112.098                  
                 119778236.420    23002150.300   119778236.420                  
                 129432230.390    24856099.994   129432230.390                  
 21  9  1  9 44 21.0000000  0 26G22G19G21G 1G14G 3G30G 7G17G 8R13R14
                                R17R23R24E 1E13E15E21E26E27C11C23C25
                                C28C34
  23082983.774   121301906.3991                   94520969.1241   23082982.988  
  23192868.973   121879363.5601                   94970926.8431   23192870.546  
  22384634.588   117632075.3321                   91661393.6311   22384636.536  
  20184937.633   106072585.5751   20184942.351    82653987.1441   20184942.601  
  20484154.048   107644965.2461   20484156.674    83879211.4391   20484156.496  
  23800069.274   125070201.6361   23800075.278    97457329.1181   23800073.830  
  21926841.245   115226328.7431   21926845.426    89786766.9591   21926844.676  
  23380737.287   122866595.1451   23380739.056    95740204.7751   23380739.789  
  21397650.541   112445417.3101   21397650.666    87619821.7841   21397651.148  
                                  24629016.948   100851706.039                  
  20000298.270   106800485.300    20000304.059    83067059.810                  
  19759325.150   105328329.478    19759331.350    81922048.793                  
  23020480.451   123187339.331                                                  
  19770808.784   105760517.142                                                  
  19585328.576   104731568.129    19585336.921    81457936.639                  
  28169372.946   148031056.649                                                  
  23513959.091   123566719.210                                                  
  23922826.013   125715311.469                                                  
  24181855.173   127076502.969                                                  
  27094414.177   142382094.468                                                  
  23788513.537   125009494.210                                                  
                 118763893.896    22807353.487   118763893.896                  
                 116476603.389    22368105.081   116476603.389                  
                 130614422.686    25083122.518   130614422.686                  
                 119776329.791    23001784.146   119776329.791                  
                 129434921.535    24856616.713   129434921.535                  
 21  9  1  9 44 22.0000000  0 26G22G19G21G 1G14G 3G30G 7G17G 8R13R14
                                R17R23R24E 1E13E15E21E26E27C11C23C25
                                C28C34
  23082679.482   121300307.7531                   94519723.4271   23082678.803  
  23192331.545   121876538.9921                   94968725.8771   23192333.046  
  22385127.130   117634663.5811                   91663410.4451   22385129.060  
  20185120.201   106073544.6761   20185124.883    82654734.4981   20185125.115  
  20483917.390   107643721.8851   20483920.071    83878242.5871   20483919.892  
  23799513.976   125067282.6491   23799519.766    97455054.5851   23799518.408  
  21927296.280   115228720.2101   21927300.622    89788630.4371   21927299.764  
  23381420.938   122870188.7441   23381423.261    95743004.9861   23381423.583  
  21397387.080   112444033.1191   21397386.740    87618743.1921   21397387.741  
                                  24629582.574   100854022.092                  
  20000782.592   106803071.120    20000787.899    83069070.994                  
  19758976.239   105326470.073    19758982.475    81920602.578                  
  23019818.457   123183797.150                                                  
  19771177.119   105762487.771                                                  
  19585118.347   104730444.779    19585126.674    81457062.922                  
  28168846.882   148028292.020                                                  
  23513719.860   123565462.028                                                  
  23923119.101   125716851.541                                                  
  24181584.708   127075081.519                                                  
  27093860.148   142379181.791                                                  
  23788757.396   125010775.918                                                  
                 118765941.139    22807746.641   118765941.139                  
                 116477879.543    22368350.190   116477879.543                  
                 130617733.623    25083758.566   130617733.623                  
                 119774423.697    23001418.117   119774423.697                  
                 129437612.980    24857133.646   129437612.980                  
 21  9  1  9 44 23.0000000  0 26G22G19G21G 1G14G 3G30G 7G17G 8R13R14
                                R17R23R24E 1E13E15E21E26E27C11C23C25
                                C28C34
  23082375.477   121298709.4911                   94518478.0331   23082374.690  
  23191794.062   121873714.4921                   94966524.9741   23191795.581  
  22385619.743   117637252.0221                   91665427.4131   22385621.619  
  20185302.805   106074504.3611   20185307.594    82655482.3051   20185307.736  
  20483680.786   107642478.8611   20483683.413    83877273.9971   20483683.342  
  23798958.714   125064363.7941   23798964.253    97452780.1551   23798962.985  
  21927751.386   115231112.0551   21927755.496    89790494.2131   21927754.959  
  23382104.893   122873782.3981   23382107.234    95745805.2321   23382107.359  
  21397123.619   112442649.0861   21397123.244    87617664.7251   21397124.334  
                                  24630148.683   100856338.051                  
  20001266.914   106805657.537    20001272.900    83071082.653                  
  19758627.507   105324611.259    19758633.529    81919156.835                  
  23019156.249   123180255.109                                                  
  19771545.649   105764458.785                                                  
  19584908.333   104729321.957    19584916.284    81456189.628                  
  28168320.854   148025527.294                                                  
  23513480.666   123564205.127                                                  
  23923412.206   125718391.821                                                  
  24181314.331   127073660.257                                                  
  27093306.065   142376269.089                                                  
  23789001.326   125012057.876                                                  
                 118767988.454    22808139.849   118767988.454                  
                 116479156.104    22368595.371   116479156.104                  
                 130621044.659    25084394.489   130621044.659                  
                 119772517.793    23001052.213   119772517.793                  
                 129440304.396    24857650.454   129440304.396                  
 21  9  1  9 44 24.0000000  0 26G22G19G21G 1G14G 3G30G 7G17G 8R13R14
                                R17R23R24E 1E13E15E21E26E27C11C23C25
                                C28C34
  23082071.274   121297111.5691                   94517232.9021   23082070.685  
  23191256.705   121870890.0181                   94964324.0801   23191258.027  
  22386112.356   117639840.6171                   91667444.4991   22386114.179  
  20185485.587   106075464.5771   20185490.322    82656230.5271   20185490.483  
  20483444.326   107641236.1131   20483446.917    83876305.6241   20483446.845  
  23798403.809   125061445.0631   23798408.688    97450505.8261   23798407.615  
  21928206.653   115233504.2061   21928210.888    89792358.2291   21928210.209  
  23382788.615   122877376.0471   23382790.438    95748605.4691   23382791.206  
  21396860.158   112441265.1531   21396860.480    87616586.3381   21396860.998  
                                  24630714.416   100858653.925                  
  20001751.218   106808244.472    20001757.615    83073094.726                  
  19758278.936   105322753.000    19758284.797    81917711.516                  
  23018494.381   123176713.233                                                  
  19771914.216   105766430.111                                                  
  19584698.354   104728199.613    19584706.305    81455316.690                  
  28167794.718   148022762.439                                                  
  23513241.542   123562948.456                                                  
  23923705.383   125719932.257                                                  
  24181043.812   127072239.124                                                  
  27092751.554   142373356.385                                                  
  23789245.292   125013340.016                                                  
                 118770035.802    22808532.932   118770035.802                  
                 116480433.032    22368840.587   116480433.032                  
                 130624355.684    25085030.537   130624355.684                  
                 119770612.022    23000686.220   119770612.022                  
                 129442995.702    24858167.315   129442995.702                  
 21  9  1  9 44 25.0000000  0 26G22G19G21G 1G14G 3G30G 7G17G 8R13R14
                                R17R23R24E 1E13E15E21E26E27C11C23C25
                                C28C34
  23081767.412   121295514.4051                   94515988.3511   23081766.786  
  23190719.312   121868065.9951                   94962123.5441   23190720.581  
  22386604.987   117642429.8011                   91669462.0451   22386606.881  
  20185668.530   106076425.7701   20185673.390    82656979.5071   20185673.390  
  20483207.954   107639994.0791   20483210.652    83875337.8051   20483210.474  
  23797848.440   125058526.8061   23797853.068    97448231.8601   23797852.336  
  21928662.098   115235897.1191   21928665.869    89794222.8341   21928665.601  
  23383472.624   122880970.1451   23383474.518    95751406.0691   23383475.089  
  21396596.822   112439881.7691   21396597.805    87615508.3761   21396597.734  
                                  24631280.328   100860969.982                  
  20002235.504   106810832.397    20002242.884    83075107.559                  
  19757930.526   105320895.745    19757936.333    81916266.987                  
  23017832.405   123173171.919                                                  
  19772282.872   105768402.204                                                  
  19584488.643   104727078.210    19584496.737    81454444.489                  
  28167268.636   148019997.887                                                  
  23513002.526   123561692.459                                                  
  23923998.632   125721473.288                                                  
  24180773.508   127070818.555                                                  
  27092197.453   142370444.080                                                  
  23789489.401   125014622.807                                                  
                 118772083.626    22808926.229   118772083.626                  
                 116481710.756    22369085.983   116481710.756                  
                 130627667.132    25085666.441   130627667.132                  
                 119768706.823    23000320.334   119768706.823                  
                 129445687.368    24858684.034   129445687.368                  
 21  9  1  9 44 26.0000000  0 26G22G19G21G 1G14G 3G30G 7G17G 8R13R14
                                R17R23R24E 1E13E15E21E26E27C11C23C25
                                C28C34
  23081463.567   121293917.7161                   94514744.1711   23081462.995  
  23190182.223   121865242.1401                   94959923.1461   23190183.223  
  22387097.869   117645019.2611                   91671479.8081   22387099.602  
  20185851.473   106077387.6261   20185856.280    82657729.0051   20185856.423  
  20482971.690   107638752.4551   20482974.299    83874370.3041   20482974.192  
  23797292.731   125055608.7701   23797298.021    97445958.0541   23797297.074  
  21929117.490   115238290.4881   21929121.368    89796087.7941   21929121.064  
  23384156.739   122884564.3601   23384157.633    95754206.7681   23384159.044  
  21396333.540   112438498.6201   21396335.113    87614430.5971   21396334.523  
                                  24631846.365   100863286.071                  
  20002720.058   106813420.993    20002728.010    83077120.930                  
  19757582.259   105319039.198    19757588.173    81914823.008                  
  23017170.858   123169630.831                                                  
  19772651.581   105770374.765                                                  
  19584279.111   104725957.395    19584287.241    81453572.730                  
  28166742.661   148017233.296                                                  
  23512763.671   123560436.823                                                  
  23924291.970   125723014.607                                                  
  24180503.239   127069398.241                                                  
  27091643.263   142367531.890                                                  
  23789733.563   125015905.912                                                  
                 118774131.602    22809319.544   118774131.602                  
                 116482988.963    22369331.521   116482988.963                  
                 130630978.738    25086302.346   130630978.738                  
                 119766801.893    22999954.537   119766801.893                  
                 129448379.074    24859200.788   129448379.074                  
 21  9  1  9 44 27.0000000  0 28G22G19G21G 1G14G 3G30G 7G17G 8R13R14
                                R15R17R23R24E 1E13E15E21E26E27C11C21
                                C23C25C28C34
  23081159.686   121292321.1471                   94513500.0911   23081159.222  
  23189644.866   121862418.1091                   94957722.6031   23189645.723  
  22387590.661   117647608.6801                   91673497.5351   22387592.340  
  20186034.434   106078349.8171   20186039.544    82658478.7641   20186039.527  
  20482735.515   107637510.9041   20482737.963    83873402.8601   20482737.910  
  23796737.058   125052690.6261   23796742.812    97443684.1691   23796741.776  
  21929573.025   115240683.9711   21929576.796    89797952.8441   21929576.528  
  23384840.587   122888158.3641   23384841.516    95757007.2901   23384842.945  
  21396070.312   112437115.3771   21396071.473    87613352.7431   21396071.294  
                                  24632411.723   100865601.893                  
  20003204.363   106816009.918    20003212.511    83079134.521                  
  19757234.117   105317183.035    19757240.156    81913379.319                  
  23625780.721   126249009.011                                                  
  23016509.240   123166089.687                                                  
  19773020.416   105772347.441                                                  
  19584069.650   104724836.813    19584077.780    81452701.178                  
  28166216.544   148014468.388                                                  
  23512524.727   123559181.211                                                  
  23924585.290   125724555.874                                                  
  24180232.898   127067977.865                                                  
  27091088.913   142364619.488                                                  
  23789977.761   125017189.006                                                  
                 118776179.414    22809712.913   118776179.414                  
                 139281584.196    26747563.629   139281584.196                  
                 116484267.327    22369577.024   116484267.327                  
                 130634290.129    25086938.037   130634290.129                  
                 119764896.907    22999588.758   119764896.907                  
                 129451070.484    24859717.739   129451070.484                  
 21  9  1  9 44 28.0000000  0 28G22G19G21G 1G14G 3G30G 7G17G 8R13R14
                                R15R17R23R24E 1E13E15E21E26E27C11C21
                                C23C25C28C34
  23080855.931   121290724.9771                   94512256.3181   23080855.573  
  23189107.669   121859594.1611                   94955522.1161   23189108.330  
  22388083.345   117650198.3101                   91675515.4241   22388085.132  
  20186217.645   106079312.5981   20186222.541    82659228.9831   20186222.738  
  20482499.322   107636269.6911   20482501.842    83872435.6831   20482501.699  
  23796181.671   125049772.6041   23796187.264    97441410.3901   23796186.496  
  21930028.632   115243077.8411   21930032.474    89799818.1951   21930032.081  
  23385524.631   122891752.4321   23385525.774    95759807.8681   23385526.846  
  21395807.065   112435732.2921   21395808.209    87612275.0151   21395808.084  
                                  24632976.509   100867917.612                  
  20003689.471   106818599.432    20003697.976    83081148.565                  
  19756886.064   105315327.501    19756892.014    81911936.125                  
  23624997.593   126244825.401                                                  
  23015847.871   123162548.710                                                  
  19773389.286   105774320.504                                                  
  19583860.225   104723716.760    19583868.320    81451830.014                  
  28165690.283   148011703.425                                                  
  23512285.836   123557925.904                                                  
  23924878.610   125726097.360                                                  
  24179962.701   127066557.671                                                  
  27090534.759   142361707.065                                                  
  23790221.977   125018472.363                                                  
                 118778227.332    22810106.282   118778227.332                  
                 139280491.203    26747353.329   139280491.203                  
                 116485546.113    22369822.687   116485546.113                  
                 130637601.566    25087573.799   130637601.566                  
                 119762992.116    22999223.033   119762992.116                  
                 129453761.857    24860234.565   129453761.857                  
 21  9  1  9 44 29.0000000  0 28G22G19G21G 1G14G 3G30G 7G17G 8R13R14
                                R15R17R23R24E 1E13E15E21E26E27C11C21
                                C23C25C28C34
  23080552.425   121289129.3211                   94511012.9561   23080551.979  
  23188570.222   121856770.4261                   94953321.7991   23188570.902  
  22388576.226   117652788.2631                   91677533.5691   22388577.978  
  20186400.910   106080276.0861   20186405.627    82659979.7511   20186406.074  
  20482263.362   107635028.9451   20482265.792    83871468.8721   20482265.578  
  23795626.695   125046854.8471   23795632.092    97439136.8111   23795631.252  
  21930484.220   115245472.2131   21930488.277    89801683.9391   21930487.705  
  23386208.603   122895346.6561   23386210.837    95762608.5641   23386210.712  
  21395543.944   112434349.4981   21395545.123    87611197.5111   21395544.944  
                                  24633541.724   100870233.326                  
  20004174.686   106821189.668    20004182.942    83083163.198                  
  19756538.207   105313472.677    19756543.943    81910493.487                  
  23624215.341   126240641.937                                                  
  23015186.199   123159008.026                                                  
  19773758.192   105776294.079                                                  
  19583650.854   104722597.387    19583659.288    81450959.388                  
  28165163.987   148008938.476                                                  
  23512047.070   123556671.007                                                  
  23925172.037   125727639.181                                                  
  24179692.467   127065137.794                                                  
  27089980.390   142358794.831                                                  
  23790466.300   125019756.087                                                  
                 118780275.459    22810499.615   118780275.459                  
                 139279398.660    26747142.939   139279398.660                  
                 116486825.442    22370068.368   116486825.442                  
                 130640913.189    25088209.507   130640913.189                  
                 119761087.639    22998857.379   119761087.639                  
                 129456453.319    24860751.319   129456453.319                  
 21  9  1  9 44 30.0000000  0 28G22G19G21G 1G14G 3G30G 7G17G 8R13R14
                                R15R17R23R24E 1E13E15E21E26E27C11C21
                                C23C25C28C34
  23080248.813   121287534.3481                   94509770.1211   23080248.527  
  23188032.919   121853947.0671                   94951121.7811   23188033.562  
  22389069.161   117655378.7261                   91679552.1121   22389070.930  
  20186584.389   106081240.4691   20186589.035    82660731.2201   20186589.571  
  20482027.330   107633788.8241   20482029.725    83870502.5441   20482029.582  
  23795071.898   125043937.5391   23795076.883    97436863.5931   23795076.151  
  21930940.041   115247867.2661   21930943.901    89803550.2121   21930943.490  
  23386892.755   122898941.2591   23386894.988    95765409.5391   23386894.702  
  21395280.822   112432967.1581   21395282.252    87610120.3631   21395281.895  
                                  24634106.761   100872549.235                  
  20004660.080   106823780.784    20004668.121    83085178.531                  
  19756190.458   105311618.762    19756196.194    81909051.555                  
  23623432.374   126236458.769                                                  
  23014524.599   123155467.868                                                  
  19774127.294   105778268.349                                                  
  19583441.840   104721478.877    19583450.202    81450089.432                  
  28164637.959   148006173.771                                                  
  23511808.429   123555416.701                                                  
  23925465.553   125729181.518                                                  
  24179422.341   127063718.402                                                  
  27089426.504   142355882.919                                                  
  23790710.784   125021040.363                                                  
                 118782323.972    22810893.073   118782323.972                  
                 139278306.763    26746932.656   139278306.763                  
                 116488105.478    22370314.264   116488105.478                  
                 130644225.176    25088845.466   130644225.176                  
                 119759183.659    22998491.725   119759183.659                  
                 129459145.058    24861268.323   129459145.058                  
 21  9  1  9 44 31.0000000  0 28G22G19G21G 1G14G 3G30G 7G17G 8R13R14
                                R15R17R23R24E 1E13E15E21E26E27C11C21
                                C23C25C28C34
  23079945.397   121285939.8011                   94508527.6261   23079945.165  
  23187495.919   121851123.8341                   94948921.8661   23187496.276  
  22389562.060   117657969.4391                   91681570.8451   22389563.937  
  20186768.029   106082205.4861   20186772.871    82661483.1821   20186773.193  
  20481791.548   107632549.0781   20481793.853    83869536.5061   20481793.657  
  23794516.993   125041020.3921   23794521.889    97434590.5011   23794521.085  
  21931395.880   115250262.7231   21931399.597    89805416.8021   21931399.347  
  23387576.870   122902535.9551   23387578.460    95768210.5971   23387578.800  
  21395017.933   112431585.0211   21395019.095    87609043.3781   21395018.862  
                                  24634672.476   100874865.116                  
  20005145.510   106826372.547    20005153.408    83087194.317                  
  19755842.656   105309765.501    19755848.445    81907610.135                  
  23622650.175   126232275.645                                                  
  23013863.177   123151927.931                                                  
  19774496.290   105780243.056                                                  
  19583232.861   104720360.938    19583241.564    81449219.926                  
  28164111.805   148003409.013                                                  
  23511569.770   123554162.717                                                  
  23925759.177   125730724.102                                                  
  24179152.215   127062299.229                                                  
  27088872.689   142352971.063                                                  
  23790955.214   125022324.933                                                  
                 118784372.611    22811286.370   118784372.611                  
                 139277215.217    26746720.837   139277215.217                  
                 116489385.970    22370560.159   116489385.970                  
                 130647537.256    25089481.442   130647537.256                  
                 119757279.915    22998126.143   119757279.915                  
                 129461836.788    24861785.220   129461836.788                  
 21  9  1  9 44 32.0000000  0 28G22G19G21G 1G14G 3G30G 7G17G 8R13R14
                                R15R17R23R24E 1E13E15E21E26E27C11C21
                                C23C25C28C34
  23079642.177   121284346.0701                   94507285.7621   23079641.945  
  23186958.865   121848301.1031                   94946722.3311   23186959.116  
  22390055.156   117660560.7771                   91683590.0721   22390057.050  
  20186951.865   106083171.5121   20186956.779    82662235.9291   20186957.012  
  20481555.677   107631310.0981   20481558.179    83868571.0651   20481557.875  
  23793961.928   125038103.8111   23793966.663    97432317.8381   23793966.145  
  21931851.844   115252658.9941   21931855.775    89807284.0261   21931855.346  
  23388261.111   122906131.1181   23388263.219    95771012.0251   23388263.005  
  21394755.169   112430203.4711   21394756.313    87607966.8451   21394755.956  
                                  24635237.852   100877181.203                  
  20005631.172   106828965.297    20005638.177    83089210.958                  
  19755495.193   105307913.309    19755500.929    81906169.532                  
  23621867.333   126228092.972                                                  
  23013201.934   123148388.610                                                  
  19774865.553   105782218.566                                                  
  19583024.044   104719243.924    19583032.550    81448351.144                  
  28163585.688   148000644.589                                                  
  23511331.290   123552909.455                                                  
  23926052.730   125732267.331                                                  
  24178882.268   127060880.676                                                  
  27088318.821   142350059.679                                                  
  23791199.752   125023610.177                                                  
                 118786421.764    22811679.935   118786421.764                  
                 139276124.483    26746511.269   139276124.483                  
                 116490667.309    22370806.269   116490667.309                  
                 130650849.813    25090117.347   130650849.813                  
                 119755376.784    22997760.685   119755376.784                  
                 129464528.911    24862302.243   129464528.911                  
 21  9  1  9 44 33.0000000  0 28G22G19G21G 1G14G 3G30G 7G17G 8R13R14
                                R15R17R23R24E 1E13E15E21E26E27C11C21
                                C23C25C28C34
  23079339.029   121282752.8851                   94506044.3161   23079338.815  
  23186421.776   121845478.6011                   94944522.9831   23186422.116  
  22390548.288   117663152.4911                   91685609.5871   22390550.235  
  20187135.827   106084138.2811   20187140.705    82662989.2531   20187140.973  
  20481319.895   107630071.5901   20481322.415    83867605.9941   20481322.183  
  23793406.862   125035187.5421   23793411.705    97430045.4111   23793411.258  
  21932307.933   115255055.7961   21932312.061    89809151.6611   21932311.453  
  23388945.262   122909726.4811   23388947.281    95773813.6081   23388947.174  
  21394492.423   112428822.2381   21394493.692    87606890.5601   21394493.066  
                                  24635804.050   100879497.336                  
  20006116.942   106831558.828    20006123.714    83091228.105                  
  19755147.801   105306061.897    19755153.608    81904729.559                  
  23621084.116   126223910.469                                                  
  23012540.851   123144849.584                                                  
  19775234.977   105784194.617                                                  
  19582815.245   104718127.558    19582823.607    81447482.855                  
  28163059.516   147997880.242                                                  
  23511092.846   123551656.631                                                  
  23926346.461   125733810.921                                                  
  24178612.392   127059462.451                                                  
  27087764.774   142347148.468                                                  
  23791444.397   125024895.821                                                  
                 118788471.147    22812073.518   118788471.147                  
                 139275034.208    26746301.504   139275034.208                  
                 116491949.203    22371052.469   116491949.203                  
                 130654162.593    25090753.502   130654162.593                  
                 119753473.999    22997395.264   119753473.999                  
                 129467221.155    24862819.229   129467221.155                  
 21  9  1  9 44 34.0000000  0 28G22G19G21G 1G14G 3G30G 7G17G 8R13R14
                                R15R17R23R24E 1E13E15E21E26E27C11C21
                                C23C25C28C34
  23079035.864   121281159.5261                   94504802.7341   23079035.649  
  23185884.866   121842655.6121                   94942323.2611   23185884.884  
  22391041.383   117665743.8321                   91687628.8161   22391043.349  
  20187319.806   106085105.0851   20187324.542    82663742.6051   20187324.970  
  20481084.275   107628832.8601   20481086.776    83866640.7491   20481086.472  
  23792851.904   125032270.8291   23792856.925    97427772.6461   23792856.282  
  21932764.058   115257452.4011   21932768.025    89811019.1481   21932767.506  
  23389629.270   122913321.3591   23389630.879    95776614.8231   23389631.254  
  21394229.552   112427440.6001   21394230.499    87605813.9591   21394230.142  
                                  24636369.908   100881812.952                  
  20006602.604   106834152.377    20006609.394    83093245.326                  
  19754800.481   105304210.521    19754806.610    81903289.590                  
  23620301.506   126219727.450    23620308.636    98170931.293                  
  23011879.554   123141310.203                                                  
  19775604.383   105786170.470                                                  
  19582606.499   104717011.148    19582614.843    81446614.538                  
  28162533.202   147995115.278                                                  
  23510854.420   123550403.533                                                  
  23926640.084   125735354.166                                                  
  24178342.373   127058043.853                                                  
  27087210.620   142344236.721                                                  
  23791688.934   125026181.147                                                  
                 118790520.067    22812467.048   118790520.067                  
                 139273943.736    26746092.008   139273943.736                  
                 116493230.952    22371298.632   116493230.952                  
                 130657474.856    25091389.782   130657474.856                  
                 119751570.840    22997029.807   119751570.840                  
                 129469912.792    24863335.930   129469912.792                  
 21  9  1  9 44 35.0000000  0 28G22G19G21G 1G14G 3G30G 7G17G 8R13R14
                                R15R17R23R24E 1E13E15E21E26E27C11C21
                                C23C25C28C34
  23078732.930   121279567.0131                   94503561.8191   23078732.662  
  23185347.848   121839833.1831                   94940123.9681   23185347.794  
  22391534.676   117668335.8511                   91689648.5711   22391536.588  
  20187503.964   106086072.9391   20187508.807    82664496.7771   20187509.146  
  20480848.707   107627594.9281   20480851.173    83865676.1291   20480850.887  
  23792297.124   125029354.7241   23792302.038    97425500.3491   23792301.359  
  21933220.272   115259849.8571   21933224.667    89812887.2961   21933223.738  
  23390313.350   122916916.7241   23390314.869    95779416.3911   23390315.387  
  21393966.770   112426059.5871   21393967.449    87604737.8451   21393967.342  
                                  24636935.695   100884128.867                  
  20007088.481   106836747.006    20007095.557    83095263.340                  
  19754453.339   105302360.198    19754459.826    81901850.450                  
  23619519.343   126215544.924    23619526.616    98167678.193                  
  23011218.258   123137771.458                                                  
  19775973.968   105788147.181                                                  
  19582397.931   104715895.746    19582406.348    81445747.004                  
  28162007.102   147992350.649                                                  
  23510616.065   123549151.187                                                  
  23926933.833   125736898.079                                                  
  24178072.498   127056625.898                                                  
  27086656.573   142341325.455                                                  
  23791933.668   125027467.181                                                  
                 118792569.534    22812860.649   118792569.534                  
                 139272854.092    26745882.654   139272854.092                  
                 116494513.573    22371544.939   116494513.573                  
                 130660787.634    25092026.116   130660787.634                  
                 119749668.346    22996664.331   119749668.346                  
                 129472604.862    24863852.684   129472604.862                  
 21  9  1  9 44 36.0000000  0 28G22G19G21G 1G14G 3G30G 7G17G 8R13R14
                                R15R17R23R24E 1E13E15E21E26E27C11C21
                                C23C25C28C34
  23078430.122   121277975.0191                   94502321.3111   23078429.746  
  23184810.580   121837010.9541                   94937924.8261   23184810.687  
  22392028.057   117670928.1871                   91691668.5731   22392029.880  
  20187688.301   106087041.4951   20187693.233    82665251.4961   20187693.465  
  20480613.336   107626357.4501   20480615.642    83864711.8591   20480615.373  
  23791742.488   125026438.8621   23791747.259    97423228.2401   23791746.508  
  21933676.646   115262247.8001   21933680.649    89814755.8231   21933680.042  
  23390997.412   122920512.2781   23390998.431    95782218.1111   23390999.592  
  21393704.060   112424678.8591   21393704.721    87603661.9481   21393704.596  
                                  24637501.232   100886444.808                  
  20007574.375   106839342.335    20007581.666    83097281.957                  
  19754106.341   105300510.623    19754112.595    81900411.882                  
  23618737.145   126211362.531    23618743.596    98164425.231                  
  23010557.122   123134232.994                                                  
  19776343.607   105790124.403                                                  
  19582189.507   104714781.026    19582198.102    81444880.015                  
  28161481.128   147989586.094                                                  
  23510377.853   123547899.246                                                  
  23927227.671   125738442.323                                                  
  24177802.729   127055208.261                                                  
  27086102.723   142338414.329                                                  
  23792178.403   125028753.596                                                  
                 118794619.234    22813254.303   118794619.234                  
                 139271764.896    26745673.319   139271764.896                  
                 116495796.734    22371791.406   116495796.734                  
                 130664100.583    25092662.414   130664100.583                  
                 119747766.172    22996298.981   119747766.172                  
                 129475297.011    24864369.671   129475297.011                  
 21  9  1  9 44 37.0000000  0 28G22G19G21G 1G14G 3G30G 7G17G 8R13R14
                                R15R17R23R24E 1E13E15E21E26E27C11C21
                                C23C25C28C34
  23078127.188   121276383.4351                   94501081.1141   23078126.938  
  23184273.580   121834188.8181                   94935725.7661   23184273.580  
  22392521.492   117673520.7751                   91693688.7691   22392523.226  
  20187872.692   106088010.6701   20187877.838    82666006.6971   20187877.892  
  20480377.912   107625120.3401   20480380.199    83863747.8741   20480379.949  
  23791187.583   125023523.2001   23791192.444    97420956.2961   23791191.711  
  21934132.950   115264646.1601   21934136.899    89816624.6771   21934136.416  
  23391681.706   122924107.8981   23391682.761    95785019.8921   23391683.797  
  21393441.421   112423298.3211   21393441.939    87602586.2041   21393441.868  
                                  24638066.733   100888760.703                  
  20008060.180   106841938.306    20008068.043    83099301.038                  
  19753759.396   105298661.717    19753765.614    81898973.847                  
  23617954.893   126207180.163    23617960.772    98161172.282                  
  23009895.753   123130694.734                                                  
  19776713.424   105792102.040                                                  
  19581981.065   104713666.867    19581989.517    81444013.442                  
  28160955.028   147986821.471                                                  
  23510139.712   123546647.639                                                  
  23927521.474   125739986.817                                                  
  24177532.978   127053790.840                                                  
  27085548.819   142335503.289                                                  
  23792423.244   125030040.299                                                  
                 118796669.033    22813647.940   118796669.033                  
                 139270676.066    26745464.144   139270676.066                  
                 116497080.344    22372037.910   116497080.344                  
                 130667413.614    25093298.802   130667413.614                  
                 119745864.216    22995933.649   119745864.216                  
                 129477989.154    24864886.765   129477989.154                  
 21  9  1  9 44 38.0000000  0 28G22G19G21G 1G14G 3G30G 7G17G 8R13R14
                                R15R17R23R24E 1E13E15E21E26E27C11C21
                                C23C25C28C34
  23077824.522   121274792.1631                   94499841.1551   23077824.165  
  23183736.455   121831366.6861                   94933526.6951   23183736.491  
  22393015.053   117676113.4661                   91695709.0451   22393016.589  
  20188057.154   106088980.3381   20188062.443    82666762.2821   20188062.407  
  20480142.470   107623883.4701   20480144.739    83862784.0771   20480144.596  
  23790632.893   125020607.5381   23790637.932    97418684.3511   23790636.896  
  21934589.396   115267044.7901   21934593.274    89818493.7371   21934592.845  
  23392365.858   122927703.4931   23392367.698    95787821.6401   23392368.091  
  21393178.746   112421917.8421   21393179.407    87601510.5061   21393179.121  
                                  24638632.788   100891076.428                  
  20008546.307   106844534.777    20008553.883    83101320.502                  
  19753412.594   105296813.341    19753418.866    81897536.226                  
  23617172.587   126202997.701    23617175.893    98157919.273                  
  23009234.528   123127156.560                                                  
  19777083.206   105794079.949                                                  
  19581772.819   104712553.105    19581781.254    81443147.174                  
  28160428.910   147984056.671                                                  
  23509901.554   123545396.205                                                  
  23927815.384   125741531.423                                                  
  24177263.281   127052373.498                                                  
  27084994.736   142332592.155                                                  
  23792668.103   125031327.149                                                  
                 118798718.829    22814041.737   118798718.829                  
                 139269587.487    26745255.487   139269587.487                  
                 116498364.268    22372284.466   116498364.268                  
                 130670726.604    25093934.742   130670726.604                  
                 119743962.359    22995568.353   119743962.359                  
                 129480681.172    24865403.858   129480681.172                  
 21  9  1  9 44 39.0000000  0 28G22G19G21G 1G14G 3G30G 7G17G 8R13R14
                                R15R17R23R24E 1E13E15E21E26E27C11C21
                                C23C25C28C34
  23077522.054   121273201.7071                   94498601.8401   23077521.553  
  23183199.598   121828545.0881                   94931328.0491   23183199.491  
  22393508.631   117678706.8141                   91697729.8381   22393510.096  
  20188241.902   106089951.0421   20188247.262    82667518.6751   20188247.101  
  20479907.153   107622647.3771   20479909.386    83861820.8971   20479909.368  
  23790078.453   125017692.4981   23790083.260    97416412.8941   23790082.188  
  21935046.003   115269444.2501   21935049.827    89820363.4491   21935049.434  
  23393050.313   122931299.5681   23393051.724    95790623.7831   23393052.385  
  21392916.250   112420537.9821   21392917.322    87600435.2931   21392916.536  
                                  24639198.038   100893392.417                  
  20009032.327   106847132.280    20009040.511    83103340.794                  
  19753066.113   105294966.037    19753072.457    81896099.431                  
  23616390.084   126198815.727    23616393.301    98154666.603                  
  23008573.249   123123619.043                                                  
  19777453.148   105796058.709                                                  
  19581564.752   104711440.337    19581573.115    81442281.692                  
  28159902.882   147981292.233                                                  
  23509663.557   123544145.517                                                  
  23928109.418   125743076.692                                                  
  24176993.763   127050956.802                                                  
  27084440.778   142329681.528                                                  
  23792913.052   125032614.697                                                  
                 118800769.177    22814435.589   118800769.177                  
                 139268499.745    26745046.813   139268499.745                  
                 116499649.052    22372531.238   116499649.052                  
                 130674040.123    25094571.094   130674040.123                  
                 119742061.141    22995203.253   119742061.141                  
                 129483373.606    24865920.952   129483373.606                  
 21  9  1  9 44 40.0000000  0 28G22G19G21G 1G14G 3G30G 7G17G 8R13R14
                                R15R17R23R24E 1E13E15E21E26E27C11C21
                                C23C25C28C34
  23077219.370   121271611.6641                   94497362.8481   23077219.013  
  23182662.777   121825723.5771                   94929129.4721   23182662.545  
  22394002.155   117681300.3761                   91699750.7961   22394003.621  
  20188426.667   106090922.3531   20188432.189    82668275.5431   20188431.921  
  20479672.086   107621411.6371   20479674.266    83860857.9831   20479674.194  
  23789523.530   125014777.6141   23789528.569    97414141.5461   23789527.515  
  21935502.628   115271844.0951   21935506.542    89822233.4551   21935506.095  
  23393734.839   122934895.7351   23393736.376    95793426.0091   23393736.715  
  21392653.701   112419158.2931   21392654.701    87599360.2081   21392653.987  
                                  24639763.682   100895708.383                  
  20009518.686   106849730.394    20009527.388    83105361.552                  
  19752719.633   105293119.342    19752726.119    81894663.123                  
  23615607.421   126194633.767    23615610.119    98151413.990                  
  23007911.917   123120081.697                                                  
  19777823.180   105798037.860                                                  
  19581356.632   104710328.092    19581365.370    81441416.608                  
  28159376.907   147978527.751                                                  
  23509425.684   123542895.134                                                  
  23928403.471   125744622.184                                                  
  24176724.316   127049540.306                                                  
  27083886.892   142326770.925                                                  
  23793158.125   125033902.506                                                  
                 118802819.610    22814829.422   118802819.610                  
                 139267412.317    26744838.282   139267412.317                  
                 116500934.270    22372777.955   116500934.270                  
                 130677353.668    25095207.410   130677353.668                  
                 119740160.133    22994838.082   119740160.133                  
                 129486066.016    24866437.992   129486066.016                  
 21  9  1  9 44 41.0000000  0 28G22G19G21G 1G14G 3G30G 7G17G 8R13R14
                                R15R17R23R24E 1E13E15E21E26E27C11C21
                                C23C25C28C34
  23076916.865   121270022.1211                   94496124.2401   23076916.544  
  23182125.777   121822902.2431                   94926931.0351   23182125.545  
  22394495.805   117683894.2471                   91701771.9891   22394497.199  
  20188611.629   106091894.3481   20188617.008    82669032.9401   20188616.883  
  20479437.036   107620176.3281   20479439.002    83859895.4001   20479439.127  
  23788968.983   125011862.9411   23788973.986    97411870.3741   23788972.879  
  21935959.396   115274244.4181   21935963.399    89824103.8371   21935962.809  
  23394419.062   122938492.0221   23394421.242    95796228.3311   23394421.045  
  21392391.276   112417778.8581   21392391.991    87598285.3241   21392391.437  
                                  24640329.147   100898024.339                  
  20010005.188   106852329.197    20010013.926    83107382.845                  
  19752373.278   105291273.375    19752379.889    81893227.368                  
  23614824.937   126190451.927    23614827.313    98148161.432                  
  23007250.602   123116544.634                                                  
  19778193.283   105800017.505                                                  
  19581148.654   104709216.483    19581157.553    81440552.026                  
  28158850.843   147975763.278                                                  
  23509187.847   123541645.132                                                  
  23928697.631   125746167.984                                                  
  24176454.761   127048124.085                                                  
  27083332.899   142323860.422                                                  
  23793403.342   125035190.667                                                  
                 118804870.234    22815223.273   118804870.234                  
                 139266325.310    26744629.625   139266325.310                  
                 116502219.987    22373024.852   116502219.987                  
                 130680667.406    25095843.815   130680667.406                  
                 119738259.413    22994472.928   119738259.413                  
                 129488758.467    24866955.033   129488758.467                  
 21  9  1  9 44 42.0000000  0 28G22G19G21G 1G14G 3G30G 7G17G 8R13R14
                                R15R17R23R24E 1E13E15E21E26E27C11C21
                                C23C25C28C34
  23076614.361   121268432.7591                   94494885.7811   23076614.128  
  23181588.956   121820080.8121                   94924732.5241   23181588.706  
  22394989.401   117686488.1461                   91703793.2071   22394990.759  
  20188796.717   106092866.7511   20188801.988    82669790.6561   20188801.935  
  20479202.005   107618941.1661   20479204.078    83858932.9381   20479204.078  
  23788414.364   125008948.2201   23788419.225    97409599.1681   23788418.206  
  21936416.218   115276644.9291   21936420.310    89825974.3651   21936419.595  
  23395103.517   122942088.1881   23395105.894    95799030.5301   23395105.322  
  21392128.709   112416399.4091   21392129.888    87597210.4311   21392128.905  
                                  24640895.310   100900340.074                  
  20010491.886   106854928.430    20010500.249    83109404.436                  
  19752027.030   105289427.862    19752033.820    81891791.964                  
  23614042.273   126186269.913    23614045.168    98144908.771                  
  23006589.591   123113007.575                                                  
  19778563.386   105801997.346                                                  
  19580940.820   104708105.227    19580949.540    81439687.727                  
  28158324.904   147972998.528                                                  
  23508950.029   123540395.239                                                  
  23928991.809   125747713.819                                                  
  24176185.225   127046707.877                                                  
  27082779.245   142320949.798                                                  
  23793648.541   125036478.899                                                  
                 118806920.760    22815617.231   118806920.760                  
                 139265238.510    26744420.808   139265238.510                  
                 116503505.949    22373271.819   116503505.949                  
                 130683981.012    25096480.274   130683981.012                  
                 119736358.705    22994107.846   119736358.705                  
                 129491450.726    24867472.001   129491450.726                  
 21  9  1  9 44 43.0000000  0 28G22G19G21G 1G14G 3G30G 7G17G 8R13R14
                                R15R17R23R24E 1E13E15E21E26E27C11C21
                                C23C25C28C34
  23076312.124   121266843.8931                   94493647.7061   23076311.767  
  23181051.813   121817259.5541                   94922534.1391   23181051.813  
  22395483.211   117689082.3311                   91705814.6501   22395484.426  
  20188981.876   106093839.8321   20188987.111    82670548.9011   20188987.111  
  20478967.045   107617706.4351   20478969.261    83857970.8081   20478969.083  
  23787859.495   125006033.7641   23787864.535    97407328.1521   23787863.677  
  21936873.093   115279045.9121   21936877.471    89827845.2661   21936876.488  
  23395787.633   122945684.5011   23395790.366    95801832.8471   23395789.652  
  21391866.284   112415020.2011   21391867.446    87596135.7211   21391866.445  
                                  24641459.792   100902655.782                  
  20010979.014   106857528.318    20010987.233    83111426.585                  
  19751681.067   105287583.064    19751687.804    81890357.135                  
  23613259.360   126182088.046    23613262.970    98141656.214                  
  23005928.652   123109470.844                                                  
  19778933.615   105803977.659                                                  
  19580733.110   104706994.597    19580742.045    81438823.890                  
  28157798.822   147970233.829                                                  
  23508712.335   123539145.727                                                  
  23929286.058   125749259.953                                                  
  24175915.742   127045291.941                                                  
  27082225.502   142318039.295                                                  
  23793893.775   125037767.468                                                  
                 118808971.466    22816011.190   118808971.466                  
                 139264152.138    26744212.187   139264152.138                  
                 116504792.414    22373518.876   116504792.414                  
                 130687294.755    25097116.894   130687294.755                  
                 119734458.293    22993742.764   119734458.293                  
                 129494143.032    24867989.006   129494143.032                  
