     2.11           OBSERVATION DATA    M (MIXED)           RINEX VERSION / TYPE
CONVBIN 2.4.3                           20210901 005149 UTC PGM / RUN BY / DATE 
log: logs/21_08_31_22_24_11_kybo_SW.rtcm                    COMMENT             
format: RTCM 3, station ID: 1532                            COMMENT             
1532                                                        MARKER NAME         
                                                            MARKER NUMBER       
                                                            OBSERVER / AGENCY   
                    SWFT                                    REC # / TYPE / VERS 
                    NULL                                    ANT # / TYPE        
   461901.7728 -5001589.4069  3917701.5854                  APPROX POSITION XYZ 
        0.0000        0.0000        0.0000                  ANTENNA: DELTA H/E/N
     1     1                                                WAVELENGTH FACT L1/2
     5    C1    L1    P2    L2    C2                        # / TYPES OF OBSERV 
  2021     8    31    22    24   16.0000000     GPS         TIME OF FIRST OBS   
  2021     8    31    22    54   14.0000000     GPS         TIME OF LAST OBS    
                                                            END OF HEADER       
 21  8 31 22 24 16.0000000  0 16G10G12G18G21G23G24G25G31G32E 3E 5E 8
                                E13E15E24E25
  20321231.962   106788750.450    20321234.803    83212001.958                  
  23830062.197   125227800.346    23830063.841    97580098.808                  
  24495968.956   128727133.337    24495973.191   100306845.953                  
  24529539.543   128903577.952    24529540.097   100444341.508                  
  21454597.473   112744664.622    21454598.849    87852985.703                  
  23017217.764   120956242.167    23017221.481    94251603.769                  
  23753229.115   124823970.895    23753234.368    97265409.414                  
  23608127.841   124061524.723    23608129.807    96671311.013                  
  20912886.391   109897924.214    20912889.286    85634737.187                  
  23932164.114   125764345.958                                                  
  24709394.047   129848722.991                                                  
  25320549.048   133060345.424                                                  
  26989658.960   141831546.827                                                  
  24559052.093   129058641.575                                                  
  26455916.247   139026797.699                                                  
  26499149.044   139253917.489                                                  
 21  8 31 22 24 17.0000000  0 16G10G12G18G21G23G24G25G31G32E 3E 5E 8
                                E13E15E24E25
  20321208.625   106788627.843    20321211.484    83211906.422                  
  23829700.688   125225900.540    23829702.314    97578618.442                  
  24496698.316   128730966.114    24496702.551   100309832.532                  
  24529144.352   128901501.302    24529144.924   100442723.339                  
  21454987.858   112746716.065    21454989.216    87854584.231                  
  23017843.966   120959532.778    23017847.665    94254167.879                  
  23752681.804   124821094.766    23752687.040    97263168.277                  
  23607397.338   124057685.913    23607399.303    96668319.730                  
  20912723.855   109897070.070    20912726.731    85634071.622                  
  23932058.562   125763791.195                                                  
  24709650.825   129850072.380                                                  
  25320185.699   133058436.040                                                  
  26989324.362   141829788.491                                                  
  24559204.355   129059441.770                                                  
  26455807.800   139026227.841                                                  
  26498649.783   139251293.820                                                  
 21  8 31 22 24 18.0000000  0 16G10G12G18G21G23G24G25G31G32E 3E 5E 8
                                E13E15E24E25
  20321185.377   106788505.685    20321188.219    83211811.234                  
  23829339.234   125224001.145    23829340.878    97577138.394                  
  24497427.676   128734798.879    24497431.893   100312819.098                  
  24528749.268   128899425.024    24528749.822   100441105.460                  
  21455378.314   112748767.911    21455379.672    87856183.071                  
  23018470.204   120962823.680    23018473.903    94256732.222                  
  23752134.548   124818218.827    23752139.765    97260927.288                  
  23606666.888   124053847.282    23606668.818    96665328.593                  
  20912561.371   109896216.195    20912564.266    85633406.263                  
  23931953.027   125763236.564                                                  
  24709907.603   129851421.824                                                  
  25319822.386   133056526.727                                                  
  26988989.836   141828030.551                                                  
  24559356.742   129060242.452                                                  
  26455699.442   139025658.423                                                  
  26498150.541   139248670.297                                                  
 21  8 31 22 24 19.0000000  0 16G10G12G18G21G23G24G25G31G32E 3E 5E 8
                                E13E15E24E25
  20321162.219   106788383.985    20321165.060    83211716.402                  
  23828977.886   125222102.179    23828979.512    97575658.680                  
  24498157.018   128738631.647    24498161.253   100315805.668                  
  24528354.219   128897349.122    24528354.791   100439487.874                  
  21455768.841   112750820.144    21455770.199    87857782.211                  
  23019096.477   120966114.864    23019100.194    94259296.776                  
  23751587.309   124815343.074    23751592.526    97258686.441                  
  23605936.438   124050008.833    23605938.386    96662337.598                  
  20912398.942   109895362.590    20912401.819    85632741.116                  
  23931847.493   125762682.059                                                  
  24710164.416   129852771.344                                                  
  25319459.038   133054617.460                                                  
  26988655.382   141826272.999                                                  
  24559509.183   129061043.609                                                  
  26455591.156   139025089.472                                                  
  26497651.316   139246046.929                                                  
 21  8 31 22 24 20.0000000  0 16G10G12G18G21G23G24G25G31G32E 3E 5E 8
                                E13E15E24E25
  20321139.132   106788262.730    20321141.991    83211621.918                  
  23828616.593   125220203.655    23828618.237    97574179.316                  
  24498886.378   128742464.409    24498890.613   100318792.234                  
  24527959.278   128895273.604    24527959.832   100437870.590                  
  21456159.440   112752872.770    21456160.798    87859381.660                  
  23019722.822   120969406.320    23019726.539    94261861.548                  
  23751040.088   124812467.508    23751045.323    97256445.743                  
  23605206.042   124046170.583    23605207.971    96659346.754                  
  20912236.566   109894509.253    20912239.443    85632076.180                  
  23931741.994   125762127.689                                                  
  24710421.248   129854120.941                                                  
  25319095.743   133052708.261                                                  
  26988321.017   141824515.845                                                  
  24559661.748   129061845.245                                                  
  26455482.995   139024520.995                                                  
  26497152.145   139243423.723                                                  
 21  8 31 22 24 21.0000000  0 16G10G12G18G21G23G24G25G31G32E 3E 5E 8
                                E13E15E24E25
  20321116.153   106788141.943    20321118.994    83211527.798                  
  23828255.406   125218305.548    23828257.032    97572700.269                  
  24499615.738   128746297.163    24499619.955   100321778.793                  
  24527564.373   128893198.474    24527564.945   100436253.605                  
  21456550.128   112754925.789    21456551.486    87860981.413                  
  23020349.221   120972698.070    23020352.938    94264426.547                  
  23750492.920   124809592.130    23750498.156    97254205.191                  
  23604475.681   124042332.498    23604477.629    96656356.043                  
  20912074.226   109893656.191    20912077.103    85631411.457                  
  23931636.531   125761573.433                                                  
  24710678.061   129855470.609                                                  
  25318732.448   133050799.097                                                  
  26987986.723   141822759.079                                                  
  24559814.386   129062647.365                                                  
  26455374.905   139023952.954                                                  
  26496652.973   139240800.658                                                  
 21  8 31 22 24 22.0000000  0 20G10G12G18G21G23G24G25G31G32C21C22C26
                                C34E 3E 5E 8E13E15E24E25
  20321093.263   106788021.610    20321096.104    83211434.032                  
  23827894.273   125216407.867    23827895.917    97571221.558                  
  24500345.080   128750129.922    24500349.315   100324765.356                  
  24527169.557   128891123.704    24527170.147   100434636.902                  
  21456940.888   112756979.202    21456942.246    87862581.477                  
  23020975.673   120975990.104    23020979.408    94266991.765                  
  23749945.789   124806716.937    23749951.024    97251964.781                  
  23603745.338   124038494.597    23603747.304    96653365.476                  
  20911911.940   109892803.399    20911914.817    85630746.941                  
                 117237362.476                   117237362.476    22514201.444  
                 119253924.829                   119253924.829    22901458.677  
                 133265914.909                   133265914.909    25592328.060  
                 132158167.204                   132158167.204    25379592.589  
  23931531.086   125761019.321                                                  
  24710934.929   129856820.352                                                  
  25318369.135   133048890.004                                                  
  26987652.483   141821002.703                                                  
  24559967.094   129063449.957                                                  
  26455266.887   139023385.379                                                  
  26496153.856   139238177.751                                                  
 21  8 31 22 24 23.0000000  0 20G10G12G18G21G23G24G25G31G32C21C22C26
                                C34E 3E 5E 8E13E15E24E25
  20321070.444   106787901.726    20321073.303    83211340.618                  
  23827533.247   125214510.617    23827534.873    97569743.184                  
  24501074.440   128753962.667    24501078.675   100327751.906                  
  24526774.812   128889049.316    24526775.402   100433020.495                  
  21457331.702   112759032.999    21457333.060    87864181.836                  
  23021602.179   120979282.423    23021605.896    94269557.208                  
  23749398.693   124803841.937    23749403.929    97249724.524                  
  23603015.031   124034656.875    23603016.997    96650375.048                  
  20911749.725   109891950.880    20911752.602    85630082.641                  
                 117236191.868                   117236191.868    22513976.634  
                 119255140.801                   119255140.801    22901692.172  
                 133262482.218                   133262482.218    25591668.854  
                 132159927.523                   132159927.523    25379930.617  
  23931425.659   125760465.323                                                  
  24711191.778   129858170.163                                                  
  25318005.857   133046980.960                                                  
  26987318.314   141819246.714                                                  
  24560119.928   129064253.042                                                  
  26455158.976   139022818.261                                                  
  26495654.756   139235554.985                                                  
 21  8 31 22 24 24.0000000  0 20G10G12G18G21G23G24G25G31G32C21C22C26
                                C34E 3E 5E 8E13E15E24E25
  20321047.714   106787782.299    20321050.556    83211247.559                  
  23827172.275   125212613.792    23827173.937    97568265.141                  
  24501803.782   128757795.415    24501808.017   100330738.460                  
  24526380.157   128886975.313    24526380.729   100431404.391                  
  21457722.604   112761087.189    21457723.962    87865782.504                  
  23022228.756   120982575.027    23022232.455    94272122.875                  
  23748851.615   124800967.102    23748856.868    97247484.395                  
  23602284.778   124030819.339    23602286.744    96647384.757                  
  20911587.545   109891098.626    20911590.422    85629418.546                  
                 117235021.429                   117235021.429    22513751.859  
                 119256356.988                   119256356.988    22901925.738  
                 133259049.536                   133259049.536    25591009.648  
                 132161688.187                   132161688.187    25380268.735  
  23931320.285   125759911.476                                                  
  24711448.663   129859520.054                                                  
  25317642.598   133045071.973                                                  
  26986984.235   141817491.122                                                  
  24560272.833   129065056.608                                                  
  26455051.136   139022251.602                                                  
  26495155.692   139232932.386                                                  
 21  8 31 22 24 25.0000000  0 20G10G12G18G21G23G24G25G31G32C21C22C26
                                C34E 3E 5E 8E13E15E24E25
  20321025.074   106787663.331    20321027.933    83211154.856                  
  23826811.428   125210717.393    23826813.054    97566787.430                  
  24502533.124   128761628.153    24502537.377   100333725.003                  
  24525985.555   128884901.673    24525986.127   100429788.566                  
  21458113.561   112763141.769    21458114.937    87867383.474                  
  23022855.387   120985867.927    23022859.086    94274688.765                  
  23748304.608   124798092.464    23748309.844    97245244.419                  
  23601554.560   124026981.981    23601556.508    96644394.613                  
  20911425.420   109890246.638    20911428.279    85628754.660                  
                 117233851.168                   117233851.168    22513527.121  
                 119257573.396                   119257573.396    22902159.340  
                 133255616.856                   133255616.856    25590350.424  
                 132163449.189                   132163449.189    25380606.924  
  23931214.894   125759357.734                                                  
  24711705.548   129860870.014                                                  
  25317279.339   133043163.029                                                  
  26986650.245   141815735.923                                                  
  24560425.846   129065860.647                                                  
  26454943.404   139021685.423                                                  
  26494656.664   139230309.925                                                  
 21  8 31 22 24 26.0000000  0 20G10G12G18G21G23G24G25G31G32C21C22C26
                                C34E 3E 5E 8E13E15E24E25
  20321002.542   106787544.817    20321005.383    83211062.503                  
  23826450.617   125208821.425    23826452.261    97565310.055                  
  24503262.484   128765460.889    24503266.719   100336711.551                  
  24525591.025   128882828.421    24525591.597   100428173.047                  
  21458504.624   112765196.743    21458505.982    87868984.750                  
  23023482.036   120989161.103    23023485.753    94277254.876                  
  23747757.620   124795218.013    23747762.837    97243004.585                  
  23600824.361   124023144.805    23600826.326    96641404.608                  
  20911263.348   109889394.935    20911266.225    85628090.997                  
                 117232681.077                   117232681.077    22513302.418  
                 119258790.025                   119258790.025    22902392.977  
                 133252184.188                   133252184.188    25589691.218  
                 132165210.531                   132165210.531    25380945.184  
  23931109.556   125758804.138                                                  
  24711962.433   129862220.051                                                  
  25316916.079   133041254.141                                                  
  26986316.327   141813981.117                                                  
  24560578.947   129066665.167                                                  
  26454835.743   139021119.665                                                  
  26494157.654   139227687.626                                                  
 21  8 31 22 24 27.0000000  0 20G10G12G18G21G23G24G25G31G32C21C22C26
                                C34E 3E 5E 8E13E15E24E25
  20320980.062   106787426.750    20320982.921    83210970.507                  
  23826089.895   125206925.863    23826091.539    97563832.993                  
  24503991.826   128769293.625    24503996.061   100339698.098                  
  24525196.584   128880755.544    24525197.138   100426557.820                  
  21458895.741   112767252.110    21458897.099    87870586.332                  
  23024108.756   120992454.566    23024112.473    94279821.211                  
  23747210.667   124792343.750    23747215.885    97240764.902                  
  23600094.197   124019307.809    23600096.162    96638414.745                  
  20911101.312   109888543.481    20911104.188    85627427.527                  
                 117231511.164                   117231511.164    22513077.768  
                 119260006.866                   119260006.866    22902626.668  
                 133248751.523                   133248751.523    25589031.994  
                 132166972.219                   132166972.219    25381283.498  
  23931004.218   125758250.657                                                  
  24712219.354   129863570.165                                                  
  25316552.856   133039345.317                                                  
  26985982.462   141812226.698                                                  
  24560732.121   129067470.163                                                  
  26454728.154   139020554.387                                                  
  26493658.679   139225065.476                                                  
 21  8 31 22 24 28.0000000  0 20G10G12G18G21G23G24G25G31G32C21C22C26
                                C34E 3E 5E 8E13E15E24E25
  20320957.672   106787309.143    20320960.532    83210878.863                  
  23825729.280   125205030.723    23825730.924    97562356.263                  
  24504721.168   128773126.344    24504725.421   100342684.625                  
  24524802.179   128878683.043    24524802.751   100424942.887                  
  21459286.948   112769307.858    21459288.306    87872188.214                  
  23024735.548   120995748.312    23024739.265    94282387.766                  
  23746663.732   124789469.675    23746668.967    97238525.367                  
  23599364.086   124015471.003    23599366.016    96635425.031                  
  20910939.347   109887692.312    20910942.224    85626764.278                  
                 117230341.423                   117230341.423    22512853.119  
                 119261223.929                   119261223.929    22902860.377  
                 133245318.872                   133245318.872    25588372.806  
                 132168734.247                   132168734.247    25381621.884  
  23930898.934   125757697.317                                                  
  24712476.293   129864920.348                                                  
  25316189.614   133037436.544                                                  
  26985648.686   141810472.667                                                  
  24560885.401   129068275.645                                                  
  26454620.671   139019989.556                                                  
  26493159.722   139222443.476                                                  
 21  8 31 22 24 29.0000000  0 20G10G12G18G21G23G24G25G31G32C21C22C26
                                C34E 3E 5E 8E13E15E24E25
  20320935.408   106787192.000    20320938.249    83210787.583                  
  23825368.719   125203135.999    23825370.363    97560879.855                  
  24505450.528   128776959.068    24505454.763   100345671.161                  
  24524407.882   128876610.935    24524408.435   100423328.255                  
  21459678.208   112771364.000    21459679.584    87873790.402                  
  23025362.375   120999042.336    23025366.092    94284954.536                  
  23746116.868   124786595.776    23746122.086    97236285.968                  
  23598633.994   124011634.376    23598635.941    96632435.454                  
  20910777.418   109886841.413    20910780.295    85626101.242                  
                 117229171.851                   117229171.851    22512628.523  
                 119262441.212                   119262441.212    22903094.158  
                 133241886.222                   133241886.222    25587713.599  
                 132170496.612                   132170496.612    25381960.323  
  23930793.667   125757144.097                                                  
  24712733.231   129866270.605                                                  
  25315826.408   133035527.829                                                  
  26985314.982   141808719.043                                                  
  24561038.789   129069081.609                                                  
  26454513.279   139019425.191                                                  
  26492660.801   139219821.631                                                  
 21  8 31 22 24 30.0000000  0 20G10G12G18G21G23G24G25G31G32C21C22C26
                                C34E 3E 5E 8E13E15E24E25
  20320913.179   106787075.300    20320916.038    83210696.648                  
  23825008.247   125201241.707    23825009.873    97559403.785                  
  24506179.852   128780791.777    24506184.105   100348657.688                  
  24524013.637   128874539.188    24524014.191   100421713.906                  
  21460069.557   112773420.538    21460070.916    87875392.901                  
  23025989.274   121002336.656    23025992.973    94287521.536                  
  23745570.005   124783722.074    23745575.240    97234046.719                  
  23597903.937   124007797.925    23597905.885    96629446.012                  
  20910615.542   109885990.790    20910618.419    85625438.419                  
                 117228002.452                   117228002.452    22512403.945  
                 119263658.710                   119263658.710    22903327.956  
                 133238453.586                   133238453.586    25587054.393  
                 132172259.321                   132172259.321    25382298.816  
  23930688.401   125756591.012                                                  
  24712990.206   129867620.945                                                  
  25315463.203   133033619.161                                                  
  26984981.332   141806965.801                                                  
  24561192.248   129069888.046                                                  
  26454405.975   139018861.284                                                  
  26492161.916   139217199.937                                                  
 21  8 31 22 24 31.0000000  0 20G10G12G18G21G23G24G25G31G32C21C22C26
                                C34E 3E 5E 8E13E15E24E25
  20320891.057   106786959.063    20320893.916    83210606.074                  
  23824647.865   125199347.852    23824649.509    97557928.050                  
  24506909.194   128784624.484    24506913.447   100351644.208                  
  24523619.482   128872467.831    24523620.036   100420099.867                  
  21460460.978   112775477.466    21460462.336    87876995.700                  
  23026616.227   121005631.255    23026619.944    94290088.754                  
  23745023.195   124780848.562    23745028.412    97231807.622                  
  23597173.916   124003961.656    23597175.864    96626456.716                  
  20910453.738   109885140.425    20910456.597    85624775.797                  
                 117226833.235                   117226833.235    22512179.403  
                 119264876.430                   119264876.430    22903561.826  
                 133235020.952                   133235020.952    25586395.187  
                 132174022.370                   132174022.370    25382637.399  
  23930583.188   125756038.054                                                  
  24713247.180   129868971.354                                                  
  25315099.997   133031710.546                                                  
  26984647.789   141805212.949                                                  
  24561345.779   129070694.972                                                  
  26454298.761   139018297.831                                                  
  26491663.049   139214578.394                                                  
 21  8 31 22 24 32.0000000  0 20G10G12G18G21G23G24G25G31G32C21C22C26
                                C34E 3E 5E 8E13E15E24E25
  20320869.042   106786843.282    20320871.883    83210515.855                  
  23824287.536   125197454.414    23824289.180    97556452.648                  
  24507638.536   128788457.176    24507642.789   100354630.719                  
  24523225.381   128870396.847    24523225.935   100418486.113                  
  21460852.489   112777534.784    21460853.847    87878598.805                  
  23027243.197   121008926.124    23027246.914    94292656.187                  
  23744476.420   124777975.235    23744481.638    97229568.663                  
  23596443.948   124000125.575    23596445.878    96623467.561                  
  20910291.952   109884290.344    20910294.847    85624113.394                  
                 117225664.182                   117225664.182    22511954.897  
                 119266094.367                   119266094.367    22903795.695  
                 133231588.331                   133231588.331    25585735.981  
                 132175785.762                   132175785.762    25382976.034  
  23930477.975   125755485.218                                                  
  24713504.155   129870321.832                                                  
  25314736.827   133029801.992                                                  
  26984314.299   141803460.488                                                  
  24561499.417   129071502.371                                                  
  26454191.618   139017734.843                                                  
  26491164.217   139211957.010                                                  
 21  8 31 22 24 33.0000000  0 20G10G12G18G21G23G24G25G31G32C21C22C26
                                C34E 3E 5E 8E13E15E24E25
  20320847.081   106786727.946    20320849.940    83210425.985                  
  23823927.314   125195561.419    23823928.958    97554977.589                  
  24508367.878   128792289.876    24508372.113   100357617.234                  
  24522831.351   128868326.247    24522831.923   100416872.656                  
  21461244.035   112779592.487    21461245.393    87880202.208                  
  23027870.257   121012221.293    23027873.974    94295223.848                  
  23743929.682   124775102.084    23743934.900    97227329.851                  
  23595713.981   123996289.673    23595715.929    96620478.551                  
  20910130.255   109883440.528    20910133.114    85623451.202                  
                 117224495.308                   117224495.308    22511730.444  
                 119267312.520                   119267312.520    22904029.637  
                 133228155.718                   133228155.718    25585076.775  
                 132177549.491                   132177549.491    25383314.742  
  23930372.798   125754932.524                                                  
  24713761.165   129871672.391                                                  
  25314373.639   133027893.497                                                  
  26983980.899   141801708.426                                                  
  24561653.162   129072310.254                                                  
  26454084.583   139017172.309                                                  
  26490665.403   139209335.773                                                  
 21  8 31 22 24 34.0000000  0 20G10G12G18G21G23G24G25G31G32C21C22C26
                                C34E 3E 5E 8E13E15E24E25
  20320825.227   106786613.066    20320828.086    83210336.465                  
  23823567.182   125193668.846    23823568.826    97553502.860                  
  24509097.220   128796122.565    24509101.455   100360603.745                  
  24522437.393   128866256.015    24522437.965   100415259.488                  
  21461635.688   112781650.586    21461637.064    87881805.921                  
  23028497.353   121015516.743    23028501.087    94297791.731                  
  23743382.961   124772229.136    23743388.197    97225091.190                  
  23594984.085   123992453.952    23594986.015    96617489.683                  
  20909968.576   109882590.982    20909971.453    85622789.216                  
                 117223326.604                   117223326.604    22511505.991  
                 119268530.894                   119268530.894    22904263.614  
                 133224723.108                   133224723.108    25584417.587  
                 132179313.563                   132179313.563    25383653.521  
  23930267.657   125754379.949                                                  
  24714018.175   129873023.024                                                  
  25314010.469   133025985.038                                                  
  26983647.552   141799956.757                                                  
  24561806.996   129073118.618                                                  
  26453977.619   139016610.239                                                  
  26490166.625   139206714.689                                                  
 21  8 31 22 24 35.0000000  0 20G10G12G18G21G23G24G25G31G32C21C22C26
                                C34E 3E 5E 8E13E15E24E25
  20320803.463   106786498.648    20320806.304    83210247.309                  
  23823207.121   125191776.714    23823208.765    97552028.473                  
  24509826.562   128799955.251    24509830.797   100363590.249                  
  24522043.524   128864186.163    24522044.078   100413646.621                  
  21462027.395   112783709.075    21462028.753    87883409.939                  
  23029124.520   121018812.478    23029128.236    94300359.832                  
  23742836.294   124769356.364    23742841.512    97222852.669                  
  23594254.207   123988618.402    23594256.119    96614500.945                  
  20909806.987   109881741.702    20909809.864    85622127.442                  
                 117222158.079                   117222158.079    22511281.592  
                 119269749.489                   119269749.489    22904497.644  
                 133221290.513                   133221290.513    25583758.398  
                 132181077.973                   132181077.973    25383992.353  
  23930162.515   125753827.504                                                  
  24714275.221   129874373.724                                                  
  25313647.317   133024076.646                                                  
  26983314.295   141798205.466                                                  
  24561960.902   129073927.449                                                  
  26453870.744   139016048.621                                                  
  26489667.883   139204093.757                                                  
 21  8 31 22 24 36.0000000  0 20G10G12G18G21G23G24G25G31G32C21C22C26
                                C34E 3E 5E 8E13E15E24E25
  20320781.752   106786384.692    20320784.629    83210158.512                  
  23822847.132   125189885.025    23822848.776    97550554.425                  
  24510555.904   128803787.934    24510560.139   100366576.753                  
  24521649.726   128862116.691    24521650.280   100412034.043                  
  21462419.209   112785767.966    21462420.567    87885014.265                  
  23029751.740   121022108.491    23029755.457    94302928.152                  
  23742289.663   124766483.786    23742294.881    97220614.296                  
  23593524.347   123984783.066    23593526.276    96611512.374                  
  20909645.415   109880892.687    20909648.292    85621465.872                  
                 117220989.721                   117220989.721    22511057.229  
                 119270968.296                   119270968.296    22904731.693  
                 133217857.921                   133217857.921    25583099.192  
                 132182842.726                   132182842.726    25384331.257  
  23930057.428   125753275.188                                                  
  24714532.267   129875724.503                                                  
  25313284.165   133022168.315                                                  
  26982981.127   141796454.589                                                  
  24562114.915   129074736.784                                                  
  26453763.959   139015487.460                                                  
  26489169.159   139201472.983                                                  
 21  8 31 22 24 37.0000000  0 20G10G12G18G21G23G24G25G31G32C21C22C26
                                C34E 3E 5E 8E13E15E24E25
  20320760.166   106786271.188    20320763.025    83210070.067                  
  23822487.232   125187993.749    23822488.876    97549080.711                  
  24511285.228   128807620.615    24511289.481   100369563.255                  
  24521255.982   128860047.596    24521256.536   100410421.766                  
  21462811.059   112787827.239    21462812.435    87886618.895                  
  23030378.996   121025404.798    23030382.713    94305496.703                  
  23741743.067   124763611.386    23741748.285    97218376.063                  
  23592794.540   123980947.886    23592796.488    96608523.926                  
  20909483.897   109880043.966    20909486.774    85620804.532                  
                 117219821.542                   117219821.542    22510832.883  
                 119272187.330                   119272187.330    22904965.795  
                 133214425.340                   133214425.340    25582440.004  
                 132184607.822                   132184607.822    25384670.232  
  23929952.358   125752723.004                                                  
  24714789.313   129877075.347                                                  
  25312921.048   133020260.017                                                  
  26982648.013   141794704.097                                                  
  24562269.018   129075546.586                                                  
  26453657.263   139014926.766                                                  
  26488670.488   139198852.362                                                  
 21  8 31 22 24 38.0000000  0 20G10G12G18G21G23G24G25G31G32C21C22C26
                                C34E 3E 5E 8E13E15E24E25
  20320738.652   106786158.132    20320741.493    83209981.972                  
  23822127.421   125186102.923    23822129.065    97547607.335                  
  24512014.553   128811453.274    24512018.823   100372549.738                  
  24520862.328   128857978.878    24520862.882   100408809.778                  
  21463202.998   112789886.899    21463204.374    87888223.825                  
  23031006.324   121028701.384    23031010.041    94308065.469                  
  23741196.508   124760739.192    23741201.725    97216137.992                  
  23592064.751   123977112.911    23592066.699    96605535.632                  
  20909322.432   109879195.496    20909325.327    85620143.387                  
                 117218653.536                   117218653.536    22510608.573  
                 119273406.576                   119273406.576    22905199.933  
                 133210992.771                   133210992.771    25581780.816  
                 132186373.249                   132186373.249    25385009.261  
  23929847.306   125752170.947                                                  
  24715046.394   129878426.285                                                  
  25312557.896   133018351.798                                                  
  26982314.988   141792953.995                                                  
  24562423.227   129076356.876                                                  
  26453550.656   139014366.530                                                  
  26488171.817   139196231.894                                                  
 21  8 31 22 24 39.0000000  0 20G10G12G18G21G23G24G25G31G32C21C22C26
                                C34E 3E 5E 8E13E15E24E25
  20320717.227   106786045.540    20320720.086    83209894.235                  
  23821767.682   125184212.513    23821769.326    97546134.293                  
  24512743.895   128815285.943    24512748.147   100375536.231                  
  24520468.727   128855910.543    24520469.281   100407198.086                  
  21463595.026   112791946.949    21463596.384    87889829.059                  
  23031633.706   121031998.260    23031637.422    94310634.465                  
  23740649.966   124757867.180    23740655.201    97213900.062                  
  23591335.016   123973278.101    23591336.964    96602547.477                  
  20909161.039   109878347.297    20909163.916    85619482.453                  
                 117217485.700                   117217485.700    22510384.317  
                 119274626.043                   119274626.043    22905434.124  
                 133207560.204                   133207560.204    25581121.627  
                 132188139.022                   132188139.022    25385348.362  
  23929742.254   125751619.009                                                  
  24715303.476   129879777.285                                                  
  25312194.797   133016443.626                                                  
  26981982.016   141791204.280                                                  
  24562577.508   129077167.632                                                  
  26453444.139   139013806.749                                                  
  26487673.182   139193611.575                                                  
 21  8 31 22 24 40.0000000  0 20G10G12G18G21G23G24G25G31G32C21C22C26
                                C34E 3E 5E 8E13E15E24E25
  20320695.891   106785933.403    20320698.732    83209806.858                  
  23821408.032   125182322.532    23821409.676    97544661.582                  
  24513473.219   128819118.590    24513477.472   100378522.707                  
  24520075.197   128853842.596    24520075.751   100405586.699                  
  21463987.126   112794007.390    21463988.484    87891434.595                  
  23032261.123   121035295.418    23032264.840    94313203.675                  
  23740103.477   124754995.341    23740108.695    97211662.266                  
  23590605.317   123969443.478    23590607.246    96599559.462                  
  20908999.682   109877499.370    20909002.559    85618821.731                  
                 117216318.040                   117216318.040    22510160.079  
                 119275845.728                   119275845.728    22905668.351  
                 133204127.650                   133204127.650    25580462.439  
                 132189905.136                   132189905.136    25385687.516  
  23929637.256   125751067.215                                                  
  24715560.575   129881128.355                                                  
  25311831.699   133014535.504                                                  
  26981649.134   141789454.958                                                  
  24562731.861   129077978.869                                                  
  26453337.693   139013247.423                                                  
  26487174.583   139190991.415                                                  
 21  8 31 22 24 41.0000000  0 20G10G12G18G21G23G24G25G31G32C21C22C26
                                C34E 3E 5E 8E13E15E24E25
  20320674.645   106785821.715    20320677.486    83209719.829                  
  23821048.454   125180432.985    23821050.098    97543189.210                  
  24514202.561   128822951.238    24514206.814   100381509.184                  
  24519681.757   128851775.031    24519682.311   100403975.609                  
  21464379.280   112796068.226    21464380.638    87893040.442                  
  23032888.594   121038592.846    23032892.328    94315773.101                  
  23739557.025   124752123.695    23739562.243    97209424.620                  
  23589875.635   123965609.046    23589877.583    96596571.595                  
  20908838.378   109876651.714    20908841.255    85618161.219                  
                 117215150.555                   117215150.555    22509935.858  
                 119277065.628                   119277065.628    22905902.614  
                 133200695.101                   133200695.101    25579803.233  
                 132191671.593                   132191671.593    25386026.759  
  23929532.275   125750515.536                                                  
  24715817.693   129882479.495                                                  
  25311468.600   133012627.434                                                  
  26981316.324   141787706.036                                                  
  24562886.339   129078790.590                                                  
  26453231.337   139012688.551                                                  
  26486676.001   139188371.402                                                  
 21  8 31 22 24 42.0000000  0 20G10G12G18G21G23G24G25G31G32C21C22C26
                                C34E 3E 5E 8E13E15E24E25
  20320653.488   106785710.488    20320656.311    83209633.156                  
  23820688.983   125178543.860    23820690.627    97541717.165                  
  24514931.885   128826783.874    24514936.138   100384495.651                  
  24519288.389   128849707.824    24519288.943   100402364.801                  
  21464771.523   112798129.450    21464772.881    87894646.590                  
  23033516.136   121041890.573    23033519.852    94318342.757                  
  23739010.608   124749252.235    23739015.826    97207187.121                  
  23589146.007   123961774.796    23589147.937    96593583.872                  
  20908677.128   109875804.333    20908680.005    85617500.918                  
                 117213983.242                   117213983.242    22509711.691  
                 119278285.755                   119278285.755    22906136.948  
                 133197262.564                   133197262.564    25579144.063  
                 132193438.387                   132193438.387    25386366.056  
  23929427.312   125749963.983                                                  
  24716074.828   129883830.717                                                  
  25311105.520   133010719.430                                                  
  26980983.603   141785957.501                                                  
  24563040.906   129079602.792                                                  
  26453125.088   139012130.140                                                  
  26486177.455   139185751.538                                                  
 21  8 31 22 24 43.0000000  0 20G10G12G18G21G23G24G25G31G32C21C22C26
                                C34E 3E 5E 8E13E15E24E25
  20320632.403   106785599.721    20320635.244    83209546.849                  
  23820329.583   125176655.184    23820331.191    97540245.468                  
  24515661.227   128830616.508    24515665.462   100387482.117                  
  24518895.074   128847641.007    24518895.645   100400754.294                  
  21465163.819   112800191.062    21465165.195    87896253.038                  
  23034143.732   121045188.574    23034147.466    94320912.629                  
  23738464.227   124746380.965    23738469.445    97204949.774                  
  23588416.397   123957940.731    23588418.345    96590596.289                  
  20908515.914   109874957.220    20908518.809    85616840.832                  
                 117212816.100                   117212816.100    22509487.560  
                 119279506.095                   119279506.095    22906371.283  
                 133193830.033                   133193830.033    25578484.874  
                 132195205.521                   132195205.521    25386705.425  
  23929322.403   125749412.565                                                  
  24716331.963   129885182.019                                                  
  25310742.439   133008811.457                                                  
  26980650.935   141784209.359                                                  
  24563195.544   129080415.464                                                  
  26453018.892   139011572.190                                                  
  26485678.963   139183131.833                                                  
 21  8 31 22 24 44.0000000  0 20G10G12G18G21G23G24G25G31G32C21C22C26
                                C34E 3E 5E 8E13E15E24E25
  20320611.407   106785489.407    20320614.248    83209460.887                  
  23819970.237   125174766.926    23819971.881    97538774.102                  
  24516390.533   128834449.138    24516394.804   100390468.577                  
  24518501.848   128845574.565    24518502.402   100399144.082                  
  21465556.223   112802253.075    21465557.581    87897859.800                  
  23034771.381   121048486.856    23034775.098    94323482.710                  
  23737917.864   124743509.880    23737923.081    97202712.563                  
  23587686.841   123954106.844    23587688.788    96587608.847                  
  20908354.771   109874110.367    20908357.666    85616180.949                  
                 117211649.136                   117211649.136    22509263.465  
                 119280726.652                   119280726.652    22906605.689  
                 133190397.513                   133190397.513    25577825.704  
                 132196972.992                   132196972.992    25387044.847  
  23929217.476   125748861.273                                                  
  24716589.116   129886533.374                                                  
  25310379.376   133006903.552                                                  
  26980318.339   141782461.604                                                  
  24563350.272   129081228.632                                                  
  26452912.822   139011014.680                                                  
  26485180.453   139180512.277                                                  
 21  8 31 22 24 45.0000000  0 20G10G12G18G21G23G24G25G31G32C21C22C26
                                C34E 3E 5E 8E13E15E24E25
  20320590.500   106785379.535    20320593.341    83209375.273                  
  23819610.998   125172879.107    23819612.642    97537303.074                  
  24517119.858   128838281.751    24517124.128   100393455.024                  
  24518108.676   128843508.511    24518109.247   100397534.167                  
  21465948.680   112804315.470    21465950.038    87899466.858                  
  23035399.084   121051785.413    23035402.801    94326053.019                  
  23737371.536   124740638.995    23737376.772    97200475.512                  
  23586957.302   123950273.149    23586959.232    96584621.554                  
  20908193.682   109873263.793    20908196.559    85615521.277                  
                 117210482.346                   117210482.346    22509039.387  
                 119281947.431                   119281947.431    22906840.112  
                 133186964.999                   133186964.999    25577166.516  
                 132198740.804                   132198740.804    25387384.322  
  23929112.603   125748310.122                                                  
  24716846.305   129887884.819                                                  
  25310016.313   133004995.715                                                  
  26979985.832   141780714.249                                                  
  24563505.107   129082042.267                                                  
  26452806.823   139010457.675                                                  
  26484681.997   139177892.883                                                  
 21  8 31 22 24 46.0000000  0 20G10G12G18G21G23G24G25G31G32C21C22C26
                                C34E 3E 5E 8E13E15E24E25
  20320569.682   106785270.133    20320572.524    83209290.024                  
  23819251.849   125170991.731    23819253.475    97535832.390                  
  24517849.200   128842114.363    24517853.435   100396441.473                  
  24517715.593   128841442.835    24517716.165   100395924.550                  
  21466341.227   112806378.255    21466342.585    87901074.226                  
  23036026.823   121055084.264    23036030.540    94328623.550                  
  23736825.280   124737768.297    23736830.498    97198238.605                  
  23586227.817   123946439.632    23586229.747    96581634.405                  
  20908032.646   109872417.490    20908035.523    85614861.819                  
                 117209315.731                   117209315.731    22508815.363  
                 119283168.424                   119283168.424    22907074.608  
                 133183532.500                   133183532.500    25576507.345  
                 132200508.956                   132200508.956    25387723.887  
  23929007.748   125747759.088                                                  
  24717103.476   129889236.341                                                  
  25309653.286   133003087.921                                                  
  26979653.397   141778967.284                                                  
  24563660.032   129082856.386                                                  
  26452700.895   139009901.101                                                  
  26484183.576   139175273.638                                                  
 21  8 31 22 24 47.0000000  0 20G10G12G18G21G23G24G25G31G32C21C22C26
                                C34E 3E 5E 8E13E15E24E25
  20320548.936   106785161.183    20320551.778    83209205.126                  
  23818892.753   125169104.761    23818894.397    97534362.032                  
  24518578.524   128845946.964    24518582.759   100399427.913                  
  24517322.582   128839377.538    24517323.136   100394315.230                  
  21466733.827   112808441.425    21466735.185    87902681.890                  
  23036654.615   121058383.391    23036658.332    94331194.296                  
  23736279.042   124734897.788    23736284.260    97196001.849                  
  23585498.368   123942606.304    23585500.280    96578647.398                  
  20907871.646   109871571.453    20907874.523    85614202.574                  
                 117208149.284                   117208149.284    22508591.339  
                 119284389.642                   119284389.642    22907309.121  
                 133180100.003                   133180100.003    25575848.157  
                 132202277.448                   132202277.448    25388063.506  
  23928902.928   125747208.181                                                  
  24717360.683   129890587.925                                                  
  25309290.259   133001180.180                                                  
  26979321.033   141777220.706                                                  
  24563815.045   129083670.980                                                  
  26452595.075   139009344.979                                                  
  26483685.173   139172654.540                                                  
 21  8 31 22 24 48.0000000  0 20G10G12G18G21G23G24G25G31G32C21C22C26
                                C34E 3E 5E 8E13E15E24E25
  20320528.298   106785052.699    20320531.139    83209120.593                  
  23818533.782   125167218.242    23818535.426    97532892.015                  
  24519307.848   128849779.562    24519312.083   100402414.351                  
  24516929.642   128837312.617    24516930.196   100392706.202                  
  21467126.499   112810504.999    21467127.875    87904289.871                  
  23037282.479   121061682.800    23037286.196    94333765.262                  
  23735732.822   124732027.469    23735738.039    97193765.239                  
  23584768.918   123938773.160    23584770.866    96575660.535                  
  20907710.700   109870725.698    20907713.577    85613543.542                  
                 117206983.015                   117206983.015    22508367.387  
                 119285611.078                   119285611.078    22907543.687  
                 133176667.518                   133176667.518    25575188.987  
                 132204046.278                   132204046.278    25388403.196  
  23928798.108   125746657.400                                                  
  24717617.907   129891939.593                                                  
  25308927.232   132999272.490                                                  
  26978988.741   141775474.539                                                  
  24563970.149   129084486.055                                                  
  26452489.344   139008789.329                                                  
  26483186.824   139170035.612                                                  
 21  8 31 22 24 49.0000000  0 20G10G12G18G21G23G24G25G31G32C21C22C26
                                C34E 3E 5E 8E13E15E24E25
  20320507.748   106784944.656    20320510.572    83209036.406                  
  23818174.865   125165332.146    23818176.509    97531422.332                  
  24520037.154   128853612.151    24520041.425   100405400.786                  
  24516536.773   128835248.077    24516537.345   100391097.470                  
  21467519.260   112812568.961    21467520.636    87905898.148                  
  23037910.397   121064982.493    23037914.113    94336336.449                  
  23735186.655   124729157.343    23735191.873    97191528.777                  
  23584039.541   123934940.204    23584041.453    96572673.816                  
  20907549.807   109869880.204    20907552.684    85612884.718                  
                 117205816.923                   117205816.923    22508143.434  
                 119286832.731                   119286832.731    22907778.308  
                 133173235.048                   133173235.048    25574529.816  
                 132205815.450                   132205815.450    25388742.940  
  23928693.324   125746106.762                                                  
  24717875.114   129893291.332                                                  
  25308564.223   132997364.863                                                  
  26978656.538   141773728.745                                                  
  24564125.341   129085301.620                                                  
  26452383.702   139008234.126                                                  
  26482688.475   139167416.825                                                  
 21  8 31 22 24 50.0000000  0 20G10G12G18G21G23G24G25G31G32C21C22C26
                                C34E 3E 5E 8E13E15E24E25
  20320487.253   106784837.085    20320490.112    83208952.582                  
  23817816.037   125163446.484    23817817.663    97529952.987                  
  24520766.478   128857444.743    24520770.731   100408387.215                  
  24516143.977   128833183.921    24516144.548   100389489.035                  
  21467912.093   112814633.308    21467913.469    87907506.730                  
  23038538.368   121068282.477    23038542.084    94338907.867                  
  23734640.524   124726287.397    23734645.742    97189292.458                  
  23583310.181   123931107.427    23583312.128    96569687.242                  
  20907388.968   109869034.977    20907391.845    85612226.098                  
                 117204650.999                   117204650.999    22507919.535  
                 119288054.600                   119288054.600    22908012.946  
                 133169802.581                   133169802.581    25573870.646  
                 132207584.960                   132207584.960    25389082.755  
  23928588.558   125745556.245                                                  
  24718132.357   129894643.145                                                  
  25308201.214   132995457.278                                                  
  26978324.406   141771983.364                                                  
  24564280.641   129086117.661                                                  
  26452278.132   139007679.398                                                  
  26482190.162   139164798.194                                                  
 21  8 31 22 24 51.0000000  0 20G10G12G18G21G23G24G25G31G32C21C22C26
                                C34E 3E 5E 8E13E15E24E25
  20320466.882   106784729.960    20320469.723    83208869.110                  
  23817457.281   125161561.253    23817458.924    97528483.977                  
  24521495.803   128861277.321    24521500.038   100411373.637                  
  24515751.251   128831120.135    24515751.823   100387880.894                  
  21468304.997   112816698.050    21468306.373    87909115.622                  
  23039166.374   121071582.737    23039170.091    94341479.496                  
  23734094.429   124723417.647    23734099.664    97187056.294                  
  23582580.857   123927274.844    23582582.804    96566700.815                  
  20907228.183   109868190.026    20907231.060    85611567.694                  
                 117203485.239                   117203485.239    22507695.654  
                 119289276.684                   119289276.684    22908247.637  
                 133166370.137                   133166370.137    25573211.476  
                 132209354.813                   132209354.813    25389422.642  
  23928483.828   125745005.869                                                  
  24718389.617   129895995.036                                                  
  25307838.222   132993549.766                                                  
  26977992.346   141770238.362                                                  
  24564435.994   129086934.177                                                  
  26452172.669   139007125.116                                                  
  26481691.884   139162179.718                                                  
 21  8 31 22 24 52.0000000  0 20G10G12G18G21G23G24G25G31G32C21C22C26
                                C34E 3E 5E 8E13E15E24E25
  20320446.583   106784623.298    20320449.442    83208785.993                  
  23817098.614   125159676.466    23817100.257    97527015.309                  
  24522225.109   128865109.887    24522229.362   100414360.047                  
  24515358.597   128829056.731    24515359.151   100386273.042                  
  21468697.973   112818763.183    21468699.366    87910724.816                  
  23039794.453   121074883.290    23039798.187    94344051.351                  
  23733548.387   124720548.100    23733553.605    97184820.281                  
  23581851.586   123923442.434    23581853.498    96563714.528                  
  20907067.433   109867345.337    20907070.328    85610909.497                  
                 117202319.664                   117202319.664    22507471.845  
                 119290498.995                   119290498.995    22908482.365  
                 133162937.692                   133162937.692    25572552.323  
                 132211125.003                   132211125.003    25389762.582  
  23928379.116   125744455.598                                                  
  24718646.877   129897346.992                                                  
  25307475.231   132991642.290                                                  
  26977660.340   141768493.753                                                  
  24564591.472   129087751.169                                                  
  26452067.260   139006571.297                                                  
  26481193.642   139159561.392                                                  
 21  8 31 22 24 53.0000000  0 20G10G12G18G21G23G24G25G31G32C21C22C26
                                C34E 3E 5E 8E13E15E24E25
  20320426.373   106784517.086    20320429.214    83208703.234                  
  23816740.036   125157792.095    23816741.662    97525546.972                  
  24522954.415   128868942.452    24522958.686   100417346.462                  
  24514966.015   128826993.711    24514966.587   100384665.499                  
  21469091.037   112820828.700    21469092.413    87912334.308                  
  23040422.585   121078184.104    23040426.301    94346623.419                  
  23733002.345   124717678.708    23733007.563    97182584.391                  
  23581122.315   123919610.220    23581124.263    96560728.386                  
  20906906.737   109866500.934    20906909.614    85610251.519                  
                 117201154.264                   117201154.264    22507248.018  
                 119291721.524                   119291721.524    22908717.146  
                 133159505.254                   133159505.254    25571893.135  
                 132212895.531                   132212895.531    25390102.594  
  23928274.421   125743905.474                                                  
  24718904.155   129898699.028                                                  
  25307112.275   132989734.887                                                  
  26977328.440   141766749.538                                                  
  24564747.040   129088568.653                                                  
  26451961.957   139006017.931                                                  
  26480695.418   139156943.230                                                  
 21  8 31 22 24 54.0000000  0 20G10G12G18G21G23G24G25G31G32C21C22C26
                                C34E 3E 5E 8E13E15E24E25
  20320406.252   106784411.340    20320409.093    83208620.833                  
  23816381.547   125155908.165    23816383.156    97524078.977                  
  24523683.739   128872775.009    24523687.992   100420332.863                  
  24514573.522   128824931.067    24514574.076   100383058.241                  
  21469484.174   112822894.616    21469485.532    87913944.108                  
  23041050.752   121081485.215    23041054.487    94349195.711                  
  23732456.357   124714809.522    23732461.575    97180348.668                  
  23580393.116   123915778.182    23580395.046    96557742.392                  
  20906746.112   109865656.785    20906749.007    85609593.746                  
                 117199989.039                   117199989.039    22507024.262  
                 119292944.268                   119292944.268    22908951.963  
                 133156072.827                   133156072.827    25571233.982  
                 132214666.396                   132214666.396    25390442.677  
  23928169.762   125743355.467                                                  
  24719161.451   129900051.128                                                  
  25306749.320   132987827.527                                                  
  26976996.595   141765005.718                                                  
  24564902.697   129089386.604                                                  
  26451856.762   139005465.028                                                  
  26480197.212   139154325.215                                                  
 21  8 31 22 24 55.0000000  0 20G10G12G18G21G23G24G25G31G32C21C22C26
                                C34E 3E 5E 8E13E15E24E25
  20320386.221   106784306.043    20320389.062    83208538.786                  
  23816023.113   125154024.648    23816024.739    97522611.304                  
  24524413.046   128876607.554    24524417.298   100423319.262                  
  24514181.082   128822868.804    24514181.636   100381451.285                  
  21469877.382   112824960.917    21469878.758    87915554.215                  
  23041678.991   121084786.605    23041682.726    94351768.220                  
  23731910.405   124711940.521    23731915.623    97178113.083                  
  23579663.935   123911946.333    23579665.865    96554756.530                  
  20906585.541   109864812.919    20906588.400    85608936.185                  
                 117198823.988                   117198823.988    22506800.524  
                 119294167.233                   119294167.233    22909186.798  
                 133152640.410                   133152640.410    25570574.812  
                 132216437.601                   132216437.601    25390782.814  
  23928065.121   125742805.599                                                  
  24719418.783   129901403.313                                                  
  25306386.382   132985920.212                                                  
  26976664.839   141763262.289                                                  
  24565058.444   129090205.040                                                  
  26451751.621   139004912.586                                                  
  26479699.059   139151707.358                                                  
 21  8 31 22 24 56.0000000  0 20G10G12G18G21G23G24G25G31G32C21C22C26
                                C34E 3E 5E 8E13E15E24E25
  20320366.261   106784201.195    20320369.103    83208457.086                  
  23815664.785   125152141.574    23815666.393    97521143.974                  
  24525142.352   128880440.094    24525146.623   100426305.651                  
  24513788.714   128820806.922    24513789.286   100379844.625                  
  21470270.661   112827027.611    21470272.019    87917164.621                  
  23042307.284   121088088.273    23042311.019    94354340.946                  
  23731364.489   124709071.719    23731369.706    97175877.653                  
  23578934.808   123908114.665    23578936.719    96551770.824                  
  20906425.006   109863969.321    20906427.883    85608278.835                  
                 117197659.114                   117197659.114    22506576.821  
                 119295390.417                   119295390.417    22909421.704  
                 133149208.003                   133149208.003    25569915.659  
                 132218209.143                   132218209.143    25391123.022  
  23927960.516   125742255.850                                                  
  24719676.097   129902755.565                                                  
  25306023.444   132984012.965                                                  
  26976333.136   141761519.253                                                  
  24565214.261   129091023.956                                                  
  26451646.587   139004360.610                                                  
  26479200.924   139149089.657                                                  
 21  8 31 22 24 57.0000000  0 20G10G12G18G21G23G24G25G31G32C21C22C26
                                C34E 3E 5E 8E13E15E24E25
  20320346.391   106784096.811    20320349.232    83208375.745                  
  23815306.511   125150258.935    23815308.155    97519676.984                  
  24525871.658   128884272.621    24525875.911   100429292.039                  
  24513396.418   128818745.425    24513396.972   100378238.266                  
  21470664.012   112829094.695    21470665.388    87918775.341                  
  23042935.613   121091390.234    23042939.365    94356913.903                  
  23730818.608   124706203.114    23730823.826    97173642.376                  
  23578205.680   123904283.176    23578207.592    96548785.251                  
  20906264.524   109863125.987    20906267.401    85607621.694                  
                 117196494.409                   117196494.409    22506353.155  
                 119296613.821                   119296613.821    22909656.664  
                 133145775.606                   133145775.606    25569256.507  
                 132219981.026                   132219981.026    25391463.302  
  23927855.928   125741706.225                                                  
  24719933.447   129904107.894                                                  
  25305660.507   132982105.770                                                  
  26976001.540   141759776.625                                                  
  24565370.204   129091843.351                                                  
  26451541.642   139003809.075                                                  
  26478702.825   139146472.097                                                  
 21  8 31 22 24 58.0000000  0 20G10G12G18G21G23G24G25G31G32C21C22C26
                                C34E 3E 5E 8E13E15E24E25
  20320326.628   106783992.888    20320329.451    83208294.766                  
  23814948.345   125148376.727    23814949.989    97518210.329                  
  24526600.965   128888105.146    24526605.235   100432278.415                  
  24513004.193   128816684.301    24513004.765   100376632.195                  
  21471057.434   112831162.169    21471058.828    87920386.355                  
  23043564.012   121094692.472    23043567.765    94359487.075                  
  23730272.763   124703334.687    23730277.981    97171407.243                  
  23577476.606   123900451.875    23577478.518    96545799.824                  
  20906104.078   109862282.929    20906106.955    85606964.766                  
                 117195329.879                   117195329.879    22506129.524  
                 119297837.440                   119297837.440    22909891.641  
                 133142343.220                   133142343.220    25568597.336  
                 132221753.249                   132221753.249    25391803.636  
  23927751.359   125741156.741                                                  
  24720190.797   129905460.302                                                  
  25305297.587   132980198.616                                                  
  26975669.999   141758034.381                                                  
  24565526.219   129092663.227                                                  
  26451436.769   139003258.009                                                  
  26478204.744   139143854.716                                                  
 21  8 31 22 24 59.0000000  0 20G10G12G18G21G23G24G25G31G32C21C22C26
                                C34E 3E 5E 8E13E15E24E25
  20320306.936   106783889.419    20320309.777    83208214.141                  
  23814590.267   125146494.950    23814591.875    97516744.011                  
  24527330.289   128891937.656    24527334.542   100435264.786                  
  24512612.057   128814623.561    24512612.629   100375026.421                  
  21471450.946   112833230.034    21471452.322    87921997.681                  
  23044192.484   121097994.979    23044196.201    94362060.453                  
  23729726.954   124700466.449    23729732.153    97169172.250                  
  23576747.568   123896620.765    23576749.497    96542814.548                  
  20905943.722   109861440.138    20905946.581    85606308.043                  
                 117194165.528                   117194165.528    22505905.929  
                 119299061.281                   119299061.281    22910126.655  
                 133138910.840                   133138910.840    25567938.202  
                 132223525.809                   132223525.809    25392144.040  
  23927646.825   125740607.380                                                  
  24720448.164   129906812.778                                                  
  25304934.685   132978291.544                                                  
  26975338.528   141756292.522                                                  
  24565682.323   129093483.581                                                  
  26451332.003   139002707.398                                                  
  26477706.699   139141237.470                                                  
 21  8 31 22 25  0.0000000  0 20G10G12G18G21G23G24G25G31G32C21C22C26
                                C34E 3E 5E 8E13E15E24E25
  20320287.334   106783786.402    20320290.175    83208133.868                  
  23814232.244   125144613.611    23814233.887    97515278.030                  
  24528059.577   128895770.169    24528063.848   100438251.157                  
  24512219.975   128812563.194    24512220.547   100373420.945                  
  21471844.529   112835298.292    21471845.905    87923609.308                  
  23044820.973   121101297.777    23044824.708    94364634.062                  
  23729181.180   124697598.419    23729186.398    97166937.421                  
  23576018.565   123892789.840    23576020.477    96539829.411                  
  20905783.383   109860597.617    20905786.260    85605651.535                  
                 117193001.344                   117193001.344    22505682.334  
                 119300285.339                   119300285.339    22910361.722  
                 133135478.474                   133135478.474    25567279.031  
                 132225298.706                   132225298.706    25392484.499  
  23927542.291   125740058.148                                                  
  24720705.532   129908165.329                                                  
  25304571.783   132976384.511                                                  
  26975007.147   141754551.068                                                  
  24565838.516   129094304.414                                                  
  26451227.308   139002157.250                                                  
  26477208.689   139138620.382                                                  
 21  8 31 22 25  1.0000000  0 20G10G12G18G21G23G24G25G31G32C21C22C26
                                C34E 3E 5E 8E13E15E24E25
  20320267.821   106783683.846    20320270.662    83208053.957                  
  23813874.327   125142732.697    23813875.935    97513812.388                  
  24528788.883   128899602.661    24528793.136   100441237.513                  
  24511827.982   128810503.226    24511828.536   100371815.777                  
  21472238.166   112837366.934    21472239.541    87925221.235                  
  23045449.534   121104600.872    23045453.268    94367207.899                  
  23728635.442   124694730.562    23728640.660    97164702.734                  
  23575289.598   123888959.090    23575291.528    96536844.414                  
  20905623.098   109859755.359    20905625.975    85604995.231                  
                 117191837.340                   117191837.340    22505458.792  
                 119301509.618                   119301509.618    22910596.842  
                 133132046.117                   133132046.117    25566619.879  
                 132227071.941                   132227071.941    25392825.047  
  23927437.811   125739509.048                                                  
  24720962.935   129909517.957                                                  
  25304208.899   132974477.518                                                  
  26974675.820   141752810.013                                                  
  24565994.816   129095125.725                                                  
  26451122.703   139001607.569                                                  
  26476710.697   139136003.458                                                  
 21  8 31 22 25  2.0000000  0 20G10G12G18G21G23G24G25G31G32C21C22C26
                                C34E 3E 5E 8E13E15E24E25
  20320248.379   106783581.742    20320251.239    83207974.395                  
  23813516.482   125140852.214    23813518.108    97512347.079                  
  24529518.172   128903435.145    24529522.443   100444223.859                  
  24511436.061   128808443.636    24511436.615   100370210.902                  
  21472631.892   112839435.964    21472633.268    87926833.468                  
  23046078.148   121107904.230    23046081.883    94369781.945                  
  23728089.740   124691862.887    23728094.958    97162468.185                  
  23574560.667   123885128.535    23574562.579    96533859.570                  
  20905462.884   109858913.384    20905465.761    85604339.144                  
                 117190673.507                   117190673.507    22505235.304  
                 119302734.113                   119302734.113    22910831.999  
                 133128613.769                   133128613.769    25565960.744  
                 132228845.516                   132228845.516    25393165.648  
  23927333.367   125738960.074                                                  
  24721220.356   129910870.647                                                  
  25303846.015   132972570.602                                                  
  26974344.582   141751069.336                                                  
  24566151.206   129095947.515                                                  
  26451018.187   139001058.340                                                  
  26476212.741   139133386.678                                                  
 21  8 31 22 25  3.0000000  0 20G10G12G18G21G23G24G25G31G32C21C22C26
                                C34E 3E 5E 8E13E15E24E25
  20320229.045   106783480.099    20320231.886    83207895.192                  
  23813158.726   125138972.169    23813160.334    97510882.108                  
  24530247.478   128907267.622    24530251.749   100447210.203                  
  24511044.193   128806384.425    24511044.765   100368606.320                  
  21473025.707   112841505.390    21473027.065    87928446.008                  
  23046706.798   121111207.879    23046710.533    94372356.214                  
  23727544.074   124688995.423    23727549.291    97160233.793                  
  23573831.754   123881298.164    23573833.684    96530874.868                  
  20905302.724   109858071.673    20905305.601    85603683.265                  
                 117189509.852                   117189509.852    22505011.834  
                 119303958.829                   119303958.829    22911067.173  
                 133125181.432                   133125181.432    25565301.592  
                 132230619.428                   132230619.428    25393506.303  
  23927228.904   125738411.224                                                  
  24721477.777   129912223.419                                                  
  25303483.166   132970663.730                                                  
  26974013.415   141749329.058                                                  
  24566307.667   129096769.776                                                  
  26450913.760   139000509.575                                                  
  26475714.821   139130770.051                                                  
 21  8 31 22 25  4.0000000  0 20G10G12G18G21G23G24G25G31G32C21C22C26
                                C34E 3E 5E 8E13E15E24E25
  20320209.782   106783378.910    20320212.641    83207816.344                  
  23812801.042   125137092.566    23812802.668    97509417.483                  
  24530976.785   128911100.094    24530981.037   100450196.542                  
  24510652.415   128804325.587    24510652.987   100367002.030                  
  21473419.558   112843575.206    21473420.934    87930058.847                  
  23047335.520   121114511.798    23047339.255    94374930.694                  
  23726998.461   124686128.147    23727003.679    97157999.559                  
  23573102.894   123877467.981    23573104.824    96527890.310                  
  20905142.600   109857230.237    20905145.477    85603027.606                  
                 117188346.368                   117188346.368    22504788.400  
                 119305183.765                   119305183.765    22911302.418  
                 133121749.110                   133121749.110    25564642.457  
                 132232393.681                   132232393.681    25393847.012  
  23927124.478   125737862.497                                                  
  24721735.216   129913576.270                                                  
  25303120.300   132968756.905                                                  
  26973682.338   141747589.168                                                  
  24566464.235   129097592.531                                                  
  26450809.423   138999961.264                                                  
  26475216.918   139128153.586                                                  
 21  8 31 22 25  5.0000000  0 20G10G12G18G21G23G24G25G31G32C21C22C26
                                C34E 3E 5E 8E13E15E24E25
  20320190.627   106783278.182    20320193.468    83207737.855                  
  23812443.447   125135213.387    23812445.055    97507953.187                  
  24531706.073   128914932.560    24531710.344   100453182.875                  
  24510260.708   128802267.133    24510261.262   100365398.042                  
  21473813.516   112845645.410    21473814.875    87931671.992                  
  23047964.295   121117815.999    23047968.012    94377505.398                  
  23726452.866   124683261.071    23726458.084    97155765.473                  
  23572374.089   123873637.977    23572376.000    96524905.896                  
  20904982.511   109856389.060    20904985.406    85602372.141                  
                 117187183.058                   117187183.058    22504565.002  
                 119306408.917                   119306408.917    22911537.700  
                 133118316.794                   133118316.794    25563983.305  
                 132234168.271                   132234168.271    25394187.828  
  23927020.105   125737313.910                                                  
  24721992.655   129914929.180                                                  
  25302757.452   132966850.148                                                  
  26973351.314   141745849.683                                                  
  24566620.875   129098415.752                                                  
  26450705.158   138999413.403                                                  
  26474719.034   139125537.270                                                  
 21  8 31 22 25  6.0000000  0 20G10G12G18G21G23G24G25G31G32C21C22C26
                                C34E 3E 5E 8E13E15E24E25
  20320171.543   106783177.909    20320174.384    83207659.718                  
  23812085.924   125133334.653    23812087.568    97506489.241                  
  24532435.361   128918765.020    24532439.632   100456169.203                  
  24509869.055   128800209.058    24509869.627   100363794.347                  
  21474207.546   112847716.003    21474208.904    87933285.444                  
  23048593.124   121121120.475    23048596.841    94380080.313                  
  23725907.325   124680394.173    23725912.543    97153531.527                  
  23571645.283   123869808.161    23571647.195    96521921.626                  
  20904822.494   109855548.156    20904825.371    85601716.890                  
                 117186019.927                   117186019.927    22504341.639  
                 119307634.290                   119307634.290    22911773.017  
                 133114884.490                   133114884.490    25563324.152  
                 132235943.201                   132235943.201    25394528.679  
  23926915.714   125736765.450                                                  
  24722250.148   129916282.193                                                  
  25302394.621   132964943.484                                                  
  26973020.380   141744110.597                                                  
  24566777.640   129099239.481                                                  
  26450600.999   138998866.023                                                  
  26474221.203   139122921.121                                                  
 21  8 31 22 25  7.0000000  0 20G10G12G18G21G23G24G25G31G32C21C22C26
                                C34E 3E 5E 8E13E15E24E25
  20320152.548   106783078.082    20320155.371    83207581.931                  
  23811728.508   125131456.357    23811730.116    97505025.636                  
  24533164.668   128922597.471    24533168.921   100459155.531                  
  24509477.509   128798151.375    24509478.063   100362190.956                  
  21474601.648   112849786.993    21474603.006    87934899.198                  
  23049222.006   121124425.242    23049225.723    94382655.454                  
  23725361.801   124677527.475    23725367.019    97151297.739                  
  23570916.512   123865978.515    23570918.442    96518937.493                  
  20904662.549   109854707.524    20904665.425    85601061.851                  
                 117184856.966                   117184856.966    22504118.294  
                 119308859.878                   119308859.878    22912008.388  
                 133111452.194                   133111452.194    25562665.035  
                 132237718.462                   132237718.462    25394869.603  
  23926811.377   125736217.122                                                  
  24722507.623   129917635.267                                                  
  25302031.826   132963036.888                                                  
  26972689.517   141742371.904                                                  
  24566934.476   129100063.692                                                  
  26450496.912   138998319.097                                                  
  26473723.407   139120305.113                                                  
 21  8 31 22 25  8.0000000  0 20G10G12G18G21G23G24G25G31G32C21C22C26
                                C34E 3E 5E 8E13E15E24E25
  20320133.642   106782978.739    20320136.484    83207504.521                  
  23811371.145   125129578.465    23811372.789    97503562.349                  
  24533893.938   128926429.893    24533898.227   100462141.829                  
  24509085.998   128796094.054    24509086.552   100360587.851                  
  21474995.803   112851858.376    21474997.178    87936513.265                  
  23049850.924   121127730.285    23049854.659    94385230.812                  
  23724816.314   124674660.945    23724821.532    97149064.083                  
  23570187.796   123862149.089    23570189.726    96515953.524                  
  20904502.621   109853867.163    20904505.498    85600407.028                  
                 117183694.180                   117183694.180    22503895.003  
                 119310085.692                   119310085.692    22912243.776  
                 133108019.910                   133108019.910    25562005.901  
                 132239494.067                   132239494.067    25395210.579  
  23926707.057   125735668.912                                                  
  24722765.097   129918988.382                                                  
  25301668.960   132961130.153                                                  
  26972358.726   141740633.566                                                  
  24567091.402   129100888.310                                                  
  26450392.914   138997772.597                                                  
  26473225.612   139117689.272                                                  
 21  8 31 22 25  9.0000000  0 20G10G12G18G21G23G24G25G31G32C21C22C26
                                C34E 3E 5E 8E13E15E24E25
  20320114.826   106782879.840    20320117.668    83207427.458                  
  23811013.872   125127701.029    23811015.498    97502099.411                  
  24534623.245   128930262.324    24534627.497   100465128.136                  
  24508694.577   128794037.132    24508695.131   100358985.059                  
  21475390.047   112853930.144    21475391.423    87938127.629                  
  23050479.896   121131035.601    23050483.649    94387806.383                  
  23724270.880   124671794.634    23724276.080    97146830.594                  
  23569459.115   123858319.828    23569461.045    96512969.687                  
  20904342.765   109853027.077    20904345.641    85599752.414                  
                 117182531.569                   117182531.569    22503671.747  
                 119311311.719                   119311311.719    22912479.237  
                 133104587.637                   133104587.637    25561346.766  
                 132241270.003                   132241270.003    25395551.645  
  23926602.756   125735120.827                                                  
  24723022.626   129920341.603                                                  
  25301306.183   132959223.639                                                  
  26972028.024   141738895.659                                                  
  24567248.417   129101713.462                                                  
  26450289.024   138997226.593                                                  
  26472727.853   139115073.581                                                  
 21  8 31 22 25 10.0000000  0 20G10G12G18G21G23G24G25G31G32C21C22C26
                                C34E 3E 5E 8E13E15E24E25
  20320096.082   106782781.395    20320098.941    83207350.746                  
  23810656.706   125125824.023    23810658.314    97500636.810                  
  24535352.515   128934094.731    24535356.804   100468114.425                  
  24508303.246   128791980.588    24508303.800   100357382.558                  
  21475784.362   112856002.296    21475785.738    87939742.293                  
  23051108.939   121134341.204    23051112.656    94390382.173                  
  23723725.464   124668928.503    23723730.681    97144597.245                  
  23568730.488   123854490.754    23568732.382    96509985.995                  
  20904182.944   109852187.253    20904185.821    85599098.007                  
                 117181369.132                   117181369.132    22503448.491  
                 119312537.967                   119312537.967    22912714.715  
                 133101155.379                   133101155.379    25560687.613  
                 132243046.285                   132243046.285    25395892.765  
  23926498.508   125734572.886                                                  
  24723280.136   129921694.886                                                  
  25300943.388   132957317.125                                                  
  26971697.375   141737158.134                                                  
  24567405.522   129102539.081                                                  
  26450185.205   138996681.044                                                  
  26472230.147   139112458.043                                                  
 21  8 31 22 25 11.0000000  0 20G10G12G18G21G23G24G25G31G32C21C22C26
                                C34E 3E 5E 8E13E15E24E25
  20320077.444   106782683.411    20320080.286    83207274.394                  
  23810299.593   125123947.449    23810301.219    97499174.546                  
  24536081.804   128937927.144    24536086.074   100471100.719                  
  24507911.968   128789924.429    24507912.522   100355780.356                  
  21476178.768   112858074.844    21476180.143    87941357.261                  
  23051738.018   121137647.086    23051741.753    94392958.183                  
  23723180.101   124666062.556    23723185.301    97142364.040                  
  23568001.860   123850661.871    23568003.754    96507002.457                  
  20904023.177   109851347.704    20904026.054    85598443.814                  
                 117180206.872                   117180206.872    22503225.307  
                 119313764.434                   119313764.434    22912950.264  
                 133097723.124                   133097723.124    25560028.497  
                 132244822.898                   132244822.898    25396233.938  
  23926394.242   125734025.054                                                  
  24723537.682   129923048.247                                                  
  25300580.594   132955410.696                                                  
  26971366.798   141735421.005                                                  
  24567562.733   129103365.187                                                  
  26450081.475   138996135.941                                                  
  26471732.459   139109842.669                                                  
 21  8 31 22 25 12.0000000  0 20G10G12G18G21G23G24G25G31G32C21C22C26
                                C34E 3E 5E 8E13E15E24E25
  20320058.878   106782585.873    20320061.720    83207198.390                  
  23809942.588   125122071.298    23809944.196    97497712.606                  
  24536811.146   128941759.246    24536815.452   100474086.617                  
  24507520.761   128787868.637    24507521.315   100354178.442                  
  21476573.226   112860147.788    21476574.602    87942972.552                  
  23052367.169   121140953.297    23052370.885    94395534.474                  
  23722634.756   124663196.853    23722639.956    97140131.050                  
  23567273.287   123846833.179    23567275.181    96504019.067                  
  20903863.482   109850508.422    20903866.359    85597789.828                  
                 117179044.784                   117179044.784    22503002.141  
                 119314991.112                   119314991.112    22913185.813  
                 133094291.067                   133094291.067    25559369.344  
                 132246599.835                   132246599.835    25396575.183  
  23926290.012   125733477.374                                                  
  24723795.229   129924401.679                                                  
  25300217.817   132953504.341                                                  
  26971036.329   141733684.258                                                  
  24567720.017   129104191.768                                                  
  26449977.835   138995591.304                                                  
  26471234.807   139107227.429                                                  
 21  8 31 22 25 13.0000000  0 20G10G12G18G21G23G24G25G31G32C21C22C26
                                C34E 3E 5E 8E13E15E24E25
  20320040.402   106782488.804    20320043.261    83207122.755                  
  23809585.636   125120195.590    23809587.262    97496251.019                  
  24537540.434   128945591.642    24537544.740   100477072.899                  
  24507129.644   128785813.238    24507130.180   100352576.832                  
  21476967.756   112862221.126    21476969.132    87944588.132                  
  23052996.355   121144259.746    23053000.072    94398110.927                  
  23722089.465   124660331.294    23722094.665    97137898.149                  
  23566544.749   123843004.669    23566546.643    96501035.812                  
  20903703.822   109849669.414    20903706.699    85597136.055                  
                 117177882.874                   117177882.874    22502778.993  
                 119316218.020                   119316218.020    22913421.434  
                 133090858.835                   133090858.835    25558710.227  
                 132248377.126                   132248377.126    25396916.499  
  23926185.818   125732929.801                                                  
  24724052.793   129925755.197                                                  
  25299855.040   132951598.000                                                  
  26970705.895   141731947.918                                                  
  24567877.407   129105018.837                                                  
  26449874.284   138995047.140                                                  
  26470737.154   139104612.366                                                  
 21  8 31 22 25 14.0000000  0 20G10G12G18G21G23G24G25G31G32C21C22C26
                                C34E 3E 5E 8E13E15E24E25
  20320022.015   106782392.149    20320024.856    83207047.419                  
  23809228.774   125118320.310    23809230.418    97494789.758                  
  24538269.722   128949424.040    24538274.029   100480059.188                  
  24506738.581   128783758.279    24506739.117   100350975.597                  
  21477362.376   112864294.801    21477363.752    87946203.958                  
  23053625.613   121147566.464    23053629.347    94400687.586                  
  23721544.192   124657465.937    23721549.392    97135665.405                  
  23565816.229   123839176.293    23565818.141    96498052.638                  
  20903544.198   109848830.669    20903547.075    85596482.488                  
                 117176721.138                   117176721.138    22502555.898  
                 119317445.143                   119317445.143    22913657.109  
                 133087426.620                   133087426.620    25558051.075  
                 132250154.754                   132250154.754    25397257.851  
  23926081.659   125732382.391                                                  
  24724310.375   129927108.702                                                  
  25299492.299   132949691.747                                                  
  26970375.568   141730212.098                                                  
  24568034.887   129105846.380                                                  
  26449770.822   138994503.425                                                  
  26470239.556   139101997.444                                                  
 21  8 31 22 25 15.0000000  0 20G10G12G18G21G23G24G25G31G32C21C22C26
                                C34E 3E 5E 8E13E15E24E25
  20320003.717   106782295.993    20320006.576    83206972.488                  
  23808872.019   125116445.465    23808873.645    97493328.839                  
  24538998.975   128953256.404    24539003.299   100483045.441                  
  24506347.589   128781703.622    24506348.142   100349374.566                  
  21477757.085   112866368.907    21477758.443    87947820.140                  
  23054254.924   121150873.461    23054258.641    94403264.469                  
  23720998.954   124654600.765    23721004.172    97133432.808                  
  23565087.762   123835348.150    23565089.656    96495069.669                  
  20903384.663   109847992.203    20903387.522    85595829.138                  
                 117175559.573                   117175559.573    22502332.839  
                 119318672.484                   119318672.484    22913892.801  
                 133083994.415                   133083994.415    25557391.958  
                 132251932.720                   132251932.720    25397599.292  
  23925977.501   125731835.066                                                  
  24724567.957   129928462.360                                                  
  25299129.558   132947785.532                                                  
  26970045.295   141728476.542                                                  
  24568192.456   129106674.391                                                  
  26449667.432   138993960.165                                                  
  26469741.975   139099382.698                                                  
 21  8 31 22 25 16.0000000  0 20G10G12G18G21G23G24G25G31G32C21C22C26
                                C34E 3E 5E 8E13E15E24E25
  20319985.526   106782200.289    20319988.367    83206897.917                  
  23808515.318   125114571.053    23808516.962    97491868.266                  
  24539728.264   128957088.770    24539732.588   100486031.700                  
  24505956.668   128779649.352    24505957.222   100347773.837                  
  21478151.847   112868443.403    21478153.223    87949436.633                  
  23054884.253   121154180.755    23054888.005    94405841.574                  
  23720453.788   124651735.786    23720458.988    97131200.355                  
  23564359.314   123831520.200    23564361.225    96492086.855                  
  20903225.147   109847153.996    20903228.023    85595175.989                  
                 117174398.189                   117174398.189    22502109.798  
                 119319900.047                   119319900.047    22914128.547  
                 133080562.218                   133080562.218    25556732.841  
                 132253711.020                   132253711.020    25397940.823  
  23925873.378   125731287.892                                                  
  24724825.557   129929816.089                                                  
  25298766.816   132945879.353                                                  
  26969715.093   141726741.388                                                  
  24568350.114   129107502.885                                                  
  26449564.167   138993417.368                                                  
  26469244.448   139096768.102                                                  
 21  8 31 22 25 17.0000000  0 20G10G12G18G21G23G24G25G31G32C21C22C26
                                C34E 3E 5E 8E13E15E24E25
  20319967.371   106782105.051    20319970.248    83206823.706                  
  23808158.723   125112697.082    23808160.332    97490408.027                  
  24540457.534   128960921.130    24540461.858   100489017.948                  
  24505565.819   128777595.465    24505566.373   100346173.407                  
  21478546.681   112870518.293    21478548.057    87951053.430                  
  23055513.671   121157488.312    23055517.406    94408418.894                  
  23719908.622   124648870.999    23719913.840    97128968.056                  
  23563630.919   123827692.444    23563632.813    96489104.190                  
  20903065.701   109846316.070    20903068.578    85594523.060                  
                 117173236.973                   117173236.973    22501886.792  
                 119321127.827                   119321127.827    22914364.311  
                 133077130.038                   133077130.038    25556073.742  
                 132255489.660                   132255489.660    25398282.372  
  23925769.273   125730740.843                                                  
  24725083.192   129931169.903                                                  
  25298404.093   132943973.255                                                  
  26969384.999   141725006.633                                                  
  24568507.862   129108331.870                                                  
  26449460.937   138992875.015                                                  
  26468746.938   139094153.664                                                  
 21  8 31 22 25 18.0000000  0 20G10G12G18G21G23G24G25G31G32C21C22C26
                                C34E 3E 5E 8E13E15E24E25
  20319949.359   106782010.269    20319952.200    83206749.847                  
  23807802.201   125110823.543    23807803.827    97488948.126                  
  24541186.823   128964753.461    24541191.111   100492004.180                  
  24505175.059   128775541.958    24505175.613   100344573.270                  
  21478941.604   112872593.573    21478942.962    87952670.532                  
  23056143.143   121160796.164    23056146.878    94410996.440                  
  23719363.528   124646006.414    23719368.728    97126735.914                  
  23562902.541   123823864.855    23562904.453    96486121.656                  
  20902906.292   109845478.405    20902909.169    85593870.332                  
                 117172075.935                   117172075.935    22501663.841  
                 119322355.829                   119322355.829    22914600.147  
                 133073697.867                   133073697.867    25555414.626  
                 132257268.638                   132257268.638    25398624.027  
  23925665.204   125730193.923                                                  
  24725340.828   129932523.778                                                  
  25298041.388   132942067.178                                                  
  26969054.958   141723272.257                                                  
  24568665.699   129109161.315                                                  
  26449357.833   138992333.157                                                  
  26468249.465   139091539.378                                                  
 21  8 31 22 25 19.0000000  0 20G10G12G18G21G23G24G25G31G32C21C22C26
                                C34E 3E 5E 8E13E15E24E25
  20319931.401   106781915.950    20319934.260    83206676.352                  
  23807445.767   125108950.434    23807447.376    97487488.563                  
  24541916.075   128968585.786    24541920.400   100494990.403                  
  24504784.353   128773488.839    24504784.925   100342973.436                  
  21479336.581   112874669.247    21479337.957    87954287.937                  
  23056772.651   121164104.288    23056776.386    94413574.195                  
  23718818.433   124643142.017    23718823.633    97124503.918                  
  23562174.218   123820037.469    23562176.112    96483139.277                  
  20902746.936   109844641.016    20902749.813    85593217.823                  
                 117170915.071                   117170915.071    22501440.907  
                 119323584.048                   119323584.048    22914836.000  
                 133070265.708                   133070265.708    25554755.509  
                 132259047.950                   132259047.950    25398965.719  
  23925561.153   125729647.133                                                  
  24725598.481   129933877.738                                                  
  25297678.682   132940161.175                                                  
  26968725.006   141721538.285                                                  
  24568823.643   129109991.256                                                  
  26449254.800   138991791.739                                                  
  26467752.009   139088925.254                                                  
 21  8 31 22 25 20.0000000  0 20G10G12G18G21G23G24G25G31G32C21C22C26
                                C34E 3E 5E 8E13E15E24E25
  20319913.532   106781822.077    20319916.373    83206603.207                  
  23807089.405   125107077.769    23807091.014    97486029.343                  
  24542645.346   128972418.102    24542649.652   100497976.621                  
  24504393.736   128771436.101    24504394.308   100341373.903                  
  21479731.648   112876745.304    21479733.023    87955905.645                  
  23057402.213   121167412.687    23057405.965    94416152.169                  
  23718273.392   124640277.813    23718278.592    97122272.071                  
  23561445.912   123816210.255    23561447.824    96480157.040                  
  20902587.633   109843803.886    20902590.528    85592565.516                  
                 117169754.381                   117169754.381    22501218.009  
                 119324812.486                   119324812.486    22915071.925  
                 133066833.558                   133066833.558    25554096.392  
                 132260827.599                   132260827.599    25399307.482  
  23925457.119   125729100.454                                                  
  24725856.135   129935231.766                                                  
  25297315.995   132938255.233                                                  
  26968395.108   141719804.707                                                  
  24568981.659   129110821.667                                                  
  26449151.857   138991250.777                                                  
  26467254.589   139086311.277                                                  
 21  8 31 22 25 21.0000000  0 20G10G12G18G21G23G24G25G31G32C21C22C26
                                C34E 3E 5E 8E13E15E24E25
  20319895.752   106781728.664    20319898.611    83206530.413                  
  23806733.115   125105205.526    23806734.741    97484570.457                  
  24543374.616   128976250.419    24543378.941   100500962.839                  
  24504003.173   128769383.745    24504003.745   100339774.669                  
  21480126.785   112878821.755    21480128.161    87957523.656                  
  23058031.846   121170721.363    23058035.580    94418730.355                  
  23717728.387   124637413.806    23717733.605    97120040.375                  
  23560717.660   123812383.239    23560719.554    96477174.953                  
  20902428.403   109842967.040    20902431.279    85591913.426                  
                 117168593.866                   117168593.866    22500995.146  
                 119326041.141                   119326041.141    22915307.867  
                 133063401.422                   133063401.422    25553437.275  
                 132262607.586                   132262607.586    25399649.298  
  23925353.122   125728553.933                                                  
  24726113.824   129936585.864                                                  
  25296953.325   132936349.341                                                  
  26968065.282   141718071.534                                                  
  24569139.764   129111652.562                                                  
  26449049.003   138990710.278                                                  
  26466757.187   139083697.458                                                  
 21  8 31 22 25 22.0000000  0 20G10G12G18G21G23G24G25G31G32C21C22C26
                                C34E 3E 5E 8E13E15E24E25
  20319878.080   106781635.716    20319880.921    83206457.988                  
  23806376.914   125103333.727    23806378.558    97483111.910                  
  24544103.887   128980082.720    24544108.193   100503949.044                  
  24503612.699   128767331.776    24503613.253   100338175.730                  
  21480521.977   112880898.596    21480523.352    87959141.974                  
  23058661.514   121174030.329    23058665.267    94421308.771                  
  23717183.418   124634549.981    23717188.618    97117808.828                  
  23559989.444   123808556.410    23559991.338    96474193.009                  
  20902269.207   109842130.458    20902272.084    85591261.544                  
                 117167433.532                   117167433.532    22500772.319  
                 119327270.015                   119327270.015    22915543.863  
                 133059969.298                   133059969.298    25552778.176  
                 132264387.909                   132264387.909    25399991.204  
  23925249.142   125728007.507                                                  
  24726371.495   129937940.039                                                  
  25296590.637   132934443.487                                                  
  26967735.545   141716338.733                                                  
  24569297.976   129112483.927                                                  
  26448946.238   138990170.240                                                  
  26466259.820   139081083.798                                                  
 21  8 31 22 25 23.0000000  0 20G10G12G18G21G23G24G25G31G32C21C22C26
                                C34E 3E 5E 8E13E15E24E25
  20319860.479   106781543.216    20319863.320    83206385.910                  
  23806020.820   125101462.356    23806022.446    97481653.699                  
  24544833.140   128983915.007    24544837.464   100506935.239                  
  24503222.296   128765280.195    24503222.868   100336577.093                  
  21480917.275   112882975.828    21480918.633    87960760.593                  
  23059291.254   121177339.563    23059294.989    94423887.392                  
  23716638.484   124631686.358    23716643.702    97115577.434                  
  23559261.246   123804729.763    23559263.158    96471211.208                  
  20902110.066   109841294.149    20902112.943    85590609.874                  
                 117166273.366                   117166273.366    22500549.528  
                 119328499.110                   119328499.110    22915779.895  
                 133056537.182                   133056537.182    25552119.077  
                 132266168.571                   132266168.571    25400333.164  
  23925145.180   125727461.230                                                  
  24726629.220   129939294.281                                                  
  25296227.986   132932537.704                                                  
  26967405.879   141714606.341                                                  
  24569456.260   129113315.772                                                  
  26448843.563   138989630.656                                                  
  26465762.472   139078470.293                                                  
 21  8 31 22 25 24.0000000  0 20G10G12G18G21G23G24G25G31G32C21C22C26
                                C34E 3E 5E 8E13E15E24E25
  20319842.967   106781451.177    20319845.808    83206314.192                  
  23805664.780   125099591.419    23805666.424    97480195.828                  
  24545562.392   128987747.276    24545566.717   100509921.423                  
  24502831.983   128763228.983    24502832.519   100334978.751                  
  21481312.645   112885053.450    21481314.003    87962379.519                  
  23059921.048   121180649.075    23059924.765    94426466.234                  
  23716093.604   124628822.932    23716098.804    97113346.195                  
  23558533.101   123800903.301    23558534.995    96468229.554                  
  20901950.960   109840458.107    20901953.837    85589958.413                  
                 117165113.374                   117165113.374    22500326.737  
                 119329728.425                   119329728.425    22916015.981  
                 133053105.081                   133053105.081    25551459.979  
                 132267949.566                   132267949.566    25400675.177  
  23925041.254   125726915.079                                                  
  24726886.927   129940648.605                                                  
  25295865.334   132930631.964                                                  
  26967076.303   141712874.335                                                  
  24569614.651   129114148.093                                                  
  26448740.977   138989091.536                                                  
  26465265.177   139075856.937                                                  
 21  8 31 22 25 25.0000000  0 20G10G12G18G21G23G24G25G31G32C21C22C26
                                C34E 3E 5E 8E13E15E24E25
  20319825.545   106781359.602    20319828.386    83206242.832                  
  23805308.847   125097720.919    23805310.455    97478738.296                  
  24546291.663   128991579.543    24546295.987   100512907.598                  
  24502441.724   128761178.165    24502442.260   100333380.710                  
  21481708.069   112887131.456    21481709.445    87963998.745                  
  23060550.860   121183958.880    23060554.594    94429045.297                  
  23715548.742   124625959.700    23715553.941    97111115.105                  
  23557804.974   123797077.044    23557806.886    96465248.055                  
  20901791.926   109839622.332    20901794.803    85589307.160                  
                 117163953.563                   117163953.563    22500104.018  
                 119330957.956                   119330957.956    22916252.102  
                 133049672.995                   133049672.995    25550800.880  
                 132269730.899                   132269730.899    25401017.261  
  23924937.363   125726369.055                                                  
  24727144.652   129942002.991                                                  
  25295502.700   132928726.290                                                  
  26966746.780   141711142.735                                                  
  24569773.132   129114980.907                                                  
  26448638.462   138988552.880                                                  
  26464767.900   139073243.752                                                  
 21  8 31 22 25 26.0000000  0 20G10G12G18G21G23G24G25G31G32C21C22C26
                                C34E 3E 5E 8E13E15E24E25
  20319808.194   106781268.475    20319811.035    83206171.829                  
  23804952.985   125095850.854    23804954.593    97477281.105                  
  24547020.916   128995411.797    24547025.240   100515893.770                  
  24502051.518   128759127.728    24502052.072   100331782.965                  
  21482103.564   112889209.852    21482104.940    87965618.272                  
  23061180.761   121187268.950    23061184.477    94431624.574                  
  23715003.915   124623096.644    23715009.115    97108884.156                  
  23557076.900   123793250.946    23557078.795    96462266.685                  
  20901632.927   109838786.827    20901635.804    85588656.122                  
                 117162793.921                   117162793.921    22499881.316  
                 119332187.711                   119332187.711    22916488.259  
                 133046240.917                   133046240.917    25550141.781  
                 132271512.566                   132271512.566    25401359.417  
  23924833.473   125725823.156                                                  
  24727402.395   129943357.465                                                  
  25295140.066   132926820.647                                                  
  26966417.347   141709411.531                                                  
  24569931.701   129115814.194                                                  
  26448536.055   138988014.679                                                  
  26464270.659   139070630.723                                                  
 21  8 31 22 25 27.0000000  0 20G10G12G18G21G23G24G25G31G32C21C22C26
                                C34E 3E 5E 8E13E15E24E25
  20319790.932   106781177.810    20319793.774    83206101.176                  
  23804597.195   125093981.226    23804598.821    97475824.254                  
  24547750.186   128999244.046    24547754.475   100518879.933                  
  24501661.419   128757077.663    24501661.955   100330185.517                  
  21482499.166   112891288.642    21482500.524    87967238.109                  
  23061810.697   121190579.304    23061814.414    94434204.071                  
  23714459.142   124620233.796    23714464.342    97106653.368                  
  23556348.863   123789425.050    23556350.757    96459285.470                  
  20901473.982   109837951.601    20901476.859    85588005.294                  
                 117161634.461                   117161634.461    22499658.668  
                 119333417.681                   119333417.681    22916724.452  
                 133042808.857                   133042808.857    25549482.682  
                 132273294.571                   132273294.571    25401701.645  
  23924729.618   125725277.387                                                  
  24727660.173   129944712.012                                                  
  25294777.432   132924915.069                                                  
  26966087.985   141707680.720                                                  
  24570090.360   129116647.953                                                  
  26448433.719   138987476.944                                                  
  26463773.435   139068017.840                                                  
 21  8 31 22 25 28.0000000  0 20G10G12G18G21G23G24G25G31G32C21C22C26
                                C34E 3E 5E 8E13E15E24E25
  20319773.778   106781087.611    20319776.619    83206030.891                  
  23804241.494   125092112.035    23804243.120    97474367.742                  
  24548479.421   129003076.277    24548483.745   100521866.085                  
  24501271.374   128755027.983    24501271.928   100328588.363                  
  21482894.804   112893367.825    21482896.180    87968858.251                  
  23062440.687   121193889.931    23062444.422    94436783.778                  
  23713914.387   124617371.145    23713919.605    97104422.731                  
  23555620.843   123785599.339    23555622.737    96456304.398                  
  20901315.109   109837116.642    20901317.986    85587354.676                  
                 117160475.173                   117160475.173    22499436.038  
                 119334647.872                   119334647.872    22916960.698  
                 133039376.799                   133039376.799    25548823.601  
                 132275076.910                   132275076.910    25402043.926  
  23924625.781   125724731.753                                                  
  24727917.934   129946066.624                                                  
  25294414.834   132923009.559                                                  
  26965758.695   141705950.296                                                  
  24570249.127   129117482.196                                                  
  26448331.472   138986939.664                                                  
  26463276.265   139065405.125                                                  
 21  8 31 22 25 29.0000000  0 20G10G12G18G21G23G24G25G31G32C21C22C26
                                C34E 3E 5E 8E13E15E24E25
  20319756.695   106780997.861    20319759.537    83205960.958                  
  23803885.883   125090243.270    23803887.527    97472911.565                  
  24549208.674   129006908.503    24549212.998   100524852.235                  
  24500881.401   128752978.685    24500881.955   100326991.507                  
  21483290.532   112895447.398    21483291.925    87970478.700                  
  23063070.731   121197200.849    23063074.466    94439363.711                  
  23713369.686   124614508.678    23713374.886    97102192.242                  
  23554892.859   123781773.819    23554894.753    96453323.476                  
  20901156.253   109836281.949    20901159.148    85586704.265                  
                 117159316.060                   117159316.060    22499213.444  
                 119335878.281                   119335878.281    22917196.980  
                 133035944.762                   133035944.762    25548164.502  
                 132276859.589                   132276859.589    25402386.261  
  23924521.980   125724186.239                                                  
  24728175.748   129947421.315                                                  
  25294052.235   132921104.086                                                  
  26965429.476   141704220.265                                                  
  24570407.964   129118316.915                                                  
  26448229.315   138986402.836                                                  
  26462779.096   139062792.562                                                  
 21  8 31 22 25 30.0000000  0 19G10G12G21G23G24G25G31G32C21C22C26C34
                                E 3E 5E 8E13E15E24E25
  20319739.702   106780908.565    20319742.561    83205891.380                  
  23803530.361   125088374.945    23803531.987    97471455.730                  
  24500491.499   128750929.771    24500492.053   100325394.949                  
  21483686.348   112897527.358    21483687.724    87972099.446                  
  23063700.847   121200512.027    23063704.563    94441943.851                  
  23712825.002   124611646.414    23712830.202    97099961.907                  
  23554164.929   123777948.493    23554166.823    96450342.707                  
  20900997.487   109835447.524    20901000.364    85586054.065                  
                 117158157.118                   117158157.118    22498990.885  
                 119337108.911                   119337108.911    22917433.316  
                 133032512.734                   133032512.734    25547505.421  
                 132278642.603                   132278642.603    25402728.685  
  23924418.196   125723640.860                                                  
  24728433.545   129948776.074                                                  
  25293689.637   132919198.675                                                  
  26965100.346   141702490.640                                                  
  24570566.874   129119152.109                                                  
  26448127.265   138985866.481                                                  
  26462281.979   139060180.160                                                  
 21  8 31 22 25 31.0000000  0 19G10G12G21G23G24G25G31G32C21C22C26C34
                                E 3E 5E 8E13E15E24E25
  20319722.798   106780819.734    20319725.639    83205822.156                  
  23803174.928   125086507.066    23803176.536    97470000.237                  
  24500101.686   128748881.241    24500102.240   100323798.696                  
  21484082.219   112899607.712    21484083.594    87973720.501                  
  23064330.980   121203823.491    23064334.715    94444524.212                  
  23712280.372   124608784.347    23712285.572    97097731.727                  
  23553437.016   123774123.351    23553438.928    96447362.079                  
  20900838.738   109834613.372    20900841.615    85585404.074                  
                 117156998.357                   117156998.357    22498768.344  
                 119338339.759                   119338339.759    22917669.687  
                 133029080.717                   133029080.717    25546846.340  
                 132280425.951                   132280425.951    25403071.145  
  23924314.449   125723095.601                                                  
  24728691.359   129950130.914                                                  
  25293327.075   132917293.329                                                  
  26964771.288   141700761.402                                                  
  24570725.926   129119987.792                                                  
  26448025.287   138985330.586                                                  
  26461784.881   139057567.906                                                  
 21  8 31 22 25 32.0000000  0 19G10G12G21G23G24G25G31G32C21C22C26C34
                                E 3E 5E 8E13E15E24E25
  20319705.983   106780731.357    20319708.842    83205753.288                  
  23802819.549   125084639.618    23802821.157    97468545.086                  
  24499711.945   128746833.087    24499712.481   100322202.730                  
  21484478.160   112901688.445    21484479.536    87975341.849                  
  23064961.185   121207135.239    23064964.919    94447104.792                  
  23711735.778   124605922.456    23711740.978    97095501.679                  
  23552709.157   123770298.395    23552711.051    96444381.598                  
  20900680.062   109833779.484    20900682.938    85584754.296                  
                 117155839.767                   117155839.767    22498545.839  
                 119339570.825                   119339570.825    22917906.095  
                 133025648.718                   133025648.718    25546187.259  
                 132282209.636                   132282209.636    25403413.676  
  23924210.701   125722550.477                                                  
  24728949.173   129951485.825                                                  
  25292964.494   132915388.015                                                  
  26964442.284   141699032.563                                                  
  24570885.014   129120823.949                                                  
  26447923.397   138984795.140                                                  
  26461287.818   139054955.812                                                  
 21  8 31 22 25 33.0000000  0 19G10G12G21G23G24G25G31G32C21C22C26C34
                                E 3E 5E 8E13E15E24E25
  20319689.258   106780643.441    20319692.099    83205684.784                  
  23802464.259   125082772.598    23802465.885    97467090.265                  
  24499322.257   128744785.329    24499322.829   100320607.074                  
  21484874.192   112903769.573    21484875.585    87976963.507                  
  23065591.443   121210447.263    23065595.178    94449685.586                  
  23711191.219   124603060.770    23711196.419    97093271.796                  
  23551981.316   123766473.629    23551983.228    96441401.261                  
  20900521.420   109832945.872    20900524.297    85584104.726                  
                 117154681.357                   117154681.357    22498323.388  
                 119340802.109                   119340802.109    22918142.555  
                 133022216.728                   133022216.728    25545528.178  
                 132283993.656                   132283993.656    25403756.279  
  23924107.007   125722005.477                                                  
  24729207.041   129952840.804                                                  
  25292601.932   132913482.772                                                  
  26964113.387   141697304.120                                                  
  24571044.245   129121660.575                                                  
  26447821.580   138984260.155                                                  
  26460790.774   139052343.883                                                  
 21  8 31 22 25 34.0000000  0 19G10G12G21G23G24G25G31G32C21C22C26C34
                                E 3E 5E 8E13E15E24E25
  20319672.622   106780555.977    20319675.463    83205616.633                  
  23802109.059   125080906.016    23802110.685    97465635.788                  
  24498932.659   128742737.944    24498933.195   100319011.712                  
  21485270.294   112905851.098    21485271.688    87978585.472                  
  23066221.755   121213759.565    23066225.507    94452266.601                  
  23710646.679   124600199.272    23710651.879    97091042.062                  
  23551253.547   123762649.051    23551255.423    96438421.075                  
  20900362.833   109832112.524    20900365.728    85583455.364                  
                 117153523.116                   117153523.116    22498100.954  
                 119342033.618                   119342033.618    22918379.052  
                 133018784.749                   133018784.749    25544869.097  
                 132285778.012                   132285778.012    25404098.953  
  23924003.296   125721460.594                                                  
  24729464.873   129954195.862                                                  
  25292239.405   132911577.575                                                  
  26963784.543   141695576.079                                                  
  24571203.547   129122497.691                                                  
  26447719.887   138983725.636                                                  
  26460293.782   139049732.101                                                  
 21  8 31 22 25 35.0000000  0 19G10G12G21G23G24G25G31G32C21C22C26C34
                                E 3E 5E 8E13E15E24E25
  20319656.057   106780468.976    20319658.898    83205548.840                  
  23801753.947   125079039.880    23801755.556    97464181.656                  
  24498543.114   128740690.946    24498543.686   100317416.648                  
  21485666.486   112907933.006    21485667.844    87980207.739                  
  23066852.120   121217072.144    23066855.855    94454847.829                  
  23710102.192   124597337.976    23710107.392    97088812.481                  
  23550525.777   123758824.663    23550527.653    96435441.040                  
  20900204.317   109831279.443    20900207.194    85582806.207                  
                 117152365.055                   117152365.055    22497878.556  
                 119343265.341                   119343265.341    22918615.602  
                 133015352.790                   133015352.790    25544210.016  
                 132287562.704                   132287562.704    25404441.681  
  23923899.637   125720915.855                                                  
  24729722.759   129955550.999                                                  
  25291876.861   132909672.429                                                  
  26963455.789   141693848.413                                                  
  24571362.921   129123335.273                                                  
  26447618.248   138983191.567                                                  
  26459796.791   139047120.489                                                  
 21  8 31 22 25 36.0000000  0 19G10G12G21G23G24G25G31G32C21C22C26C34
                                E 3E 5E 8E13E15E24E25
  20319639.582   106780382.433    20319642.441    83205481.407                  
  23801398.926   125077174.173    23801400.534    97462727.860                  
  24498153.659   128738644.327    24498154.213   100315821.882                  
  21486062.714   112910015.300    21486064.108    87981830.305                  
  23067482.540   121220384.992    23067486.256    94457429.269                  
  23709557.741   124594476.883    23709562.941    97086583.058                  
  23549798.043   123755000.461    23549799.937    96432461.141                  
  20900045.836   109830446.631    20900048.713    85582157.270                  
                 117151207.169                   117151207.169    22497656.194  
                 119344497.285                   119344497.285    22918852.188  
                 133011920.835                   133011920.835    25543550.952  
                 132289347.730                   132289347.730    25404784.480  
  23923795.997   125720371.230                                                  
  24729980.645   129956906.195                                                  
  25291514.334   132907767.332                                                  
  26963127.106   141692121.156                                                  
  24571522.402   129124173.337                                                  
  26447516.698   138982657.975                                                  
  26459299.836   139044509.014                                                  
 21  8 31 22 25 37.0000000  0 19G10G12G21G23G24G25G31G32C21C22C26C34
                                E 3E 5E 8E13E15E24E25
  20319623.196   106780296.351    20319626.055    83205414.327                  
  23801043.958   125075308.891    23801045.584    97461274.398                  
  24497764.275   128736598.095    24497764.829   100314227.414                  
  21486459.049   112912097.995    21486460.425    87983453.185                  
  23068112.994   121223698.131    23068116.747    94460010.938                  
  23709013.343   124591615.972    23709018.543    97084353.781                  
  23549070.363   123751176.449    23549072.257    96429481.394                  
  20899887.427   109829614.105    20899890.286    85581508.544                  
                 117150049.457                   117150049.457    22497433.886  
                 119345729.451                   119345729.451    22919088.792  
                 133008488.899                   133008488.899    25542891.871  
                 132291133.093                   132291133.093    25405127.333  
  23923692.392   125719826.743                                                  
  24730238.566   129958261.476                                                  
  25291151.825   132905862.306                                                  
  26962798.477   141690394.289                                                  
  24571681.954   129125011.882                                                  
  26447415.238   138982124.836                                                  
  26458802.934   139041897.710                                                  
 21  8 31 22 25 38.0000000  0 19G10G12G21G23G24G25G31G32C21C22C26C34
                                E 3E 5E 8E13E15E24E25
  20319606.917   106780210.715    20319609.758    83205347.598                  
  23800689.097   125073444.054    23800690.723    97459821.281                  
  24497374.962   128734552.241    24497375.516   100312633.242                  
  21486855.437   112914181.075    21486856.813    87985076.359                  
  23068743.521   121227011.540    23068747.255    94462592.808                  
  23708468.963   124588755.266    23708474.163    97082124.655                  
  23548342.719   123747352.625    23548344.595    96426501.793                  
  20899729.036   109828781.831    20899731.913    85580860.019                  
                 117148891.923                   117148891.923    22497211.577  
                 119346961.831                   119346961.831    22919325.485  
                 133005056.973                   133005056.973    25542232.826  
                 132292918.790                   132292918.790    25405470.275  
  23923588.806   125719282.382                                                  
  24730496.452   129959616.824                                                  
  25290789.298   132903957.318                                                  
  26962469.937   141688667.827                                                  
  24571841.614   129125850.903                                                  
  26447313.885   138981592.145                                                  
  26458306.032   139039286.556                                                  
 21  8 31 22 25 39.0000000  0 19G10G12G21G23G24G25G31G32C21C22C26C34
                                E 3E 5E 8E13E15E24E25
  20319590.692   106780125.543    20319593.533    83205281.230                  
  23800334.325   125071579.650    23800335.933    97458368.496                  
  24496985.721   128732506.772    24496986.275   100311039.375                  
  21487251.915   112916264.542    21487253.291    87986699.840                  
  23069374.101   121230325.222    23069377.835    94465174.898                  
  23707924.619   124585894.749    23707929.819    97079895.687                  
  23547615.092   123743528.992    23547616.986    96423522.344                  
  20899570.717   109827949.824    20899573.576    85580211.704                  
                 117147734.560                   117147734.560    22496989.322  
                 119348194.433                   119348194.433    22919562.178  
                 133001625.064                   133001625.064    25541573.745  
                 132294704.825                   132294704.825    25405813.253  
  23923485.237   125718738.157                                                  
  24730754.391   129960972.237                                                  
  25290426.825   132902052.388                                                  
  26962141.486   141686941.746                                                  
  24572001.381   129126690.401                                                  
  26447212.603   138981059.913                                                  
  26457809.202   139036675.575                                                  
 21  8 31 22 25 40.0000000  0 19G10G12G21G23G24G25G31G32C21C22C26C34
                                E 3E 5E 8E13E15E24E25
  20319574.574   106780040.837    20319577.416    83205215.223                  
  23799979.607   125069715.682    23799981.215    97456916.054                  
  24496596.552   128730461.691    24496597.106   100309445.805                  
  21487648.465   112918348.394    21487649.840    87988323.620                  
  23070004.716   121233639.183    23070008.469    94467757.207                  
  23707380.329   124583034.433    23707385.529    97077666.872                  
  23546887.519   123739705.543    23546889.395    96420543.035                  
  20899412.433   109827118.098    20899415.328    85579563.606                  
                 117146577.374                   117146577.374    22496767.103  
                 119349427.255                   119349427.255    22919798.924  
                 132998193.163                   132998193.163    25540914.682  
                 132296491.191                   132296491.191    25406156.321  
  23923381.704   125718194.048                                                  
  24731012.348   129962327.741                                                  
  25290064.316   132900147.509                                                  
  26961813.107   141685216.073                                                  
  24572161.219   129127530.378                                                  
  26447111.411   138980528.167                                                  
  26457312.354   139034064.746                                                  
 21  8 31 22 25 41.0000000  0 19G10G12G21G23G24G25G31G32C21C22C26C34
                                E 3E 5E 8E13E15E24E25
  20319558.564   106779956.586    20319561.405    83205149.573                  
  23799624.978   125067852.152    23799626.604    97455463.957                  
  24496207.454   128728416.994    24496208.026   100307852.532                  
  21488045.085   112920432.633    21488046.461    87989947.703                  
  23070635.404   121236953.419    23070639.138    94470339.722                  
  23706836.056   124580174.308    23706841.238    97075438.204                  
  23546159.982   123735882.292    23546161.858    96417563.878                  
  20899254.221   109826286.640    20899257.098    85578915.714                  
                 117145420.363                   117145420.363    22496544.919  
                 119350660.293                   119350660.293    22920035.725  
                 132994761.278                   132994761.278    25540255.619  
                 132298277.895                   132298277.895    25406499.442  
  23923278.188   125717650.066                                                  
  24731270.306   129963683.301                                                  
  25289701.843   132898242.688                                                  
  26961484.782   141683490.788                                                  
  24572321.165   129128370.837                                                  
  26447010.308   138979996.859                                                  
  26456815.559   139031454.058                                                  
 21  8 31 22 25 42.0000000  0 19G10G12G21G23G24G25G31G32C21C22C26C34
                                E 3E 5E 8E13E15E24E25
  20319542.607   106779872.796    20319545.466    83205084.284                  
  23799270.457   125065989.062    23799272.083    97454012.198                  
  24495818.445   128726372.669    24495818.999   100306259.554                  
  21488441.778   112922517.277    21488443.136    87991572.101                  
  23071266.144   121240267.949    23071269.879    94472922.477                  
  23706291.819   124577314.386    23706297.019    97073209.695                  
  23545432.462   123732059.219    23545434.356    96414584.867                  
  20899096.044   109825455.455    20899098.921    85578268.039                  
                 117144263.532                   117144263.532    22496322.754  
                 119351893.554                   119351893.554    22920272.561  
                 132991329.406                   132991329.406    25539596.556  
                 132300064.930                   132300064.930    25406842.616  
  23923174.691   125717106.222                                                  
  24731528.263   129965038.948                                                  
  25289339.388   132896337.923                                                  
  26961156.546   141681765.898                                                  
  24572481.182   129129211.773                                                  
  26446909.295   138979466.032                                                  
  26456318.800   139028843.547                                                  
 21  8 31 22 25 43.0000000  0 19G10G12G21G23G24G25G31G32C21C22C26C34
                                E 3E 5E 8E13E15E24E25
  20319526.739   106779789.461    20319529.598    83205019.348                  
  23798916.007   125064126.403    23798917.615    97452560.778                  
  24495429.508   128724328.743    24495430.044   100304666.887                  
  21488838.541   112924602.305    21488839.917    87993196.798                  
  23071896.921   121243582.737    23071900.655    94475505.425                  
  23705747.636   124574454.652    23705752.836    97070981.333                  
  23544704.996   123728236.331    23544706.873    96411605.996                  
  20898937.921   109824624.536    20898940.798    85577620.566                  
                 117143106.870                   117143106.870    22496100.624  
                 119353127.031                   119353127.031    22920509.433  
                 132987897.547                   132987897.547    25538937.528  
                 132301852.305                   132301852.305    25407185.862  
  23923071.212   125716562.504                                                  
  24731786.238   129966394.672                                                  
  25288976.933   132894433.219                                                  
  26960828.399   141680041.423                                                  
  24572641.306   129130053.194                                                  
  26446808.352   138978935.651                                                  
  26455822.059   139026233.187                                                  
 21  8 31 22 25 44.0000000  0 19G10G12G21G23G24G25G31G32C21C22C26C34
                                E 3E 5E 8E13E15E24E25
  20319510.979   106779706.589    20319513.820    83204954.774                  
  23798561.646   125062264.184    23798563.255    97451109.699                  
  24495040.625   128722285.185    24495041.161   100303074.499                  
  21489235.377   112926687.718    21489236.753    87994821.793                  
  23072527.769   121246897.813    23072531.503    94478088.598                  
  23705203.489   124571595.117    23705208.688    97068753.122                  
  23543977.566   123724413.645    23543979.443    96408627.282                  
  20898779.852   109823793.879    20898782.747    85576973.305                  
                 117141950.385                   117141950.385    22495878.548  
                 119354360.732                   119354360.732    22920746.358  
                 132984465.704                   132984465.704    25538278.465  
                 132303640.012                   132303640.012    25407529.180  
  23922967.786   125716018.903                                                  
  24732044.249   129967750.458                                                  
  25288614.477   132892528.560                                                  
  26960500.306   141678317.320                                                  
  24572801.502   129130895.076                                                  
  26446707.518   138978405.731                                                  
  26455325.354   139023622.990                                                  
 21  8 31 22 25 45.0000000  0 19G10G12G21G23G24G25G31G32C21C22C26C34
                                E 3E 5E 8E13E15E24E25
  20319495.307   106779624.175    20319498.149    83204890.551                  
  23798207.339   125060402.397    23798208.966    97449658.958                  
  24494651.813   128720242.011    24494652.367   100301482.417                  
  21489632.301   112928773.524    21489633.677    87996447.094                  
  23073158.653   121250213.159    23073162.405    94480671.985                  
  23704659.359   124568735.773    23704664.559    97066525.066                  
  23543250.154   123720591.148    23543252.048    96405648.715                  
  20898621.836   109822963.500    20898624.713    85576326.257                  
                 117140794.078                   117140794.078    22495656.472  
                 119355594.647                   119355594.647    22920983.319  
                 132981033.871                   132981033.871    25537619.420  
                 132305428.056                   132305428.056    25407872.533  
  23922864.360   125715475.437                                                  
  24732302.260   129969106.326                                                  
  25288252.040   132890623.953                                                  
  26960172.302   141676593.625                                                  
  24572961.805   129131737.444                                                  
  26446606.772   138977876.274                                                  
  26454828.685   139021012.945                                                  
 21  8 31 22 25 46.0000000  0 19G10G12G21G23G24G25G31G32C21C22C26C34
                                E 3E 5E 8E13E15E24E25
  20319479.708   106779542.207    20319482.549    83204826.680                  
  23797853.140   125058541.062    23797854.766    97448208.567                  
  24494263.072   128718199.218    24494263.644   100299890.633                  
  21490029.280   112930859.720    21490030.655    87998072.703                  
  23073789.608   121253528.780    23073793.342    94483255.586                  
  23704115.283   124565876.625    23704120.483    97064297.156                  
  23542522.796   123716768.835    23542524.672    96402670.294                  
  20898463.874   109822133.395    20898466.769    85575679.421                  
                 117139637.948                   117139637.948    22495434.467  
                 119356828.784                   119356828.784    22921220.316  
                 132977602.052                   132977602.052    25536960.356  
                 132307216.431                   132307216.431    25408215.976  
  23922760.987   125714932.101                                                  
  24732560.288   129970462.258                                                  
  25287889.620   132888719.393                                                  
  26959844.352   141674870.317                                                  
  24573122.197   129132580.300                                                  
  26446506.098   138977347.266                                                  
  26454332.033   139018403.055                                                  
 21  8 31 22 25 47.0000000  0 19G10G12G21G23G24G25G31G32C21C22C26C34
                                E 3E 5E 8E13E15E24E25
  20319464.180   106779460.708    20319467.039    83204763.175                  
  23797499.011   125056680.161    23797500.637    97446758.516                  
  24493874.421   128716156.803    24493874.975   100298299.144                  
  21490426.365   112932946.309    21490427.741    87999698.613                  
  23074420.599   121256844.684    23074424.333    94485839.402                  
  23703571.243   124563017.677    23703576.443    97062069.407                  
  23541795.455   123712946.722    23541797.367    96399692.024                  
  20898305.965   109821303.553    20898308.842    85575032.794                  
                 117138481.993                   117138481.993    22495212.462  
                 119358063.142                   119358063.142    22921457.366  
                 132974170.251                   132974170.251    25536301.311  
                 132309005.141                   132309005.141    25408559.508  
  23922657.597   125714388.890                                                  
  24732818.317   129971818.269                                                  
  25287527.219   132886814.901                                                  
  26959516.491   141673147.412                                                  
  24573282.679   129133423.622                                                  
  26446405.513   138976818.725                                                  
  26453835.417   139015793.333                                                  
 21  8 31 22 25 48.0000000  0 19G10G12G21G23G24G25G31G32C21C22C26C34
                                E 3E 5E 8E13E15E24E25
  20319448.759   106779379.671    20319451.618    83204700.031                  
  23797144.972   125054819.683    23797146.599    97445308.793                  
  24493485.841   128714114.794    24493486.395   100296707.965                  
  21490823.504   112935033.289    21490824.880    88001324.828                  
  23075051.643   121260160.863    23075055.378    94488423.438                  
  23703027.238   124560158.914    23703032.438    97059841.802                  
  23541068.186   123709124.785    23541070.062    96396713.894                  
  20898148.092   109820473.985    20898150.987    85574386.375                  
                 117137326.212                   117137326.212    22494990.529  
                 119359297.715                   119359297.715    22921694.435  
                 132970738.458                   132970738.458    25535642.284  
                 132310794.188                   132310794.188    25408903.058  
  23922554.261   125713845.818                                                  
  24733076.381   129973174.354                                                  
  25287164.799   132884910.453                                                  
  26959188.720   141671424.905                                                  
  24573443.232   129134267.429                                                  
  26446305.036   138976290.648                                                  
  26453338.837   139013183.769                                                  
 21  8 31 22 25 49.0000000  0 19G10G12G21G23G24G25G31G32C21C22C26C34
                                E 3E 5E 8E13E15E24E25
  20319433.445   106779299.082    20319436.286    83204637.230                  
  23796791.023   125052959.635    23796792.649    97443859.406                  
  24493097.315   128712073.149    24493097.887   100295117.075                  
  21491220.697   112937120.653    21491222.073    88002951.348                  
  23075682.741   121263477.300    23075686.476    94491007.677                  
  23702483.287   124557300.362    23702488.487    97057614.363                  
  23540340.916   123705303.044    23540342.793    96393735.918                  
  20897990.291   109819644.680    20897993.168    85573740.163                  
                 117136170.605                   117136170.605    22494768.596  
                 119360532.512                   119360532.512    22921931.574  
                 132967306.680                   132967306.680    25534983.238  
                 132312583.567                   132312583.567    25409246.697  
  23922450.942   125713302.868                                                  
  24733334.446   129974530.513                                                  
  25286802.415   132883006.063                                                  
  26958861.020   141669702.780                                                  
  24573603.893   129135111.711                                                  
  26446204.648   138975763.022                                                  
  26452842.275   139010574.360                                                  
 21  8 31 22 25 50.0000000  0 19G10G12G21G23G24G25G31G32C21C22C26C34
                                E 3E 5E 8E13E15E24E25
  20319418.185   106779218.960    20319421.044    83204574.802                  
  23796437.163   125051100.029    23796438.789    97442410.364                  
  24492708.896   128710031.899    24492709.432   100293526.489                  
  21491617.997   112939208.402    21491619.372    88004578.165                  
  23076313.893   121266794.031    23076317.646    94493592.140                  
  23701939.336   124554442.004    23701944.536    97055387.071                  
  23539613.701   123701481.486    23539615.577    96390758.083                  
  20897832.543   109818815.646    20897835.402    85573094.165                  
                 117135015.176                   117135015.176    22494546.698  
                 119361767.527                   119361767.527    22922168.768  
                 132963874.919                   132963874.919    25534324.193  
                 132314373.280                   132314373.280    25409590.372  
  23922347.641   125712760.040                                                  
  24733592.546   129975886.747                                                  
  25286440.014   132881101.735                                                  
  26958533.373   141667981.075                                                  
  24573764.660   129135956.468                                                  
  26446104.313   138975235.884                                                  
  26452345.766   139007965.099                                                  
 21  8 31 22 25 51.0000000  0 19G10G12G21G23G24G25G31G32C21C22C26C34
                                E 3E 5E 8E13E15E24E25
  20319403.014   106779139.301    20319405.873    83204512.728                  
  23796083.356   125049240.856    23796084.982    97440961.655                  
  24492320.513   128707991.032    24492321.085   100291936.202                  
  21492015.368   112941296.549    21492016.744    88006205.289                  
  23076945.098   121270111.040    23076948.833    94496176.820                  
  23701395.457   124551583.842    23701400.657    97053159.934                  
  23538886.521   123697660.124    23538888.397    96387780.403                  
  20897674.814   109817986.878    20897677.708    85572448.372                  
                 117133859.921                   117133859.921    22494324.836  
                 119363002.757                   119363002.757    22922405.961  
                 132960443.173                   132960443.173    25533665.183  
                 132316163.333                   132316163.333    25409934.154  
  23922244.376   125712217.343                                                  
  24733850.628   129977243.052                                                  
  25286077.666   132879197.448                                                  
  26958205.816   141666259.751                                                  
  24573925.499   129136801.707                                                  
  26446004.103   138974709.180                                                  
  26451849.257   139005356.016                                                  
 21  8 31 22 25 52.0000000  0 19G10G12G21G23G24G25G31G32C21C22C26C34
                                E 3E 5E 8E13E15E24E25
  20319387.968   106779060.098    20319390.791    83204451.013                  
  23795729.656   125047382.118    23795731.283    97439513.292                  
  24491932.237   128705950.548    24491932.773   100290346.215                  
  21492412.775   112943385.079    21492414.169    88007832.714                  
  23077576.357   121273428.308    23077580.092    94498761.702                  
  23700851.595   124548725.866    23700856.795    97050932.942                  
  23538159.359   123693838.952    23538161.253    96384802.867                  
  20897517.155   109817158.390    20897520.032    85571802.794                  
                 117132704.844                   117132704.844    22494103.028  
                 119364238.211                   119364238.211    22922643.226  
                 132957011.438                   132957011.438    25533006.138  
                 132317953.715                   132317953.715    25410277.972  
  23922141.111   125711674.775                                                  
  24734108.746   129978599.433                                                  
  25285715.300   132877293.223                                                  
  26957878.348   141664538.829                                                  
  24574086.446   129137647.418                                                  
  26445903.965   138974182.948                                                  
  26451352.802   139002747.077                                                  
 21  8 31 22 25 53.0000000  0 19G10G12G21G23G24G25G31G32C21C22C26C34
                                E 3E 5E 8E13E15E24E25
  20319372.976   106778981.355    20319375.817    83204389.652                  
  23795376.046   125045523.825    23795377.655    97438065.272                  
  24491544.014   128703910.441    24491544.568   100288756.528                  
  21492810.307   112945474.001    21492811.683    88009460.446                  
  23078207.688   121276745.875    23078211.405    94501346.819                  
  23700307.787   124545868.094    23700312.987    97048706.105                  
  23537432.268   123690017.981    23537434.145    96381825.489                  
  20897359.568   109816330.165    20897362.445    85571157.426                  
                 117131549.941                   117131549.941    22493881.238  
                 119365473.886                   119365473.886    22922880.527  
                 132953579.715                   132953579.715    25532347.129  
                 132319744.428                   132319744.428    25410621.861  
  23922037.900   125711132.339                                                  
  24734366.864   129979955.888                                                  
  25285352.934   132875389.060                                                  
  26957550.934   141662818.297                                                  
  24574247.463   129138493.613                                                  
  26445803.899   138973657.171                                                  
  26450856.365   139000138.311                                                  
 21  8 31 22 25 54.0000000  0 19G10G12G21G23G24G25G31G32C21C22C26C34
                                E 3E 5E 8E13E15E24E25
  20319358.073   106778903.066    20319360.914    83204328.653                  
  23795022.508   125043665.976    23795024.116    97436617.602                  
  24491155.881   128701870.723    24491156.417   100287167.138                  
  21493207.875   112947563.316    21493209.269    88011088.484                  
  23078839.036   121280063.712    23078842.789    94503932.145                  
  23699763.997   124543010.529    23699769.197    97046479.435                  
  23536705.178   123686197.188    23536707.054    96378848.250                  
  20897201.999   109815502.210    20897204.876    85570512.269                  
                 117130395.218                   117130395.218    22493659.483  
                 119366709.776                   119366709.776    22923117.863  
                 132950148.012                   132950148.012    25531688.101  
                 132321535.479                   132321535.479    25410965.822  
  23921934.706   125710590.021                                                  
  24734625.000   129981312.413                                                  
  25284990.604   132873484.940                                                  
  26957223.592   141661098.164                                                  
  24574408.588   129139340.289                                                  
  26445703.940   138973131.855                                                  
  26450359.964   138997529.698                                                  
 21  8 31 22 25 55.0000000  0 19G10G12G21G23G24G25G31G32C21C22C26C34
                                E 3E 5E 8E13E15E24E25
  20319343.260   106778825.245    20319346.119    83204268.008                  
  23794669.041   125041808.555    23794670.667    97435170.261                  
  24490767.802   128699831.390    24490768.338   100285578.047                  
  21493605.532   112949653.031    21493606.926    88012716.833                  
  23079470.456   121283381.825    23079474.209    94506517.687                  
  23699220.261   124540153.153    23699225.461    97044252.911                  
  23535978.141   123682376.577    23535980.017    96375871.157                  
  20897044.502   109814674.532    20897047.379    85569867.320                  
                 117129240.667                   117129240.667    22493437.764  
                 119367945.890                   119367945.890    22923355.235  
                 132946716.315                   132946716.315    25531029.056  
                 132323326.867                   132323326.867    25411309.836  
  23921831.512   125710047.840                                                  
  24734883.154   129982669.020                                                  
  25284628.256   132871580.867                                                  
  26956896.356   141659378.443                                                  
  24574569.785   129140187.435                                                  
  26445604.052   138972607.008                                                  
  26449863.580   138994921.247                                                  
 21  8 31 22 25 56.0000000  0 19G10G12G21G23G24G25G31G32C21C22C26C34
                                E 3E 5E 8E13E15E24E25
  20319328.536   106778747.878    20319331.377    83204207.723                  
  23794315.681   125039951.575    23794317.289    97433723.266                  
  24490379.794   128697792.444    24490380.348   100283989.258                  
  21494003.279   112951743.121    21494004.655    88014345.472                  
  23080101.912   121286700.211    23080105.664    94509103.442                  
  23698676.560   124537295.981    23698681.760    97042026.538                  
  23535251.140   123678556.169    23535253.016    96372894.216                  
  20896887.058   109813847.108    20896889.917    85569222.579                  
                 117128086.293                   117128086.293    22493216.081  
                 119369182.219                   119369182.219    22923592.661  
                 132943284.642                   132943284.642    25530370.046  
                 132325118.586                   132325118.586    25411653.922  
  23921728.372   125709505.777                                                  
  24735141.326   129984025.686                                                  
  25284265.943   132869676.856                                                  
  26956569.157   141657659.094                                                  
  24574731.089   129141035.062                                                  
  26445504.271   138972082.613                                                  
  26449367.232   138992312.953                                                  
 21  8 31 22 25 57.0000000  0 19G10G12G21G23G24G25G31G32C21C22C26C34
                                E 3E 5E 8E13E15E24E25
  20319313.901   106778670.966    20319316.760    83204147.794                  
  23793962.374   125038095.043    23793964.000    97432276.618                  
  24489991.875   128695753.871    24489992.411   100282400.762                  
  21494401.079   112953833.602    21494402.455    88015974.418                  
  23080733.439   121290018.878    23080737.173    94511689.415                  
  23698132.895   124534439.008    23698138.077    97039800.332                  
  23534524.174   123674735.943    23534526.068    96369917.418                  
  20896729.667   109813019.961    20896732.526    85568578.046                  
                 117126932.094                   117126932.094    22492994.434  
                 119370418.769                   119370418.769    22923830.140  
                 132939852.977                   132939852.977    25529711.037  
                 132326910.637                   132326910.637    25411998.062  
  23921625.268   125708963.852                                                  
  24735399.497   129985382.429                                                  
  25283903.631   132867772.901                                                  
  26956242.064   141655940.141                                                  
  24574892.482   129141883.165                                                  
  26445404.580   138971558.682                                                  
  26448870.938   138989704.813                                                  
 21  8 31 22 25 58.0000000  0 19G10G12G21G23G24G25G31G32C21C22C26C34
                                E 3E 5E 8E13E15E24E25
  20319299.356   106778594.521    20319302.197    83204088.223                  
  23793609.175   125036238.940    23793610.801    97430830.308                  
  24489604.028   128693715.694    24489604.564   100280812.570                  
  21494798.969   112955924.473    21494800.344    88017603.668                  
  23081365.019   121293337.822    23081368.754    94514275.602                  
  23697589.266   124531582.225    23697594.465    97037574.270                  
  23533797.245   123670915.913    23533799.121    96366940.776                  
  20896572.295   109812193.086    20896575.172    85567933.726                  
                 117125778.069                   117125778.069    22492772.822  
                 119371655.538                   119371655.538    22924067.637  
                 132936421.333                   132936421.333    25529052.027  
                 132328703.023                   132328703.023    25412342.273  
  23921522.164   125708422.059                                                  
  24735657.705   129986739.253                                                  
  25283541.319   132865868.996                                                  
  26955915.043   141654221.601                                                  
  24575053.946   129142731.743                                                  
  26445304.960   138971035.212                                                  
  26448374.644   138987096.827                                                  
 21  8 31 22 25 59.0000000  0 19G10G12G21G23G24G25G31G32C21C22C26C34
                                E 3E 5E 8E13E15E24E25
  20319284.900   106778518.530    20319287.741    83204029.012                  
  23793256.066   125034383.277    23793257.674    97429384.337                  
  24489216.235   128691677.899    24489216.789   100279224.675                  
  21495196.912   112958015.731    21495198.305    88019233.220                  
  23081996.636   121296657.014    23082000.388    94516861.988                  
  23697045.672   124528725.648    23697050.854    97035348.368                  
  23533070.333   123667096.062    23533072.227    96363964.274                  
  20896414.994   109811366.481    20896417.889    85567289.621                  
                 117124624.228                   117124624.228    22492551.229  
                 119372892.530                   119372892.530    22924305.206  
                 132932989.694                   132932989.694    25528393.000  
                 132330495.742                   132330495.742    25412686.537  
  23921419.077   125707880.372                                                  
  24735915.894   129988096.157                                                  
  25283179.042   132863965.140                                                  
  26955588.076   141652503.450                                                  
  24575215.518   129143580.805                                                  
  26445205.447   138970512.191                                                  
  26447878.403   138984489.012                                                  
 21  8 31 22 26  0.0000000  0 19G10G12G21G23G24G25G31G32C21C22C26C34
                                E 3E 5E 8E13E15E24E25
  20319270.515   106778443.001    20319273.374    83203970.156                  
  23792903.027   125032528.054    23792904.635    97427938.707                  
  24488828.548   128689640.488    24488829.084   100277637.082                  
  21495594.944   112960107.379    21495596.320    88020863.073                  
  23082628.323   121299976.512    23082632.058    94519448.605                  
  23696502.114   124525869.262    23696507.314    97033122.608                  
  23532343.492   123663276.414    23532345.386    96360987.922                  
  20896257.764   109810540.140    20896260.641    85566645.719                  
                 117123470.555                   117123470.555    22492329.688  
                 119374129.737                   119374129.737    22924542.775  
                 132929558.079                   132929558.079    25527734.008  
                 132332288.794                   132332288.794    25413030.873  
  23921316.027   125707338.837                                                  
  24736174.137   129989453.125                                                  
  25282816.766   132862061.341                                                  
  26955261.198   141650785.691                                                  
  24575377.179   129144430.345                                                  
  26445106.006   138969989.645                                                  
  26447382.180   138981881.353                                                  
 21  8 31 22 26  1.0000000  0 19G10G12G21G23G24G25G31G32C21C22C26C34
                                E 3E 5E 8E13E15E24E25
  20319256.238   106778367.935    20319259.079    83203911.665                  
  23792550.060   125030673.263    23792551.686    97426493.419                  
  24488440.898   128687603.458    24488441.434   100276049.788                  
  21495993.048   112962199.418    21495994.424    88022493.231                  
  23083260.065   121303296.274    23083263.799    94522035.433                  
  23695958.592   124523013.078    23695963.792    97030897.015                  
  23531616.688   123659456.951    23531618.546    96358011.719                  
  20896100.553   109809714.070    20896103.447    85566002.032                  
                 117122317.062                   117122317.062    22492108.166  
                 119375367.169                   119375367.169    22924780.415  
                 132926126.472                   132926126.472    25527074.998  
                 132334082.179                   132334082.179    25413375.281  
  23921212.994   125706797.413                                                  
  24736432.363   129990810.163                                                  
  25282454.471   132860157.603                                                  
  26954934.391   141649068.337                                                  
  24575538.947   129145280.355                                                  
  26445006.637   138969467.565                                                  
  26446885.975   138979273.855                                                  
 21  8 31 22 26  2.0000000  0 19G10G12G21G23G24G25G31G32C21C22C26C34
                                E 3E 5E 8E13E15E24E25
  20319242.032   106778293.320    20319244.873    83203853.519                  
  23792197.201   125028818.914    23792198.791    97425048.472                  
  24488053.336   128685566.807    24488053.872   100274462.790                  
  21496391.224   112964291.847    21496392.599    88024123.695                  
  23083891.842   121306616.300    23083895.577    94524622.464                  
  23695415.142   124520157.094    23695420.324    97028671.575                  
  23530889.883   123655637.684    23530891.759    96355035.672                  
  20895943.412   109808888.278    20895946.307    85565358.555                  
                 117121163.741                   117121163.741    22491886.680  
                 119376604.815                   119376604.815    22925018.109  
                 132922694.886                   132922694.886    25526415.989  
                 132335875.899                   132335875.899    25413719.760  
  23921109.997   125706256.134                                                  
  24736690.624   129992167.281                                                  
  25282092.212   132858253.914                                                  
  26954607.674   141647351.380                                                  
  24575700.787   129146130.846                                                  
  26444907.374   138968945.929                                                  
  26446389.824   138976666.512                                                  
 21  8 31 22 26  3.0000000  0 19G10G12G21G23G24G25G31G32C21C22C26C34
                                E 3E 5E 8E13E15E24E25
  20319227.933   106778219.173    20319230.774    83203795.742                  
  23791844.395   125026965.003    23791846.021    97423603.871                  
  24487665.847   128683530.547    24487666.401   100272876.093                  
  21496789.453   112966384.663    21496790.864    88025754.461                  
  23084523.655   121309936.608    23084527.407    94527209.715                  
  23694871.709   124517301.304    23694876.873    97026446.288                  
  23530163.132   123651818.611    23530165.026    96352059.773                  
  20895786.326   109808062.741    20895789.203    85564715.280                  
                 117120010.600                   117120010.600    22491665.229  
                 119377842.683                   119377842.683    22925255.820  
                 132919263.314                   132919263.314    25525756.979  
                 132337669.954                   132337669.954    25414064.275  
  23921007.000   125705714.966                                                  
  24736948.885   129993524.469                                                  
  25281729.972   132856350.273                                                  
  26954281.028   141645634.813                                                  
  24575862.716   129146981.816                                                  
  26444808.201   138968424.765                                                  
  26445893.709   138974059.340                                                  
 21  8 31 22 26  4.0000000  0 19G10G12G21G23G24G25G31G32C21C22C26C34
                                E 3E 5E 8E13E15E24E25
  20319213.906   106778145.477    20319216.765    83203738.321                  
  23791491.696   125025111.526    23791493.304    97422159.601                  
  24487278.446   128681494.667    24487278.982   100271289.696                  
  21497187.807   112968477.876    21497189.183    88027385.536                  
  23085155.557   121313257.195    23085159.292    94529797.185                  
  23694328.276   124514445.716    23694333.476    97024221.153                  
  23529436.417   123647999.714    23529438.293    96349084.016                  
  20895629.275   109807237.477    20895632.152    85564072.215                  
                 117118857.637                   117118857.637    22491443.814  
                 119379080.768                   119379080.768    22925493.585  
                 132915831.751                   132915831.751    25525098.006  
                 132339464.336                   132339464.336    25414408.879  
  23920904.056   125705173.930                                                  
  24737207.163   129994881.725                                                  
  25281367.749   132854446.688                                                  
  26953954.436   141643918.641                                                  
  24576024.734   129147833.255                                                  
  26444709.118   138967904.059                                                  
  26445397.575   138971452.317                                                  
 21  8 31 22 26  5.0000000  0 19G10G12G21G23G24G25G31G32C21C22C26C34
                                E 3E 5E 8E13E15E24E25
  20319199.986   106778072.251    20319202.827    83203681.257                  
  23791139.087   125023258.469    23791140.677    97420715.665                  
  24486891.099   128679459.175    24486891.636   100269703.599                  
  21497586.197   112970571.470    21497587.573    88029016.906                  
  23085787.495   121316578.054    23085791.248    94532384.867                  
  23693784.915   124511590.321    23693790.115    97021996.172                  
  23528709.737   123644181.019    23528711.613    96346108.410                  
  20895472.278   109806412.489    20895475.155    85563429.368                  
                 117117704.845                   117117704.845    22491222.434  
                 119380319.078                   119380319.078    22925731.386  
                 132912400.208                   132912400.208    25524438.996  
                 132341259.054                   132341259.054    25414753.537  
  23920801.113   125704633.032                                                  
  24737465.460   129996239.066                                                  
  25281005.508   132852543.164                                                  
  26953627.933   141642202.878                                                  
  24576186.860   129148685.187                                                  
  26444610.123   138967383.819                                                  
  26444901.513   138968845.456                                                  
 21  8 31 22 26  6.0000000  0 19G10G12G21G23G24G25G31G32C21C22C26C34
                                E 3E 5E 8E13E15E24E25
  20319186.120   106777999.476    20319188.979    83203624.555                  
  23790786.549   125021405.867    23790788.139    97419272.078                  
  24486503.824   128677424.071    24486504.378   100268117.805                  
  21497984.658   112972665.454    21497986.034    88030648.582                  
  23086419.487   121319899.187    23086423.221    94534972.763                  
  23693241.607   124508735.132    23693246.771    97019771.352                  
  23527983.111   123640362.524    23527984.987    96343132.966                  
  20895315.352   109805587.766    20895318.229    85562786.726                  
                 117116552.230                   117116552.230    22491001.073  
                 119381557.602                   119381557.602    22925969.241  
                 132908968.680                   132908968.680    25523780.004  
                 132343054.109                   132343054.109    25415098.266  
  23920698.223   125704092.242                                                  
  24737723.757   129997596.483                                                  
  25280643.303   132850639.751                                                  
  26953301.520   141640487.494                                                  
  24576349.057   129149537.597                                                  
  26444511.200   138966864.046                                                  
  26444405.487   138966238.762                                                  
 21  8 31 22 26  7.0000000  0 19G10G12G21G23G24G25G31G32C21C22C26C34
                                E 3E 5E 8E13E15E24E25
  20319172.361   106777927.160    20319175.220    83203568.204                  
  23790434.082   125019553.696    23790435.673    97417828.828                  
  24486116.620   128675389.351    24486117.174   100266532.304                  
  21498383.226   112974759.840    21498384.602    88032280.571                  
  23087051.514   121323220.595    23087055.284    94537560.871                  
  23692698.317   124505880.146    23692703.499    97017546.687                  
  23527256.521   123636544.220    23527258.379    96340157.664                  
  20895158.462   109804763.297    20895161.339    85562144.285                  
                 117115399.793                   117115399.793    22490779.783  
                 119382796.348                   119382796.348    22926207.113  
                 132905537.163                   132905537.163    25523121.013  
                 132344849.492                   132344849.492    25415443.049  
  23920595.333   125703551.602                                                  
  24737982.071   129998953.965                                                  
  25280281.098   132848736.407                                                  
  26952975.160   141638772.505                                                  
  24576511.361   129150390.497                                                  
  26444412.385   138966344.746                                                  
  26443909.479   138963632.227                                                  
 21  8 31 22 26  8.0000000  0 19G10G12G21G23G24G25G31G32C21C22C26C34
                                E 3E 5E 8E13E15E24E25
  20319158.709   106777855.316    20319161.568    83203512.203                  
  23790081.723   125017702.038    23790083.331    97416385.974                  
  24485729.524   128673355.100    24485730.060   100264947.179                  
  21498781.867   112976854.523    21498783.260    88033912.727                  
  23087683.649   121326542.388    23087687.383    94540149.292                  
  23692155.063   124503025.485    23692160.245    97015322.301                  
  23526529.966   123632726.203    23526531.825    96337182.602                  
  20895001.626   109803939.239    20895004.485    85561502.187                  
                 117114247.519                   117114247.519    22490558.493  
                 119384035.274                   119384035.274    22926445.075  
                 132902105.903                   132902105.903    25522462.039  
                 132346645.163                   132346645.163    25415787.921  
  23920492.444   125703011.318                                                  
  24738240.422   130000311.558                                                  
  25279918.875   132846833.009                                                  
  26952648.907   141637058.183                                                  
  24576673.755   129151243.853                                                  
  26444313.658   138965825.871                                                  
  26443413.524   138961025.841                                                  
 21  8 31 22 26  9.0000000  0 19G10G12G21G23G24G25G31G32C21C22C26C34
                                E 3E 5E 8E13E15E24E25
  20319145.128   106777783.921    20319147.951    83203456.571                  
  23789729.417   125015850.747    23789731.043    97414943.407                  
  24485342.463   128671321.149    24485343.017   100263362.281                  
  21499180.560   112978949.684    21499181.954    88035545.320                  
  23088315.783   121329864.339    23088319.518    94542737.828                  
  23691611.863   124500170.895    23691617.045    97013097.950                  
  23525803.412   123628908.286    23525805.306    96334207.606                  
  20894844.843   109803115.329    20894847.702    85560860.179                  
                 117113095.437                   117113095.437    22490337.257  
                 119385274.461                   119385274.461    22926683.037  
                 132898674.427                   132898674.427    25521803.065  
                 132348441.218                   132348441.218    25416132.846  
  23920389.625   125702470.910                                                  
  24738498.772   130001669.181                                                  
  25279556.705   132844929.720                                                  
  26952322.708   141635343.984                                                  
  24576836.238   129152097.683                                                  
  26444215.021   138965307.474                                                  
  26442917.551   138958419.616                                                  
 21  8 31 22 26 10.0000000  0 19G10G12G21G23G24G25G31G32C21C22C26C34
                                E 3E 5E 8E13E15E24E25
  20319131.619   106777713.004    20319134.478    83203401.309                  
  23789377.219   125013999.894    23789378.827    97413501.188                  
  24484955.491   128669287.582    24484956.045   100261777.684                  
  21499579.325   112981045.235    21499580.719    88037178.215                  
  23088947.971   121333186.581    23088951.724    94545326.585                  
  23691068.680   124497316.501    23691073.862    97010873.747                  
  23525076.911   123625090.563    23525078.805    96331232.757                  
  20894688.096   109802291.690    20894690.955    85560218.387                  
                 117111943.535                   117111943.535    22490116.038  
                 119386513.870                   119386513.870    22926921.052  
                 132895242.960                   132895242.960    25521144.073  
                 132350237.610                   132350237.610    25416477.826  
  23920286.807   125701930.640                                                  
  24738757.140   130003026.880                                                  
  25279194.518   132843026.454                                                  
  26951996.581   141633630.207                                                  
  24576998.828   129152951.992                                                  
  26444116.456   138964789.514                                                  
  26442421.668   138955813.547                                                  
 21  8 31 22 26 11.0000000  0 19G10G12G21G23G24G25G31G32C21C22C26C34
                                E 3E 5E 8E13E15E24E25
  20319118.200   106777642.539    20319121.059    83203346.403                  
  23789025.092   125012149.501    23789026.700    97412059.319                  
  24484568.573   128667254.402    24484569.145   100260193.386                  
  21499978.162   112983141.168    21499979.556    88038811.409                  
  23089580.213   121336509.089    23089583.966    94547915.551                  
  23690525.534   124494462.301    23690530.716    97008649.699                  
  23524350.482   123621273.030    23524352.340    96328258.063                  
  20894531.420   109801468.325    20894534.279    85559576.802                  
                 117110791.816                   117110791.816    22489894.855  
                 119387753.520                   119387753.520    22927159.121  
                 132891811.487                   132891811.487    25520485.099  
                 132352034.319                   132352034.319    25416822.859  
  23920184.024   125701390.504                                                  
  24739015.526   130004384.652                                                  
  25278832.367   132841123.238                                                  
  26951670.525   141631916.809                                                  
  24577161.472   129153806.774                                                  
  26444017.979   138964272.039                                                  
  26441925.767   138953207.646                                                  
 21  8 31 22 26 12.0000000  0 19G10G12G21G23G24G25G31G32C21C22C26C34
                                E 3E 5E 8E13E15E24E25
  20319104.887   106777572.523    20319107.746    83203291.843                  
  23788673.054   125010299.543    23788674.662    97410617.798                  
  24484181.762   128665221.601    24484182.299   100258609.387                  
  21500377.088   112985237.499    21500378.482    88040444.915                  
  23090212.544   121339831.874    23090216.279    94550504.733                  
  23689982.440   124491608.312    23689987.622    97006425.807                  
  23523624.052   123617455.680    23523625.929    96325283.504                  
  20894374.780   109800645.227    20894377.639    85558935.429                  
                 117109640.265                   117109640.265    22489673.726  
                 119388993.370                   119388993.370    22927397.226  
                 132888380.058                   132888380.058    25519826.126  
                 132353831.371                   132353831.371    25417167.963  
  23920081.259   125700850.481                                                  
  24739273.895   130005742.503                                                  
  25278470.197   132839220.087                                                  
  26951344.558   141630203.813                                                  
  24577324.223   129154662.036                                                  
  26443919.593   138963755.024                                                  
  26441429.919   138950601.902                                                  
 21  8 31 22 26 13.0000000  0 19G10G12G21G23G24G25G31G32C21C22C26C34
                                E 3E 5E 8E13E15E24E25
  20319091.646   106777502.977    20319094.505    83203237.653                  
  23788321.106   125008450.024    23788322.714    97409176.612                  
  24483795.005   128663189.188    24483795.541   100257025.688                  
  21500776.085   112987334.219    21500777.479    88042078.719                  
  23090844.875   121343154.934    23090848.628    94553094.133                  
  23689439.383   124488754.523    23689444.565    97004202.078                  
  23522897.659   123613638.529    23522899.535    96322309.101                  
  20894218.194   109799822.399    20894221.053    85558294.262                  
                 117108488.890                   117108488.890    22489452.615  
                 119390233.439                   119390233.439    22927635.367  
                 132884948.646                   132884948.646    25519167.134  
                 132355628.758                   132355628.758    25417513.121  
  23919978.513   125700310.595                                                  
  24739532.316   130007100.422                                                  
  25278108.046   132837316.983                                                  
  26951018.663   141628491.216                                                  
  24577487.064   129155517.774                                                  
  26443821.295   138963238.456                                                  
  26440934.072   138947996.323                                                  
 21  8 31 22 26 14.0000000  0 19G10G12G21G23G24G25G31G32C21C22C26C34
                                E 3E 5E 8E13E15E24E25
  20319078.495   106777433.900    20319081.354    83203183.825                  
  23787969.247   125006600.949    23787970.837    97407735.781                  
  24483408.320   128661157.162    24483408.856   100255442.294                  
  21501175.136   112989431.328    21501176.548    88043712.833                  
  23091477.296   121346478.270    23091481.048    94555683.742                  
  23688896.361   124485900.936    23688901.543    97001978.508                  
  23522171.319   123609821.562    23522173.177    96319334.848                  
  20894061.679   109798999.835    20894064.538    85557653.305                  
                 117107337.694                   117107337.694    22489231.539  
                 119391473.726                   119391473.726    22927873.543  
                 132881517.243                   132881517.243    25518508.178  
                 132357426.473                   132357426.473    25417858.369  
  23919875.819   125699770.844                                                  
  24739790.738   130008458.423                                                  
  25277745.912   132835413.934                                                  
  26950692.839   141626779.015                                                  
  24577649.993   129156373.993                                                  
  26443723.105   138962722.360                                                  
  26440438.296   138945390.903                                                  
 21  8 31 22 26 15.0000000  0 19G10G12G21G23G24G25G31G32C21C22C26C34
                                E 3E 5E 8E13E15E24E25
  20319065.432   106777365.275    20319068.291    83203130.351                  
  23787617.442   125004752.308    23787619.068    97406295.282                  
  24483021.705   128659125.528    24483022.259   100253859.198                  
  21501574.277   112991528.828    21501575.688    88045347.246                  
  23092109.752   121349801.874    23092113.505    94558273.562                  
  23688353.357   124483047.540    23688358.539    96999755.083                  
  23521444.996   123606004.805    23521446.873    96316360.754                  
  20893905.200   109798177.547    20893908.059    85557012.563                  
                 117106186.667                   117106186.667    22489010.500  
                 119392714.230                   119392714.230    22928111.755  
                 132878085.857                   132878085.857    25517849.222  
                 132359224.520                   132359224.520    25418203.652  
  23919773.144   125699231.211                                                  
  24740049.160   130009816.483                                                  
  25277383.779   132833510.942                                                  
  26950367.105   141625067.214                                                  
  24577813.048   129157230.685                                                  
  26443624.986   138962206.727                                                  
  26439942.520   138942785.641                                                  
 21  8 31 22 26 16.0000000  0 19G10G12G21G23G24G25G31G32C21C22C26C34
                                E 3E 5E 8E13E15E24E25
  20319052.459   106777297.104    20319055.318    83203077.234                  
  23787265.744   125002904.034    23787267.352    97404855.027                  
  24482635.163   128657094.315    24482635.717   100252276.462                  
  21501973.506   112993626.677    21501974.900    88046981.911                  
  23092742.262   121353125.794    23092746.014    94560863.644                  
  23687810.425   124480194.323    23687815.607    96997531.781                  
  23520718.746   123602188.214    23520720.604    96313386.785                  
  20893748.757   109797355.520    20893751.616    85556372.021                  
                 117105035.818                   117105035.818    22488789.478  
                 119393954.953                   119393954.953    22928350.038  
                 132874654.480                   132874654.480    25517190.266  
                 132361022.895                   132361022.895    25418549.024  
  23919670.468   125698691.669                                                  
  24740307.618   130011174.575                                                  
  25277021.663   132831608.031                                                  
  26950041.442   141623355.864                                                  
  24577976.139   129158087.826                                                  
  26443526.939   138961691.544                                                  
  26439446.797   138940180.567                                                  
 21  8 31 22 26 17.0000000  0 19G10G12G21G23G24G25G31G32C21C22C26C34
                                E 3E 5E 8E13E15E24E25
  20319039.576   106777229.407    20319042.435    83203024.480                  
  23786914.117   125001056.294    23786915.743    97403415.228                  
  24482248.692   128655063.460    24482249.263   100250693.977                  
  21502372.772   112995724.936    21502374.183    88048616.918                  
  23093374.843   121356449.949    23093378.578    94563453.894                  
  23687267.528   124477341.335    23687272.692    96995308.676                  
  23519992.495   123598371.835    23519994.353    96310412.987                  
  20893592.385   109796533.774    20893595.262    85555731.700                  
                 117103885.146                   117103885.146    22488568.491  
                 119395195.897                   119395195.897    22928588.339  
                 132871223.126                   132871223.126    25516531.292  
                 132362821.602                   132362821.602    25418894.432  
  23919567.847   125698152.297                                                  
  24740566.075   130012532.790                                                  
  25276659.565   132829705.129                                                  
  26949715.832   141621644.840                                                  
  24578139.355   129158945.456                                                  
  26443428.999   138961176.839                                                  
  26438951.093   138937575.648                                                  
 21  8 31 22 26 18.0000000  0 19G10G12G21G23G24G25G31G32C21C22C26C34
                                E 3E 5E 8E13E15E24E25
  20319026.782   106777162.164    20319029.641    83202972.083                  
  23786562.580   124999208.980    23786564.206    97401975.766                  
  24481862.328   128653032.986    24481862.864   100249111.790                  
  21502772.144   112997823.616    21502773.538    88050252.250                  
  23094007.442   121359774.382    23094011.195    94566044.360                  
  23686724.632   124474488.540    23686729.814    96993085.719                  
  23519266.298   123594555.640    23519268.156    96307439.332                  
  20893436.067   109795712.290    20893438.926    85555091.582                  
                 117102734.648                   117102734.648    22488347.559  
                 119396437.059                   119396437.059    22928826.694  
                 132867791.784                   132867791.784    25515872.336  
                 132364620.643                   132364620.643    25419239.912  
  23919465.225   125697613.059                                                  
  24740824.568   130013891.085                                                  
  25276297.467   132827802.301                                                  
  26949390.312   141619934.235                                                  
  24578302.642   129159803.586                                                  
  26443331.148   138960662.591                                                  
  26438455.424   138934970.864                                                  
 21  8 31 22 26 19.0000000  0 19G10G12G21G23G24G25G31G32C21C22C26C34
                                E 3E 5E 8E13E15E24E25
  20319014.059   106777095.382    20319016.918    83202920.047                  
  23786211.132   124997362.117    23786212.740    97400536.653                  
  24481475.999   128651002.896    24481476.535   100247529.899                  
  21503171.589   112999922.671    21503172.982    88051887.880                  
  23094640.113   121363099.089    23094643.865    94568635.040                  
  23686181.806   124471635.954    23686186.988    96990862.927                  
  23518540.119   123590739.640    23518541.977    96304465.829                  
  20893279.784   109794891.073    20893282.661    85554451.675                  
                 117101584.328                   117101584.328    22488126.662  
                 119397678.442                   119397678.442    22929065.085  
                 132864360.460                   132864360.460    25515213.380  
                 132366420.016                   132366420.016    25419585.481  
  23919362.621   125697073.937                                                  
  24741083.044   130015249.450                                                  
  25275935.387   132825899.522                                                  
  26949064.882   141618224.024                                                  
  24578466.036   129160662.188                                                  
  26443233.369   138960148.802                                                  
  26437959.773   138932366.254                                                  
 21  8 31 22 26 20.0000000  0 19G10G12G21G23G24G25G31G32C21C22C26C34
                                E 3E 5E 8E13E15E24E25
  20319001.443   106777029.051    20319004.302    83202868.359                  
  23785859.773   124995515.689    23785861.381    97399097.875                  
  24481089.760   128648973.191    24481090.296   100245948.313                  
  21503571.086   113002022.113    21503572.480    88053523.804                  
  23095272.837   121366424.071    23095276.572    94571225.933                  
  23685638.999   124468783.556    23685644.181    96988640.276                  
  23517813.993   123586923.838    23517815.852    96301492.480                  
  20893123.556   109794070.129    20893126.415    85553811.976                  
                 117100434.185                   117100434.185    22487905.783  
                 119398920.043                   119398920.043    22929303.511  
                 132860929.152                   132860929.152    25514554.442  
                 132368219.717                   132368219.717    25419931.104  
  23919260.053   125696534.949                                                  
  24741341.537   130016607.880                                                  
  25275573.307   132823996.797                                                  
  26948739.523   141616514.212                                                  
  24578629.520   129161521.268                                                  
  26443135.679   138959635.464                                                  
  26437464.158   138929761.796                                                  
 21  8 31 22 26 21.0000000  0 19G10G12G21G23G24G25G31G32C21C22C26C34
                                E 3E 5E 8E13E15E24E25
  20318988.899   106776963.191    20318991.758    83202817.039                  
  23785508.486   124993669.698    23785510.094    97397659.445                  
  24480703.575   128646943.867    24480704.147   100244367.024                  
  21503970.656   113004121.954    21503972.067    88055160.042                  
  23095905.615   121369749.321    23095909.367    94573817.034                  
  23685096.263   124465931.366    23685101.427    96986417.798                  
  23517087.903   123583108.228    23517089.762    96298519.277                  
  20892967.380   109793249.449    20892970.257    85553172.489                  
                 117099284.219                   117099284.219    22487684.940  
                 119400161.862                   119400161.862    22929541.991  
                 132857497.860                   132857497.860    25513895.504  
                 132370019.753                   132370019.753    25420276.780  
  23919157.520   125695996.090                                                  
  24741600.066   130017966.394                                                  
  25275211.227   132822094.121                                                  
  26948414.217   141614804.802                                                  
  24578793.075   129162380.833                                                  
  26443038.078   138959122.601                                                  
  26436968.578   138927157.505                                                  
 21  8 31 22 26 22.0000000  0 19G10G12G21G23G24G25G31G32C21C22C26C34
                                E 3E 5E 8E13E15E24E25
  20318976.462   106776897.785    20318979.321    83202766.078                  
  23785157.288   124991824.153    23785158.896    97396221.363                  
  24480317.479   128644914.934    24480318.033   100242786.040                  
  21504370.314   113006222.163    21504371.726    88056796.577                  
  23096538.446   121373074.837    23096542.181    94576408.351                  
  23684553.545   124463079.370    23684558.692    96984195.470                  
  23516361.867   123579292.805    23516363.725    96295546.227                  
  20892811.259   109792429.047    20892814.136    85552533.216                  
                 117098134.431                   117098134.431    22487464.132  
                 119401403.905                   119401403.905    22929780.525  
                 132854066.582                   132854066.582    25513236.548  
                 132371820.120                   132371820.120    25420622.528  
  23919055.006   125695457.352                                                  
  24741858.577   130019324.979                                                  
  25274849.183   132820191.513                                                  
  26948089.001   141613095.785                                                  
  24578956.737   129163240.876                                                  
  26442940.585   138958610.188                                                  
  26436473.017   138924553.379                                                  
 21  8 31 22 26 23.0000000  0 19G10G12G21G23G24G25G31G32C21C22C26C34
                                E 3E 5E 8E13E15E24E25
  20318964.097   106776832.831    20318966.956    83202715.469                  
  23784806.180   124989979.048    23784807.788    97394783.621                  
  24479931.454   128642886.382    24479932.026   100241205.354                  
  21504770.062   113008322.773    21504771.456    88058433.419                  
  23097171.296   121376400.621    23097175.066    94578999.875                  
  23684010.863   124460227.579    23684016.027    96981973.297                  
  23515635.849   123575477.570    23515637.707    96292573.328                  
  20892655.208   109791608.901    20892658.067    85551894.145                  
                 117096984.817                   117096984.817    22487243.378  
                 119402646.164                   119402646.164    22930019.076  
                 132850635.324                   132850635.324    25512577.592  
                 132373620.819                   132373620.819    25420968.311  
  23918952.491   125694918.749                                                  
  24742117.142   130020683.632                                                  
  25274487.121   132818288.942                                                  
  26947763.856   141611387.173                                                  
  24579120.507   129164101.376                                                  
  26442843.163   138958098.241                                                  
  26435977.509   138921949.399                                                  
 21  8 31 22 26 24.0000000  0 19G10G12G21G23G24G25G31G32C21C22C26C34
                                E 3E 5E 8E13E15E24E25
  20318951.821   106776768.352    20318954.680    83202665.226                  
  23784455.143   124988134.374    23784456.769    97393346.222                  
  24479545.519   128640858.214    24479546.055   100239624.969                  
  21505169.864   113010423.770    21505171.257    88060070.560                  
  23097804.234   121379726.686    23097807.987    94581591.616                  
  23683468.199   124457375.985    23683473.381    96979751.280                  
  23514909.866   123571662.538    23514911.724    96289600.583                  
  20892499.176   109790789.034    20892502.035    85551255.292                  
                 117095835.378                   117095835.378    22487022.642  
                 119403888.646                   119403888.646    22930257.699  
                 132847204.081                   132847204.081    25511918.672  
                 132375421.852                   132375421.852    25421314.184  
  23918850.048   125694380.269                                                  
  24742375.707   130022042.367                                                  
  25274125.076   132816386.437                                                  
  26947438.801   141609678.946                                                  
  24579284.348   129164962.370                                                  
  26442745.812   138957586.758                                                  
  26435482.019   138919345.590                                                  
 21  8 31 22 26 25.0000000  0 19G10G12G21G23G24G25G31G32C21C22C26C34
                                E 3E 5E 8E13E15E24E25
  20318939.634   106776704.319    20318942.493    83202615.337                  
  23784104.195   124986290.153    23784105.803    97391909.171                  
  24479159.638   128638830.434    24479160.174   100238044.883                  
  21505569.737   113012525.152    21505571.148    88061708.005                  
  23098437.227   121383053.015    23098440.961    94584183.563                  
  23682925.606   124454524.599    23682930.788    96977529.426                  
  23514183.901   123567847.691    23514185.760    96286627.976                  
  20892343.215   109789969.434    20892346.074    85550616.645                  
                 117094686.116                   117094686.116    22486801.942  
                 119405131.349                   119405131.349    22930496.340  
                 132843772.855                   132843772.855    25511259.734  
                 132377223.214                   132377223.214    25421660.128  
  23918747.605   125693841.918                                                  
  24742634.254   130023401.169                                                  
  25273763.068   132814483.975                                                  
  26947113.817   141607971.126                                                  
  24579448.260   129165823.836                                                  
  26442648.587   138957075.736                                                  
  26434986.564   138916741.945                                                  
 21  8 31 22 26 26.0000000  0 19G10G12G21G23G24G25G31G32C21C22C26C34
                                E 3E 5E 8E13E15E24E25
  20318927.537   106776640.756    20318930.396    83202565.810                  
  23783753.337   124984446.374    23783754.945    97390472.460                  
  24478773.846   128636803.036    24478774.382   100236465.094                  
  21505969.699   113014626.922    21505971.093    88063345.747                  
  23099070.237   121386379.621    23099074.007    94586775.723                  
  23682383.049   124451673.415    23682388.213    96975307.727                  
  23513458.008   123564033.043    23513459.866    96283655.528                  
  20892187.308   109789150.098    20892190.167    85549978.204                  
                 117093537.035                   117093537.035    22486581.260  
                 119406374.267                   119406374.267    22930735.035  
                 132840341.644                   132840341.644    25510600.814  
                 132379024.907                   132379024.907    25422006.126  
  23918645.180   125693303.696                                                  
  24742892.836   130024760.044                                                  
  25273401.041   132812581.575                                                  
  26946788.904   141606263.703                                                  
  24579612.280   129166685.777                                                  
  26442551.415   138956565.168                                                  
  26434491.146   138914138.452                                                  
 21  8 31 22 26 27.0000000  0 19G10G12G21G23G24G25G31G32C21C22C26C34
                                E 3E 5E 8E13E15E24E25
  20318915.547   106776577.648    20318918.388    83202516.632                  
  23783402.568   124982603.036    23783404.158    97389036.093                  
  24478388.107   128634776.024    24478388.661   100234885.604                  
  21506369.715   113016729.087    21506371.126    88064983.796                  
  23099703.318   121389706.499    23099707.089    94589368.094                  
  23681840.527   124448822.434    23681845.674    96973086.183                  
  23512732.114   123560218.579    23512733.973    96280683.219                  
  20892031.437   109788331.029    20892034.296    85549339.966                  
                 117092388.128                   117092388.128    22486360.613  
                 119407617.406                   119407617.406    22930973.765  
                 132836910.453                   132836910.453    25509941.875  
                 132380826.928                   132380826.928    25422352.178  
  23918542.772   125692765.591                                                  
  24743151.437   130026118.999                                                  
  25273039.033   132810679.222                                                  
  26946464.063   141604556.672                                                  
  24579776.407   129167548.191                                                  
  26442454.333   138956055.070                                                  
  26433995.745   138911535.124                                                  
 21  8 31 22 26 28.0000000  0 19G10G12G21G23G24G25G31G32C21C22C26C34
                                E 3E 5E 8E13E15E24E25
  20318903.593   106776515.003    20318906.452    83202467.816                  
  23783051.853   124980760.138    23783053.461    97387600.071                  
  24478002.440   128632749.391    24478002.994   100233306.410                  
  21506769.820   113018831.637    21506771.214    88066622.149                  
  23100336.454   121393033.650    23100340.206    94591960.676                  
  23681298.024   124445971.641    23681303.206    96970864.788                  
  23512006.293   123556404.319    23512008.133    96277711.075                  
  20891875.619   109787512.235    20891878.478    85548701.945                  
                 117091239.401                   117091239.401    22486140.020  
                 119408860.766                   119408860.766    22931212.548  
                 132833479.277                   132833479.277    25509282.955  
                 132382629.284                   132382629.284    25422698.301  
  23918440.401   125692227.633                                                  
  24743410.055   130027478.024                                                  
  25272677.042   132808776.934                                                  
  26946139.294   141602850.044                                                  
  24579940.606   129168411.089                                                  
  26442357.358   138955545.421                                                  
  26433500.362   138908931.966                                                  
 21  8 31 22 26 29.0000000  0 19G10G12G21G23G24G25G31G32C21C22C26C34
                                E 3E 5E 8E13E15E24E25
  20318891.781   106776452.817    20318894.622    83202419.358                  
  23782701.245   124978917.689    23782702.853    97386164.394                  
  24477616.862   128630723.146    24477617.398   100231727.515                  
  21507169.997   113020934.574    21507171.409    88068260.797                  
  23100969.642   121396361.071    23100973.395    94594553.470                  
  23680755.556   124443121.059    23680760.738    96968643.558                  
  23511280.507   123552590.249    23511282.365    96274739.070                  
  20891719.854   109786693.706    20891722.713    85548064.132                  
                 117090090.849                   117090090.849    22485919.462  
                 119410104.348                   119410104.348    22931451.368  
                 132830048.118                   132830048.118    25508624.035  
                 132384431.972                   132384431.972    25423044.495  
  23918338.065   125691689.790                                                  
  24743668.691   130028837.120                                                  
  25272315.051   132806874.672                                                  
  26945814.614   141601143.818                                                  
  24580104.893   129169274.457                                                  
  26442260.472   138955036.259                                                  
  26433005.015   138906328.952                                                  
 21  8 31 22 26 30.0000000  0 19G10G12G21G23G24G25G31G32C21C22C26C34
                                E 3E 5E 8E13E15E24E25
  20318880.023   106776391.102    20318882.882    83202371.269                  
  23782350.726   124977075.671    23782352.316    97384729.062                  
  24477231.356   128628697.282    24477231.892   100230148.922                  
  21507570.245   113023037.905    21507571.639    88069899.758                  
  23101602.885   121399688.770    23101606.637    94597146.480                  
  23680213.160   124440270.677    23680218.324    96966422.481                  
  23510554.738   123548776.376    23510556.597    96271767.228                  
  20891564.144   109785875.453    20891567.021    85547426.532                  
                 117088942.474                   117088942.474    22485698.923  
                 119411348.150                   119411348.150    22931690.223  
                 132826616.976                   132826616.976    25507965.115  
                 132386234.988                   132386234.988    25423390.743  
  23918235.729   125691152.070                                                  
  24743927.346   130030196.298                                                  
  25271953.079   132804972.489                                                  
  26945490.005   141599437.976                                                  
  24580269.288   129170138.308                                                  
  26442163.657   138954527.543                                                  
  26432509.721   138903726.116                                                  
 21  8 31 22 26 31.0000000  0 19G10G12G21G23G24G25G31G32C21C22C26C34
                                E 3E 5E 8E13E15E24E25
  20318868.355   106776329.840    20318871.214    83202323.532                  
  23782000.279   124975234.099    23782001.887    97383294.071                  
  24476845.921   128626671.808    24476846.457   100228570.638                  
  21507970.565   113025141.629    21507971.959    88071539.021                  
  23102236.181   121403016.737    23102239.916    94599739.703                  
  23679670.781   124437420.488    23679675.963    96964201.559                  
  23509829.024   123544962.687    23509830.864    96268795.522                  
  20891408.487   109785057.461    20891411.346    85546789.136                  
                 117087794.273                   117087794.273    22485478.419  
                 119412592.167                   119412592.167    22931929.114  
                 132823185.852                   132823185.852    25507306.195  
                 132388038.336                   132388038.336    25423737.063  
  23918133.447   125690614.488                                                  
  24744185.982   130031555.543                                                  
  25271591.124   132803070.341                                                  
  26945165.486   141597732.542                                                  
  24580433.755   129171002.624                                                  
  26442066.968   138954019.293                                                  
  26432014.463   138901123.443                                                  
 21  8 31 22 26 32.0000000  0 19G10G12G21G23G24G25G31G32C21C22C26C34
                                E 3E 5E 8E13E15E24E25
  20318856.794   106776269.032    20318859.635    83202276.152                  
  23781649.921   124973392.962    23781651.529    97381859.418                  
  24476460.558   128624646.722    24476461.094   100226992.648                  
  21508370.956   113027245.731    21508372.368    88073178.578                  
  23102869.513   121406344.968    23102873.265    94602333.130                  
  23679128.438   124434570.520    23679133.620    96961980.804                  
  23509103.327   123541149.204    23509105.185    96265823.979                  
  20891252.883   109784239.738    20891255.742    85546151.950                  
                 117086646.253                   117086646.253    22485257.951  
                 119413836.406                   119413836.406    22932168.059  
                 132819754.746                   132819754.746    25506647.292  
                 132389842.015                   132389842.015    25424083.436  
  23918031.164   125690077.035                                                  
  24744444.654   130032914.865                                                  
  25271229.169   132801168.261                                                  
  26944841.020   141596027.513                                                  
  24580598.329   129171867.435                                                  
  26441970.314   138953511.493                                                  
  26431519.205   138898520.919                                                  
 21  8 31 22 26 33.0000000  0 19G10G12G21G23G24G25G31G32C21C22C26C34
                                E 3E 5E 8E13E15E24E25
  20318845.304   106776208.694    20318848.163    83202229.138                  
  23781299.634   124971552.264    23781301.260    97380425.113                  
  24476075.266   128622622.032    24476075.802   100225414.966                  
  21508771.437   113029350.229    21508772.848    88074818.445                  
  23103502.916   121409673.489    23103506.669    94604926.778                  
  23678586.131   124431720.739    23678591.314    96959760.196                  
  23508377.684   123537335.906    23508379.524    96262852.583                  
  20891097.316   109783422.292    20891100.175    85545514.981                  
                 117085498.407                   117085498.407    22485037.519  
                 119415080.868                   119415080.868    22932407.039  
                 132816323.657                   132816323.657    25505988.408  
                 132391646.022                   132391646.022    25424429.881  
  23917928.900   125689539.699                                                  
  24744703.344   130034274.251                                                  
  25270867.214   132799266.231                                                  
  26944516.644   141594322.874                                                  
  24580762.974   129172732.719                                                  
  26441873.786   138953004.168                                                  
  26431024.001   138895918.570                                                  
 21  8 31 22 26 34.0000000  0 19G10G12G21G23G24G25G31G32C21C22C26C34
                                E 3E 5E 8E13E15E24E25
  20318833.921   106776148.814    20318836.762    83202182.473                  
  23780949.455   124969712.019    23780951.063    97378991.156                  
  24475690.045   128620597.720    24475690.599   100223837.578                  
  21509171.989   113031455.124    21509173.382    88076458.625                  
  23104136.355   121413002.266    23104140.108    94607520.628                  
  23678043.878   124428871.169    23678049.060    96957539.754                  
  23507652.058   123533522.802    23507653.917    96259881.335                  
  20890941.801   109782605.104    20890944.678    85544878.211                  
                 117084350.742                   117084350.742    22484817.122  
                 119416325.542                   119416325.542    22932646.073  
                 132812892.582                   132812892.582    25505329.488  
                 132393450.365                   132393450.365    25424776.379  
  23917826.671   125689002.496                                                  
  24744962.033   130035633.719                                                  
  25270505.277   132797364.251                                                  
  26944192.321   141592618.644                                                  
  24580927.744   129173598.469                                                  
  26441777.311   138952497.304                                                  
  26430528.815   138893316.378                                                  
 21  8 31 22 26 35.0000000  0 19G10G12G21G23G24G25G31G32C21C22C26C34
                                E 3E 5E 8E13E15E24E25
  20318822.592   106776089.394    20318825.451    83202136.177                  
  23780599.347   124967872.211    23780600.955    97377557.539                  
  24475304.896   128618573.790    24475305.432   100222260.491                  
  21509572.594   113033560.394    21509574.006    88078099.093                  
  23104769.865   121416331.324    23104773.600    94610114.700                  
  23677501.660   124426021.788    23677506.843    96955319.461                  
  23506926.487   123529709.894    23506928.345    96256910.238                  
  20890786.359   109781788.195    20890789.218    85544241.656                  
                 117083203.251                   117083203.251    22484596.762  
                 119417570.447                   119417570.447    22932885.143  
                 132809461.528                   132809461.528    25504670.585  
                 132395255.035                   132395255.035    25425122.966  
  23917724.478   125688465.427                                                  
  24745220.759   130036993.246                                                  
  25270143.358   132795462.329                                                  
  26943868.105   141590914.806                                                  
  24581092.586   129174464.704                                                  
  26441680.961   138951990.894                                                  
  26430033.664   138890714.341                                                  
 21  8 31 22 26 36.0000000  0 19G10G12G21G23G24G25G31G32C21C22C26C34
                                E 3E 5E 8E13E15E24E25
  20318811.388   106776030.438    20318814.247    83202090.230                  
  23780249.329   124966032.848    23780250.937    97376124.270                  
  24474919.837   128616550.253    24474920.373   100220683.712                  
  21509973.307   113035666.057    21509974.701    88079739.872                  
  23105403.394   121419660.644    23105407.164    94612708.972                  
  23676959.479   124423172.626    23676964.661    96953099.331                  
  23506200.933   123525897.180    23506202.791    96253939.296                  
  20890630.952   109780971.549    20890633.829    85543605.313                  
                 117082055.937                   117082055.937    22484376.436  
                 119418815.563                   119418815.563    22933124.266  
                 132806030.488                   132806030.488    25504011.701  
                 132397060.034                   132397060.034    25425469.572  
  23917622.303   125687928.476                                                  
  24745479.485   130038352.858                                                  
  25269781.438   132793560.466                                                  
  26943543.943   141589211.367                                                  
  24581257.499   129175331.408                                                  
  26441584.683   138951484.945                                                  
  26429538.531   138888112.477                                                  
 21  8 31 22 26 37.0000000  0 19G10G12G21G23G24G25G31G32C21C22C26C34
                                E 3E 5E 8E13E15E24E25
  20318800.238   106775971.943    20318803.097    83202044.652                  
  23779899.382   124964193.918    23779901.008    97374691.339                  
  24474534.849   128614527.106    24474535.385   100219107.234                  
  21510374.056   113037772.111    21510375.467    88081380.950                  
  23106036.994   121422990.245    23106040.764    94615303.469                  
  23676417.332   124420323.664    23676422.514    96950879.367                  
  23505475.433   123522084.665    23505477.291    96250968.513                  
  20890475.599   109780155.183    20890478.458    85542969.179                  
                 117080908.801                   117080908.801    22484156.147  
                 119420060.904                   119420060.904    22933363.425  
                 132802599.469                   132802599.469    25503352.798  
                 132398865.368                   132398865.368    25425816.284  
  23917520.146   125687391.660                                                  
  24745738.228   130039712.556                                                  
  25269419.537   132791658.665                                                  
  26943219.853   141587508.328                                                  
  24581422.519   129176198.602                                                  
  26441488.494   138950979.466                                                  
  26429043.452   138885510.769                                                  
 21  8 31 22 26 38.0000000  0 19G10G12G21G23G24G25G31G32C21C22C26C34
                                E 3E 5E 8E13E15E24E25
  20318789.195   106775913.902    20318792.054    83201999.425                  
  23779549.542   124962355.439    23779551.132    97373258.758                  
  24474149.914   128612504.335    24474150.468   100217531.046                  
  21510774.894   113039878.558    21510776.305    88083022.335                  
  23106670.665   121426320.116    23106674.400    94617898.172                  
  23675875.240   124417474.898    23675880.422    96948659.550                  
  23504749.986   123518272.341    23504751.827    96247997.866                  
  20890320.299   109779339.075    20890323.158    85542333.250                  
                 117079761.839                   117079761.839    22483935.876  
                 119421306.462                   119421306.462    22933602.602  
                 132799168.464                   132799168.464    25502693.896  
                 132400671.027                   132400671.027    25426163.033  
  23917418.025   125686854.964                                                  
  24745996.971   130041072.300                                                  
  25269057.636   132789756.884                                                  
  26942895.852   141585805.685                                                  
  24581587.647   129177066.253                                                  
  26441392.377   138950474.450                                                  
  26428548.409   138882909.227                                                  
 21  8 31 22 26 39.0000000  0 19G10G12G21G23G24G25G31G32C21C22C26C34
                                E 3E 5E 8E13E15E24E25
  20318778.241   106775856.337    20318781.100    83201954.567                  
  23779199.756   124960517.397    23779201.364    97371826.520                  
  24473765.087   128610481.960    24473765.623   100215955.172                  
  21511175.821   113041985.392    21511177.215    88084664.024                  
  23107304.354   121429650.266    23107308.107    94620493.089                  
  23675333.183   124414626.333    23675338.347    96946439.886                  
  23504024.557   123514460.211    23504026.398    96245027.382                  
  20890165.035   109778523.239    20890167.912    85541697.535                  
                 117078615.057                   117078615.057    22483715.658  
                 119422552.239                   119422552.239    22933841.832  
                 132795737.480                   132795737.480    25502035.012  
                 132402477.018                   132402477.018    25426509.853  
  23917315.921   125686318.411                                                  
  24746255.733   130042432.144                                                  
  25268695.752   132787855.170                                                  
  26942571.940   141584103.441                                                  
  24581752.846   129177934.398                                                  
  26441296.384   138949969.890                                                  
  26428053.365   138880307.848                                                  
 21  8 31 22 26 40.0000000  0 19G10G12G21G23G24G25G31G32C21C22C26C34
                                E 3E 5E 8E13E15E24E25
  20318767.377   106775799.215    20318770.218    83201910.059                  
  23778850.077   124958679.793    23778851.685    97370394.620                  
  24473380.295   128608459.973    24473380.832   100214379.597                  
  21511576.802   113044092.605    21511578.196    88086306.008                  
  23107938.115   121432980.672    23107941.867    94623088.210                  
  23674791.144   124411777.972    23674796.326    96944220.391                  
  23503299.164   123510648.275    23503301.005    96242057.044                  
  20890009.843   109777707.668    20890012.719    85541062.027                  
                 117077468.453                   117077468.453    22483495.458  
                 119423798.239                   119423798.239    22934081.116  
                 132792306.513                   132792306.513    25501376.145  
                 132404283.340                   132404283.340    25426856.744  
  23917213.835   125685781.956                                                  
  24746514.512   130043792.043                                                  
  25268333.887   132785953.519                                                  
  26942248.082   141582401.598                                                  
  24581918.117   129178803.013                                                  
  26441200.446   138949465.787                                                  
  26427558.358   138877706.626                                                  
 21  8 31 22 26 41.0000000  0 19G10G12G21G23G24G25G31G32C21C22C26C34
                                E 3E 5E 8E13E15E24E25
  20318756.602   106775742.563    20318759.443    83201865.914                  
  23778500.488   124956842.640    23778502.078    97368963.075                  
  24472995.593   128606438.367    24472996.147   100212804.324                  
  21511977.854   113046200.208    21511979.284    88087948.294                  
  23108571.911   121436311.353    23108575.681    94625683.546                  
  23674249.159   124408929.820    23674254.323    96942001.052                  
  23502573.807   123506836.535    23502575.666    96239086.864                  
  20889854.704   109776892.376    20889857.563    85540426.734                  
                 117076322.027                   117076322.027    22483275.294  
                 119425044.458                   119425044.458    22934320.454  
                 132788875.563                   132788875.563    25500717.260  
                 132406089.991                   132406089.991    25427203.707  
  23917111.785   125685245.653                                                  
  24746773.327   130045152.016                                                  
  25267972.021   132784051.926                                                  
  26941924.313   141580700.152                                                  
  24582083.495   129179672.105                                                  
  26441104.596   138948962.144                                                  
  26427063.404   138875105.569                                                  
 21  8 31 22 26 42.0000000  0 19G10G12G21G23G24G25G31G32C21C22C26C34
                                E 3E 5E 8E13E15E24E25
  20318745.898   106775686.371    20318748.740    83201822.133                  
  23778150.952   124955005.931    23778152.560    97367531.875                  
  24472610.963   128604417.139    24472611.516   100211229.344                  
  21512378.996   113048308.204    21512380.407    88089590.886                  
  23109205.779   121439642.292    23109209.514    94628279.085                  
  23673707.191   124406081.864    23673712.373    96939781.870                  
  23501848.486   123503024.991    23501850.344    96236116.833                  
  20889699.601   109776077.350    20889702.460    85539791.651                  
                 117075175.777                   117075175.777    22483055.183  
                 119426290.897                   119426290.897    22934559.827  
                 132785444.628                   132785444.628    25500058.376  
                 132407896.974                   132407896.974    25427550.705  
  23917009.735   125684709.474                                                  
  24747032.124   130046512.060                                                  
  25267610.173   132782150.368                                                  
  26941600.616   141578999.097                                                  
  24582248.980   129180541.667                                                  
  26441008.854   138948458.971                                                  
  26426568.468   138872504.677                                                  
 21  8 31 22 26 43.0000000  0 19G10G12G21G23G24G25G31G32C21C22C26C34
                                E 3E 5E 8E13E15E24E25
  20318735.302   106775630.646    20318738.143    83201778.710                  
  23777801.523   124953169.644    23777803.113    97366101.007                  
  24472226.421   128602396.314    24472226.957   100209654.675                  
  21512780.227   113050416.593    21512781.621    88091233.796                  
  23109839.700   121442973.516    23109843.435    94630874.847                  
  23673165.295   124403234.105    23673170.459    96937562.840                  
  23501123.218   123499213.642    23501125.058    96233146.954                  
  20889544.569   109775262.583    20889547.428    85539156.773                  
                 117074029.702                   117074029.702    22482835.072  
                 119427537.555                   119427537.555    22934799.219  
                 132782013.719                   132782013.719    25499399.491  
                 132409704.284                   132409704.284    25427897.775  
  23916907.739   125684173.421                                                  
  24747290.939   130047872.188                                                  
  25267248.326   132780248.875                                                  
  26941277.008   141577298.452                                                  
  24582414.536   129181411.714                                                  
  26440913.201   138947956.256                                                  
  26426073.567   138869903.946                                                  
 21  8 31 22 26 44.0000000  0 19G10G12G21G23G24G25G31G32C21C22C26C34
                                E 3E 5E 8E13E15E24E25
  20318724.777   106775575.367    20318727.618    83201735.640                  
  23777452.183   124951333.812    23777453.774    97364670.500                  
  24471841.933   128600375.864    24471842.487   100208080.305                  
  21513181.494   113052525.358    21513182.905    88092876.992                  
  23110473.658   121446305.004    23110477.392    94633470.816                  
  23672623.417   124400386.558    23672628.581    96935343.980                  
  23500397.986   123495402.492    23500399.826    96230177.234                  
  20889389.555   109774448.083    20889392.414    85538522.097                  
                 117072883.808                   117072883.808    22482615.015  
                 119428784.434                   119428784.434    22935038.681  
                 132778582.819                   132778582.819    25498740.643  
                 132411511.927                   132411511.927    25428244.917  
  23916805.760   125683637.494                                                  
  24747549.772   130049232.388                                                  
  25266886.496   132778347.425                                                  
  26940953.435   141575598.206                                                  
  24582580.200   129182282.236                                                  
  26440817.620   138947454.008                                                  
  26425578.702   138867303.376                                                  
 21  8 31 22 26 45.0000000  0 19G10G12G21G23G24G25G31G32C21C22C26C34
                                E 3E 5E 8E13E15E24E25
  20318714.342   106775520.560    20318717.201    83201692.938                  
  23777102.915   124949498.435    23777104.524    97363240.341                  
  24471457.535   128598355.804    24471458.089   100206506.237                  
  21513582.868   113054634.517    21513584.261    88094520.492                  
  23111107.668   121449636.765    23111111.421    94636066.991                  
  23672081.575   124397539.210    23672086.757    96933125.275                  
  23499672.753   123491591.526    23499674.594    96227207.660                  
  20889234.613   109773633.855    20889237.472    85537887.641                  
                 117071738.090                   117071738.090    22482394.994  
                 119430031.536                   119430031.536    22935278.162  
                 132775151.945                   132775151.945    25498081.776  
                 132413319.895                   132413319.895    25428592.112  
  23916703.800   125683101.696                                                  
  24747808.640   130050592.660                                                  
  25266524.684   132776446.047                                                  
  26940629.988   141573898.350                                                  
  24582745.935   129183153.227                                                  
  26440722.127   138946952.214                                                  
  26425083.855   138864702.976                                                  
 21  8 31 22 26 46.0000000  0 19G10G12G21G23G24G25G31G32C21C22C26C34
                                E 3E 5E 8E13E15E24E25
  20318703.996   106775466.211    20318706.855    83201650.593                  
  23776753.737   124947663.495    23776755.345    97361810.520                  
  24471073.208   128596336.132    24471073.744   100204932.474                  
  21513984.295   113056744.059    21513985.707    88096164.296                  
  23111741.733   121452968.793    23111745.485    94638663.383                  
  23671539.804   124394692.067    23671544.968    96930906.726                  
  23498947.593   123487780.758    23498949.433    96224238.234                  
  20889079.724   109772819.895    20889082.601    85537253.391                  
                 117070592.551                   117070592.551    22482175.026  
                 119431278.851                   119431278.851    22935517.696  
                 132771721.086                   132771721.086    25497422.927  
                 132415128.195                   132415128.195    25428939.396  
  23916601.857   125682566.024                                                  
  24748067.509   130051953.003                                                  
  25266162.854   132774544.712                                                  
  26940306.577   141572198.900                                                  
  24582911.777   129184024.699                                                  
  26440626.725   138946450.890                                                  
  26424589.044   138862102.735                                                  
 21  8 31 22 26 47.0000000  0 19G10G12G21G23G24G25G31G32C21C22C26C34
                                E 3E 5E 8E13E15E24E25
  20318693.739   106775412.320    20318696.598    83201608.605                  
  23776404.648   124945828.995    23776406.238    97360381.046                  
  24470688.935   128594316.853    24470689.489   100203359.012                  
  21514385.794   113058853.995    21514387.206    88097808.406                  
  23112375.833   121456301.085    23112379.603    94641259.977                  
  23670998.033   124391845.133    23671003.197    96928688.340                  
  23498222.486   123483970.192    23498224.308    96221268.969                  
  20888924.871   109772006.196    20888927.748    85536619.344                  
                 117069447.188                   117069447.188    22481955.059  
                 119432526.390                   119432526.390    22935757.284  
                 132768290.241                   132768290.241    25496764.061  
                 132416936.828                   132416936.828    25429286.717  
  23916499.932   125682030.472                                                  
  24748326.377   130053313.422                                                  
  25265801.060   132772643.421                                                  
  26939983.255   141570499.839                                                  
  24583077.691   129184896.647                                                  
  26440531.411   138945950.027                                                  
  26424094.251   138859502.649                                                  
 21  8 31 22 26 48.0000000  0 19G10G12G21G23G24G25G31G32C21C22C26C34
                                E 3E 5E 8E13E15E24E25
  20318683.571   106775358.887    20318686.412    83201566.973                  
  23776055.612   124943994.938    23776057.220    97358951.913                  
  24470304.769   128592297.950    24470305.305   100201785.847                  
  21514787.383   113060964.321    21514788.776    88099452.821                  
  23113010.022   121459633.659    23113013.757    94643856.790                  
  23670456.316   124388998.392    23670461.480    96926470.106                  
  23497497.379   123480159.807    23497499.219    96218299.847                  
  20888770.108   109771192.782    20888772.967    85535985.519                  
                 117068302.000                   117068302.000    22481735.145  
                 119433774.152                   119433774.152    22935996.908  
                 132764859.423                   132764859.423    25496105.194  
                 132418745.785                   132418745.785    25429634.126  
  23916398.061   125681495.062                                                  
  24748585.282   130054673.902                                                  
  25265439.266   132770742.195                                                  
  26939660.022   141568801.184                                                  
  24583243.712   129185769.070                                                  
  26440436.205   138945449.630                                                  
  26423599.511   138856902.737                                                  
 21  8 31 22 26 49.0000000  0 19G10G12G21G23G24G25G31G32C21C22C26C34
                                E 3E 5E 8E13E15E24E25
  20318673.493   106775305.926    20318676.334    83201525.707                  
  23775706.701   124942161.328    23775708.292    97357523.133                  
  24469920.638   128590279.436    24469921.174   100200212.984                  
  21515189.043   113063075.044    21515190.436    88101097.540                  
  23113644.248   121462966.509    23113647.982    94646453.816                  
  23669914.634   124386151.868    23669919.798    96924252.040                  
  23496772.325   123476349.637    23496774.166    96215330.886                  
  20888615.362   109770379.620    20888618.221    85535351.891                  
                 117067156.992                   117067156.992    22481515.249  
                 119435022.130                   119435022.130    22936236.567  
                 132761428.618                   132761428.618    25495446.345  
                 132420555.073                   132420555.073    25429981.554  
  23916296.207   125680959.762                                                  
  24748844.186   130056034.477                                                  
  25265077.472   132768841.027                                                  
  26939336.843   141567102.922                                                  
  24583409.841   129186641.969                                                  
  26440341.053   138944949.691                                                  
  26423104.808   138854302.983                                                  
 21  8 31 22 26 50.0000000  0 19G10G12G21G23G24G25G31G32C21C22C26C34
                                E 3E 5E 8E13E15E24E25
  20318663.504   106775253.414    20318666.363    83201484.793                  
  23775357.862   124940328.157    23775359.453    97356094.690                  
  24469536.615   128588261.313    24469537.133   100198640.426                  
  21515590.774   113065186.133    21515592.168    88102742.546                  
  23114278.509   121466299.608    23114282.243    94649051.043                  
  23669373.006   124383305.544    23669378.152    96922034.130                  
  23496047.307   123472539.649    23496049.148    96212362.073                  
  20888460.688   109769566.739    20888463.547    85534718.480                  
                 117066012.159                   117066012.159    22481295.406  
                 119436270.329                   119436270.329    22936476.262  
                 132757997.832                   132757997.832    25494787.497  
                 132422364.690                   132422364.690    25430329.088  
  23916194.354   125680424.601                                                  
  24749103.108   130057395.110                                                  
  25264715.696   132766939.895                                                  
  26939013.753   141565405.071                                                  
  24583576.023   129187515.343                                                  
  26440246.025   138944450.207                                                  
  26422610.104   138851703.390                                                  
 21  8 31 22 26 51.0000000  0 19G10G12G21G23G24G25G31G32C21C22C26C34
                                E 3E 5E 8E13E15E24E25
  20318653.605   106775201.374    20318656.446    83201444.250                  
  23775009.095   124938495.430    23775010.703    97354666.603                  
  24469152.663   128586243.587    24469153.181   100197068.171                  
  21515992.577   113067297.621    21515993.988    88104387.867                  
  23114912.823   121469632.983    23114916.558    94651648.480                  
  23668831.396   124380459.414    23668836.560    96919816.375                  
  23495322.325   123468729.861    23495324.166    96209393.414                  
  20888306.031   109768754.120    20888308.908    85534085.277                  
                 117064867.488                   117064867.488    22481075.581  
                 119437518.749                   119437518.749    22936715.993  
                 132754567.063                   132754567.063    25494128.666  
                 132424174.641                   132424174.641    25430676.677  
  23916092.536   125679889.566                                                  
  24749362.048   130058755.820                                                  
  25264353.937   132765038.833                                                  
  26938690.735   141563707.618                                                  
  24583742.312   129188389.198                                                  
  26440151.051   138943951.183                                                  
  26422115.436   138849103.956                                                  
 21  8 31 22 26 52.0000000  0 19G10G12G21G23G24G25G31G32C21C22C26C34
                                E 3E 5E 8E13E15E24E25
  20318643.777   106775149.787    20318646.636    83201404.052                  
  23774660.434   124936663.148    23774662.025    97353238.856                  
  24468768.765   128584226.236    24468769.301   100195496.216                  
  21516394.451   113069409.500    21516395.845    88106033.493                  
  23115547.191   121472966.637    23115550.944    94654246.137                  
  23668289.840   124377613.501    23668295.004    96917598.780                  
  23494597.379   123464920.263    23494599.202    96206424.903                  
  20888151.464   109767941.771    20888154.305    85533452.280                  
                 117063723.013                   117063723.013    22480855.774  
                 119438767.389                   119438767.389    22936955.795  
                 132751136.317                   132751136.317    25493469.799  
                 132425984.918                   132425984.918    25431024.318  
  23915990.754   125679354.663                                                  
  24749620.988   130060116.606                                                  
  25263992.197   132763137.810                                                  
  26938367.806   141562010.551                                                  
  24583908.708   129189263.514                                                  
  26440056.185   138943452.638                                                  
  26421620.821   138846504.695                                                  
 21  8 31 22 26 53.0000000  0 19G10G12G21G23G24G25G31G32C21C22C26C34
                                E 3E 5E 8E13E15E24E25
  20318634.056   106775098.668    20318636.897    83201364.222                  
  23774311.846   124934831.313    23774313.436    97351811.456                  
  24468384.939   128582209.275    24468385.475   100193924.563                  
  21516796.397   113071521.757    21516797.809    88107679.410                  
  23116181.613   121476300.554    23116185.366    94656843.997                  
  23667748.319   124374767.784    23667753.483    96915381.348                  
  23493872.486   123461110.859    23493874.291    96203456.543                  
  20887996.915   109767129.695    20887999.774    85532819.500                  
                 117062578.714                   117062578.714    22480636.039  
                 119440016.251                   119440016.251    22937195.615  
                 132747705.585                   132747705.585    25492810.986  
                 132427795.521                   132427795.521    25431372.014  
  23915889.008   125678819.883                                                  
  24749879.946   130061477.462                                                  
  25263630.456   132761236.847                                                  
  26938044.948   141560313.891                                                  
  24584075.158   129190138.329                                                  
  26439961.407   138942954.539                                                  
  26421126.242   138843905.598                                                  
 21  8 31 22 26 54.0000000  0 19G10G12G21G23G24G25G31G32C21C22C26C34
                                E 3E 5E 8E13E15E24E25
  20318624.425   106775048.011    20318627.266    83201324.753                  
  23773963.346   124932999.921    23773964.918    97350384.402                  
  24468001.201   128580192.698    24468001.737   100192353.211                  
  21517198.414   113073634.419    21517199.826    88109325.640                  
  23116816.106   121479634.745    23116819.841    94659442.070                  
  23667206.834   124371922.273    23667211.998    96913164.073                  
  23493147.594   123457301.646    23493149.416    96200488.331                  
  20887842.437   109766317.882    20887845.278    85532186.922                  
                 117061434.594                   117061434.594    22480416.321  
                 119441265.328                   119441265.328    22937435.507  
                 132744274.874                   132744274.874    25492152.137  
                 132429606.458                   132429606.458    25431719.799  
  23915787.244   125678285.230                                                  
  24750138.922   130062838.392                                                  
  25263268.716   132759335.941                                                  
  26937722.144   141558617.621                                                  
  24584241.715   129191013.605                                                  
  26439866.702   138942456.918                                                  
  26420631.663   138841306.657                                                  
 21  8 31 22 26 55.0000000  0 19G10G12G21G23G24G25G31G32C21C22C26C34
                                E 3E 5E 8E13E15E24E25
  20318614.883   106774997.817    20318617.724    83201285.648                  
  23773614.918   124931168.972    23773616.508    97348957.690                  
  24467617.536   128578176.524    24467618.054   100190782.169                  
  21517600.521   113075747.462    21517601.915    88110972.172                  
  23117450.618   121482969.194    23117454.352    94662040.344                  
  23666665.403   124369076.964    23666670.549    96910946.954                  
  23492422.755   123453492.638    23492424.595    96197520.280                  
  20887687.995   109765506.343    20887690.854    85531554.558                  
                 117060290.653                   117060290.653    22480196.640  
                 119442514.629                   119442514.629    22937675.417  
                 132740844.183                   132740844.183    25491493.307  
                 132431417.720                   132431417.720    25432067.637  
  23915685.533   125677750.702                                                  
  24750397.915   130064199.392                                                  
  25262906.993   132757435.082                                                  
  26937399.447   141556921.768                                                  
  24584408.380   129191889.356                                                  
  26439772.103   138941959.743                                                  
  26420137.138   138838707.892                                                  
 21  8 31 22 26 56.0000000  0 19G10G12G21G23G24G25G31G32C21C22C26C34
                                E 3E 5E 8E13E15E24E25
  20318605.394   106774948.076    20318608.235    83201246.890                  
  23773266.579   124929338.472    23773268.187    97347531.331                  
  24467233.941   128576160.716    24467234.459   100189211.414                  
  21518002.699   113077860.899    21518004.093    88112619.008                  
  23118085.200   121486303.925    23118088.935    94664638.836                  
  23666123.971   124366231.870    23666129.135    96908730.004                  
  23491697.987   123449683.817    23491699.792    96194552.375                  
  20887533.625   109764695.068    20887536.484    85530922.398                  
                 117059146.887                   117059146.887    22479976.994  
                 119443764.148                   119443764.148    22937915.380  
                 132737413.513                   132737413.513    25490834.476  
                 132433229.308                   132433229.308    25432415.511  
  23915583.841   125677216.301                                                  
  24750656.927   130065560.460                                                  
  25262545.288   132755534.269                                                  
  26937076.804   141555226.305                                                  
  24584575.115   129192765.591                                                  
  26439677.558   138941463.032                                                  
  26419642.649   138836109.288                                                  
 21  8 31 22 26 57.0000000  0 19G10G12G21G23G24G25G31G32C21C22C26C34
                                E 3E 5E 8E13E15E24E25
  20318596.013   106774898.797    20318598.854    83201208.496                  
  23772918.348   124927508.409    23772919.920    97346105.320                  
  24466850.418   128574145.305    24466850.937   100187640.968                  
  21518404.949   113079974.711    21518406.342    88114266.141                  
  23118719.836   121489638.917    23118723.571    94667237.540                  
  23665582.611   124363386.972    23665587.757    96906513.208                  
  23490973.220   123445875.206    23490975.042    96191584.633                  
  20887379.308   109763884.060    20887382.131    85530290.450                  
                 117058003.298                   117058003.298    22479757.383  
                 119445013.891                   119445013.891    22938155.379  
                 132733982.854                   132733982.854    25490175.663  
                 132435041.231                   132435041.231    25432763.475  
  23915482.184   125676682.038                                                  
  24750915.938   130066921.612                                                  
  25262183.584   132753633.527                                                  
  26936754.233   141553531.251                                                  
  24584741.959   129193642.289                                                  
  26439583.138   138940966.793                                                  
  26419148.177   138833510.840                                                  
 21  8 31 22 26 58.0000000  0 19G10G12G21G23G24G25G31G32C21C22C26C34
                                E 3E 5E 8E13E15E24E25
  20318586.739   106774849.997    20318589.580    83201170.472                  
  23772570.188   124925678.798    23772571.760    97344679.653                  
  24466466.985   128572130.281    24466467.503   100186070.824                  
  21518807.287   113082088.917    21518808.663    88115913.579                  
  23119354.526   121492974.190    23119358.261    94669836.452                  
  23665041.305   124360542.283    23665046.433    96904296.571                  
  23490248.506   123442066.782    23490250.328    96188617.039                  
  20887225.027   109763073.324    20887227.868    85529658.711                  
                 117056859.890                   117056859.890    22479537.809  
                 119446263.851                   119446263.851    22938395.413  
                 132730552.222                   132730552.222    25489516.832  
                 132436853.476                   132436853.476    25433111.527  
  23915380.527   125676147.883                                                  
  24751174.968   130068282.833                                                  
  25261821.897   132751732.823                                                  
  26936431.768   141551836.583                                                  
  24584908.873   129194519.472                                                  
  26439488.808   138940471.004                                                  
  26418653.741   138830912.559                                                  
 21  8 31 22 26 59.0000000  0 19G10G12G21G23G24G25G31G32C21C22C26C34
                                E 3E 5E 8E13E15E24E25
  20318577.536   106774801.644    20318580.378    83201132.801                  
  23772222.099   124923849.624    23772223.672    97343254.328                  
  24466083.605   128570115.653    24466084.123   100184500.989                  
  21519209.662   113084203.504    21519211.056    88117561.309                  
  23119989.234   121496309.716    23119992.986    94672435.565                  
  23664499.999   124357697.790    23664505.145    96902080.090                  
  23489523.827   123438258.554    23489525.614    96185649.593                  
  20887070.781   109762262.847    20887073.640    85529027.175                  
                 117055716.656                   117055716.656    22479318.252  
                 119447514.030                   119447514.030    22938635.501  
                 132727121.609                   132727121.609    25488858.019  
                 132438666.053                   132438666.053    25433459.598  
  23915278.906   125675613.866                                                  
  24751434.015   130069644.129                                                  
  25261460.228   132749832.184                                                  
  26936109.340   141550142.321                                                  
  24585075.877   129195397.134                                                  
  26439394.548   138939975.686                                                  
  26418159.323   138828314.434                                                  
 21  8 31 22 27  0.0000000  0 19G10G12G21G23G24G25G31G32C21C22C26C34
                                E 3E 5E 8E13E15E24E25
  20318568.423   106774753.756    20318571.264    83201095.493                  
  23771874.100   124922020.902    23771875.672    97341829.357                  
  24465700.297   128568101.403    24465700.815   100182931.448                  
  21519612.144   113086318.496    21519613.520    88119209.359                  
  23120624.049   121499645.524    23120627.766    94675034.903                  
  23663958.764   124354853.508    23663963.892    96899863.769                  
  23488799.167   123434450.532    23488800.972    96182682.313                  
  20886916.625   109761452.661    20886919.466    85528395.863                  
                 117054573.602                   117054573.602    22479098.731  
                 119448764.433                   119448764.433    22938875.625  
                 132723691.012                   132723691.012    25488199.224  
                 132440478.962                   132440478.962    25433807.758  
  23915177.303   125675079.976                                                  
  24751693.080   130071005.496                                                  
  25261098.541   132747931.595                                                  
  26935787.018   141548448.466                                                  
  24585243.006   129196275.270                                                  
  26439300.361   138939480.827                                                  
  26417664.941   138825716.481                                                  
 21  8 31 22 27  1.0000000  0 19G10G12G21G23G24G25G31G32C21C22C26C34
                                E 3E 5E 8E13E15E24E25
  20318559.399   106774706.333    20318562.241    83201058.540                  
  23771526.172   124920192.624    23771527.762    97340404.726                  
  24465317.078   128566087.547    24465317.596   100181362.214                  
  21520014.679   113088433.866    21520016.055    88120857.702                  
  23121258.864   121502981.598    23121262.598    94677634.442                  
  23663417.547   124352009.446    23663422.675    96897647.622                  
  23488074.560   123430642.695    23488076.383    96179715.171                  
  20886762.487   109760642.730    20886765.346    85527764.754                  
                 117053430.725                   117053430.725    22478879.264  
                 119450015.054                   119450015.054    22939115.803  
                 132720260.434                   132720260.434    25487540.393  
                 132442292.196                   132442292.196    25434155.954  
  23915075.735   125674546.214                                                  
  24751952.145   130072366.942                                                  
  25260736.872   132746031.052                                                  
  26935464.768   141546755.005                                                  
  24585410.189   129197153.870                                                  
  26439206.280   138938986.431                                                  
  26417170.594   138823118.691                                                  
 21  8 31 22 27  2.0000000  0 19G10G12G21G23G24G25G31G32C21C22C26C34
                                E 3E 5E 8E13E15E24E25
  20318550.465   106774659.367    20318553.306    83201021.945                  
  23771178.352   124918364.785    23771179.942    97338980.441                  
  24464933.948   128564074.087    24464934.466   100179793.289                  
  21520417.304   113090549.630    21520418.680    88122506.352                  
  23121893.768   121506317.928    23121897.485    94680234.184                  
  23662876.383   124349165.570    23662881.512    96895431.621                  
  23487349.971   123426835.069    23487351.794    96176748.199                  
  20886608.420   109759833.065    20886611.262    85527133.852                  
                 117052288.026                   117052288.026    22478659.814  
                 119451265.893                   119451265.893    22939355.998  
                 132716829.880                   132716829.880    25486881.598  
                 132444105.758                   132444105.758    25434504.239  
  23914974.203   125674012.582                                                  
  24752211.246   130073728.462                                                  
  25260375.238   132744130.577                                                  
  26935142.572   141545061.934                                                  
  24585577.460   129198032.958                                                  
  26439112.307   138938492.496                                                  
  26416676.301   138820521.070                                                  
 21  8 31 22 27  3.0000000  0 19G10G12G21G23G24G25G31G32C21C22C26C34
                                E 3E 5E 8E13E15E24E25
  20318541.620   106774612.865    20318544.443    83200985.719                  
  23770830.620   124916537.390    23770832.193    97337556.503                  
  24464550.854   128562061.003    24464551.372   100178224.661                  
  21520819.983   113092665.790    21520821.377    88124155.312                  
  23122528.672   121509654.546    23122532.425    94682834.148                  
  23662335.238   124346321.913    23662340.384    96893215.794                  
  23486625.454   123423027.637    23486627.259    96173781.371                  
  20886454.407   109759023.668    20886457.248    85526503.157                  
                 117051145.508                   117051145.508    22478440.401  
                 119452516.956                   119452516.956    22939596.265  
                 132713399.341                   132713399.341    25486222.802  
                 132445919.649                   132445919.649    25434852.578  
  23914872.654   125673479.070                                                  
  24752470.347   130075090.046                                                  
  25260013.587   132742230.140                                                  
  26934820.483   141543369.270                                                  
  24585744.840   129198912.515                                                  
  26439018.406   138937999.036                                                  
  26416182.026   138817923.613                                                  
 21  8 31 22 27  4.0000000  0 19G10G12G21G23G24G25G31G32C21C22C26C34
                                E 3E 5E 8E13E15E24E25
  20318532.864   106774566.829    20318535.687    83200949.847                  
  23770482.961   124914710.449    23770484.533    97336132.913                  
  24464167.867   128560048.317    24464168.367   100176656.337                  
  21521222.733   113094782.337    21521224.144    88125804.579                  
  23123163.666   121512991.460    23123167.401    94685434.363                  
  23661794.146   124343478.488    23661799.274    96891000.161                  
  23485900.955   123419220.419    23485902.759    96170814.722                  
  20886300.412   109758214.556    20886303.253    85525872.685                  
                 117050003.169                   117050003.169    22478221.041  
                 119453768.234                   119453768.234    22939836.568  
                 132709968.950                   132709968.950    25485563.972  
                 132447733.843                   132447733.843    25435200.988  
  23914771.158   125672945.699                                                  
  24752729.465   130076451.706                                                  
  25259651.954   132740329.786                                                  
  26934498.465   141541677.003                                                  
  24585912.308   129199792.556                                                  
  26438924.575   138937506.019                                                  
  26415687.751   138815326.292                                                  
 21  8 31 22 27  5.0000000  0 19G10G12G21G23G24G25G31G32C21C22C26C34
                                E 3E 5E 8E13E15E24E25
  20318524.180   106774521.263    20318527.021    83200914.341                  
  23770135.408   124912883.957    23770136.963    97334709.675                  
  24463784.916   128558036.008    24463785.434   100175088.305                  
  21521625.572   113096899.263    21521626.984    88127454.124                  
  23123798.695   121516328.608    23123802.448    94688034.739                  
  23661253.072   124340635.243    23661258.218    96888784.640                  
  23485176.509   123415413.372    23485178.296    96167848.196                  
  20886146.506   109757405.693    20886149.347    85525242.399                  
                 117048861.005                   117048861.005    22478001.698  
                 119455019.739                   119455019.739    22940076.906  
                 132706538.448                   132706538.448    25484905.176  
                 132449548.391                   132449548.391    25435549.452  
  23914669.697   125672412.445                                                  
  24752988.584   130077813.449                                                  
  25259290.339   132738429.466                                                  
  26934176.501   141539985.144                                                  
  24586079.866   129200673.069                                                  
  26438830.834   138937013.469                                                  
  26415193.548   138812729.164                                                  
 21  8 31 22 27  6.0000000  0 19G10G12G21G23G24G25G31G32C21C22C26C34
                                E 3E 5E 8E13E15E24E25
  20318515.602   106774476.140    20318518.444    83200879.180                  
  23769787.891   124911057.906    23769789.482    97333286.782                  
  24463402.054   128556024.094    24463402.573   100173520.578                  
  21522028.500   113099016.573    21522029.876    88129103.981                  
  23124433.796   121519666.027    23124437.513    94690635.325                  
  23660712.087   124337792.196    23660717.198    96886569.286                  
  23484452.081   123411606.526    23484453.885    96164881.827                  
  20885992.636   109756597.094    20885995.477    85524612.324                  
                 117047719.016                   117047719.016    22477782.374  
                 119456271.462                   119456271.462    22940317.280  
                 132703107.969                   132703107.969    25484246.399  
                 132451363.265                   132451363.265    25435897.987  
  23914568.237   125671879.308                                                  
  24753247.721   130079175.259                                                  
  25258928.723   132736529.200                                                  
  26933854.626   141538293.675                                                  
  24586247.513   129201554.073                                                  
  26438737.201   138936521.403                                                  
  26414699.362   138810132.198                                                  
 21  8 31 22 27  7.0000000  0 19G10G12G21G23G24G25G31G32C21C22C26C34
                                E 3E 5E 8E13E15E24E25
  20318507.097   106774431.472    20318509.938    83200844.376                  
  23769440.500   124909232.306    23769442.072    97331864.235                  
  24463019.282   128554012.562    24463019.800   100171953.153                  
  21522431.483   113101134.285    21522432.876    88130754.144                  
  23125068.933   121523003.715    23125072.667    94693236.116                  
  23660171.103   124334949.370    23660176.231    96884354.095                  
  23483727.706   123407799.875    23483729.493    96161915.605                  
  20885838.802   109755788.750    20885841.643    85523982.446                  
                 117046577.207                   117046577.207    22477563.121  
                 119457523.403                   119457523.403    22940557.708  
                 132699677.511                   132699677.511    25483587.604  
                 132453178.465                   132453178.465    25436246.576  
  23914466.812   125671346.304                                                  
  24753506.893   130080537.160                                                  
  25258567.126   132734629.001                                                  
  26933532.823   141536602.597                                                  
  24586415.267   129202435.578                                                  
  26438643.656   138936029.789                                                  
  26414205.194   138807535.399                                                  
 21  8 31 22 27  8.0000000  0 19G10G12G21G23G24G25G31G32C21C22C26C34
                                E 3E 5E 8E13E15E24E25
  20318498.698   106774387.300    20318501.522    83200809.954                  
  23769093.180   124907407.141    23769094.752    97330442.031                  
  24462636.581   128552001.411    24462637.099   100170386.023                  
  21522834.536   113103252.370    21522835.948    88132404.602                  
  23125704.123   121526341.656    23125707.857    94695837.109                  
  23659630.154   124332106.714    23659635.300    96882139.043                  
  23483003.332   123403993.417    23483005.154    96158949.539                  
  20885685.039   109754980.735    20885687.880    85523352.824                  
                 117045435.578                   117045435.578    22477343.886  
                 119458775.565                   119458775.565    22940798.153  
                 132696247.074                   132696247.074    25482928.827  
                 132454993.996                   132454993.996    25436595.219  
  23914365.424   125670813.452                                                  
  24753766.065   130081899.078                                                  
  25258205.546   132732728.807                                                  
  26933211.091   141534911.952                                                  
  24586583.075   129203317.442                                                  
  26438550.183   138935538.613                                                  
  26413711.080   138804938.753                                                  
 21  8 31 22 27  9.0000000  0 19G10G12G21G23G24G25G31G32C21C22C26C34
                                E 3E 5E 8E13E15E24E25
  20318490.371   106774343.570    20318493.195    83200775.879                  
  23768745.967   124905582.430    23768747.521    97329020.180                  
  24462253.934   128549990.645    24462254.452   100168819.192                  
  21523237.679   113105370.848    21523239.055    88134055.360                  
  23126339.384   121529679.870    23126343.101    94698438.313                  
  23659089.258   124329264.296    23659094.405    96879924.171                  
  23482279.047   123400187.155    23482280.833    96155983.625                  
  20885531.311   109754172.946    20885534.188    85522723.378                  
                 117044294.126                   117044294.126    22477124.687  
                 119460027.948                   119460027.948    22941038.688  
                 132692816.653                   132692816.653    25482270.032  
                 132456809.856                   132456809.856    25436943.933  
  23914264.035   125670280.703                                                  
  24754025.238   130083261.105                                                  
  25257843.966   132730828.702                                                  
  26932889.467   141533221.681                                                  
  24586751.009   129204199.868                                                  
  26438456.800   138935047.914                                                  
  26413216.984   138802342.276                                                  
 21  8 31 22 27 10.0000000  0 19G10G12G21G23G24G25G31G32C21C22C26C34
                                E 3E 5E 8E13E15E24E25
  20318482.134   106774300.305    20318484.975    83200742.168                  
  23768398.807   124903758.160    23768400.380    97327598.671                  
  24461871.376   128547980.272    24461871.894   100167252.672                  
  21523640.876   113107489.702    21523642.252    88135706.414                  
  23126974.664   121533018.360    23126978.399    94701039.731                  
  23658548.399   124326422.066    23658553.545    96877709.449                  
  23481554.761   123396381.094    23481556.566    96153017.863                  
  20885377.656   109753365.432    20885380.497    85522094.149                  
                 117043152.852                   117043152.852    22476905.505  
                 119461280.549                   119461280.549    22941279.223  
                 132689386.253                   132689386.253    25481611.272  
                 132458626.039                   132458626.039    25437292.718  
  23914162.682   125669748.086                                                  
  24754284.446   130084623.206                                                  
  25257482.387   132728928.641                                                  
  26932567.878   141531531.820                                                  
  24586918.995   129205082.759                                                  
  26438363.524   138934557.679                                                  
  26412722.923   138799745.967                                                  
 21  8 31 22 27 11.0000000  0 19G10G12G21G23G24G25G31G32C21C22C26C34
                                E 3E 5E 8E13E15E24E25
  20318474.003   106774257.509    20318476.827    83200708.816                  
  23768051.737   124901934.339    23768053.327    97326177.516                  
  24461488.872   128545970.298    24461489.408   100165686.456                  
  21524044.162   113109608.975    21524045.556    88137357.796                  
  23127609.997   121536357.111    23127613.732    94703641.355                  
  23658007.575   124323580.058    23658012.721    96875494.897                  
  23480830.548   123392575.231    23480832.335    96150052.258                  
  20885224.054   109752558.186    20885226.895    85521465.124                  
                 117042011.755                   117042011.755    22476686.360  
                 119462533.374                   119462533.374    22941519.812  
                 132685955.874                   132685955.874    25480952.495  
                 132460442.550                   132460442.550    25437641.557  
  23914061.364   125669215.598                                                  
  24754543.654   130085985.383                                                  
  25257120.825   132727028.629                                                  
  26932246.379   141529842.355                                                  
  24587087.107   129205966.116                                                  
  26438270.319   138934067.914                                                  
  26412228.898   138797149.829                                                  
 21  8 31 22 27 12.0000000  0 19G10G12G21G23G24G25G31G32C21C22C26C34
                                E 3E 5E 8E13E15E24E25
  20318465.944   106774215.159    20318468.768    83200675.820                  
  23767704.756   124900110.972    23767706.347    97324756.711                  
  24461106.475   128543960.706    24461106.993   100164120.542                  
  21524447.519   113111728.618    21524448.895    88139009.462                  
  23128245.402   121539696.138    23128249.136    94706243.192                  
  23657466.805   124320738.242    23657471.933    96873280.497                  
  23480106.334   123388769.566    23480108.139    96147086.809                  
  20885070.487   109751751.210    20885073.346    85520836.314                  
                 117040870.836                   117040870.836    22476467.267  
                 119463786.421                   119463786.421    22941760.436  
                 132682525.520                   132682525.520    25480293.736  
                 132462259.389                   132462259.389    25437990.485  
  23913960.047   125668683.239                                                  
  24754802.880   130087347.630                                                  
  25256759.281   132725128.680                                                  
  26931924.986   141528153.296                                                  
  24587255.308   129206849.966                                                  
  26438177.203   138933578.607                                                  
  26411734.891   138794553.842                                                  
