     2.11           OBSERVATION DATA    M (MIXED)           RINEX VERSION / TYPE
CONVBIN 2.4.3                           20210901 190844 UTC PGM / RUN BY / DATE 
log: logs/21_09_01_09_42_25_mami_SNMA.rtcm                  COMMENT             
format: RTCM 3, station ID: 3762                            COMMENT             
3762                                                        MARKER NAME         
                                                            MARKER NUMBER       
                                                            OBSERVER / AGENCY   
1704346             LEICA GR10          4.30                REC # / TYPE / VERS 
                    GPPNULLANTENNA                          ANT # / TYPE        
  1535073.5994 -4470512.7948  4268012.3929                  APPROX POSITION XYZ 
        0.0000        0.0000        0.0000                  ANTENNA: DELTA H/E/N
     1     1                                                WAVELENGTH FACT L1/2
     7    C1    L1    C2    L2    P2    C5    L5            # / TYPES OF OBSERV 
  2021     9     1     9    42   32.0000000     GPS         TIME OF FIRST OBS   
  2021     9     1    10    12   29.0000000     GPS         TIME OF LAST OBS    
                                                            END OF HEADER       
 21  9  1  9 42 32.0000000  0 18G 1G 3G 7G 8G14G17G19G21G22G30R13R14
                                R17R24E13E15E21E27
  20163259.935   105958645.576    20163258.381    82565171.733    20163258.345  
  20163256.576    79124949.521  
  23857368.351   125371316.102    23857367.493    97691928.442    23857366.921  
  23857366.814    93621430.935  
  23308634.672   122487701.756    23308630.651    95444943.808    23308630.204  
                                
  24561279.681   129070395.277    24561279.056   100574328.188    24561278.198  
  24561277.162    96383726.048  
  20511496.351   107788640.841    20511492.277    83991129.982    20511491.848  
  20511495.189    80491512.692  
  21430241.065   112616676.890    21430236.402    87753233.224    21430235.937  
                                
  23257264.000   122217747.203                    95234580.202    23257257.192  
                                
  22326990.514   117329127.194                    91425270.462    22326984.921  
                                
  23111982.321   121454287.012                    94639676.283    23111975.585  
                                
  21881560.390   114988375.585    21881558.693    89601322.049    21881558.085  
  21881557.853    85867932.405  
  19948356.201   106523108.914    19948354.342    82851299.122    19948353.449  
                                
  19799549.142   105542738.022    19799547.874    82088791.003    19799546.784  
                                
  23098644.472   123605512.173    23098642.024    96137609.734    23098641.273  
                                
  19611618.555   104872138.085    19611615.892    81567207.400    19611615.196  
                                
  23542242.645   123715320.409                                                  
  23542243.271    92384819.161  
  23887996.017   125532267.062                                                  
  23887997.965    93741634.423  
  24213479.699   127242695.132                                                  
  24213480.646    95018898.990  
  23761221.214   124866060.751                                                  
  23761222.232    93244138.975  
 21  9  1  9 42 33.0000000  0 18G 1G 3G 7G 8G14G17G19G21G22G30R13R14
                                R17R24E13E15E21E27
  20163427.511   105959526.145    20163425.938    82565857.891    20163425.938  
  20163424.134    79125607.083  
  23856807.710   125368369.839    23856806.835    97689632.648    23856806.281  
  23856806.156    93619230.791  
  23309315.035   122491277.044    23309311.014    95447729.749    23309310.567  
                                
  24561844.968   129073365.942    24561844.324   100576642.985    24561843.485  
  24561842.448    96385944.408  
  20511250.348   107787347.972    20511246.238    83990122.555    20511245.845  
  20511249.187    80490547.236  
  21429971.476   112615260.177    21429966.794    87752129.289    21429966.347  
                                
  23256722.319   122214900.629                    95232362.086    23256715.511  
                                
  22327476.122   117331679.040                    91427258.911    22327470.529  
                                
  23111667.773   121452633.996                    94638388.218    23111661.036  
                                
  21882005.454   114990714.376    21882003.756    89603144.481    21882003.149  
  21882002.917    85869678.902  
  19948826.353   106525619.472    19948824.494    82853251.776    19948823.601  
                                
  19799185.740   105540800.883    19799184.453    82087284.339    19799183.381  
                                
  23097976.813   123601939.476    23097974.383    96134830.964    23097973.615  
                                
  19611394.924   104870942.252    19611392.262    81566277.307    19611391.565  
                                
  23541994.963   123714018.752                                                  
  23541995.570    92383847.140  
  23888282.064   125533770.227                                                  
  23888284.012    93742756.913  
  24213203.068   127241241.462                                                  
  24213204.015    95017813.457  
  23761457.818   124867304.041                                                  
  23761458.818    93245067.408  
 21  9  1  9 42 34.0000000  0 18G 1G 3G 7G 8G14G17G19G21G22G30R13R14
                                R17R24E13E15E21E27
  20163595.283   105960407.742    20163593.711    82566544.847    20163593.693  
  20163591.888    79126265.420  
  23856247.159   125365424.096    23856246.283    97687337.266    23856245.712  
  23856245.604    93617031.060  
  23309995.469   122494852.828    23309991.466    95450516.074    23309991.020  
                                
  24562410.308   129076336.948    24562409.665   100578958.052    24562408.825  
  24562407.788    96388163.036  
  20511004.452   107786055.838    20511000.360    83989115.690    20510999.949  
  20511003.291    80489582.335  
  21429702.011   112613844.038    21429697.329    87751025.804    21429696.864  
                                
  23256180.726   122212054.563                    95230144.376    23256173.936  
                                
  22327961.820   117334231.509                    91429247.847    22327956.245  
                                
  23111353.350   121450981.775                    94637100.771    23111346.613  
                                
  21882450.678   114993053.982    21882448.945    89604967.551    21882448.373  
  21882448.123    85871426.015  
  19949296.683   106528131.067    19949294.825    82855205.236    19949293.949  
                                
  19798822.534   105538864.751    19798821.248    82085778.456    19798820.175  
                                
  23097309.298   123598367.348    23097306.850    96132052.649    23097306.082  
                                
  19611171.490   104869747.347    19611168.827    81565347.937    19611168.130  
                                
  23541747.387   123712717.794                                                  
  23541748.013    92382875.652  
  23888568.237   125535274.032                                                  
  23888570.185    93743879.877  
  24212926.581   127239788.385                                                  
  24212927.492    95016728.362  
  23761694.528   124868548.004                                                  
  23761695.547    93245996.339  
 21  9  1  9 42 35.0000000  0 18G 1G 3G 7G 8G14G17G19G21G22G30R13R14
                                R17R24E13E15E21E27
  20163763.216   105961290.303    20163761.662    82567232.557    20163761.644  
  20163759.857    79126924.486  
  23855686.697   125362478.870    23855685.822    97685042.285    23855685.250  
  23855685.143    93614831.696  
  23310675.993   122498429.037    23310671.972    95453302.731    23310671.544  
                                
  24562975.737   129079308.247    24562975.094   100581273.357    24562974.254  
  24562973.218    96390381.861  
  20510758.718   107784764.431    20510754.608    83988109.399    20510754.197  
  20510757.538    80488617.977  
  21429432.635   112612428.446    21429427.936    87749922.745    21429427.471  
                                
  23255639.224   122209208.967                    95227927.024    23255632.433  
                                
  22328447.661   117336784.579                    91431237.252    22328442.086  
                                
  23111039.105   121449330.327                    94635813.930    23111032.368  
                                
  21882896.028   114995394.357    21882894.313    89606791.215    21882893.705  
  21882893.473    85873173.700  
  19949767.228   106530643.647    19949765.352    82857159.465    19949764.476  
                                
  19798459.507   105536929.591    19798458.221    82084273.332    19798457.131  
                                
  23096641.854   123594795.755    23096639.424    96129274.743    23096638.656  
                                
  19610948.199   104868553.373    19610945.536    81564419.288    19610944.839  
                                
  23541499.955   123711417.513                                                  
  23541500.562    92381904.665  
  23888854.499   125536778.433                                                  
  23888856.446    93745003.304  
  24212650.165   127238335.880                                                  
  24212651.094    95015643.710  
  23761931.364   124869792.606                                                  
  23761932.383    93246925.748  
 21  9  1  9 42 36.0000000  0 18G 1G 3G 7G 8G14G17G19G21G22G30R13R14
                                R17R24E13E15E21E27
  20163931.346   105962173.807    20163929.773    82567920.999    20163929.756  
  20163927.987    79127584.244  
  23855126.325   125359534.092    23855125.431    97682747.657    23855124.877  
  23855124.770    93612632.687  
  23311356.588   122502005.648    23311352.604    95456089.698    23311352.157  
                                
  24563541.203   129082279.790    24563540.577   100583588.845    24563539.737  
  24563538.683    96392600.866  
  20510513.072   107783473.682    20510508.980    83987103.620    20510508.587  
  20510511.911    80487654.108  
  21429163.349   112611013.364    21429158.667    87748820.084    21429158.203  
                                
  23255097.810   122206363.770                    95225709.985    23255091.002  
                                
  22328933.591   117339338.218                    91433227.099    22328928.016  
                                
  23110724.968   121447679.576                    94634527.634    23110718.231  
                                
  21883341.503   114997735.463    21883339.805    89608615.458    21883339.216  
  21883338.965    85874921.931  
  19950237.916   106533157.151    19950236.058    82859114.413    19950235.164  
                                
  19798096.659   105534995.375    19798095.372    82082768.944    19798094.282  
                                
  23095974.518   123591224.702    23095972.070    96126497.260    23095971.302  
                                
  19610725.086   104867360.287    19610722.423    81563491.335    19610721.727  
                                
  23541252.612   123710117.858                                                  
  23541253.237    92380934.145  
  23889140.885   125538283.403                                                  
  23889142.851    93746127.139  
  24212373.856   127236883.894                                                  
  24212374.785    95014559.427  
  23762168.308   124871037.793                                                  
  23762169.326    93247855.595  
 21  9  1  9 42 37.0000000  0 18G 1G 3G 7G 8G14G17G19G21G22G30R13R14
                                R17R24E13E15E21E27
  20164099.708   105963058.508    20164098.118    82568610.379    20164098.100  
  20164096.331    79128244.886  
  23854566.095   125356590.042    23854565.219    97680453.597    23854564.665  
  23854564.540    93610434.197  
  23312037.327   122505582.923    23312033.324    95458877.192    23312032.895  
                                
  24564106.775   129085251.843    24564106.150   100585904.731    24564105.292  
  24564104.256    96394820.244  
  20510267.641   107782183.854    20510263.549    83986098.559    20510263.138  
  20510266.480    80486690.910  
  21428894.206   112609599.001    21428889.506    87747717.980    21428889.077  
                                
  23254556.522   122203519.271                    95223493.495    23254549.714  
                                
  22329419.700   117341892.643                    91435217.563    22329414.125  
                                
  23110411.027   121446029.812                    94633242.100    23110404.290  
                                
  21883787.210   115000077.549    21883785.512    89610440.462    21883784.905  
  21883784.673    85876670.880  
  19950708.836   106535671.841    19950706.978    82861070.283    19950706.084  
                                
  19797734.025   105533062.389    19797732.738    82081265.510    19797731.666  
                                
  23095307.324   123587654.450    23095304.876    96123720.404    23095304.126  
                                
  19610502.188   104866168.302    19610499.525    81562564.236    19610498.828  
                                
  23541005.483   123708819.077                                                  
  23541006.109    92379964.268  
  23889427.433   125539789.162                                                  
  23889429.381    93747251.563  
  24212097.708   127235432.669                                                  
  24212098.638    95013475.717  
  23762405.430   124872283.818                                                  
  23762406.448    93248786.062  
 21  9  1  9 42 38.0000000  0 18G 1G 3G 7G 8G14G17G19G21G22G30R13R14
                                R17R24E13E15E21E27
  20164268.123   105963943.661    20164266.569    82569300.109    20164266.551  
  20164264.764    79128905.886  
  23854005.865   125353646.001    23854004.972    97678159.527    23854004.418  
  23854004.311    93608235.732  
  23312718.047   122509160.139    23312714.044    95461664.633    23312713.616  
                                
  24564672.312   129088223.682    24564671.668   100588220.445    24564670.829  
  24564669.792    96397039.470  
  20510022.228   107780894.228    20510018.136    83985093.656    20510017.725  
  20510021.067    80485727.891  
  21428625.063   112608184.679    21428620.381    87746615.907    21428619.916  
                                
  23254015.215   122200674.726                    95221276.966    23254008.425  
                                
  22329905.809   117344447.180                    91437208.104    22329900.234  
                                
  23110097.139   121444380.297                    94631956.762    23110090.403  
                                
  21884232.953   115002419.896    21884231.219    89612265.663    21884230.648  
  21884230.397    85878420.038  
  19951179.864   106538187.054    19951177.987    82863026.560    19951177.094  
                                
  19797371.498   105531129.897    19797370.211    82079762.458    19797369.139  
                                
  23094640.149   123584084.261    23094637.683    96120943.597    23094636.932  
                                
  19610279.343   104864976.706    19610276.681    81561637.438    19610275.984  
                                
  23540758.373   123707520.469                                                  
  23540758.998    92378994.530  
  23889713.999   125541295.033                                                  
  23889715.928    93748376.079  
  24211821.543   127233981.511                                                  
  24211822.490    95012392.064  
  23762642.587   124873529.981                                                  
  23762643.588    93249716.638  
 21  9  1  9 42 39.0000000  0 18G 1G 3G 7G 8G14G17G19G21G22G30R13R14
                                R17R24E13E15E21E27
  20164436.682   105964829.445    20164435.127    82569990.327    20164435.109  
  20164433.323    79129567.356  
  23853445.654   125350702.109    23853444.778    97675865.584    23853444.224  
  23853444.117    93606037.376  
  23313398.785   122512737.449    23313394.783    95464452.147    23313394.336  
                                
  24565237.795   129091195.422    24565237.152   100590536.075    24565236.294  
  24565235.275    96399258.643  
  20509776.868   107779604.967    20509772.794    83984089.037    20509772.383  
  20509775.725    80484765.137  
  21428355.973   112606770.542    21428351.291    87745513.984    21428350.827  
                                
  23253473.927   122197830.253                    95219060.494    23253467.137  
                                
  22330391.954   117347001.955                    91439198.838    22330386.396  
                                
  23109783.324   121442731.207                    94630671.757    23109776.587  
                                
  21884678.749   115004762.654    21884677.052    89614091.189    21884676.444  
  21884676.212    85880169.507  
  19951650.998   106540702.857    19951649.104    82864983.288    19951648.229  
                                
  19797009.079   105529198.032    19797007.810    82078259.892    19797006.720  
                                
  23093972.991   123580514.273    23093970.543    96118166.946    23093969.774  
                                
  19610056.624   104863785.674    19610053.961    81560711.075    19610053.264  
                                
  23540511.298   123706222.184                                                  
  23540511.923    92378025.040  
  23890000.582   125542801.142                                                  
  23890002.530    93749500.784  
  24211545.430   127232530.561                                                  
  24211546.377    95011308.576  
  23762879.745   124874776.409                                                  
  23762880.764    93250647.427  
 21  9  1  9 42 40.0000000  0 18G 1G 3G 7G 8G14G17G19G21G22G30R13R14
                                R17R24E13E15E21E27
  20164605.401   105965715.945    20164603.811    82570681.113    20164603.811  
  20164602.006    79130229.348  
  23852885.495   125347758.467    23852884.620    97673571.837    23852884.066  
  23852883.959    93603839.193  
  23314079.559   122516314.926    23314075.557    95467239.796    23314075.110  
                                
  24565803.332   129094167.226    24565802.688   100592851.768    24565801.848  
  24565800.812    96401477.824  
  20509531.634   107778316.139    20509527.542    83983084.756    20509527.131  
  20509530.455    80483802.694  
  21428086.919   112605356.695    21428082.237    87744412.285    21428081.773  
                                
  23252932.692   122194986.007                    95216844.198    23252925.884  
                                
  22330878.188   117349557.073                    91441189.841    22330872.595  
                                
  23109469.615   121441082.602                    94629387.129    23109462.861  
                                
  21885124.671   115007105.920    21885122.955    89615917.110    21885122.365  
  21885122.115    85881919.339  
  19952122.240   106543219.382    19952120.382    82866940.587    19952119.488  
                                
  19796646.802   105527266.885    19796645.533    82076757.894    19796644.443  
                                
  23093305.887   123576944.520    23093303.456    96115390.479    23093302.688  
                                
  19609834.011   104862595.308    19609831.331    81559785.237    19609830.634  
                                
  23540264.312   123704924.292                                                  
  23540264.937    92377055.833  
  23890287.255   125544307.585                                                  
  23890289.202    93750625.725  
  24211269.390   127231079.902                                                  
  24211270.319    95010225.285  
  23763117.010   124876023.215                                                  
  23763118.028    93251578.477  
 21  9  1  9 42 41.0000000  0 18G 1G 3G 7G 8G14G17G19G21G22G30R13R14
                                R17R24E13E15E21E27
  20164774.156   105966602.890    20164772.602    82571372.242    20164772.584  
  20164770.797    79130891.674  
  23852325.337   125344814.793    23852324.462    97671278.071    23852323.890  
  23852323.801    93601640.977  
  23314760.316   122519892.332    23314756.313    95470027.383    23314755.866  
                                
  24566368.779   129097138.763    24566368.171   100595167.256    24566367.314  
  24566366.259    96403696.824  
  20509286.417   107777027.491    20509282.325    83982080.616    20509281.914  
  20509285.256    80482840.390  
  21427817.883   112603942.860    21427813.201    87743310.596    21427812.737  
                                
  23252391.421   122192141.699                    95214627.856    23252384.631  
                                
  22331364.404   117352112.247                    91443180.886    22331358.847  
                                
  23109155.942   121439434.237                    94628102.689    23109149.188  
                                
  21885570.628   115009449.423    21885568.912    89617743.217    21885568.323  
  21885568.072    85883669.356  
  19952593.607   106545736.348    19952591.713    82868898.228    19952590.838  
                                
  19796284.615   105525336.185    19796283.328    82075256.236    19796282.256  
                                
  23092638.800   123573374.791    23092636.334    96112614.028    23092635.584  
                                
  19609611.471   104861405.345    19609608.808    81558859.711    19609608.111  
                                
  23540017.380   123703626.541                                                  
  23540017.987    92376086.722  
  23890573.927   125545814.113                                                  
  23890575.893    93751750.713  
  24210993.349   127229629.278                                                  
  24210994.296    95009142.020  
  23763354.293   124877270.115                                                  
  23763355.311    93252509.599  
 21  9  1  9 42 42.0000000  0 18G 1G 3G 7G 8G14G17G19G21G22G30R13R14
                                R17R24E13E15E21E27
  20164943.126   105967490.728    20164941.535    82572064.059    20164941.535  
  20164939.749    79131554.661  
  23851765.251   125341871.529    23851764.375    97668984.619    23851763.821  
  23851763.714    93599443.094  
  23315441.143   122523470.082    23315437.158    95472815.236    23315436.712  
                                
  24566934.280   129100110.502    24566933.672   100597482.900    24566932.815  
  24566931.778    96405915.982  
  20509041.308   107775739.468    20509037.216    83981076.960    20509036.823  
  20509040.164    80481878.552  
  21427548.918   112602529.483    21427544.237    87742209.258    21427543.772  
                                
  23251850.240   122189297.755                    95212411.794    23251843.450  
                                
  22331850.763   117354667.935                    91445172.326    22331845.170  
                                
  23108842.377   121437786.526                    94626818.759    23108835.640  
                                
  21886016.692   115011793.608    21886014.995    89619569.849    21886014.405  
  21886014.155    85885419.880  
  19953065.117   106548254.217    19953063.241    82870856.571    19953062.365  
                                
  19795922.588   105523406.386    19795921.320    82073755.279    19795920.212  
                                
  23091971.803   123569805.585    23091969.355    96109837.979    23091968.587  
                                
  19609389.091   104860216.179    19609386.428    81557934.806    19609385.731  
                                
  23539770.519   123702329.371                                                  
  23539771.145    92375118.063  
  23890860.725   125547321.137                                                  
  23890862.673    93752876.094  
  24210717.398   127228179.135                                                  
  24210718.345    95008059.117  
  23763591.683   124878517.561                                                  
  23763592.701    93253441.129  
 21  9  1  9 42 43.0000000  0 18G 1G 3G 7G 8G14G17G19G21G22G30R13R14
                                R17R24E13E15E21E27
  20165112.220   105968379.362    20165110.648    82572756.499    20165110.648  
  20165108.843    79132218.257  
  23851205.236   125338928.586    23851204.360    97666691.410    23851203.806  
  23851203.699    93597245.445  
  23316122.024   122527048.108    23316118.022    95475603.308    23316117.593  
                                
  24567499.817   129103082.376    24567499.209   100599798.641    24567498.351  
  24567497.333    96408135.224  
  20508796.306   107774451.970    20508792.214    83980073.714    20508791.803  
  20508795.144    80480917.109  
  21427280.043   112601116.461    21427275.362    87741108.200    21427274.897  
                                
  23251309.130   122186454.072                    95210195.932    23251302.322  
                                
  22332337.158   117357224.027                    91447164.086    22332331.583  
                                
  23108528.972   121436139.412                    94625535.293    23108522.199  
                                
  21886462.900   115014138.382    21886461.202    89621396.946    21886460.594  
  21886460.362    85887170.848  
  19953536.770   106550772.906    19953534.912    82872815.553    19953534.018  
                                
  19795560.705   105521477.403    19795559.436    82072254.959    19795558.346  
                                
  23091304.878   123566236.756    23091302.430    96107062.227    23091301.661  
                                
  19609166.854   104859027.739    19609164.191    81557010.457    19609163.494  
                                
  23539523.784   123701032.685                                                  
  23539524.409    92374149.761  
  23891147.577   125548828.578                                                  
  23891149.524    93754001.776  
  24210441.518   127226729.362                                                  
  24210442.447    95006976.496  
  23763829.144   124879765.455                                                  
  23763830.163    93254373.003  
 21  9  1  9 42 44.0000000  0 18G 1G 3G 7G 8G14G17G19G21G22G30R13R14
                                R17R24E13E15E21E27
  20165281.494   105969268.857    20165279.921    82573449.612    20165279.903  
  20165278.098    79132882.487  
  23850645.292   125335986.035    23850644.416    97664398.511    23850643.862  
  23850643.755    93595048.086  
  23316802.959   122530626.459    23316798.957    95478391.636    23316798.528  
                                
  24568065.389   129106054.395    24568064.764   100602114.495    24568063.906  
  24568062.887    96410354.586  
  20508551.411   107773165.055    20508547.337    83979070.926    20508546.908  
  20508550.249    80479956.106  
  21427011.222   112599703.865    21427006.558    87740007.482    21427006.093  
                                
  23250768.056   122183610.758                    95207980.368    23250761.266  
                                
  22332823.660   117359780.615                    91449156.233    22332818.085  
                                
  23108215.656   121434492.943                    94624252.328    23108208.902  
                                
  21886909.214   115016483.792    21886907.499    89623224.536    21886906.909  
  21886906.677    85888922.300  
  19954008.602   106553292.416    19954006.725    82874775.165    19954005.850  
                                
  19795199.000   105519549.314    19795197.749    82070755.331    19795196.641  
                                
  23090638.041   123562668.330    23090635.593    96104286.776    23090634.825  
                                
  19608944.777   104857840.090    19608942.097    81556086.730    19608941.382  
                                
  23539277.138   123699736.557                                                  
  23539277.763    92373181.873  
  23891434.517   125550336.509                                                  
  23891436.483    93755127.831  
  24210165.710   127225280.044                                                  
  24210166.657    95005894.211  
  23764066.713   124881013.867                                                  
  23764067.731    93255305.258  
 21  9  1  9 42 45.0000000  0 18G 1G 3G 7G 8G14G17G19G21G22G30R13R14
                                R17R24E13E15E21E27
  20165450.892   105970159.119    20165449.337    82574143.323    20165449.319  
  20165447.533    79133547.292  
  23850085.420   125333043.778    23850084.508    97662105.848    23850083.954  
  23850083.865    93592850.944  
  23317483.930   122534205.034    23317479.927    95481180.129    23317479.516  
                                
  24568630.944   129109026.480    24568630.318   100604430.401    24568629.461  
  24568628.442    96412574.011  
  20508306.623   107771878.658    20508302.531    83978068.539    20508302.120  
  20508305.462    80478995.482  
  21426742.472   112598291.611    21426737.808    87738907.025    21426737.343  
                                
  23250227.036   122180767.674                    95205764.975    23250220.246  
                                
  22333310.233   117362337.609                    91451148.693    22333304.676  
                                
  23107902.430   121432847.043                    94622969.804    23107895.694  
                                
  21887355.654   115018829.790    21887353.938    89625052.589    21887353.349  
  21887353.099    85890674.172  
  19954480.576   106555812.727    19954478.718    82876735.405    19954477.824  
                                
  19794837.456   105517622.003    19794836.170    82069256.314    19794835.097  
                                
  23089971.259   123559100.220    23089968.793    96101511.582    23089968.042  
                                
  19608722.790   104856653.146    19608720.128    81555163.554    19608719.431  
                                
  23539030.563   123698440.892                                                  
  23539031.189    92372214.329  
  23891721.548   125551844.833                                                  
  23891723.513    93756254.170  
  24209889.991   127223831.078                                                  
  24209890.920    95004812.191  
  23764304.353   124882262.715                                                  
  23764305.371    93256237.831  
 21  9  1  9 42 46.0000000  0 18G 1G 3G 7G 8G14G17G19G21G22G30R13R14
                                R17R24E13E15E21E27
  20165620.397   105971049.833    20165618.843    82574837.378    20165618.807  
  20165617.038    79134212.440  
  23849525.512   125330101.495    23849524.618    97659813.164    23849524.082  
  23849523.975    93590653.793  
  23318164.918   122537783.538    23318160.916    95483968.580    23318160.469  
                                
  24569196.462   129111998.322    24569195.837   100606746.118    24569194.979  
  24569193.961    96414793.248  
  20508061.871   107770592.433    20508057.761    83977066.288    20508057.368  
  20508060.710    80478034.992  
  21426473.721   112596879.352    21426469.058    87737806.564    21426468.593  
                                
  23249685.998   122177924.519                    95203549.534    23249679.190  
                                
  22333796.825   117364894.669                    91453141.203    22333791.267  
                                
  23107589.276   121431201.351                    94621687.451    23107582.539  
                                
  21887802.111   115021176.013    21887800.396    89626880.815    21887799.806  
  21887799.574    85892426.229  
  19954952.640   106558333.450    19954950.782    82878695.967    19954949.870  
                                
  19794475.966   105515695.122    19794474.715    82067757.629    19794473.607  
                                
  23089304.458   123555532.159    23089302.010    96098736.425    23089301.242  
                                
  19608500.911   104855466.557    19608498.230    81554240.654    19608497.534  
                                
  23538784.024   123697145.363                                                  
  23538784.668    92371246.897  
  23892008.596   125553353.222                                                  
  23892010.543    93757380.566  
  24209614.272   127222382.138                                                  
  24209615.201    95003730.193  
  23764542.011   124883511.649                                                  
  23764543.029    93257170.485  
 21  9  1  9 42 47.0000000  0 18G 1G 3G 7G 8G14G17G19G21G22G30R13R14
                                R17R24E13E15E21E27
  20165790.064   105971941.395    20165788.491    82575532.104    20165788.473  
  20165786.704    79134878.212  
  23848965.693   125327159.614    23848964.800    97657520.786    23848964.228  
  23848964.138    93588456.923  
  23318845.925   122541362.344    23318841.922    95486757.272    23318841.493  
                                
  24569762.035   129114970.355    24569761.410   100609061.990    24569760.570  
  24569759.515    96417012.602  
  20507817.208   107769306.787    20507813.116    83976064.483    20507812.705  
  20507816.047    80477074.934  
  21426205.079   112595467.530    21426200.397    87736706.447    21426199.932  
                                
  23249145.031   122175081.696                    95201334.345    23249138.241  
                                
  22334283.523   117367452.188                    91455134.075    22334277.966  
                                
  23107276.228   121429556.302                    94620405.597    23107269.474  
                                
  21888248.712   115023522.871    21888246.996    89628709.539    21888246.407  
  21888246.157    85894178.752  
  19955424.847   106560855.071    19955422.988    82880657.225    19955422.095  
                                
  19794114.654   105513769.113    19794113.385    82066259.624    19794112.295  
                                
  23088637.765   123551964.558    23088635.317    96095961.624    23088634.549  
                                
  19608279.156   104854280.748    19608276.494    81553318.357    19608275.797  
                                
  23538537.593   123695850.382                                                  
  23538538.236    92370279.859  
  23892295.715   125554862.086                                                  
  23892297.663    93758507.315  
  24209338.624   127220933.636                                                  
  24209339.571    95002648.515  
  23764779.776   124884761.099                                                  
  23764780.795    93258103.509  
 21  9  1  9 42 48.0000000  0 18G 1G 3G 7G 8G14G17G19G21G22G30R13R14
                                R17R24E13E15E21E27
  20165959.820   105972833.523    20165958.265    82576227.269    20165958.247  
  20165956.460    79135544.414  
  23848405.892   125324217.803    23848404.999    97655228.464    23848404.427  
  23848404.338    93586260.127  
  23319526.967   122544941.209    23319522.964    95489545.996    23319522.517  
                                
  24570327.554   129117942.206    24570326.928   100611377.718    24570326.089  
  24570325.034    96419231.852  
  20507572.617   107768021.449    20507568.525    83975062.921    20507568.114  
  20507571.456    80476115.101  
  21425936.436   112594055.838    21425931.754    87735606.429    21425931.289  
                                
  23248604.064   122172238.937                    95199119.213    23248597.274  
                                
  22334770.222   117370009.900                    91457127.100    22334764.664  
                                
  23106963.252   121427911.606                    94619124.013    23106956.498  
                                
  21888695.366   115025870.092    21888693.668    89630538.543    21888693.061  
  21888692.829    85895931.543  
  19955897.179   106563377.261    19955895.302    82882618.929    19955894.427  
                                
  19793753.450   105511843.705    19793752.181    82064762.084    19793751.091  
                                
  23087971.108   123548397.094    23087968.642    96093186.933    23087967.891  
                                
  19608057.491   104853095.434    19608054.828    81552396.451    19608054.132  
                                
  23538291.232   123694555.659                                                  
  23538291.858    92369313.023  
  23892582.870   125556371.132                                                  
  23892584.836    93759634.200  
  24209063.012   127219485.289                                                  
  24209063.959    95001566.957  
  23765017.577   124886010.766                                                  
  23765018.596    93259036.706  
 21  9  1  9 42 49.0000000  0 18G 1G 3G 7G 8G14G17G19G21G22G30R13R14
                                R17R24E13E15E21E27
  20166129.629   105973725.871    20166128.074    82576922.612    20166128.039  
  20166126.269    79136210.785  
  23847846.038   125321275.760    23847845.127    97652935.974    23847844.573  
  23847844.483    93584063.164  
  23320207.937   122548519.749    23320203.935    95492334.468    23320203.488  
                                
  24570893.001   129120913.626    24570892.376   100613693.114    24570891.518  
  24570890.499    96421450.769  
  20507328.026   107766736.069    20507323.916    83974061.327    20507323.505  
  20507326.847    80475155.242  
  21425667.757   112592643.948    21425663.075    87734506.260    21425662.611  
                                
  23248063.044   122169395.871                    95196903.839    23248056.254  
                                
  22335256.920   117372567.451                    91459119.999    22335251.363  
                                
  23106650.294   121426266.918                    94617842.436    23106643.522  
                                
  21889142.038   115028217.328    21889140.322    89632367.558    21889139.733  
  21889139.483    85897684.351  
  19956369.564   106565899.666    19956367.670    82884580.809    19956366.794  
                                
  19793392.299   105509918.547    19793391.030    82063264.742    19793389.940  
                                
  23087304.414   123544829.424    23087301.948    96090412.080    23087301.198  
                                
  19607835.844   104851910.267    19607833.181    81551474.654    19607832.484  
                                
  23538044.836   123693260.849                                                  
  23538045.444    92368346.125  
  23892870.008   125557880.028                                                  
  23892871.955    93760760.987  
  24208787.365   127218036.751                                                  
  24208788.276    95000485.272  
  23765255.360   124887260.307                                                  
  23765256.361    93259969.816  
 21  9  1  9 42 50.0000000  0 18G 1G 3G 7G 8G14G17G19G21G22G30R13R14
                                R17R24E13E15E21E27
  20166299.599   105974619.035    20166298.027    82577618.582    20166298.009  
  20166296.240    79136877.749  
  23847286.255   125318334.057    23847285.344    97650643.743    23847284.790  
  23847284.683    93581866.430  
  23320888.944   122552098.582    23320884.977    95495123.171    23320884.530  
                                
  24571458.484   129123885.151    24571457.841   100616008.591    24571457.001  
  24571455.965    96423669.748  
  20507083.506   107765451.230    20507079.432    83973060.153    20507079.003  
  20507082.345    80474195.779  
  21425399.150   112591232.432    21425394.468    87733406.380    21425394.004  
                                
  23247522.077   122166553.103                    95194688.695    23247515.287  
                                
  22335743.690   117375125.442                    91461113.238    22335738.133  
                                
  23106337.426   121424622.837                    94616561.334    23106330.671  
                                
  21889588.817   115030565.171    21889587.102    89634197.049    21889586.530  
  21889586.262    85899437.609  
  19956842.075   106568422.888    19956840.198    82886543.317    19956839.305  
                                
  19793031.291   105507994.213    19793030.022    82061768.038    19793028.932  
                                
  23086637.775   123541262.160    23086635.327    96087637.540    23086634.558  
                                
  19607614.375   104850725.867    19607611.712    81550553.457    19607611.016  
                                
  23537798.548   123691966.548                                                  
  23537799.155    92367379.594  
  23893157.234   125559389.356                                                  
  23893159.164    93761888.078  
  24208511.806   127216588.615                                                  
  24208512.736    94999403.857  
  23765493.250   124888510.326                                                  
  23765494.251    93260903.259  
 21  9  1  9 42 51.0000000  0 18G 1G 3G 7G 8G14G17G19G21G22G30R13R14
                                R17R24E13E15E21E27
  20166469.694   105975512.970    20166468.140    82578315.157    20166468.122  
  20166466.335    79137545.300  
  23846726.508   125315392.663    23846725.614    97648351.748    23846725.043  
  23846724.953    93579669.934  
  23321570.022   122555677.637    23321566.019    95497912.046    23321565.608  
                                
  24572023.932   129126856.743    24572023.306   100618324.117    24572022.466  
  24572021.412    96425888.810  
  20506839.112   107764166.892    20506835.020    83972059.375    20506834.627  
  20506837.968    80473236.703  
  21425130.614   112589821.241    21425125.933    87732306.750    21425125.450  
                                
  23246981.164   122163710.600                    95192473.760    23246974.356  
                                
  22336230.532   117377683.826                    91463106.787    22336224.975  
                                
  23106024.682   121422979.314                    94615280.672    23106017.910  
                                
  21890035.703   115032913.575    21890033.970    89636026.971    21890033.398  
  21890033.130    85901191.289  
  19957314.746   106570946.924    19957312.870    82888506.456    19957311.976  
                                
  19792670.426   105506070.627    19792669.175    82060271.915    19792668.085  
                                
  23085971.207   123537695.231    23085968.776    96084863.259    23085968.008  
                                
  19607393.031   104849542.228    19607390.351    81549632.849    19607389.654  
                                
  23537552.312   123690672.706                                                  
  23537552.938    92366413.426  
  23893444.532   125560899.097                                                  
  23893446.462    93763015.480  
  24208236.302   127215140.841                                                  
  24208237.213    94998322.728  
  23765731.194   124889760.765                                                  
  23765732.195    93261837.037  
 21  9  1  9 42 52.0000000  0 18G 1G 3G 7G 8G14G17G19G21G22G30R13R14
                                R17R24E13E15E21E27
  20166639.915   105976407.502    20166638.360    82579012.195    20166638.342  
  20166636.555    79138213.301  
  23846166.814   125312451.389    23846165.903    97646059.851    23846165.349  
  23846165.260    93577473.537  
  23322251.117   122559256.766    23322247.115    95500700.980    23322246.686  
                                
  24572589.397   129129828.283    24572588.771   100620639.599    24572587.914  
  24572586.895    96428107.814  
  20506594.789   107762882.904    20506590.679    83971058.862    20506590.286  
  20506593.627    80472277.878  
  21424862.114   112588410.217    21424857.433    87731207.251    21424856.968  
                                
  23246440.286   122160868.184                    95190258.889    23246433.478  
                                
  22336717.427   117380242.445                    91465100.511    22336711.870  
                                
  23105712.010   121421336.167                    94614000.290    23105705.237  
                                
  21890482.661   115035262.358    21890480.928    89637857.194    21890480.356  
  21890480.088    85902945.255  
  19957787.525   106573471.547    19957785.631    82890470.049    19957784.755  
                                
  19792309.704   105504147.645    19792308.418    82058776.263    19792307.345  
                                
  23085304.692   123534128.494    23085302.244    96082089.125    23085301.476  
                                
  19607171.759   104848359.127    19607169.115    81548712.664    19607168.400  
                                
  23537306.167   123689379.175                                                  
  23537306.792    92365447.469  
  23893731.866   125562409.047                                                  
  23893733.796    93764143.044  
  24207960.833   127213693.236                                                  
  24207961.744    94997241.736  
  23765969.174   124891011.456                                                  
  23765970.193    93262770.999  
 21  9  1  9 42 53.0000000  0 18G 1G 3G 7G 8G14G17G19G21G22G30R13R14
                                R17R24E13E15E21E27
  20166810.385   105977303.260    20166808.830    82579710.188    20166808.813  
  20166807.026    79138882.201  
  23845607.246   125309510.875    23845606.352    97643768.532    23845605.781  
  23845605.709    93575277.694  
  23322932.338   122562836.576    23322928.335    95503490.444    23322927.889  
                                
  24573154.987   129132800.328    24573154.362   100622955.482    24573153.504  
  24573152.485    96430327.181  
  20506350.626   107761599.854    20506346.534    83970059.079    20506346.141  
  20506349.483    80471319.748  
  21424593.739   112587000.006    21424589.076    87730108.388    21424588.593  
                                
  23245899.516   122158026.476                    95188044.568    23245892.726  
                                
  22337204.465   117382801.883                    91467094.876    22337198.908  
                                
  23105399.498   121419694.023                    94612720.698    23105392.762  
                                
  21890929.816   115037612.158    21890928.100    89639688.203    21890927.511  
  21890927.261    85904699.967  
  19958260.536   106575997.393    19958258.659    82892434.594    19958257.766  
                                
  19791949.179   105502225.904    19791947.910    82057281.573    19791946.838  
                                
  23084638.320   123530562.590    23084635.872    96079315.642    23084635.104  
                                
  19606950.755   104847177.146    19606948.075    81547793.343    19606947.396  
                                
  23537060.182   123688086.539                                                  
  23537060.825    92364482.186  
  23894019.361   125563919.842                                                  
  23894021.291    93765271.226  
  24207685.507   127212246.453                                                  
  24207686.436    94996161.333  
  23766207.368   124892263.034                                                  
  23766208.387    93263705.608  
 21  9  1  9 42 54.0000000  0 18G 1G 3G 7G 8G14G17G19G21G22G30R13R14
                                R17R24E13E15E21E27
  20166980.945   105978199.637    20166979.390    82580408.659    20166979.372  
  20166977.585    79139551.584  
  23845047.713   125306570.517    23845046.820    97641477.341    23845046.266  
  23845046.159    93573081.981  
  23323613.559   122566416.507    23323609.574    95506279.996    23323609.127  
                                
  24573720.524   129135772.337    24573719.898   100625271.331    24573719.041  
  24573718.022    96432546.552  
  20506106.535   107760317.163    20506102.443    83969059.582    20506102.015  
  20506105.356    80470361.907  
  21424325.436   112585589.980    21424320.754    87729009.657    21424320.290  
                                
  23245358.782   122155184.865                    95185830.321    23245351.973  
                                
  22337691.557   117385361.593                    91469089.458    22337686.000  
                                
  23105087.094   121418052.302                    94611441.432    23105080.340  
                                
  21891377.060   115039962.396    21891375.326    89641519.555    21891374.737  
  21891374.486    85906455.024  
  19958733.672   106578523.895    19958731.777    82894399.653    19958730.902  
                                
  19791588.796   105500304.812    19791587.528    82055787.390    19791586.438  
                                
  23083972.002   123526996.901    23083969.537    96076542.329    23083968.768  
                                
  19606729.805   104845995.696    19606727.142    81546874.437    19606726.445  
                                
  23536814.268   123686794.228                                                  
  23536814.911    92363517.156  
  23894306.891   125565430.886                                                  
  23894308.839    93766399.608  
  24207410.235   127210799.885                                                  
  24207411.164    94995081.108  
  23766445.562   124893514.890                                                  
  23766446.581    93264640.442  
 21  9  1  9 42 55.0000000  0 18G 1G 3G 7G 8G14G17G19G21G22G30R13R14
                                R17R24E13E15E21E27
  20167151.612   105979096.478    20167150.057    82581107.496    20167150.039  
  20167148.253    79140221.296  
  23844488.180   125303630.141    23844487.287    97639186.135    23844486.715  
  23844486.644    93570886.233  
  23324294.780   122569996.311    23324290.777    95509069.449    23324290.366  
                                
  24574286.043   129138744.103    24574285.417   100627586.991    24574284.560  
  24574283.541    96434765.705  
  20505862.498   107759034.668    20505858.388    83968060.228    20505857.995  
  20505861.337    80469404.187  
  21424057.115   112584179.960    21424052.433    87727910.940    21424051.986  
                                
  23244818.029   122152343.192                    95183616.028    23244811.239  
                                
  22338178.666   117387921.345                    91471084.063    22338173.109  
                                
  23104774.726   121416410.810                    94610162.352    23104767.971  
                                
  21891824.321   115042312.866    21891822.606    89643351.085    21891822.034  
  21891821.766    85908210.234  
  19959206.879   106581050.841    19959205.021    82896365.054    19959204.109  
                                
  19791228.485   105498384.200    19791227.217    82054293.578    19791226.144  
                                
  23083305.667   123523431.212    23083303.219    96073769.013    23083302.468  
                                
  19606508.944   104844814.631    19606506.263    81545955.829    19606505.584  
                                
  23536568.373   123685502.061                                                  
  23536569.016    92362552.221  
  23894594.440   125566942.010                                                  
  23894596.405    93767528.034  
  24207134.980   127209353.340                                                  
  24207135.892    94994000.895  
  23766683.828   124894766.855                                                  
  23766684.828    93265575.342  
 21  9  1  9 42 56.0000000  0 18G 1G 3G 7G 8G14G17G19G21G22G30R13R14
                                R17R24E13E15E21E27
  20167322.404   105979993.897    20167320.832    82581806.779    20167320.814  
  20167319.045    79140891.438  
  23843928.683   125300689.865    23843927.772    97636895.019    23843927.200  
  23843927.111    93568690.578  
  23324976.000   122573576.159    23324972.016    95511858.943    23324971.569  
                                
  24574851.508   129141715.743    24574850.900   100629902.552    24574850.043  
  24574849.024    96436984.796  
  20505618.497   107757752.481    20505614.423    83967061.124    20505613.994  
  20505617.335    80468446.705  
  21423788.829   112582770.096    21423784.148    87726812.345    21423783.683  
                                
  23244277.295   122149501.584                    95181401.790    23244270.487  
                                
  22338665.830   117390481.325                    91473078.848    22338660.254  
                                
  23104462.429   121414769.675                    94608883.548    23104455.674  
                                
  21892271.690   115044663.705    21892269.957    89645182.910    21892269.385  
  21892269.117    85909965.728  
  19959680.212   106583578.360    19959678.335    82898330.901    19959677.442  
                                
  19790868.299   105496464.200    19790867.031    82052800.245    19790865.959  
                                
  23082639.349   123519865.652    23082636.918    96070995.797    23082636.150  
                                
  19606288.172   104843634.110    19606285.509    81545037.644    19606284.812  
                                
  23536322.548   123684210.173                                                  
  23536323.174    92361587.493  
  23894882.042   125568453.327                                                  
  23894884.007    93768656.610  
  24206859.744   127207906.973                                                  
  24206860.655    94992920.812  
  23766922.111   124896019.057                                                  
  23766923.112    93266510.424  
 21  9  1  9 42 57.0000000  0 18G 1G 3G 7G 8G14G17G19G21G22G30R13R14
                                R17R24E13E15E21E27
  20167493.357   105980892.372    20167491.802    82582506.892    20167491.784  
  20167489.998    79141562.395  
  23843369.276   125297750.193    23843368.382    97634604.364    23843367.793  
  23843367.721    93566495.380  
  23325657.328   122577156.541    23325653.326    95514648.858    23325652.897  
                                
  24575417.098   129144687.767    24575416.455   100632218.412    24575415.597  
  24575414.579    96439204.153  
  20505374.656   107756471.093    20505370.564    83966062.639    20505370.153  
  20505373.494    80467489.835  
  21423520.669   112581360.862    21423515.987    87725714.241    21423515.523  
                                
  23243736.650   122146660.536                    95179187.996    23243729.859  
                                
  22339153.118   117393041.972                    91475074.157    22339147.543  
                                
  23104150.293   121413129.401                    94607605.412    23104143.538  
                                
  21892719.202   115047015.408    21892717.486    89647015.408    21892716.879  
  21892716.647    85911721.874  
  19960153.723   106586106.958    19960151.864    82900297.591    19960150.971  
                                
  19790508.310   105494545.287    19790507.041    82051307.753    19790505.969  
                                
  23081973.156   123516300.728    23081970.725    96068223.076    23081969.957  
                                
  19606067.614   104842454.604    19606064.952    81544120.250    19606064.255  
                                
  23536076.849   123682919.045                                                  
  23536077.493    92360623.346  
  23895169.769   125569965.337                                                  
  23895171.716    93769785.719  
  24206584.632   127206461.253                                                  
  24206585.544    94991841.229  
  23767160.520   124897271.970                                                  
  23767161.538    93267446.056  
 21  9  1  9 42 58.0000000  0 18G 1G 3G 7G 8G14G17G19G21G22G30R13R14
                                R17R24E13E15E21E27
  20167664.471   105981791.560    20167662.916    82583207.558    20167662.916  
  20167661.111    79142233.858  
  23842809.904   125294810.750    23842809.010    97632313.891    23842808.439  
  23842808.349    93564300.346  
  23326338.674   122580737.114    23326334.689    95517438.920    23326334.243  
                                
  24575982.653   129147659.814    24575982.010   100634534.293    24575981.152  
  24575980.133    96441423.539  
  20505130.905   107755190.139    20505126.813    83965064.493    20505126.402  
  20505129.743    80466533.276  
  21423252.526   112579951.896    21423247.845    87724616.349    21423247.398  
                                
  23243196.058   122143819.644                    95176974.316    23243189.232  
                                
  22339640.442   117395602.950                    91477069.722    22339634.885  
                                
  23103838.246   121411489.616                    94606327.663    23103831.509  
                                
  21893166.803   115049367.582    21893165.088    89648848.275    21893164.498  
  21893164.248    85913478.370  
  19960627.395   106588636.281    19960625.519    82902264.847    19960624.643  
                                
  19790148.464   105492627.053    19790147.195    82049815.795    19790146.105  
                                
  23081307.034   123512736.115    23081304.586    96065450.599    23081303.836  
                                
  19605847.146   104841275.716    19605844.484    81543203.338    19605843.787  
                                
  23535831.222   123681628.296                                                  
  23535831.865    92359659.477  
  23895457.549   125571477.654                                                  
  23895459.497    93770915.056  
  24206309.574   127205015.826                                                  
  24206310.504    94990761.847  
  23767399.017   124898525.252                                                  
  23767400.036    93268381.935  
 21  9  1  9 42 59.0000000  0 18G 1G 3G 7G 8G14G17G19G21G22G30R13R14
                                R17R24E13E15E21E27
  20167835.781   105982691.752    20167834.209    82583909.009    20167834.191  
  20167832.422    79142906.075  
  23842250.657   125291871.879    23842249.746    97630023.864    23842249.192  
  23842249.085    93562105.713  
  23327020.127   122584318.147    23327016.142    95520229.338    23327015.696  
                                
  24576548.279   129150632.182    24576547.653   100636850.424    24576546.796  
  24576545.777    96443643.149  
  20504887.278   107753909.933    20504883.204    83964066.932    20504882.775  
  20504886.117    80465577.269  
  21422984.527   112578543.501    21422979.845    87723518.901    21422979.380  
                                
  23242655.520   122140979.262                    95174761.031    23242648.730  
                                
  22340127.891   117398164.565                    91479065.791    22340122.351  
                                
  23103526.360   121409850.630                    94605050.531    23103519.606  
                                
  21893614.547   115051720.564    21893612.850    89650681.765    21893612.260  
  21893611.992    85915235.458  
  19961101.246   106591166.629    19961099.369    82904232.893    19961098.494  
                                
  19789788.796   105490709.834    19789787.527    82048324.625    19789786.437  
                                
  23080641.020   123509172.129    23080638.572    96062678.617    23080637.821  
                                
  19605626.875   104840097.775    19605624.212    81542287.161    19605623.516  
                                
  23535585.737   123680338.257                                                  
  23535586.380    92358696.134  
  23895745.473   125572990.624                                                  
  23895747.421    93772044.860  
  24206034.624   127203570.988                                                  
  24206035.553    94989682.906  
  23767637.640   124899779.189                                                  
  23767638.641    93269318.319  
 21  9  1  9 43  0.0000000  0 18G 1G 3G 7G 8G14G17G19G21G22G30R13R14
                                R17R24E13E15E21E27
  20168007.127   105983592.188    20168005.555    82584610.647    20168005.537  
  20168003.768    79143578.478  
  23841691.339   125288932.739    23841690.445    97627733.627    23841689.891  
  23841689.802    93559910.915  
  23327701.527   122587898.879    23327697.524    95523019.511    23327697.095  
                                
  24577113.798   129153604.065    24577113.172   100639166.177    24577112.315  
  24577111.296    96445862.423  
  20504643.652   107752629.683    20504639.578    83963069.333    20504639.149  
  20504642.491    80464621.245  
  21422716.474   112577134.916    21422711.792    87722421.300    21422711.327  
                                
  23242114.982   122138138.610                    95172547.532    23242108.174  
                                
  22340615.322   117400726.034                    91481061.738    22340609.783  
                                
  23103214.492   121408211.673                    94603773.417    23103207.720  
                                
  21894062.327   115054073.592    21894060.612    89652515.289    21894060.040  
  21894059.772    85916992.585  
  19961575.132   106593697.210    19961573.256    82906201.116    19961572.380  
                                
  19789429.164   105488792.847    19789427.913    82046833.637    19789426.805  
                                
  23079974.970   123505607.907    23079972.522    96059906.440    23079971.771  
                                
  19605406.604   104838919.986    19605403.959    81541371.106    19605403.244  
                                
  23535340.235   123679048.141                                                  
  23535340.878    92357732.742  
  23896033.343   125574503.446                                                  
  23896035.290    93773174.565  
  24205759.655   127202125.981                                                  
  24205760.584    94988603.844  
  23767876.228   124901033.014                                                  
  23767877.246    93270254.628  
 21  9  1  9 43  1.0000000  0 18G 1G 3G 7G 8G14G17G19G21G22G30R13R14
                                R17R24E13E15E21E27
  20168178.545   105984492.964    20168176.972    82585312.550    20168176.972  
  20168175.185    79144251.142  
  23841132.021   125285993.501    23841131.127    97625443.312    23841130.555  
  23841130.484    93557716.028  
  23328382.890   122591479.431    23328378.888    95525809.545    23328378.459  
                                
  24577679.281   129156575.646    24577678.638   100641481.688    24577677.798  
  24577676.779    96448081.463  
  20504400.062   107751349.533    20504395.970    83962071.809    20504395.559  
  20504398.882    80463665.289  
  21422448.420   112575726.246    21422443.739    87721323.633    21422443.292  
                                
  23241574.391   122135297.797                    95170333.918    23241567.582  
                                
  22341102.753   117403287.478                    91483057.666    22341097.214  
                                
  23102902.606   121406572.840                    94602496.406    23102895.852  
                                
  21894510.107   115056426.744    21894508.409    89654348.914    21894507.802  
  21894507.552    85918749.818  
  19962049.108   106596228.155    19962047.232    82908169.627    19962046.356  
                                
  19789069.621   105486876.243    19789068.371    82045342.943    19789067.263  
                                
  23079308.866   123502043.590    23079306.436    96057134.196    23079305.686  
                                
  19605186.421   104837742.496    19605183.759    81540455.277    19605183.044  
                                
  23535094.750   123677758.084                                                  
  23535095.375    92356769.381  
  23896321.213   125576016.246                                                  
  23896323.160    93774304.255  
  24205484.669   127200680.912                                                  
  24205485.580    94987524.730  
  23768114.833   124902286.866                                                  
  23768115.851    93271190.941  
 21  9  1  9 43  2.0000000  0 18G 1G 3G 7G 8G14G17G19G21G22G30R13R14
                                R17R24E13E15E21E27
  20168350.034   105985394.142    20168348.479    82586014.760    20168348.443  
  20168346.674    79144924.097  
  23840572.702   125283054.188    23840571.791    97623152.936    23840571.219  
  23840571.148    93555521.086  
  23329064.218   122595059.889    23329060.234    95528599.510    23329059.805  
                                
  24578244.710   129159546.971    24578244.085   100643797.002    24578243.227  
  24578242.209    96450300.289  
  20504156.489   107750069.511    20504152.397    83961074.390    20504151.986  
  20504155.310    80462709.425  
  21422180.367   112574317.543    21422175.685    87720225.942    21422175.221  
                                
  23241033.763   122132456.837                    95168120.181    23241026.973  
                                
  22341590.185   117405848.923                    91485053.597    22341584.645  
                                
  23102590.792   121404934.200                    94601219.543    23102584.037  
                                
  21894957.940   115058780.093    21894956.225    89656182.688    21894955.653  
  21894955.385    85920507.184  
  19962523.137   106598759.485    19962521.261    82910138.436    19962520.386  
                                
  19788710.150   105484960.054    19788708.882    82043852.574    19788707.792  
                                
  23078642.799   123498479.273    23078640.368    96054361.949    23078639.600  
                                
  19604966.275   104836565.328    19604963.613    81539539.702    19604962.916  
                                
  23534849.283   123676468.106                                                  
  23534849.909    92355806.086  
  23896609.101   125577529.065                                                  
  23896611.048    93775433.954  
  24205209.682   127199235.831                                                  
  24205210.594    94986445.609  
  23768353.456   124903540.761                                                  
  23768354.456    93272127.281  
 21  9  1  9 43  3.0000000  0 18G 1G 3G 7G 8G14G17G19G21G22G30R13R14
                                R17R24E13E15E21E27
  20168521.701   105986296.273    20168520.129    82586717.719    20168520.111  
  20168518.342    79145597.762  
  23840013.455   125280115.358    23840012.544    97620862.943    23840011.972  
  23840011.901    93553326.503  
  23329745.636   122598640.721    23329741.651    95531389.771    23329741.204  
                                
  24578810.176   129162518.494    24578809.532   100646112.469    24578808.675  
  24578807.656    96452519.293  
  20503913.023   107748790.154    20503908.914    83960077.485    20503908.520  
  20503911.862    80461754.071  
  21421912.367   112572909.334    21421907.704    87719128.639    21421907.239  
                                
  23240493.243   122129616.326                    95165906.796    23240486.417  
                                
  22342077.741   117408410.952                    91487049.981    22342072.166  
                                
  23102279.120   121403296.284                    94599943.248    23102272.330  
                                
  21895405.899   115061134.163    21895404.183    89658017.033    21895403.594  
  21895403.344    85922265.100  
  19962997.346   106601291.762    19962995.469    82912107.990    19962994.594  
                                
  19788350.876   105483044.844    19788349.589    82042362.964    19788348.517  
                                
  23077976.820   123494915.496    23077974.390    96051590.127    23077973.622  
                                
  19604746.307   104835389.035    19604743.627    81538624.810    19604742.948  
                                
  23534603.924   123675178.769                                                  
  23534604.549    92354843.271  
  23896897.078   125579042.437                                                  
  23896899.025    93776564.078  
  24204934.785   127197791.272                                                  
  24204935.715    94985366.880  
  23768592.150   124904795.247                                                  
  23768593.169    93273064.083  
 21  9  1  9 43  4.0000000  0 18G 1G 3G 7G 8G14G17G19G21G22G30R13R14
                                R17R24E13E15E21E27
  20168693.566   105987199.435    20168692.011    82587421.488    20168691.975  
  20168690.206    79146272.210  
  23839454.316   125277177.083    23839453.405    97618573.374    23839452.833  
  23839452.743    93551132.337  
  23330427.142   122602222.095    23330423.158    95534180.445    23330422.729  
                                
  24579375.712   129165490.406    24579375.087   100648428.247    24579374.229  
  24579373.211    96454738.566  
  20503669.737   107747511.614    20503665.627    83959081.223    20503665.234  
  20503668.557    80460799.313  
  21421644.529   112571501.770    21421639.847    87718031.838    21421639.382  
                                
  23239952.795   122126776.353                    95163693.829    23239946.004  
                                
  22342565.386   117410973.638                    91489046.882    22342559.847  
                                
  23101967.574   121401659.235                    94598667.625    23101960.819  
                                
  21895854.036   115063489.090    21895852.321    89659852.041    21895851.731  
  21895851.481    85924023.648  
  19963471.786   106603825.134    19963469.910    82914078.395    19963468.998  
                                
  19787991.780   105481130.711    19787990.511    82040874.194    19787989.421  
                                
  23077310.985   123491352.374    23077308.537    96048818.817    23077307.768  
                                
  19604526.518   104834213.761    19604523.856    81537710.710    19604523.159  
                                
  23534358.707   123673890.185                                                  
  23534359.332    92353881.028  
  23897185.198   125580556.509                                                  
  23897187.163    93777694.716  
  24204660.013   127196347.359                                                  
  24204660.943    94984288.642  
  23768831.023   124906050.460                                                  
  23768832.024    93274001.418  
 21  9  1  9 43  5.0000000  0 18G 1G 3G 7G 8G14G17G19G21G22G30R13R14
                                R17R24E13E15E21E27
  20168865.555   105988103.283    20168863.983    82588125.788    20168863.983  
  20168862.213    79146947.162  
  23838895.230   125274239.037    23838894.301    97616283.983    23838893.747  
  23838893.675    93548938.337  
  23331108.667   122605803.601    23331104.700    95536971.229    23331104.253  
                                
  24579941.231   129168462.260    24579940.606   100650743.980    24579939.748  
  24579938.729    96456957.809  
  20503426.504   107746233.454    20503422.394    83958085.256    20503422.001  
  20503425.342    80459844.843  
  21421376.708   112570094.426    21421372.026    87716935.206    21421371.579  
                                
  23239412.417   122123936.543                    95161480.991    23239405.609  
                                
  22343053.121   117413536.623                    91491044.016    22343047.564  
                                
  23101656.135   121400022.614                    94597392.338    23101649.380  
                                
  21896302.263   115065844.460    21896300.529    89661687.397    21896299.940  
  21896299.672    85925782.532  
  19963946.316   106606359.160    19963944.439    82916049.306    19963943.564  
                                
  19787632.827   105479217.231    19787631.540    82039385.936    19787630.450  
                                
  23076645.167   123487789.500    23076642.719    96046047.698    23076641.968  
                                
  19604306.855   104833039.057    19604304.174    81536797.054    19604303.495  
                                
  23534113.562   123672601.965                                                  
  23534114.205    92352919.035  
  23897473.372   125582070.858                                                  
  23897475.319    93778825.554  
  24204385.313   127194903.699                                                  
  24204386.206    94983210.579  
  23769069.932   124907305.990                                                  
  23769070.933    93274938.987  
 21  9  1  9 43  6.0000000  0 18G 1G 3G 7G 8G14G17G19G21G22G30R13R14
                                R17R24E13E15E21E27
  20169037.687   105989007.909    20169036.133    82588830.696    20169036.115  
  20169034.328    79147622.687  
  23838336.180   125271301.296    23838335.286    97613994.829    23838334.696  
  23838334.625    93546744.576  
  23331790.263   122609385.338    23331786.260    95539762.196    23331785.849  
                                
  24580506.786   129171434.228    24580506.142   100653059.804    24580505.303  
  24580504.266    96459177.136  
  20503183.360   107744955.810    20503179.268    83957089.691    20503178.875  
  20503182.198    80458890.764  
  21421108.958   112568687.434    21421104.312    87715838.851    21421103.830  
                                
  23238872.058   122121096.995                    95159268.353    23238865.268  
                                
  22343540.910   117416100.002                    91493041.456    22343535.353  
                                
  23101344.821   121398386.577                    94596117.499    23101338.048  
                                
  21896750.579   115068200.417    21896748.863    89663523.207    21896748.273  
  21896748.005    85927541.844  
  19964421.006   106608893.990    19964419.130    82918020.843    19964418.254  
                                
  19787273.999   105477304.521    19787272.730    82037898.275    19787271.640  
                                
  23075979.421   123484226.967    23075976.973    96043276.845    23075976.204  
                                
  19604087.316   104831865.078    19604084.653    81535883.959    19604083.956  
                                
  23533868.524   123671314.203                                                  
  23533869.149    92351957.396  
  23897761.617   125583585.605                                                  
  23897763.565    93779956.699  
  24204110.666   127193460.405                                                  
  24204111.577    94982132.788  
  23769308.948   124908561.949                                                  
  23769309.949    93275876.876  
 21  9  1  9 43  7.0000000  0 18G 1G 3G 7G 8G14G17G19G21G22G30R13R14
                                R17R24E13E15E21E27
  20169209.927   105989912.951    20169208.354    82589535.922    20169208.336  
  20169206.567    79148298.537  
  23837777.165   125268363.520    23837776.236    97611705.656    23837775.664  
  23837775.575    93544550.778  
  23332471.823   122612966.968    23332467.838    95542553.073    23332467.427  
                                
  24581072.269   129174405.909    24581071.625   100655375.397    24581070.786  
  24581069.767    96461396.255  
  20502940.270   107743678.330    20502936.178    83956094.257    20502935.784  
  20502939.090    80457936.800  
  21420841.227   112567280.440    21420836.563    87714742.496    21420836.080  
                                
  23238331.699   122118257.332                    95157055.629    23238324.891  
                                
  22344028.699   117418663.413                    91495038.914    22344023.159  
                                
  23101033.524   121396750.748                    94594842.832    23101026.770  
                                
  21897198.930   115070556.571    21897197.233    89665359.176    21897196.625  
  21897196.375    85929301.314  
  19964895.768   106611429.243    19964893.892    82919992.707    19964893.017  
                                
  19786915.243   105475392.261    19786913.992    82036410.961    19786912.902  
                                
  23075313.657   123480664.448    23075311.227    96040505.995    23075310.476  
                                
  19603867.848   104830691.475    19603865.186    81534971.157    19603864.489  
                                
  23533623.486   123670026.561                                                  
  23533624.112    92350995.848  
  23898049.862   125585100.400                                                  
  23898051.828    93781087.881  
  24203836.001   127192017.123                                                  
  24203836.930    94981055.019  
  23769547.964   124909817.993                                                  
  23769548.965    93276814.833  
 21  9  1  9 43  8.0000000  0 18G 1G 3G 7G 8G14G17G19G21G22G30R13R14
                                R17R24E13E15E21E27
  20169382.274   105990818.648    20169380.701    82590241.662    20169380.683  
  20169378.914    79148974.876  
  23837218.151   125265425.938    23837217.239    97609416.630    23837216.667  
  23837216.596    93542357.124  
  23333153.419   122616548.714    23333149.434    95545344.042    23333148.988  
                                
  24581637.752   129177377.551    24581637.126   100657690.958    24581636.269  
  24581635.250    96463615.336  
  20502697.251   107742401.234    20502693.141    83955099.118    20502692.748  
  20502696.072    80456983.134  
  21420573.531   112565873.665    21420568.849    87713646.309    21420568.385  
                                
  23237791.358   122115417.842                    95154843.033    23237784.549  
                                
  22344516.577   117421227.123                    91497036.608    22344511.019  
                                
  23100722.335   121395115.362                    94593568.506    23100715.563  
                                
  21897647.389   115072913.183    21897645.656    89667195.497    21897645.084  
  21897644.798    85931061.122  
  19965370.673   106613965.138    19965368.779    82921965.070    19965367.904  
                                
  19786556.647   105473480.703    19786555.378    82034924.197    19786554.306  
                                
  23074647.964   123477102.169    23074645.534    96037735.334    23074644.766  
                                
  19603648.488   104829518.482    19603645.826    81534058.829    19603645.147  
                                
  23533378.520   123668739.277                                                  
  23533379.145    92350034.569  
  23898338.197   125586615.479                                                  
  23898340.126    93782219.272  
  24203561.390   127190574.090                                                  
  24203562.319    94979977.432  
  23769787.034   124911074.347                                                  
  23769788.052    93277753.022  
 21  9  1  9 43  9.0000000  0 18G 1G 3G 7G 8G14G17G19G21G22G30R13R14
                                R17R24E13E15E21E27
  20169554.692   105991724.733    20169553.137    82590947.702    20169553.119  
  20169551.332    79149651.484  
  23836659.136   125262488.232    23836658.207    97607127.514    23836657.653  
  23836657.564    93540163.396  
  23333834.962   122620130.303    23333830.995    95548134.886    23333830.566  
                                
  24582203.181   129180348.889    24582202.574   100660006.281    24582201.716  
  24582200.698    96465834.173  
  20502454.250   107741124.262    20502450.158    83954104.075    20502449.747  
  20502453.071    80456029.535  
  21420305.799   112564466.829    21420301.153    87712550.075    21420300.671  
                                
  23237250.998   122112578.194                    95152630.329    23237244.190  
                                
  22345004.419   117423790.807                    91499034.288    22344998.861  
                                
  23100411.146   121393480.132                    94592294.303    23100404.392  
                                
  21898095.884   115075269.964    21898094.150    89669031.948    21898093.561  
  21898093.293    85932821.045  
  19965845.632   106616501.445    19965843.756    82923937.752    19965842.862  
                                
  19786198.123   105471569.547    19786196.854    82033437.740    19786195.782  
                                
  23073982.254   123473539.791    23073979.823    96034964.598    23073979.055  
                                
  19603429.182   104828345.790    19603426.519    81533146.736    19603425.840  
                                
  23533133.571   123667452.061                                                  
  23533134.214    92349073.323  
  23898626.478   125588130.552                                                  
  23898628.443    93783350.651  
  24203286.779   127189131.005                                                  
  24203287.708    94978899.801  
  23770026.121   124912330.737                                                  
  23770027.122    93278691.226  
 21  9  1  9 43 10.0000000  0 18G 1G 3G 7G 8G14G17G19G21G22G30R13R14
                                R17R24E13E15E21E27
  20169727.306   105992631.759    20169725.734    82591654.473    20169725.716  
  20169723.947    79150328.807  
  23836100.211   125259551.025    23836099.282    97604838.781    23836098.710  
  23836098.621    93537970.016  
  23334516.593   122623712.293    23334512.626    95550926.049    23334512.198  
                                
  24582768.664   129183320.458    24582768.021   100662321.781    24582767.163  
  24582766.145    96468053.204  
  20502211.392   107739847.950    20502207.282    83953109.548    20502206.889  
  20502210.213    80455076.449  
  21420038.193   112563060.497    21420033.511    87711454.232    21420033.064  
                                
  23236710.711   122109738.963                    95150417.939    23236703.902  
                                
  22345492.368   117426355.072                    91501032.417    22345486.829  
                                
  23100100.136   121391845.635                    94591020.671    23100093.346  
                                
  21898544.468   115077627.459    21898542.770    89670868.956    21898542.180  
  21898541.912    85934581.518  
  19966320.787   106619038.705    19966318.911    82925911.177    19966318.000  
                                
  19785839.778   105469659.326    19785838.509    82031952.014    19785837.419  
                                
  23073316.650   123469977.945    23073314.185    96032194.275    23073313.416  
                                
  19603210.054   104827173.971    19603207.391    81532235.320    19603206.712  
                                
  23532888.748   123666165.466                                                  
  23532889.391    92348112.561  
  23898914.901   125589646.183                                                  
  23898916.867    93784482.453  
  24203012.275   127187688.457                                                  
  24203013.204    94977822.574  
  23770265.316   124913587.714                                                  
  23770266.335    93279629.880  
 21  9  1  9 43 11.0000000  0 18G 1G 3G 7G 8G14G17G19G21G22G30R13R14
                                R17R24E13E15E21E27
  20169900.046   105993539.569    20169898.492    82592361.855    20169898.474  
  20169896.687    79151006.721  
  23835541.339   125256614.153    23835540.428    97602550.309    23835539.838  
  23835539.767    93535776.902  
  23335198.297   122627294.579    23335194.312    95553717.439    23335193.865  
                                
  24583334.165   129186292.159    24583333.522   100664637.392    24583332.664  
  24583331.646    96470272.331  
  20501968.588   107738572.184    20501964.496    83952115.445    20501964.103  
  20501967.444    80454123.771  
  21419770.658   112561654.547    21419765.976    87710358.687    21419765.512  
                                
  23236170.476   122106900.036                    95148205.786    23236163.668  
                                
  22345980.425   117428919.742                    91503030.859    22345974.868  
                                
  23099789.197   121390211.729                    94589747.495    23099782.442  
                                
  21898993.212   115079985.552    21898991.497    89672706.430    21898990.907  
  21898990.657    85936342.430  
  19966796.103   106621576.771    19966794.191    82927885.228    19966793.316  
                                
  19785481.575   105467749.920    19785480.307    82030466.921    19785479.234  
                                
  23072651.083   123466416.511    23072648.653    96029424.271    23072647.884  
                                
  19602991.051   104826002.838    19602988.389    81531324.439    19602987.692  
                                
  23532643.996   123664879.380                                                  
  23532644.639    92347152.174  
  23899203.397   125591162.248                                                  
  23899205.362    93785614.587  
  24202737.843   127186246.298                                                  
  24202738.772    94976745.642  
  23770504.600   124914845.161                                                  
  23770505.601    93280568.887  
 21  9  1  9 43 12.0000000  0 18G 1G 3G 7G 8G14G17G19G21G22G30R13R14
                                R17R24E13E15E21E27
  20170072.929   105994448.150    20170071.375    82593069.841    20170071.375  
  20170069.570    79151685.205  
  23834982.521   125253677.554    23834981.592    97600262.048    23834981.038  
  23834980.967    93533583.989  
  23335880.000   122630877.060    23335876.015    95556508.984    23335875.604  
                                
  24583899.666   129189263.931    24583899.023   100666953.058    24583898.183  
  24583897.147    96472491.511  
  20501725.927   107737296.902    20501721.817    83951121.716    20501721.424  
  20501724.765    80453171.448  
  21419503.159   112560248.906    21419498.513    87709263.381    21419498.030  
                                
  23235630.296   122104061.330                    95145993.812    23235623.470  
                                
  22346468.535   117431484.796                    91505029.604    22346462.978  
                                
  23099478.401   121388578.379                    94588474.753    23099471.611  
                                
  21899442.047   115082344.195    21899440.331    89674544.333    21899439.741  
  21899439.491    85938103.754  
  19967271.526   106624115.585    19967269.650    82929859.859    19967268.739  
                                
  19785123.498   105465841.259    19785122.247    82028982.407    19785121.157  
                                
  23071985.623   123462855.442    23071983.175    96026654.551    23071982.424  
                                
  19602772.156   104824832.368    19602769.493    81530414.073    19602768.814  
                                
  23532399.351   123663593.742                                                  
  23532399.994    92346192.120  
  23899491.982   125592678.683                                                  
  23899493.929    93786746.985  
  24202463.482   127184804.481                                                  
  24202464.393    94975668.955  
  23770743.956   124916103.009                                                  
  23770744.956    93281508.189  
 21  9  1  9 43 13.0000000  0 18G 1G 3G 7G 8G14G17G19G21G22G30R13R14
                                R17R24E13E15E21E27
  20170245.973   105995357.501    20170244.418    82593778.427    20170244.418  
  20170242.613    79152364.266  
  23834423.757   125250741.265    23834422.828    97597974.035    23834422.274  
  23834422.185    93531391.306  
  23336561.792   122634459.819    23336557.808    95559300.747    23336557.379  
                                
  24584465.203   129192235.811    24584464.560   100669268.809    24584463.702  
  24584462.684    96474710.770  
  20501483.355   107736022.140    20501479.263    83950128.395    20501478.834  
  20501482.175    80452219.517  
  21419235.731   112558843.598    21419231.085    87708168.334    21419230.620  
                                
  23235090.151   122101222.891                    95143782.048    23235083.343  
                                
  22346956.717   117434050.237                    91507028.647    22346951.177  
                                
  23099167.677   121386945.576                    94587202.436    23099160.904  
                                
  21899890.988   115084703.394    21899889.255    89676382.665    21899888.683  
  21899888.415    85939865.500  
  19967747.110   106626655.189    19967745.234    82931835.102    19967744.359  
                                
  19784765.599   105463933.386    19784764.331    82027498.503    19784763.258  
                                
  23071320.216   123459294.737    23071317.768    96023885.116    23071317.017  
                                
  19602553.421   104823662.620    19602550.758    81529504.270    19602550.062  
                                
  23532154.795   123662308.562                                                  
  23532155.421    92345232.412  
  23899780.620   125594195.514                                                  
  23899782.568    93787879.683  
  24202189.192   127183363.030                                                  
  24202190.086    94974592.551  
  23770983.401   124917361.295                                                  
  23770984.419    93282447.816  
 21  9  1  9 43 14.0000000  0 18G 1G 3G 7G 8G14G17G19G21G22G30R13R14
                                R17R24E13E15E21E27
  20170419.141   105996267.494    20170417.587    82594487.511    20170417.587  
  20170415.782    79153043.804  
  23833865.028   125247805.153    23833864.099    97595686.158    23833863.545  
  23833863.474    93529198.764  
  23337243.585   122638042.648    23337239.582    95562092.567    23337239.171  
                                
  24585030.722   129195207.609    24585030.079   100671584.494    24585029.221  
  24585028.202    96476929.964  
  20501240.818   107734747.732    20501236.726    83949135.350    20501236.333  
  20501239.675    80451267.852  
  21418968.357   112557438.473    21418963.693    87707073.434    21418963.228  
                                
  23234550.042   122098384.572                    95141570.371    23234543.216  
                                
  22347444.952   117436615.934                    91509027.894    22347439.413  
                                
  23098857.042   121385313.204                    94585930.463    23098850.287  
                                
  21900340.019   115087063.028    21900338.303    89678221.341    21900337.696  
  21900337.445    85941627.567  
  19968222.820   106629195.434    19968220.943    82933810.846    19968220.050  
                                
  19784407.808   105462026.156    19784406.557    82026015.102    19784405.467  
                                
  23070654.845   123455734.239    23070652.415    96021115.835    23070651.646  
                                
  19602334.776   104822493.488    19602332.113    81528594.940    19602331.416  
                                
  23531910.311   123661023.717                                                  
  23531910.919    92344272.947  
  23900069.294   125595712.595                                                  
  23900071.259    93789012.575  
  24201914.921   127181921.802                                                  
  24201915.832    94973516.305  
  23771222.881   124918619.850                                                  
  23771223.900    93283387.655  
 21  9  1  9 43 15.0000000  0 18G 1G 3G 7G 8G14G17G19G21G22G30R13R14
                                R17R24E13E15E21E27
  20170592.417   105997177.985    20170590.863    82595196.985    20170590.827  
  20170589.058    79153723.723  
  23833306.318   125244869.088    23833305.388    97593398.317    23833304.817  
  23833304.745    93527006.241  
  23337925.377   122641625.481    23337921.393    95564884.382    23337920.964  
                                
  24585596.205   129198179.214    24585595.562   100673900.029    24585594.704  
  24585593.686    96479149.019  
  20500998.371   107733473.586    20500994.279    83948142.506    20500993.868  
  20500997.210    80450316.372  
  21418700.982   112556033.456    21418696.319    87705978.615    21418695.872  
                                
  23234009.915   122095546.268                    95139358.703    23234003.107  
                                
  22347933.223   117439181.766                    91511027.241    22347927.684  
                                
  23098546.460   121383681.128                    94584658.725    23098539.706  
                                
  21900789.085   115089422.965    21900787.370    89680060.253    21900786.798  
  21900786.512    85943389.853  
  19968698.636   106631736.186    19968696.742    82935786.986    19968695.848  
                                
  19784050.124   105460119.495    19784048.873    82024532.141    19784047.765  
                                
  23069989.492   123452173.806    23069987.062    96018346.607    23069986.293  
                                
  19602116.220   104821324.824    19602113.557    81527685.982    19602112.878  
                                
  23531665.845   123659739.083                                                  
  23531666.471    92343313.638  
  23900358.022   125597229.819                                                  
  23900359.969    93790145.560  
  24201640.685   127180480.668                                                  
  24201641.596    94972440.134  
  23771462.415   124919878.597                                                  
  23771463.434    93284327.619  
 21  9  1  9 43 16.0000000  0 18G 1G 3G 7G 8G14G17G19G21G22G30R13R14
                                R17R24E13E15E21E27
  20170765.836   105998089.305    20170764.282    82595907.097    20170764.264  
  20170762.477    79154404.243  
  23832747.661   125241933.375    23832746.731    97591110.746    23832746.160  
  23832746.106    93524813.985  
  23338607.206   122645208.609    23338603.239    95567676.428    23338602.810  
                                
  24586161.706   129201150.938    24586161.081   100676215.650    24586160.223  
  24586159.204    96481368.144  
  20500756.032   107732199.985    20500751.922    83947150.090    20500751.529  
  20500754.852    80449365.300  
  21418433.698   112554628.791    21418429.016    87704884.071    21418428.551  
                                
  23233469.859   122092708.246                    95137147.259    23233463.051  
                                
  22348421.566   117441748.026                    91513026.924    22348416.008  
                                
  23098236.004   121382049.678                    94583387.467    23098229.213  
                                
  21901238.294   115091783.505    21901236.561    89681899.633    21901235.989  
  21901235.703    85945152.590  
  19969174.577   106634277.782    19969172.701    82937763.783    19969171.808  
                                
  19783692.600   105458213.691    19783691.349    82023049.849    19783690.259  
                                
  23069324.228   123448613.762    23069321.780    96015577.684    23069321.030  
                                
  19601897.824   104820156.910    19601895.162    81526777.604    19601894.465  
                                
  23531421.469   123658454.960                                                  
  23531422.112    92342354.713  
  23900646.839   125598747.487                                                  
  23900648.768    93791278.877  
  24201366.538   127179039.947                                                  
  24201367.449    94971364.265  
  23771702.057   124921137.818                                                  
  23771703.058    93285267.934  
 21  9  1  9 43 17.0000000  0 18G 1G 3G 7G 8G14G17G19G21G22G30R13R14
                                R17R24E13E15E21E27
  20170939.362   105999001.264    20170937.808    82596617.712    20170937.808  
  20170936.021    79155085.249  
  23832189.057   125238997.838    23832188.110    97588823.319    23832187.556  
  23832187.467    93522621.861  
  23339289.088   122648791.832    23339285.103    95570468.547    23339284.692  
                                
  24586727.207   129204122.613    24586726.564   100678531.238    24586725.706  
  24586724.687    96483587.257  
  20500513.746   107730926.769    20500509.636    83946157.969    20500509.243  
  20500512.584    80448414.520  
  21418166.431   112553224.344    21418161.767    87703789.697    21418161.320  
                                
  23232929.840   122089870.358                    95134935.914    23232923.014  
                                
  22348909.962   117444314.559                    91515026.816    22348904.404  
                                
  23097925.637   121380418.638                    94582116.524    23097918.864  
                                
  21901687.575   115094144.483    21901685.860    89683739.353    21901685.270  
  21901685.002    85946915.655  
  19969650.680   106636820.031    19969648.768    82939741.088    19969647.892  
                                
  19783335.202   105456308.539    19783333.933    82021568.062    19783332.861  
                                
  23068659.018   123445053.948    23068656.552    96012808.932    23068655.820  
                                
  19601679.536   104818989.534    19601676.874    81525869.642    19601676.177  
                                
  23531177.181   123657171.174                                                  
  23531177.807    92341396.037  
  23900935.673   125600265.421                                                  
  23900937.639    93792412.397  
  24201092.409   127177599.456                                                  
  24201093.339    94970288.571  
  23771941.734   124922397.333                                                  
  23771942.753    93286208.485  
 21  9  1  9 43 18.0000000  0 18G 1G 3G 7G 8G14G17G19G21G22G30R13R14
                                R17R24E13E15E21E27
  20171113.013   105999913.786    20171111.459    82597328.769    20171111.459  
  20171109.672    79155766.685  
  23831630.453   125236062.406    23831629.524    97586535.972    23831628.952  
  23831628.863    93520429.831  
  23339970.970   122652375.110    23339967.003    95573260.708    23339966.556  
                                
  24587292.708   129207094.244    24587292.065   100680846.790    24587291.225  
  24587290.188    96485806.310  
  20500271.513   107729653.864    20500267.403    83945166.098    20500267.010  
  20500270.352    80447463.985  
  21417899.199   112551820.043    21417894.553    87702695.434    21417894.071  
                                
  23232389.820   122087032.544                    95132724.633    23232382.994  
                                
  22349398.376   117446881.286                    91517026.867    22349392.836  
                                
  23097615.323   121378787.985                    94580845.884    23097608.569  
                                
  21902136.927   115096505.828    21902135.194    89685579.365    21902134.622  
  21902134.336    85948679.000  
  19970126.871   106639362.829    19970124.959    82941718.822    19970124.084  
                                
  19782977.911   105454403.959    19782976.660    82020086.724    19782975.552  
                                
  23067993.808   123441494.313    23067991.360    96010040.323    23067990.592  
                                
  19601461.320   104817822.647    19601458.657    81524962.064    19601457.943  
                                
  23530932.929   123655887.652                                                  
  23530933.573    92340437.574  
  23901224.580   125601783.552                                                  
  23901226.510    93793546.077  
  24200818.316   127176159.138                                                  
  24200819.246    94969213.020  
  23772181.447   124923657.080                                                  
  23772182.448    93287149.216  
 21  9  1  9 43 19.0000000  0 18G 1G 3G 7G 8G14G17G19G21G22G30R13R14
                                R17R24E13E15E21E27
  20171286.790   106000826.899    20171285.217    82598040.287    20171285.199  
  20171283.430    79156448.559  
  23831071.886   125233127.089    23831070.939    97584248.715    23831070.367  
  23831070.295    93518237.869  
  23340652.852   122655958.427    23340648.867    95576052.903    23340648.438  
                                
  24587858.137   129210065.702    24587857.512   100683162.205    24587856.636  
  24587855.618    96488025.266  
  20500029.334   107728381.285    20500025.260    83944174.475    20500024.831  
  20500028.173    80446513.673  
  21417632.004   112550415.898    21417627.340    87701601.297    21417626.858  
                                
  23231849.800   122084194.789                    95130513.397    23231842.992  
                                
  22349886.843   117449448.212                    91519027.072    22349881.304  
                                
  23097305.099   121377157.697                    94579575.524    23097298.327  
                                
  21902586.351   115098867.545    21902584.636    89687419.664    21902584.028  
  21902583.778    85950442.611  
  19970603.152   106641906.241    19970601.258    82943697.025    19970600.365  
                                
  19782620.709   105452499.961    19782619.440    82018605.842    19782618.368  
                                
  23067328.634   123437934.851    23067326.186    96007271.857    23067325.417  
                                
  19601243.193   104816656.268    19601240.530    81524054.882    19601239.833  
                                
  23530688.731   123654604.409                                                  
  23530689.375    92339479.306  
  23901513.486   125603301.888                                                  
  23901515.452    93794679.893  
  24200544.277   127174718.987                                                  
  24200545.188    94968137.571  
  23772421.231   124924917.077                                                  
  23772422.232    93288090.114  
 21  9  1  9 43 20.0000000  0 18G 1G 3G 7G 8G14G17G19G21G22G30R13R14
                                R17R24E13E15E21E27
  20171460.745   106001741.120    20171459.190    82598752.670    20171459.172  
  20171457.385    79157131.259  
  23830513.443   125230192.450    23830512.496    97581961.987    23830511.906  
  23830511.853    93516046.411  
  23341334.859   122659542.336    23341330.874    95578845.555    23341330.463  
                                
  24588423.692   129213037.608    24588423.067   100685477.979    24588422.209  
  24588421.190    96490244.532  
  20499787.334   107727109.539    20499783.242    83943183.506    20499782.831  
  20499786.173    80445563.997  
  21417364.933   112549012.421    21417360.252    87700507.679    21417359.787  
                                
  23231309.906   122081357.629                    95128302.621    23231303.097  
                                
  22350375.472   117452015.864                    91521027.837    22350369.932  
                                
  23096995.018   121375528.312                    94578305.878    23096988.245  
                                
  21903035.936   115101230.137    21903034.203    89689260.645    21903033.631  
  21903033.345    85952206.893  
  19971079.665   106644450.727    19971077.753    82945676.069    19971076.860  
                                
  19782263.739   105450597.086    19782262.489    82017125.828    19782261.381  
                                
  23066663.584   123434376.071    23066661.154    96004503.913    23066660.386  
                                
  19601025.262   104815490.964    19601022.600    81523148.535    19601021.921  
                                
  23530444.694   123653321.981                                                  
  23530445.337    92338521.647  
  23901802.571   125604820.956                                                  
  23901804.519    93795814.264  
  24200270.363   127173279.525                                                  
  24200271.256    94967062.657  
  23772661.141   124926177.824                                                  
  23772662.142    93289031.584  
 21  9  1  9 43 21.0000000  0 18G 1G 3G 7G 8G14G17G19G21G22G30R13R14
                                R17R24E13E15E21E27
  20171634.860   106002656.055    20171633.306    82599465.610    20171633.288  
  20171631.501    79157814.489  
  23829955.036   125227258.022    23829954.089    97579675.420    23829953.517  
  23829953.446    93513855.127  
  23342016.866   122663126.384    23342012.881    95581638.319    23342012.470  
                                
  24588989.211   129216009.474    24588988.568   100687793.716    24588987.710  
  24588986.691    96492463.808  
  20499545.423   107725838.239    20499541.313    83942192.883    20499540.920  
  20499544.244    80444614.650  
  21417097.917   112547609.236    21417093.253    87699414.290    21417092.770  
                                
  23230770.047   122078520.669                    95126092.005    23230763.239  
                                
  22350864.136   117454583.852                    91523028.871    22350858.579  
                                
  23096685.062   121373899.423                    94577036.619    23096678.289  
                                
  21903485.610   115103593.249    21903483.877    89691102.026    21903483.305  
  21903483.019    85953971.554  
  19971556.286   106646995.958    19971554.392    82947655.695    19971553.516  
                                
  19781906.895   105448694.953    19781905.644    82015646.393    19781904.554  
                                
  23065998.607   123430817.578    23065996.158    96001736.196    23065995.408  
                                
  19600807.474   104814326.331    19600804.830    81522242.709    19600804.115  
                                
  23530200.728   123652039.933                                                  
  23530201.372    92337564.279  
  23902091.692   125606340.343                                                  
  23902093.658    93796948.873  
  24199996.502   127171840.363                                                  
  24199997.396    94965987.959  
  23772901.122   124927438.936                                                  
  23772902.123    93289973.325  
 21  9  1  9 43 22.0000000  0 18G 1G 3G 7G 8G14G17G19G21G22G30R13R14
                                R17R24E13E15E21E27
  20171809.048   106003571.436    20171807.493    82600178.894    20171807.475  
  20171805.688    79158498.046  
  23829396.629   125224323.588    23829395.682    97577388.846    23829395.110  
  23829395.039    93511663.811  
  23342698.908   122666710.396    23342694.923    95584431.049    23342694.495  
                                
  24589554.730   129218981.178    24589554.122   100690109.327    24589553.264  
  24589552.228    96494682.881  
  20499303.530   107724567.124    20499299.438    83941202.399    20499299.027  
  20499302.369    80443665.432  
  21416830.900   112546206.053    21416826.218    87698320.903    21416825.771  
                                
  23230230.170   122075683.635                    95123881.334    23230223.380  
                                
  22351352.818   117457151.900                    91525029.945    22351347.279  
                                
  23096375.141   121372270.781                    94575767.549    23096368.369  
                                
  21903935.355   115105956.598    21903933.640    89692943.596    21903933.032  
  21903932.782    85955736.384  
  19972033.014   106649541.594    19972031.119    82949635.635    19972030.244  
                                
  19781550.158   105446793.286    19781548.889    82014167.317    19781547.799  
                                
  23065333.611   123427259.081    23065331.163    95998968.476    23065330.412  
                                
  19600589.758   104813162.093    19600587.078    81521337.191    19600586.399  
                                
  23529956.798   123650758.036                                                  
  23529957.424    92336607.013  
  23902380.849   125607859.809                                                  
  23902382.796    93798083.535  
  24199722.642   127170401.242                                                  
  24199723.553    94964913.286  
  23773141.121   124928700.165                                                  
  23773142.139    93290915.141  
 21  9  1  9 43 23.0000000  0 18G 1G 3G 7G 8G14G17G19G21G22G30R13R14
                                R17R24E13E15E21E27
  20171983.324   106004487.209    20171981.752    82600892.482    20171981.734  
  20171979.947    79159181.912  
  23828838.222   125221389.108    23828837.275    97575102.233    23828836.703  
  23828836.614    93509472.478  
  23343380.880   122670294.249    23343376.913    95587223.662    23343376.466  
                                
  24590120.141   129221952.521    24590119.498   100692424.648    24590118.658  
  24590117.622    96496901.766  
  20499061.691   107723296.159    20499057.581    83940212.034    20499057.170  
  20499060.512    80442716.345  
  21416563.883   112544802.855    21416559.201    87697227.503    21416558.737  
                                
  23229690.293   122072846.511                    95121670.585    23229683.467  
                                
  22351841.500   117459719.988                    91527031.051    22351835.961  
                                
  23096065.275   121370642.315                    94574498.612    23096058.467  
                                
  21904385.119   115108320.120    21904383.367    89694785.299    21904382.796  
  21904382.510    85957501.365  
  19972509.831   106652087.666    19972507.919    82951615.911    19972507.025  
                                
  19781193.492   105444892.075    19781192.241    82012688.597    19781191.133  
                                
  23064668.633   123423700.624    23064666.185    95996200.787    23064665.434  
                                
  19600372.114   104811998.189    19600369.433    81520431.932    19600368.754  
                                
  23529712.886   123649476.246                                                  
  23529713.494    92335649.838  
  23902669.987   125609379.304                                                  
  23902671.935    93799218.232  
  24199448.781   127168962.113                                                  
  24199449.674    94963838.615  
  23773381.138   124929961.455                                                  
  23773382.138    93291857.024  
 21  9  1  9 43 24.0000000  0 18G 1G 3G 7G 8G14G17G19G21G22G30R13R14
                                R17R24E13E15E21E27
  20172157.744   106005403.925    20172156.207    82601606.803    20172156.189  
  20172154.402    79159866.461  
  23828279.887   125218455.049    23828278.957    97572815.956    23828278.368  
  23828278.296    93507281.472  
  23344062.940   122673878.523    23344058.955    95590016.597    23344058.544  
                                
  24590685.624   129224924.096    24590684.981   100694740.157    24590684.123  
  24590683.105    96499120.801  
  20498819.959   107722025.848    20498815.849    83939222.184    20498815.456  
  20498818.779    80441767.726  
  21416296.956   112543400.148    21416292.274    87696134.484    21416291.809  
                                
  23229150.470   122070009.765                    95119460.141    23229143.662  
                                
  22352330.307   117462288.613                    91529032.575    22352324.768  
                                
  23095755.515   121369014.585                    94573230.242    23095748.725  
                                
  21904835.007   115110684.396    21904833.292    89696627.588    21904832.702  
  21904832.434    85959266.883  
  19972986.790   106654634.662    19972984.896    82953596.912    19972983.985  
                                
  19780837.005   105442991.781    19780835.754    82011210.593    19780834.646  
                                
  23064003.745   123420142.680    23064001.296    95993433.509    23064000.546  
                                
  19600154.594   104810835.131    19600151.931    81519527.333    19600151.252  
                                
  23529469.081   123648195.072                                                  
  23529469.725    92334693.110  
  23902959.251   125610899.331                                                  
  23902961.199    93800353.313  
  24199175.027   127167523.493                                                  
  24199175.921    94962764.315  
  23773621.261   124931223.312                                                  
  23773622.262    93292799.313  
 21  9  1  9 43 25.0000000  0 18G 1G 3G 7G 8G14G17G19G21G22G30R13R14
                                R17R24E13E15E21E27
  20172332.324   106006321.301    20172330.770    82602321.642    20172330.752  
  20172328.965    79160551.517  
  23827721.605   125215521.226    23827720.658    97570529.856    23827720.086  
  23827719.996    93505090.627  
  23344745.036   122677462.907    23344741.070    95592809.618    23344740.659  
                                
  24591251.090   129227895.674    24591250.464   100697055.665    24591249.607  
  24591248.588    96501339.828  
  20498578.280   107720755.933    20498574.188    83938232.638    20498573.795  
  20498577.119    80440819.419  
  21416030.064   112541997.684    21416025.418    87695041.650    21416024.953  
                                
  23228610.682   122067173.195                    95117249.826    23228603.874  
                                
  22352819.150   117464857.529                    91531034.327    22352813.611  
                                
  23095445.845   121367387.292                    94571962.220    23095439.073  
                                
  21905285.003   115113049.101    21905283.287    89698470.217    21905282.697  
  21905282.429    85961032.733  
  19973463.876   106657182.330    19973461.981    82955578.427    19973461.106  
                                
  19780480.643   105441092.168    19780479.392    82009733.114    19780478.285  
                                
  23063338.892   123416584.949    23063336.444    95990666.385    23063335.693  
                                
  19599937.217   104809672.651    19599934.555    81518623.183    19599933.858  
                                
  23529225.348   123646914.264                                                  
  23529225.991    92333736.659  
  23903248.550   125612419.669                                                  
  23903250.516    93801488.630  
  24198901.292   127166085.135                                                  
  24198902.221    94961690.221  
  23773861.439   124932485.509                                                  
  23773862.458    93293741.863  
 21  9  1  9 43 26.0000000  0 18G 1G 3G 7G 8G14G17G19G21G22G30R13R14
                                R17R24E13E15E21E27
  20172507.047   106007239.405    20172505.475    82603037.050    20172505.457  
  20172503.688    79161237.112  
  23827163.359   125212587.667    23827162.412    97568243.961    23827161.840  
  23827161.768    93502899.972  
  23345427.169   122681047.456    23345423.184    95595602.763    23345422.773  
                                
  24591816.609   129230867.314    24591815.983   100699371.226    24591815.125  
  24591814.089    96503558.879  
  20498336.745   107719486.493    20498332.635    83937243.464    20498332.242  
  20498335.565    80439871.452  
  21415763.244   112540595.508    21415758.580    87693949.041    21415758.133  
                                
  23228070.931   122064336.839                    95115039.677    23228064.140  
                                
  22353308.064   117467426.800                    91533036.357    22353302.525  
                                
  23095136.282   121365760.522                    94570694.607    23095129.510  
                                
  21905735.105   115115414.319    21905733.372    89700313.247    21905732.782  
  21905732.497    85962798.974  
  19973941.121   106659730.715    19973939.227    82957560.504    19973938.334  
                                
  19780124.424   105439193.276    19780123.138    82008256.198    19780122.066  
                                
  23062674.111   123413027.522    23062671.645    95987899.497    23062670.894  
                                
  19599719.948   104808510.811    19599717.285    81517719.532    19599716.588  
                                
  23528981.704   123645633.859                                                  
  23528982.329    92332780.520  
  23903537.921   125613940.344                                                  
  23903539.887    93802624.192  
  24198627.664   127164647.091                                                  
  24198628.575    94960616.350  
  23774101.706   124933748.082                                                  
  23774102.724    93294684.694  
 21  9  1  9 43 27.0000000  0 18G 1G 3G 7G 8G14G17G19G21G22G30R13R14
                                R17R24E13E15E21E27
  20172681.949   106008158.645    20172680.413    82603753.340    20172680.395  
  20172678.608    79161923.564  
  23826605.255   125209654.765    23826604.308    97565958.573    23826603.737  
  23826603.665    93500709.826  
  23346109.390   122684632.663    23346105.441    95598396.431    23346105.012  
                                
  24592382.145   129233839.379    24592381.502   100701687.114    24592380.644  
  24592379.626    96505778.306  
  20498095.316   107718217.914    20498091.206    83936254.956    20498090.813  
  20498094.155    80438924.149  
  21415496.566   112539194.018    21415491.902    87692856.969    21415491.420  
                                
  23227531.322   122061501.129                    95112830.037    23227524.514  
                                
  22353797.122   117469996.820                    91535038.974    22353791.582  
                                
  23094826.916   121364134.682                    94569427.718    23094820.108  
                                
  21906185.351   115117780.479    21906183.636    89702157.008    21906183.046  
  21906182.778    85964565.910  
  19974418.582   106662280.249    19974416.670    82959543.475    19974415.776  
                                
  19779768.402   105437295.533    19779767.133    82006780.175    19779766.043  
                                
  23062009.454   123409470.834    23062007.006    95985133.186    23062006.238  
                                
  19599502.875   104807350.040    19599500.212    81516816.712    19599499.516  
                                
  23528738.202   123644354.298                                                  
  23528738.828    92331825.007  
  23903827.453   125615461.779                                                  
  23903829.383    93803760.336  
  24198354.142   127163209.778                                                  
  24198355.072    94959543.032  
  23774342.134   124935011.447                                                  
  23774343.116    93295628.122  
 21  9  1  9 43 28.0000000  0 18G 1G 3G 7G 8G14G17G19G21G22G30R13R14
                                R17R24E13E15E21E27
  20172857.030   106009078.665    20172855.476    82604470.237    20172855.458  
  20172853.671    79162610.594  
  23826047.206   125206722.194    23826046.259    97563673.454    23826045.687  
  23826045.615    93498519.922  
  23346791.683   122688218.077    23346787.734    95601190.256    23346787.305  
                                
  24592947.736   129236811.568    24592947.092   100704003.103    24592946.235  
  24592945.216    96507997.787  
  20497854.013   107716949.880    20497849.921    83935266.880    20497849.528  
  20497852.869    80437977.230  
  21415229.943   112537792.907    21415225.279    87691765.196    21415224.796  
                                
  23226991.749   122058665.660                    95110620.578    23226984.941  
                                
  22354286.250   117472567.235                    91537041.892    22354280.711  
                                
  23094517.603   121362509.406                    94568161.274    23094510.831  
                                
  21906635.722   115120147.203    21906634.007    89704001.208    21906633.435  
  21906633.149    85966333.271  
  19974896.167   106664830.612    19974894.255    82961527.091    19974893.380  
                                
  19779412.540   105435398.629    19779411.272    82005304.808    19779410.199  
                                
  23061344.870   123405914.522    23061342.404    95982367.168    23061341.635  
                                
  19599285.927   104806190.003    19599283.265    81515914.461    19599282.568  
                                
  23528494.791   123643075.225                                                  
  23528495.434    92330869.850  
  23904117.056   125616983.628                                                  
  23904118.986    93804896.781  
  24198080.711   127161772.828                                                  
  24198081.622    94958469.985  
  23774582.615   124936275.255                                                  
  23774583.633    93296571.873  
 21  9  1  9 43 29.0000000  0 18G 1G 3G 7G 8G14G17G19G21G22G30R13R14
                                R17R24E13E15E21E27
  20173032.218   106009999.348    20173030.663    82605187.654    20173030.663  
  20173028.894    79163298.108  
  23825489.192   125203789.803    23825488.263    97561388.489    23825487.673  
  23825487.619    93496330.160  
  23347473.994   122691803.657    23347470.045    95603984.214    23347469.616  
                                
  24593513.326   129239783.700    24593512.700   100706319.046    24593511.843  
  24593510.824    96510217.215  
  20497612.799   107715682.222    20497608.689    83934279.096    20497608.296  
  20497611.638    80437030.600  
  21414963.355   112536392.016    21414958.691    87690673.590    21414958.226  
                                
  23226452.194   122055830.343                    95108411.240    23226445.404  
                                
  22354775.451   117475137.938                    91539045.038    22354769.893  
                                
  23094208.433   121360884.578                    94566895.177    23094201.625  
                                
  21907086.182   115122514.381    21907084.485    89705845.763    21907083.877  
  21907083.609    85968100.956  
  19975373.895   106667381.607    19975371.983    82963511.205    19975371.108  
                                
  19779056.804   105433502.413    19779055.553    82003829.978    19779054.463  
                                
  23060680.339   123402358.473    23060677.873    95979601.361    23060677.104  
                                
  19599069.122   104805030.575    19599066.460    81515012.688    19599065.763  
                                
  23528251.468   123641796.492                                                  
  23528252.111    92329914.950  
  23904406.695   125618505.750                                                  
  23904408.643    93806033.426  
  24197807.332   127160336.140                                                  
  24197808.226    94957397.129  
  23774823.168   124937539.384                                                  
  23774824.168    93297515.860  
 21  9  1  9 43 30.0000000  0 18G 1G 3G 7G 8G14G17G19G21G22G30R13R14
                                R17R24E13E15E21E27
  20173207.602   106010920.867    20173206.030    82605905.717    20173206.030  
  20173204.261    79163986.265  
  23824931.250   125200857.802    23824930.303    97559103.804    23824929.731  
  23824929.659    93494140.685  
  23348156.358   122695389.511    23348152.409    95606778.384    23348151.980  
                                
  24594078.916   129242755.982    24594078.291   100708635.110    24594077.433  
  24594076.414    96512436.791  
  20497371.675   107714415.136    20497367.565    83933291.759    20497367.172  
  20497370.513    80436084.417  
  21414696.856   112534991.530    21414692.192    87689582.307    21414691.728  
                                
  23225912.746   122052995.357                    95106202.152    23225905.920  
                                
  22355264.722   117477709.099                    91541048.535    22355259.183  
                                
  23093899.353   121359260.387                    94565629.571    23093892.562  
                                
  21907536.750   115124882.182    21907535.034    89707690.800    21907534.462  
  21907534.177    85969869.127  
  19975851.767   106669933.466    19975849.873    82965495.978    19975848.979  
                                
  19778701.246   105431607.060    19778699.995    82002355.812    19778698.887  
                                
  23060015.879   123398802.821    23060013.413    95976835.855    23060012.663  
                                
  19598852.442   104803871.933    19598849.780    81514111.522    19598849.083  
                                
  23528008.235   123640518.299                                                  
  23528008.878    92328960.464  
  23904696.424   125620028.338                                                  
  23904698.372    93807170.431  
  24197533.990   127158899.871                                                  
  24197534.901    94956324.604  
  23775063.810   124938804.002                                                  
  23775064.810    93298460.227  
 21  9  1  9 43 31.0000000  0 18G 1G 3G 7G 8G14G17G19G21G22G30R13R14
                                R17R24E13E15E21E27
  20173383.023   106011842.756    20173381.468    82606624.075    20173381.468  
  20173379.681    79164674.686  
  23824373.307   125197925.725    23824372.360    97556819.068    23824371.788  
  23824371.717    93491951.130  
  23348838.705   122698975.208    23348834.738    95609572.433    23348834.309  
                                
  24594644.471   129245727.954    24594643.845   100710950.932    24594643.005  
  24594641.987    96514656.116  
  20497130.586   107713148.167    20497126.476    83932304.511    20497126.083  
  20497129.406    80435138.297  
  21414430.322   112533590.979    21414425.658    87688490.971    21414425.211  
                                
  23225373.226   122050160.205                    95103992.940    23225366.418  
                                
  22355753.994   117480280.248                    91543052.025    22355748.455  
                                
  23093590.308   121357636.378                    94564364.112    23093583.535  
                                
  21907987.371   115127250.138    21907985.655    89709535.958    21907985.048  
  21907984.780    85971637.406  
  19976329.727   106672485.693    19976327.815    82967481.043    19976326.922  
                                
  19778345.760   105429712.073    19778344.491    82000881.931    19778343.401  
                                
  23059351.401   123395247.110    23059348.936    95974070.308    23059348.185  
                                
  19598635.834   104802713.598    19598633.172    81513210.595    19598632.457  
                                
  23527765.020   123639240.162                                                  
  23527765.645    92328006.011  
  23904986.170   125621550.906                                                  
  23904988.118    93808307.420  
  24197260.665   127157463.556                                                  
  24197261.577    94955252.029  
  23775304.470   124940068.652                                                  
  23775305.470    93299404.604  
 21  9  1  9 43 32.0000000  0 18G 1G 3G 7G 8G14G17G19G21G22G30R13R14
                                R17R24E13E15E21E27
  20173558.514   106012764.936    20173556.960    82607342.656    20173556.942  
  20173555.155    79165363.327  
  23823815.293   125194993.453    23823814.346    97554534.182    23823813.774  
  23823813.721    93489761.444  
  23349520.980   122702560.652    23349517.031    95612366.283    23349516.602  
                                
  24595209.954   129248699.532    24595209.311   100713266.445    24595208.453  
  24595207.434    96516875.154  
  20496889.497   107711881.231    20496885.387    83931317.288    20496884.994  
  20496888.335    80434192.202  
  21414163.787   112532190.291    21414159.123    87687399.523    21414158.659  
                                
  23224833.689   122047324.862                    95101783.586    23224826.863  
                                
  22356243.266   117482851.300                    91545055.443    22356237.726  
                                
  23093281.281   121356012.443                    94563098.710    23093274.491  
                                
  21908438.010   115129618.191    21908436.276    89711381.192    21908435.704  
  21908435.419    85973405.744  
  19976807.724   106675038.200    19976805.830    82969466.328    19976804.918  
                                
  19777990.327   105427817.411    19777989.058    81999408.314    19777987.968  
                                
  23058686.906   123391691.288    23058684.440    95971304.674    23058683.690  
                                
  19598419.244   104801555.511    19598416.599    81512309.863    19598415.902  
                                
  23527521.804   123637962.022                                                  
  23527522.430    92327051.549  
  23905275.898   125623073.407                                                  
  23905277.828    93809444.339  
  24196987.341   127156027.131                                                  
  24196988.234    94954179.374  
  23775545.130   124941333.256                                                  
  23775546.130    93300348.942  
 21  9  1  9 43 33.0000000  0 18G 1G 3G 7G 8G14G17G19G21G22G30R13R14
                                R17R24E13E15E21E27
  20173734.060   106013687.550    20173732.523    82608061.574    20173732.505  
  20173730.718    79166052.285  
  23823257.297   125192061.127    23823256.368    97552249.261    23823255.778  
  23823255.725    93487571.737  
  23350203.255   122706145.987    23350199.306    95615160.049    23350198.877  
                                
  24595775.383   129251670.875    24595774.740   100715581.777    24595773.900  
  24595772.882    96519094.007  
  20496648.426   107710614.456    20496644.316    83930330.192    20496643.923  
  20496647.264    80433246.236  
  21413897.235   112530789.599    21413892.571    87686308.080    21413892.125  
                                
  23224294.098   122044489.421                    95099574.145    23224287.308  
                                
  22356732.520   117485422.411                    91547058.903    22356726.980  
                                
  23092972.308   121354388.728                    94561833.480    23092965.500  
                                
  21908888.648   115131986.438    21908886.933    89713226.577    21908886.361  
  21908886.075    85975174.247  
  19977285.809   106677591.142    19977283.915    82971451.949    19977283.004  
                                
  19777634.983   105425923.201    19777633.697    81997935.035    19777632.625  
                                
  23058022.411   123388135.460    23058019.945    95968539.032    23058019.194  
                                
  19598202.761   104800397.750    19598200.098    81511409.382    19598199.401  
                                
  23527278.589   123636684.002                                                  
  23527279.215    92326097.186  
  23905565.609   125624595.948                                                  
  23905567.574    93810581.304  
  24196713.998   127154590.734                                                  
  24196714.892    94953106.733  
  23775785.772   124942597.930                                                  
  23775786.773    93301293.353  
 21  9  1  9 43 34.0000000  0 18G 1G 3G 7G 8G14G17G19G21G22G30R13R14
                                R17R24E13E15E21E27
  20173909.819   106014611.112    20173908.265    82608781.233    20173908.247  
  20173906.478    79166741.954  
  23822699.391   125189129.340    23822698.462    97549964.752    23822697.872  
  23822697.818    93485382.394  
  23350885.601   122709731.778    23350881.670    95617954.169    23350881.241  
                                
  24596340.849   129254642.462    24596340.223   100717897.290    24596339.383  
  24596338.365    96521313.045  
  20496407.498   107709348.367    20496403.388    83929343.628    20496402.995  
  20496406.336    80432300.780  
  21413630.790   112529389.433    21413626.126    87685217.041    21413625.680  
                                
  23223754.632   122041654.410                    95097365.050    23223747.824  
                                
  22357221.881   117487994.079                    91549062.808    22357216.341  
                                
  23092663.459   121352765.769                    94560568.830    23092656.687  
                                
  21909339.466   115134355.441    21909337.751    89715072.558    21909337.179  
  21909336.893    85976943.308  
  19977764.074   106680145.032    19977762.162    82973438.311    19977761.286  
                                
  19777279.801   105424029.961    19777278.532    81996462.513    19777277.460  
                                
  23057358.023   123384580.164    23057355.557    95965773.802    23057354.806  
                                
  19597986.420   104799240.881    19597983.740    81510509.593    19597983.061  
                                
  23527035.535   123635406.634                                                  
  23527036.160    92325143.303  
  23905855.480   125626119.074                                                  
  23905857.410    93811718.692  
  24196440.763   127153154.867                                                  
  24196441.675    94952034.495  
  23776026.557   124943863.231                                                  
  23776027.576    93302238.210  
 21  9  1  9 43 35.0000000  0 18G 1G 3G 7G 8G14G17G19G21G22G30R13R14
                                R17R24E13E15E21E27
  20174085.740   106015535.569    20174084.185    82609501.584    20174084.185  
  20174082.398    79167432.291  
  23822141.573   125186197.943    23822140.626    97547680.544    23822140.055  
  23822139.983    93483193.371  
  23351568.037   122713317.897    23351564.070    95620748.547    23351563.659  
                                
  24596906.385   129257614.230    24596905.742   100720212.952    24596904.884  
  24596903.848    96523532.225  
  20496166.695   107708082.907    20496162.585    83928357.553    20496162.192  
  20496165.533    80431355.796  
  21413364.452   112527989.710    21413359.788    87684126.346    21413359.306  
                                
  23223215.202   122038819.762                    95095156.233    23223208.412  
                                
  22357711.367   117490566.252                    91551067.099    22357705.827  
                                
  23092354.772   121351143.486                    94559304.715    23092347.964  
                                
  21909790.409   115136725.120    21909788.675    89716919.057    21909788.104  
  21909787.818    85978712.875  
  19978242.499   106682699.817    19978240.605    82975425.361    19978239.711  
                                
  19776924.815   105422137.611    19776923.546    81994990.683    19776922.456  
                                
  23056693.706   123381025.366    23056691.240    95963008.960    23056690.489  
                                
  19597770.223   104798084.819    19597767.560    81509610.431    19597766.864  
                                
  23526792.552   123634129.832                                                  
  23526793.195    92324189.849  
  23906145.405   125627642.686                                                  
  23906147.335    93812856.463  
  24196167.617   127151719.478                                                  
  24196168.511    94950962.616  
  23776267.431   124945129.062                                                  
  23776268.450    93303183.470  
 21  9  1  9 43 36.0000000  0 18G 1G 3G 7G 8G14G17G19G21G22G30R13R14
                                R17R24E13E15E21E27
  20174261.803   106016460.809    20174260.249    82610222.551    20174260.249  
  20174258.480    79168123.226  
  23821583.828   125183266.919    23821582.881    97545396.630    23821582.309  
  23821582.237    93481004.608  
  23352250.491   122716904.297    23352246.542    95623543.145    23352246.131  
                                
  24597471.904   129260586.131    24597471.261   100722528.712    24597470.403  
  24597469.385    96525751.508  
  20495925.981   107706817.992    20495921.889    83927371.905    20495921.478  
  20495924.820    80430411.219  
  21413098.168   112526590.389    21413093.504    87683035.966    21413093.022  
                                
  23222675.844   122035985.413                    95092947.654    23222669.018  
                                
  22358200.907   117493138.866                    91553071.732    22358195.367  
                                
  23092046.174   121349521.792                    94558041.060    23092039.366  
                                
  21910241.459   115139095.394    21910239.743    89718766.021    21910239.136  
  21910238.850    85980482.883  
  19978721.085   106685255.401    19978719.191    82977413.038    19978718.297  
                                
  19776569.972   105420246.101    19776568.685    81993519.511    19776567.613  
                                
  23056029.496   123377470.961    23056027.013    95960244.422    23056026.244  
                                
  19597554.169   104796929.473    19597551.506    81508711.831    19597550.809  
                                
  23526549.676   123632853.549                                                  
  23526550.301    92323236.783  
  23906435.419   125629166.748                                                  
  23906437.367    93813994.563  
  24195894.543   127150284.489                                                  
  24195895.454    94949891.035  
  23776508.413   124946395.364                                                  
  23776509.414    93304129.095  
 21  9  1  9 43 37.0000000  0 18G 1G 3G 7G 8G14G17G19G21G22G30R13R14
                                R17R24E13E15E21E27
  20174437.974   106017386.631    20174436.437    82610943.970    20174436.419  
  20174434.633    79168814.588  
  23821026.100   125180335.978    23821025.153    97543112.781    23821024.581  
  23821024.491    93478815.916  
  23352932.980   122720490.719    23352929.013    95626337.757    23352928.602  
                                
  24598037.387   129263557.897    24598036.762   100724844.369    24598035.904  
  24598034.903    96527970.686  
  20495685.339   107705553.389    20495681.229    83926386.500    20495680.836  
  20495684.178    80429466.868  
  21412831.902   112525191.182    21412827.238    87681945.673    21412826.791  
                                
  23222136.485   122033151.124                    95090739.128    23222129.695  
                                
  22358690.500   117495711.661                    91555076.508    22358684.961  
                                
  23091737.630   121347900.448                    94556777.670    23091730.839  
                                
  21910692.580   115141466.026    21910690.847    89720613.265    21910690.275  
  21910689.989    85982253.152  
  19979199.778   106687811.587    19979197.866    82979401.180    19979196.973  
                                
  19776215.236   105418355.201    19776213.967    81992048.811    19776212.895  
                                
  23055365.269   123373916.702    23055362.821    95957480.003    23055362.053  
                                
  19597338.221   104795774.626    19597335.541    81507813.615    19597334.862  
                                
  23526306.872   123631577.528                                                  
  23526307.497    92322283.905  
  23906725.487   125630690.994                                                  
  23906727.417    93815132.795  
  24195621.522   127148849.670                                                  
  24195622.416    94948819.575  
  23776749.413   124947661.904                                                  
  23776750.431    93305074.879  
 21  9  1  9 43 38.0000000  0 18G 1G 3G 7G 8G14G17G19G21G22G30R13R14
                                R17R24E13E15E21E27
  20174614.216   106018312.749    20174612.662    82611665.622    20174612.662  
  20174610.893    79169506.172  
  23820468.318   125177404.886    23820467.389    97540828.809    23820466.799  
  23820466.746    93476627.116  
  23353615.398   122724076.908    23353611.449    95629132.193    23353611.020  
                                
  24598602.852   129266529.302    24598602.209   100727159.749    24598601.351  
  24598600.333    96530189.573  
  20495444.715   107704288.821    20495440.605    83925401.122    20495440.194  
  20495443.535    80428522.550  
  21412565.618   112523791.849    21412560.954    87680855.283    21412560.507  
                                
  23221597.091   122030316.622                    95088530.435    23221590.283  
                                
  22359180.075   117498284.365                    91557081.215    22359174.536  
                                
  23091429.121   121346279.194                    94555514.361    23091422.331  
                                
  21911143.701   115143836.729    21911141.986    89722460.568    21911141.378  
  21911141.110    85984023.490  
  19979678.525   106690368.030    19979676.613    82981389.525    19979675.720  
                                
  19775860.572   105416464.593    19775859.303    81990578.340    19775858.213  
                                
  23054701.060   123370362.290    23054698.576    95954715.465    23054697.825  
                                
  19597122.292   104794620.024    19597119.630    81506915.595    19597118.951  
                                
  23526064.032   123630301.492                                                  
  23526064.675    92321331.028  
  23907015.501   125632215.161                                                  
  23907017.467    93816270.976  
  24195348.448   127147414.725                                                  
  24195349.359    94947748.031  
  23776990.412   124948928.380                                                  
  23776991.431    93306020.628  
 21  9  1  9 43 39.0000000  0 18G 1G 3G 7G 8G14G17G19G21G22G30R13R14
                                R17R24E13E15E21E27
  20174790.548   106019239.368    20174788.993    82612387.664    20174788.975  
  20174787.206    79170198.119  
  23819910.554   125174473.806    23819909.607    97538544.844    23819909.036  
  23819908.982    93474438.314  
  23354297.816   122727663.065    23354293.885    95631926.601    23354293.456  
                                
  24599168.246   129269500.487    24599167.621   100729474.958    24599166.763  
  24599165.727    96532408.319  
  20495204.108   107703024.478    20495199.999    83924415.922    20495199.605  
  20495202.947    80427578.396  
  21412299.333   112522392.587    21412294.688    87679764.949    21412294.223  
                                
  23221057.697   122027482.101                    95086321.713    23221050.888  
                                
  22359669.669   117500857.196                    91559086.009    22359664.129  
                                
  23091120.666   121344658.246                    94554251.286    23091113.858  
                                
  21911594.894   115146207.728    21911593.179    89724308.100    21911592.607  
  21911592.303    85985794.031  
  19980157.361   106692925.021    19980155.449    82983378.293    19980154.556  
                                
  19775505.979   105414574.494    19775504.728    81989108.260    19775503.620  
                                
  23054036.832   123366807.920    23054034.349    95951950.948    23054033.580  
                                
  19596906.470   104793465.908    19596903.808    81506017.948    19596903.111  
                                
  23525821.263   123629025.652                                                  
  23525821.889    92320378.284  
  23907305.587   125633739.443                                                  
  23907307.517    93817409.227  
  24195075.409   127145979.873                                                  
  24195076.302    94946676.538  
  23777231.483   124950195.020                                                  
  23777232.484    93306966.483  
 21  9  1  9 43 40.0000000  0 18G 1G 3G 7G 8G14G17G19G21G22G30R13R14
                                R17R24E13E15E21E27
  20174966.986   106020166.616    20174965.450    82613110.194    20174965.432  
  20174963.645    79170890.555  
  23819352.826   125171542.920    23819351.879    97536261.035    23819351.308  
  23819351.254    93472249.672  
  23354980.270   122731249.322    23354976.303    95634721.091    23354975.892  
                                
  24599733.658   129272471.660    24599733.015   100731790.153    24599732.157  
  24599731.138    96534627.046  
  20494963.573   107701760.515    20494959.481    83923431.015    20494959.071  
  20494962.412    80426634.535  
  21412033.121   112520993.518    21412028.457    87678674.770    21412027.992  
                                
  23220518.338   122024647.723                    95084113.104    23220511.530  
                                
  22360159.298   117503430.296                    91561091.022    22360153.759  
                                
  23090812.282   121343037.697                    94552988.521    23090805.474  
                                
  21912046.158   115148579.168    21912044.443    89726155.975    21912043.853  
  21912043.567    85987564.911  
  19980636.305   106695482.630    19980634.411    82985367.547    19980633.517  
                                
  19775151.547   105412685.064    19775150.260    81987638.702    19775149.188  
                                
  23053372.659   123363253.834    23053370.193    95949186.662    23053369.406  
                                
  19596690.755   104792312.375    19596688.093    81505120.755    19596687.396  
                                
  23525578.548   123627750.150                                                  
  23525579.174    92319425.799  
  23907595.691   125635263.989                                                  
  23907597.620    93818547.693  
  24194802.424   127144545.254                                                  
  24194803.317    94945605.232  
  23777472.554   124951461.950                                                  
  23777473.555    93307912.578  
 21  9  1  9 43 41.0000000  0 18G 1G 3G 7G 8G14G17G19G21G22G30R13R14
                                R17R24E13E15E21E27
  20175143.640   106021094.887    20175142.085    82613833.527    20175142.085  
  20175140.298    79171583.747  
  23818795.206   125168612.595    23818794.259    97533977.664    23818793.669  
  23818793.615    93470061.435  
  23355662.795   122734836.046    23355658.828    95637515.943    23355658.417  
                                
  24600299.123   129275443.126    24600298.480   100734105.584    24600297.622  
  24600296.586    96536846.002  
  20494723.199   107700497.317    20494719.107    83922446.708    20494718.679  
  20494722.020    80425691.234  
  21411766.997   112519595.037    21411762.334    87677585.044    21411761.869  
                                
  23219979.051   122021813.820                    95081904.868    23219972.261  
                                
  22360649.070   117506004.025                    91563096.522    22360643.531  
                                
  23090504.060   121341417.975                    94551726.400    23090497.269  
                                
  21912497.584   115150951.402    21912495.868    89728004.467    21912495.278  
  21912494.993    85989336.387  
  19981115.463   106698041.226    19981113.551    82987357.566    19981112.657  
                                
  19774797.275   105410796.685    19774796.025    81986169.965    19774794.917  
                                
  23052708.610   123359700.373    23052706.144    95946422.865    23052705.358  
                                
  19596475.201   104791159.774    19596472.539    81504224.290    19596471.860  
                                
  23525335.958   123626475.355                                                  
  23525336.584    92318473.850  
  23907885.901   125636789.168                                                  
  23907887.849    93819686.633  
  24194529.510   127143111.230                                                  
  24194530.404    94944534.381  
  23777713.768   124952729.565                                                  
  23777714.787    93308859.173  
 21  9  1  9 43 42.0000000  0 18G 1G 3G 7G 8G14G17G19G21G22G30R13R14
                                R17R24E13E15E21E27
  20175320.382   106022023.770    20175318.845    82614557.331    20175318.828  
  20175317.059    79172277.380  
  23818237.603   125165682.404    23818236.674    97531694.401    23818236.084  
  23818236.030    93467873.301  
  23356345.338   122738422.863    23356341.389    95640310.866    23356340.960  
                                
  24600864.535   129278414.513    24600863.891   100736420.951    24600863.034  
  24600862.015    96539064.902  
  20494482.897   107699234.456    20494478.805    83921462.661    20494478.376  
  20494481.717    80424748.182  
  21411500.892   112518196.743    21411496.228    87676495.467    21411495.763  
                                
  23219439.799   122018980.027                    95079696.724    23219432.991  
                                
  22361138.878   117508577.976                    91565102.201    22361133.338  
                                
  23090195.926   121339798.665                    94550464.599    23090189.118  
                                
  21912949.080   115153324.018    21912947.365    89729853.258    21912946.775  
  21912946.471    85991108.150  
  19981594.710   106700600.480    19981592.816    82989348.097    19981591.922  
                                
  19774443.129   105408908.929    19774441.878    81984701.715    19774440.771  
                                
  23052044.579   123356147.070    23052042.095    95943659.185    23052041.345  
                                
  19596259.772   104790007.704    19596257.110    81503328.237    19596256.413  
                                
  23525093.440   123625200.866                                                  
  23525094.065    92317522.108  
  23908176.184   125638314.591                                                  
  23908178.149    93820825.732  
  24194256.686   127141677.423                                                  
  24194257.580    94943463.663  
  23777955.036   124953997.437                                                  
  23777956.036    93309805.950  
 21  9  1  9 43 43.0000000  0 18G 1G 3G 7G 8G14G17G19G21G22G30R13R14
                                R17R24E13E15E21E27
  20175497.268   106022953.233    20175495.713    82615281.588    20175495.695  
  20175493.926    79172971.466  
  23817680.036   125162752.349    23817679.107    97529411.239    23817678.517  
  23817678.463    93465685.279  
  23357027.899   122742009.710    23357023.932    95643105.816    23357023.521  
                                
  24601429.982   129281385.842    24601429.339   100738736.267    24601428.481  
  24601427.463    96541283.734  
  20494242.630   107697971.927    20494238.538    83920478.872    20494238.127  
  20494241.468    80423805.385  
  21411234.822   112516798.592    21411230.176    87675406.004    21411229.712  
                                
  23218900.566   122016146.303                    95077488.630    23218893.740  
                                
  22361628.721   117511152.124                    91567108.035    22361623.182  
                                
  23089887.846   121338179.718                    94549203.082    23089881.038  
                                
  21913400.648   115155697.030    21913398.933    89731702.357    21913398.325  
  21913398.057    85992880.200  
  19982074.100   106703160.302    19982072.188    82991339.069    19982071.295  
                                
  19774089.108   105407021.755    19774087.839    81983233.911    19774086.749  
                                
  23051380.602   123352593.946    23051378.136    95940895.647    23051377.368  
                                
  19596044.433   104788856.162    19596041.752    81502432.594    19596041.073  
                                
  23524850.957   123623926.655                                                  
  23524851.583    92316570.596  
  23908466.520   125639840.211                                                  
  23908468.449    93821965.004  
  24193983.880   127140243.775                                                  
  24193984.755    94942393.091  
  23778196.357   124955265.559                                                  
  23778197.357    93310752.931  
 21  9  1  9 43 44.0000000  0 18G 1G 3G 7G 8G14G17G19G21G22G30R13R14
                                R17R24E13E15E21E27
  20175674.332   106023883.723    20175672.795    82616006.646    20175672.777  
  20175670.990    79173666.306  
  23817122.576   125159822.854    23817121.629    97527128.513    23817121.057  
  23817120.986    93463497.663  
  23357710.549   122745597.067    23357706.600    95645901.152    23357706.189  
                                
  24601995.465   129284357.487    24601994.840   100741051.833    24601993.982  
  24601992.946    96543502.809  
  20494002.542   107696710.156    20493998.432    83919495.671    20493998.021  
  20494001.362    80422863.148  
  21410968.895   112515401.035    21410964.232    87674316.995    21410963.767  
                                
  23218361.422   122013313.093                    95075280.937    23218354.596  
                                
  22362118.690   117513726.927                    91569114.375    22362113.151  
                                
  23089579.909   121336561.584                    94547942.194    23089573.119  
                                
  21913852.359   115158070.849    21913850.644    89733552.090    21913850.072  
  21913849.786    85994652.859  
  19982553.669   106705721.146    19982551.775    82993330.839    19982550.863  
                                
  19773735.266   105405135.609    19773734.015    81981766.910    19773732.907  
                                
  23050716.732   123349041.417    23050714.248    95938132.573    23050713.498  
                                
  19595829.254   104787705.603    19595826.609    81501537.719    19595825.930  
                                
  23524608.636   123622653.172                                                  
  23524609.243    92315619.609  
  23908756.963   125641366.485                                                  
  23908758.893    93823104.748  
  24193711.163   127138810.752                                                  
  24193712.074    94941322.967  
  23778437.803   124956534.356                                                  
  23778438.804    93311700.407  
 21  9  1  9 43 45.0000000  0 18G 1G 3G 7G 8G14G17G19G21G22G30R13R14
                                R17R24E13E15E21E27
  20175851.503   106024814.759    20175849.966    82616732.126    20175849.949  
  20175848.162    79174361.564  
  23816565.116   125156893.444    23816564.187    97524845.849    23816563.597  
  23816563.543    93461310.130  
  23358393.218   122749184.483    23358389.268    95648696.532    23358388.857  
                                
  24602560.930   129287328.989    24602560.287   100743367.289    24602559.429  
  24602558.411    96545721.792  
  20493762.489   107695448.675    20493758.379    83918512.694    20493757.986  
  20493761.310    80421921.140  
  21410702.969   112514003.592    21410698.305    87673228.076    21410697.840  
                                
  23217822.278   122010479.924                    95073073.270    23217815.470  
                                
  22362608.694   117516301.902                    91571120.849    22362603.155  
                                
  23089272.080   121334943.799                    94546681.585    23089265.254  
                                
  21914304.160   115160445.006    21914302.444    89735402.080    21914301.837  
  21914301.551    85996425.775  
  19983033.345   106708282.568    19983031.433    82995323.052    19983030.557  
                                
  19773381.548   105403250.049    19773380.280    81980300.364    19773379.190  
                                
  23050052.880   123345489.023    23050050.396    95935369.597    23050049.646  
                                
  19595614.182   104786555.522    19595611.520    81500643.209    19595610.841  
                                
  23524366.332   123621379.932                                                  
  23524366.975    92314668.818  
  23909047.424   125642892.930                                                  
  23909049.371    93824244.627  
  24193438.499   127137377.867                                                  
  24193439.411    94940252.966  
  23778679.285   124957803.364                                                  
  23778680.286    93312648.047  
 21  9  1  9 43 46.0000000  0 18G 1G 3G 7G 8G14G17G19G21G22G30R13R14
                                R17R24E13E15E21E27
  20176028.853   106025746.690    20176027.299    82617458.306    20176027.299  
  20176025.512    79175057.491  
  23816007.763   125153964.474    23816006.834    97522563.537    23816006.227  
  23816006.173    93459122.901  
  23359075.921   122752772.204    23359071.972    95651492.166    23359071.561  
                                
  24603126.413   129290300.661    24603125.770   100745682.870    24603124.912  
  24603123.894    96547940.906  
  20493522.562   107694187.830    20493518.452    83917530.220    20493518.059  
  20493521.400    80420979.593  
  21410437.131   112512606.618    21410432.467    87672139.528    21410432.003  
                                
  23217283.223   122007647.134                    95070865.903    23217276.397  
                                
  22363098.788   117518877.379                    91573127.712    22363093.249  
                                
  23088964.357   121333326.724                    94545421.524    23088957.549  
                                
  21914756.067   115162819.852    21914754.352    89737252.610    21914753.762  
  21914753.494    85998199.190  
  19983513.182   106710844.882    19983511.270    82997315.961    19983510.376  
                                
  19773027.992   105401365.421    19773026.723    81978834.544    19773025.633  
                                
  23049389.117   123341937.142    23049386.634    95932607.026    23049385.883  
                                
  19595399.272   104785406.256    19595396.609    81499749.336    19595395.912  
                                
  23524124.135   123620107.271                                                  
  23524124.778    92313718.458  
  23909337.992   125644419.887                                                  
  23909339.940    93825384.884  
  24193165.943   127135945.471                                                  
  24193166.819    94939183.314  
  23778920.874   124959072.927                                                  
  23778921.875    93313596.097  
 21  9  1  9 43 47.0000000  0 18G 1G 3G 7G 8G14G17G19G21G22G30R13R14
                                R17R24E13E15E21E27
  20176206.293   106026679.125    20176204.738    82618184.877    20176204.720  
  20176202.951    79175753.784  
  23815450.428   125151035.551    23815449.464    97520281.264    23815448.874  
  23815448.820    93456935.705  
  23359758.643   122756359.890    23359754.694    95654287.770    23359754.265  
                                
  24603691.879   129293272.163    24603691.235   100747998.322    24603690.378  
  24603689.359    96550159.876  
  20493282.670   107692927.214    20493278.578    83916547.920    20493278.167  
  20493281.491    80420038.227  
  21410171.312   112511209.709    21410166.648    87671051.027    21410166.183  
                                
  23216744.150   122004814.335                    95068658.530    23216737.342  
                                
  22363588.900   117521452.986                    91575134.681    22363583.360  
                                
  23088656.688   121331709.919                    94544161.672    23088649.880  
                                
  21915208.046   115165194.971    21915206.331    89739103.354    21915205.741  
  21915205.437    85999972.825  
  19983993.126   106713407.694    19983991.214    82999309.259    19983990.320  
                                
  19772674.543   105399481.331    19772673.274    81977369.141    19772672.184  
                                
  23048725.390   123338385.327    23048722.907    95929844.506    23048722.138  
                                
  19595184.415   104784257.402    19595181.770    81498855.783    19595181.091  
                                
  23523882.027   123618834.815                                                  
  23523882.635    92312768.243  
  23909628.578   125645946.966                                                  
  23909630.544    93826525.234  
  24192893.369   127134513.161                                                  
  24192894.262    94938113.736  
  23779162.499   124960342.651                                                  
  23779163.500    93314544.254  
 21  9  1  9 43 48.0000000  0 18G 1G 3G 7G 8G14G17G19G21G22G30R13R14
                                R17R24E13E15E21E27
  20176383.911   106027612.597    20176382.374    82618912.255    20176382.356  
  20176380.569    79176450.857  
  23814893.165   125148107.192    23814892.236    97517999.423    23814891.646  
  23814891.593    93454748.948  
  23360441.454   122759948.069    23360437.505    95657083.751    23360437.076  
                                
  24604257.415   129296244.031    24604256.772   100750314.056    24604255.914  
  24604254.896    96552379.117  
  20493042.939   107691667.391    20493038.830    83915566.237    20493038.419  
  20493041.760    80419097.443  
  21409905.599   112509813.422    21409900.935    87669963.009    21409900.489  
                                
  23216205.185   122001982.061                    95066451.554    23216198.394  
                                
  22364079.172   117524029.253                    91577142.159    22364073.633  
                                
  23088349.198   121330093.977                    94542902.496    23088342.372  
                                
  21915660.168   115167570.927    21915658.453    89740954.748    21915657.863  
  21915657.577    86001747.079  
  19984473.249   106715971.559    19984471.337    83001303.376    19984470.443  
                                
  19772321.290   105397598.299    19772320.021    81975904.558    19772318.931  
                                
  23048061.753   123334834.140    23048059.287    95927082.469    23048058.518  
                                
  19594969.772   104783109.515    19594967.109    81497962.984    19594966.430  
                                
  23523640.009   123617563.098                                                  
  23523640.635    92311818.585  
  23909919.307   125647474.707                                                  
  23909921.255    93827666.080  
  24192620.920   127133081.491                                                  
  24192621.831    94937044.631  
  23779404.249   124961613.061                                                  
  23779405.268    93315492.947  
 21  9  1  9 43 49.0000000  0 18G 1G 3G 7G 8G14G17G19G21G22G30R13R14
                                R17R24E13E15E21E27
  20176561.707   106028546.902    20176560.171    82619640.285    20176560.171  
  20176558.366    79177148.554  
  23814336.009   125145179.211    23814335.044    97515717.873    23814334.454  
  23814334.401    93452562.471  
  23361124.319   122763536.577    23361120.370    95659879.984    23361119.959  
                                
  24604822.970   129299216.038    24604822.327   100752629.906    24604821.469  
  24604820.450    96554598.473  
  20492803.298   107690408.128    20492799.206    83914584.993    20492798.795  
  20492802.136    80418157.093  
  21409639.976   112508417.523    21409635.312    87668875.291    21409634.866  
                                
  23215666.291   121999150.127                    95064244.850    23215659.500  
                                
  22364569.480   117526605.968                    91579149.985    22364563.941  
                                
  23088041.780   121328478.634                    94541643.789    23088034.989  
                                
  21916112.433   115169947.516    21916110.700    89742806.629    21916110.110  
  21916109.824    86003521.794  
  19984953.532   106718536.252    19984951.620    83003298.140    19984950.727  
                                
  19771968.180   105395716.096    19771966.929    81974440.623    19771965.822  
                                
  23047398.222   123331283.368    23047395.739    95924320.755    23047394.970  
                                
  19594755.254   104781962.429    19594752.592    81497070.806    19594751.913  
                                
  23523398.116   123616291.898                                                  
  23523398.724    92310869.320  
  23910210.107   125649002.915                                                  
  23910212.073    93828807.274  
  24192348.578   127131650.246                                                  
  24192349.454    94935975.845  
  23779646.106   124962883.977                                                  
  23779647.107    93316442.005  
 21  9  1  9 43 50.0000000  0 18G 1G 3G 7G 8G14G17G19G21G22G30R13R14
                                R17R24E13E15E21E27
  20176739.594   106029481.694    20176738.057    82620368.694    20176738.039  
  20176736.252    79177846.618  
  23813778.835   125142251.265    23813777.870    97513436.357    23813777.298  
  23813777.227    93450376.009  
  23361807.202   122767125.017    23361803.235    95662676.164    23361802.842  
                                
  24605388.471   129302187.836    24605387.846   100754945.586    24605386.988  
  24605385.969    96556817.675  
  20492563.710   107689149.100    20492559.618    83913603.930    20492559.207  
  20492562.549    80417216.908  
  21409374.353   112507021.691    21409369.707    87667787.627    21409369.243  
                                
  23215127.397   121996318.153                    95062038.117    23215120.571  
                                
  22365059.842   117529182.798                    91581157.904    22365054.302  
                                
  23087734.468   121326863.581                    94540385.304    23087727.660  
                                
  21916564.716   115172324.381    21916563.001    89744658.729    21916562.411  
  21916562.125    86005296.730  
  19985433.905   106721101.438    19985432.011    83005293.282    19985431.100  
                                
  19771615.178   105393834.403    19771613.927    81972977.081    19771612.819  
                                
  23046734.674   123327732.712    23046732.208    95921559.134    23046731.440  
                                
  19594540.844   104780815.793    19594538.181    81496178.979    19594537.484  
                                
  23523156.241   123615020.897                                                  
  23523156.867    92309920.190  
  23910500.944   125650531.225                                                  
  23910502.891    93829948.543  
  24192076.236   127130219.080                                                  
  24192077.130    94934907.117  
  23779887.964   124964155.033                                                  
  23779888.982    93317391.170  
 21  9  1  9 43 51.0000000  0 18G 1G 3G 7G 8G14G17G19G21G22G30R13R14
                                R17R24E13E15E21E27
  20176917.551   106030416.897    20176916.014    82621097.426    20176916.014  
  20176914.228    79178544.975  
  23813221.643   125139323.234    23813220.696    97511154.779    23813220.124  
  23813220.053    93448189.506  
  23362490.031   122770713.322    23362486.064    95665472.251    23362485.671  
                                
  24605953.936   129305159.340    24605953.293   100757261.041    24605952.453  
  24605951.417    96559036.658  
  20492324.140   107687890.207    20492320.048    83912622.977    20492319.655  
  20492322.979    80416276.827  
  21409108.748   112505625.827    21409104.084    87666699.941    21409103.620  
                                
  23214588.449   121993486.070                    95059831.297    23214581.659  
                                
  22365550.203   117531759.640                    91583165.829    22365544.664  
                                
  23087427.157   121325248.719                    94539126.965    23087420.366  
                                
  21917017.053   115174701.407    21917015.337    89746510.957    21917014.747  
  21917014.444    86007071.787  
  19985914.350   106723667.026    19985912.455    83007288.739    19985911.544  
                                
  19771262.264   105391953.126    19771261.014    81971513.866    19771259.906  
                                
  23046071.144   123324182.015    23046068.660    95918797.480    23046067.909  
                                
  19594326.469   104779669.486    19594323.807    81495287.404    19594323.110  
                                
  23522914.402   123613749.985                                                  
  23522915.027    92308971.130  
  23910791.780   125652059.554                                                  
  23910793.710    93831089.827  
  24191803.877   127128787.897                                                  
  24191804.788    94933838.372  
  23780129.856   124965426.145                                                  
  23780130.857    93318340.377  
 21  9  1  9 43 52.0000000  0 18G 1G 3G 7G 8G14G17G19G21G22G30R13R14
                                R17R24E13E15E21E27
  20177095.598   106031352.575    20177094.061    82621826.526    20177094.061  
  20177092.274    79179243.691  
  23812664.469   125136395.274    23812663.522    97508873.254    23812662.932  
  23812662.861    93446003.024  
  23363172.824   122774301.569    23363168.893    95668268.289    23363168.464  
                                
  24606519.366   129308130.681    24606518.722   100759576.367    24606517.865  
  24606516.846    96561255.503  
  20492084.642   107686631.549    20492080.550    83911642.204    20492080.139  
  20492083.480    80415336.914  
  21408843.125   112504230.012    21408838.461    87665612.293    21408837.996  
                                
  23214049.519   121990653.957                    95057624.456    23214042.711  
                                
  22366040.583   117534336.600                    91585173.851    22366035.044  
                                
  23087119.917   121323634.141                    94537868.853    23087113.127  
                                
  21917469.443   115177078.724    21917467.727    89748363.412    21917467.120  
  21917466.852    86008847.056  
  19986394.901   106726233.088    19986392.989    83009284.568    19986392.096  
                                
  19770909.441   105390072.365    19770908.190    81970051.054    19770907.082  
                                
  23045407.631   123320631.410    23045405.147    95916035.894    23045404.397  
                                
  19594112.184   104778523.562    19594109.521    81494396.129    19594108.824  
                                
  23522672.580   123612479.257                                                  
  23522673.224    92308022.214  
  23911082.616   125653587.990                                                  
  23911084.582    93832231.194  
  24191531.553   127127356.796                                                  
  24191532.464    94932769.692  
  23780371.767   124966697.395                                                  
  23780372.768    93319289.689  
 21  9  1  9 43 53.0000000  0 18G 1G 3G 7G 8G14G17G19G21G22G30R13R14
                                R17R24E13E15E21E27
  20177273.734   106032288.602    20177272.180    82622555.898    20177272.180  
  20177270.393    79179942.673  
  23812107.259   125133467.170    23812106.312    97506591.614    23812105.740  
  23812105.687    93443816.455  
  23363855.617   122777889.660    23363851.686    95671064.200    23363851.257  
                                
  24607084.724   129311101.663    24607084.116   100761891.411    24607083.258  
  24607082.222    96563474.084  
  20491845.161   107685372.979    20491841.033    83910661.500    20491840.640  
  20491843.982    80414397.070  
  21408577.502   112502834.127    21408572.838    87664524.591    21408572.373  
                                
  23213510.554   121987821.695                    95055417.500    23213503.764  
                                
  22366530.963   117536913.518                    91587181.837    22366525.423  
                                
  23086812.695   121322019.707                    94536610.853    23086805.904  
                                
  21917921.851   115179456.188    21917920.153    89750215.984    21917919.563  
  21917919.260    86010622.428  
  19986875.489   106728799.506    19986873.594    83011280.665    19986872.701  
                                
  19770556.688   105388191.975    19770555.420    81968588.529    19770554.347  
                                
  23044744.118   123317080.737    23044741.635    95913274.259    23044740.848  
                                
  19593897.952   104777377.915    19593895.290    81493505.068    19593894.593  
                                
  23522430.795   123611208.585                                                  
  23522431.420    92307073.329  
  23911373.488   125655116.407                                                  
  23911375.418    93833372.540  
  24191259.229   127125925.642                                                  
  24191260.105    94931700.974  
  23780613.678   124967968.675                                                  
  23780614.679    93320239.015  
 21  9  1  9 43 54.0000000  0 18G 1G 3G 7G 8G14G17G19G21G22G30R13R14
                                R17R24E13E15E21E27
  20177451.978   106033225.302    20177450.423    82623285.793    20177450.423  
  20177448.636    79180642.162  
  23811550.103   125130539.289    23811549.174    97504310.141    23811548.584  
  23811548.513    93441630.048  
  23364538.446   122781477.859    23364534.515    95673860.200    23364534.086  
                                
  24607650.082   129314072.637    24607649.474   100764206.456    24607648.616  
  24607647.598    96565692.666  
  20491605.734   107684114.816    20491601.606    83909681.116    20491601.213  
  20491604.555    80413457.540  
  21408311.915   112501438.480    21408307.251    87663437.076    21408306.804  
                                
  23212971.624   121984989.589                    95053210.673    23212964.834  
                                
  22367021.378   117539490.729                    91589190.052    22367015.856  
                                
  23086505.580   121320405.749                    94535353.227    23086498.772  
                                
  21918374.366   115181834.092    21918372.650    89752068.898    21918372.043  
  21918371.775    86012398.140  
  19987356.237   106731366.605    19987354.343    83013277.292    19987353.413  
                                
  19770204.061   105386312.291    19770202.810    81967126.547    19770201.702  
                                
  23044080.624   123313530.261    23044078.140    95910512.766    23044077.354  
                                
  19593683.810   104776232.904    19593681.147    81492614.500    19593680.468  
                                
  23522189.045   123609938.274                                                  
  23522189.688    92306124.723  
  23911664.396   125656645.122                                                  
  23911666.326    93834514.113  
  24190986.923   127124494.746                                                  
  24190987.816    94930632.445  
  23780855.660   124969240.271                                                  
  23780856.661    93321188.581  
 21  9  1  9 43 55.0000000  0 18G 1G 3G 7G 8G14G17G19G21G22G30R13R14
                                R17R24E13E15E21E27
  20177630.418   106034163.022    20177628.881    82624016.485    20177628.881  
  20177627.094    79181342.406  
  23810993.054   125127611.974    23810992.125    97502029.117    23810991.535  
  23810991.482    93439444.069  
  23365221.329   122785066.537    23365217.397    95676656.579    23365216.969  
                                
  24608215.511   129317043.921    24608214.868   100766521.738    24608214.010  
  24608212.992    96567911.498  
  20491366.450   107682857.420    20491362.340    83908701.327    20491361.947  
  20491365.288    80412518.577  
  21408046.435   112500043.426    21408041.771    87662350.023    21408041.324  
                                
  23212432.784   121982157.969                    95051004.219    23212425.994  
                                
  22367511.936   117542068.589                    91591198.771    22367506.397  
                                
  23086198.608   121318792.586                    94534096.219    23086191.800  
                                
  21918827.024   115184212.817    21918825.308    89753922.453    21918824.701  
  21918824.415    86014174.465  
  19987837.164   106733934.728    19987835.252    83015274.723    19987834.358  
                                
  19769851.648   105384433.676    19769850.379    81965665.402    19769849.289  
                                
  23043417.236   123309980.430    23043414.770    95907751.784    23043414.002  
                                
  19593469.882   104775088.866    19593467.219    81491724.695    19593466.522  
                                
  23521947.456   123608668.679                                                  
  23521948.081    92305176.651  
  23911955.411   125658174.475                                                  
  23911957.358    93835656.160  
  24190714.760   127123064.475                                                  
  24190715.635    94929564.388  
  23781097.768   124970512.557                                                  
  23781098.786    93322138.665  
 21  9  1  9 43 56.0000000  0 18G 1G 3G 7G 8G14G17G19G21G22G30R13R14
                                R17R24E13E15E21E27
  20177809.019   106035101.620    20177807.482    82624747.860    20177807.482  
  20177805.695    79182043.305  
  23810436.077   125124685.070    23810435.148    97499748.417    23810434.558  
  23810434.504    93437258.402  
  23365904.301   122788655.599    23365900.369    95679453.260    23365899.940  
                                
  24608780.976   129320015.426    24608780.351   100768837.193    24608779.493  
  24608778.475    96570130.463  
  20491127.273   107681600.631    20491123.181    83907722.011    20491122.788  
  20491126.129    80411580.064  
  21407781.062   112498648.809    21407776.398    87661263.310    21407775.933  
                                
  23211894.033   121979326.755                    95048798.080    23211887.207  
                                
  22368002.566   117544646.931                    91593207.866    22367997.062  
                                
  23085891.743   121317180.098                    94532839.737    23085884.953  
                                
  21919279.789   115186592.209    21919278.092    89755776.524    21919277.502  
  21919277.198    86015951.277  
  19988318.269   106736503.766    19988316.357    83017272.861    19988315.464  
                                
  19769499.396   105382555.956    19769498.127    81964204.956    19769497.037  
                                
  23042753.974   123306431.068    23042751.490    95904991.168    23042750.722  
                                
  19593256.097   104773945.632    19593253.434    81490835.508    19593252.755  
                                
  23521705.956   123607399.651                                                  
  23521706.599    92304228.995  
  23912246.533   125659704.323                                                  
  23912248.480    93836798.575  
  24190442.668   127121634.665                                                  
  24190443.562    94928496.671  
  23781339.982   124971785.359                                                  
  23781340.983    93323089.139  
 21  9  1  9 43 57.0000000  0 18G 1G 3G 7G 8G14G17G19G21G22G30R13R14
                                R17R24E13E15E21E27
  20177987.691   106036040.500    20177986.137    82625479.454    20177986.137  
  20177984.350    79182744.414  
  23809879.099   125121758.022    23809878.152    97497467.601    23809877.581  
  23809877.491    93435072.605  
  23366587.237   122792244.406    23366583.288    95682249.733    23366582.877  
                                
  24609346.352   129322986.499    24609345.709   100771152.311    24609344.869  
  24609343.833    96572349.126  
  20490888.132   107680343.886    20490884.040    83906742.729    20490883.629  
  20490886.970    80410641.585  
  21407515.635   112497254.060    21407510.971    87660176.493    21407510.525  
                                
  23211355.210   121976495.314                    95046591.763    23211348.420  
                                
  22368493.214   117547225.199                    91595216.904    22368487.674  
                                
  23085584.932   121315567.706                    94531583.331    23085578.124  
                                
  21919732.608   115188971.680    21919730.893    89757630.660    21919730.303  
  21919729.999    86017728.151  
  19988799.428   106739073.070    19988797.499    83019271.208    19988796.605  
                                
  19769147.198   105380678.543    19769145.947    81962744.746    19769144.839  
                                
  23042090.676   123302881.581    23042088.192    95902230.453    23042087.406  
                                
  19593042.348   104772802.598    19593039.685    81489946.481    19593039.006  
                                
  23521464.474   123606130.610                                                  
  23521465.099    92303281.342  
  23912537.637   125661234.089                                                  
  23912539.585    93837940.932  
  24190170.577   127120204.750                                                  
  24190171.470    94927428.870  
  23781582.179   124973058.132                                                  
  23781583.180    93324039.579  
 21  9  1  9 43 58.0000000  0 18G 1G 3G 7G 8G14G17G19G21G22G30R13R14
                                R17R24E13E15E21E27
  20178166.524   106036980.339    20178164.988    82626211.794    20178164.988  
  20178163.219    79183446.253  
  23809322.176   125118831.435    23809321.246    97495187.141    23809320.657  
  23809320.585    93432887.173  
  23367270.244   122795833.627    23367266.277    95685046.539    23367265.884  
                                
  24609911.764   129325957.836    24609911.156   100773467.634    24609910.281  
  24609909.262    96574567.982  
  20490649.134   107679087.833    20490645.006    83905763.986    20490644.613  
  20490647.954    80409703.622  
  21407250.316   112495859.815    21407245.670    87659090.066    21407245.223  
                                
  23210816.495   121973664.302                    95044385.782    23210809.669  
                                
  22368983.951   117549804.013                    91597226.365    22368978.411  
                                
  23085278.246   121313956.048                    94530327.494    23085271.420  
                                
  21920185.534   115191351.896    21920183.837    89759485.369    21920183.229  
  21920182.943    86019505.589  
  19989280.748   106741643.340    19989278.836    83021270.307    19989277.925  
                                
  19768795.178   105378802.092    19768793.927    81961285.277    19768792.819  
                                
  23041427.449   123299332.611    23041424.983    95899470.145    23041424.215  
                                
  19592828.741   104771660.447    19592826.114    81489058.140    19592825.400  
                                
  23521223.117   123604862.230                                                  
  23521223.742    92302334.172  
  23912828.848   125662764.427                                                  
  23912830.796    93839083.715  
  24189898.557   127118775.356                                                  
  24189899.450    94926361.479  
  23781824.501   124974331.504                                                  
  23781825.502    93324990.476  
 21  9  1  9 43 59.0000000  0 18G 1G 3G 7G 8G14G17G19G21G22G30R13R14
                                R17R24E13E15E21E27
  20178345.501   106037920.847    20178343.964    82626944.660    20178343.964  
  20178342.177    79184148.574  
  23808765.305   125115905.074    23808764.376    97492906.864    23808763.786  
  23808763.733    93430701.916  
  23367953.270   122799422.988    23367949.321    95687843.431    23367948.910  
                                
  24610477.193   129328929.165    24610476.568   100775782.960    24610475.710  
  24610474.692    96576786.840  
  20490410.189   107677832.189    20490406.061    83904785.564    20490405.668  
  20490409.010    80408765.969  
  21406985.050   112494465.791    21406980.404    87658003.816    21406979.940  
                                
  23210277.797   121970833.469                    95042179.931    23210271.007  
                                
  22369474.723   117552383.158                    91599236.093    22369469.220  
                                
  23084971.649   121312344.854                    94529072.015    23084964.841  
                                
  21920638.567   115193732.570    21920636.852    89761340.433    21920636.244  
  21920635.976    86021283.361  
  19989762.211   106744214.277    19989760.282    83023269.928    19989759.388  
                                
  19768443.301   105376926.316    19768442.014    81959826.342    19768440.942  
                                
  23040764.294   123295783.910    23040761.810    95896710.056    23040761.042  
                                
  19592615.278   104770518.915    19592612.633    81488170.282    19592611.936  
                                
  23520981.814   123603594.217                                                  
  23520982.457    92301387.282  
  23913120.131   125664295.056                                                  
  23913122.061    93840226.726  
  24189626.608   127117346.248                                                  
  24189627.483    94925294.290  
  23782066.876   124975605.210                                                  
  23782067.877    93325941.622  
 21  9  1  9 44  0.0000000  0 18G 1G 3G 7G 8G14G17G19G21G22G30R13R14
                                R17R24E13E15E21E27
  20178524.673   106038862.371    20178523.136    82627678.313    20178523.136  
  20178521.350    79184851.656  
  23808208.560   125112979.268    23808207.595    97490627.020    23808207.023  
  23808206.952    93428517.059  
  23368636.385   122803012.831    23368632.436    95690640.711    23368632.025  
                                
  24611042.694   129331900.813    24611042.051   100778098.528    24611041.193  
  24611040.175    96579005.924  
  20490171.387   107676577.298    20490167.278    83903807.723    20490166.884  
  20490170.226    80407828.869  
  21406719.892   112493072.350    21406715.246    87656918.016    21406714.781  
                                
  23209739.207   121968003.117                    95039974.466    23209732.399  
                                
  22369965.657   117554962.896                    91601246.276    22369960.118  
                                
  23084665.195   121310734.479                    94527817.166    23084658.405  
                                
  21921091.744   115196114.036    21921090.046    89763196.116    21921089.439  
  21921089.135    86023061.722  
  19990243.853   106746786.229    19990241.941    83025270.330    19990241.030  
                                
  19768091.603   105375051.597    19768090.334    81958368.225    19768089.244  
                                
  23040101.246   123292235.821    23040098.762    95893950.436    23040098.012  
                                
  19592402.011   104769378.359    19592399.349    81487283.183    19592398.652  
                                
  23520740.671   123602326.914                                                  
  23520741.296    92300440.912  
  23913411.504   125665826.313                                                  
  23913413.451    93841370.195  
  24189354.784   127115917.732                                                  
  24189355.660    94924227.536  
  23782309.377   124976879.582                                                  
  23782310.378    93326893.255  
 21  9  1  9 44  1.0000000  0 18G 1G 3G 7G 8G14G17G19G21G22G30R13R14
                                R17R24E13E15E21E27
  20178703.989   106039804.675    20178702.452    82628412.578    20178702.452  
  20178700.665    79185555.327  
  23807651.851   125110053.793    23807650.904    97488347.431    23807650.332  
  23807650.260    93426332.455  
  23369319.553   122806602.876    23369315.604    95693438.149    23369315.193  
                                
  24611608.195   129334872.576    24611607.570   100780414.185    24611606.712  
  24611605.694    96581225.095  
  20489932.675   107675322.933    20489928.583    83902830.293    20489928.172  
  20489931.514    80406892.170  
  21406454.805   112491679.271    21406450.141    87655832.499    21406449.676  
                                
  23209200.671   121965173.032                    95037769.203    23209193.845  
                                
  22370456.626   117557543.057                    91603256.791    22370451.087  
                                
  23084358.867   121309124.682                    94526562.781    23084352.059  
                                
  21921545.027   115198496.072    21921543.330    89765052.250    21921542.740  
  21921542.436    86024840.517  
  19990725.620   106749358.973    19990723.726    83027271.353    19990722.832  
                                
  19767740.066   105373177.682    19767738.797    81956910.735    19767737.707  
                                
  23039438.269   123288688.127    23039435.786    95891191.123    23039435.035  
                                
  19592188.834   104768238.517    19592186.189    81486396.639    19592185.492  
                                
  23520499.582   123601060.077                                                  
  23520500.208    92299494.904  
  23913702.983   125667357.984                                                  
  23913704.913    93842513.982  
  24189083.014   127114489.597                                                  
  24189083.908    94923161.079  
  23782551.967   124978154.398                                                  
  23782552.985    93327845.234  
 21  9  1  9 44  2.0000000  0 18G 1G 3G 7G 8G14G17G19G21G22G30R13R14
                                R17R24E13E15E21E27
  20178883.358   106040747.247    20178881.821    82629147.045    20178881.821  
  20178880.017    79186259.199  
  23807095.123   125107128.121    23807094.176    97486067.685    23807093.605  
  23807093.515    93424147.694  
  23370002.686   122810192.696    23369998.737    95696235.402    23369998.326  
                                
  24612173.625   129337843.928    24612172.982   100782729.526    24612172.142  
  24612171.105    96583443.962  
  20489693.999   107674068.565    20489689.871    83901852.864    20489689.478  
  20489692.819    80405955.469  
  21406189.664   112490286.027    21406185.018    87654746.857    21406184.554  
                                
  23208662.063   121962342.725                    95035563.773    23208655.254  
                                
  22370947.595   117560123.097                    91605267.210    22370942.074  
                                
  23084052.556   121307514.934                    94525308.432    23084045.730  
                                
  21921998.329   115200878.181    21921996.631    89766908.434    21921996.024  
  21921995.720    86026619.362  
  19991207.476   106751931.977    19991205.564    83029272.579    19991204.670  
                                
  19767388.582   105371304.073    19767387.295    81955453.484    19767386.223  
                                
  23038775.275   123285140.257    23038772.773    95888431.673    23038772.005  
                                
  19591975.728   104767098.851    19591973.065    81485510.232    19591972.386  
                                
  23520258.529   123599793.211                                                  
  23520259.137    92298548.866  
  23913994.427   125668889.546                                                  
  23913996.357    93843657.674  
  24188811.226   127113061.328                                                  
  24188812.120    94922094.505  
  23782794.539   124979429.151                                                  
  23782795.557    93328797.156  
 21  9  1  9 44  3.0000000  0 18G 1G 3G 7G 8G14G17G19G21G22G30R13R14
                                R17R24E13E15E21E27
  20179062.870   106041690.616    20179061.334    82629882.138    20179061.334  
  20179059.547    79186963.659  
  23806538.450   125104202.781    23806537.485    97483788.201    23806536.895  
  23806536.842    93421963.189  
  23370685.854   122813782.720    23370681.905    95699032.812    23370681.494  
                                
  24612739.072   129340815.362    24612738.429   100785044.930    24612737.589  
  24612736.553    96585662.897  
  20489455.394   107672814.743    20489451.284    83900875.857    20489450.891  
  20489454.232    80405019.169  
  21405924.613   112488893.147    21405919.967    87653661.496    21405919.503  
                                
  23208123.508   121959512.690                    95033358.553    23208116.718  
                                
  22371438.636   117562703.537                    91607277.940    22371433.115  
                                
  23083746.335   121305905.780                    94524054.545    23083739.526  
                                
  21922451.737   115203260.841    21922450.040    89768765.053    21922449.432  
  21922449.128    86028398.620  
  19991689.475   106754505.795    19991687.563    83031274.437    19991686.669  
                                
  19767037.241   105369431.283    19767035.973    81953996.870    19767034.883  
                                
  23038112.316   123281592.763    23038109.833    95885672.518    23038109.082  
                                
  19591762.711   104765959.878    19591760.066    81484624.369    19591759.370  
                                
  23520017.512   123598526.829                                                  
  23520018.155    92297603.198  
  23914285.942   125670421.515                                                  
  23914287.890    93844801.677  
  24188539.510   127111633.428                                                  
  24188540.386    94921028.221  
  23783037.200   124980704.336                                                  
  23783038.219    93329749.409  
 21  9  1  9 44  4.0000000  0 18G 1G 3G 7G 8G14G17G19G21G22G30R13R14
                                R17R24E13E15E21E27
  20179242.543   106042634.798    20179241.007    82630617.862    20179241.007  
  20179239.220    79187668.728  
  23805981.830   125101277.811    23805980.883    97481509.006    23805980.311  
  23805980.239    93419778.947  
  23371369.077   122817373.109    23371365.145    95701830.522    23371364.717  
                                
  24613304.555   129343786.985    24613303.930   100787360.477    24613303.072  
  24613302.054    96587881.943  
  20489216.914   107671561.484    20489212.804    83899899.294    20489212.411  
  20489215.752    80404083.294  
  21405659.615   112487500.663    21405654.970    87652576.446    21405654.523  
                                
  23207585.043   121956682.966                    95031153.576    23207578.235  
                                
  22371929.748   117565284.419                    91609289.019    22371924.227  
                                
  23083440.238   121304297.226                    94522801.125    23083433.430  
                                
  21922905.271   115205644.133    21922903.538    89770622.168    21922902.966  
  21922902.662    86030178.355  
  19992171.635   106757080.463    19992169.723    83033276.961    19992168.811  
                                
  19766686.079   105367559.344    19766684.793    81952540.919    19766683.720  
                                
  23037449.465   123278045.696    23037446.981    95882913.681    23037446.195  
                                
  19591549.855   104764821.669    19591547.228    81483739.095    19591546.514  
                                
  23519776.637   123597260.976                                                  
  23519777.281    92296657.913  
  23914577.547   125671953.931                                                  
  23914579.494    93845946.016  
  24188267.865   127110205.957                                                  
  24188268.741    94919962.248  
  23783279.951   124981980.000                                                  
  23783280.951    93330702.019  
 21  9  1  9 44  5.0000000  0 18G 1G 3G 7G 8G14G17G19G21G22G30R13R14
                                R17R24E13E15E21E27
  20179422.395   106043579.893    20179420.858    82631354.302    20179420.840  
  20179419.054    79188374.489  
  23805425.317   125098353.293    23805424.352    97479230.158    23805423.780  
  23805423.727    93417595.060  
  23372052.370   122820963.823    23372048.421    95704628.479    23372048.010  
                                
  24613870.074   129346758.788    24613869.449   100789676.164    24613868.591  
  24613867.555    96590101.152  
  20488978.541   107670308.870    20488974.431    83898923.234    20488974.020  
  20488977.379    80403147.903  
  21405394.743   112486108.661    21405390.079    87651491.766    21405389.632  
                                
  23207046.649   121953853.644                    95028948.903    23207039.841  
                                
  22372420.986   117567865.845                    91611300.520    22372415.446  
                                
  23083134.285   121302689.407                    94521548.285    23083127.459  
                                
  21923358.912   115208028.108    21923357.214    89772479.813    21923356.625  
  21923356.321    86031958.596  
  19992653.955   106759656.041    19992652.043    83035280.188    19992651.132  
                                
  19766335.078   105365688.354    19766333.809    81951085.705    19766332.719  
                                
  23036786.703   123274499.131    23036784.201    95880155.246    23036783.433  
                                
  19591337.196   104763684.341    19591334.534    81482854.509    19591333.837  
                                
  23519535.870   123595995.733                                                  
  23519536.495    92295713.089  
  23914869.259   125673486.890                                                  
  23914871.224    93847090.760  
  24187996.310   127108778.988                                                  
  24187997.203    94918896.658  
  23783522.809   124983256.256                                                  
  23783523.809    93331655.066  
 21  9  1  9 44  6.0000000  0 18G 1G 3G 7G 8G14G17G19G21G22G30R13R14
                                R17R24E13E15E21E27
  20179602.318   106044525.405    20179600.764    82632091.062    20179600.764  
  20179598.995    79189080.545  
  23804868.786   125095428.731    23804867.821    97476951.272    23804867.249  
  23804867.178    93415411.129  
  23372735.628   122824554.406    23372731.697    95707426.335    23372731.268  
                                
  24614435.522   129349730.328    24614434.914   100791991.647    24614434.074  
  24614433.020    96592320.152  
  20488740.204   107669056.404    20488736.094    83897947.286    20488735.701  
  20488739.042    80402212.621  
  21405129.853   112484716.626    21405125.189    87650407.066    21405124.724  
                                
  23206508.220   121951024.199                    95026744.136    23206501.412  
                                
  22372912.241   117570447.300                    91613312.045    22372906.702  
                                
  23082828.349   121301081.787                    94520295.599    23082821.541  
                                
  21923812.606   115210412.283    21923810.909    89774337.607    21923810.301  
  21923810.015    86033738.986  
  19993136.348   106762232.030    19993134.436    83037283.735    19993133.524  
                                
  19765984.166   105363817.767    19765982.880    81949630.802    19765981.807  
                                
  23036123.923   123270952.528    23036121.439    95877396.779    23036120.671  
                                
  19591124.555   104762547.384    19591121.928    81481970.206    19591121.213  
                                
  23519295.121   123594730.580                                                  
  23519295.746    92294768.337  
  23915160.988   125675019.872                                                  
  23915162.918    93848235.518  
  24187724.772   127107352.012                                                  
  24187725.648    94917831.060  
  23783765.702   124984532.568                                                  
  23783766.703    93332608.151  
 21  9  1  9 44  7.0000000  0 18G 1G 3G 7G 8G14G17G19G21G22G30R13R14
                                R17R24E13E15E21E27
  20179782.384   106045471.694    20179780.848    82632828.432    20179780.848  
  20179779.061    79189787.189  
  23804312.309   125092504.485    23804311.380    97474672.639    23804310.772  
  23804310.719    93413227.444  
  23373418.957   122828145.267    23373415.008    95710224.406    23373414.597  
                                
  24615001.023   129352701.953    24615000.379   100794307.197    24614999.539  
  24614998.503    96594539.225  
  20488501.974   107667804.474    20488497.864    83896971.756    20488497.453  
  20488500.812    80401277.732  
  21404865.034   112483324.961    21404860.370    87649322.654    21404859.905  
                                
  23205969.844   121948195.053                    95024539.602    23205963.054  
                                
  22373403.532   117573029.139                    91615323.868    22373397.992  
                                
  23082522.539   121299474.725                    94519043.345    23082515.731  
                                
  21924266.426   115212797.051    21924264.710    89776195.870    21924264.121  
  21924263.817    86035519.815  
  19993618.883   106764808.791    19993616.988    83039287.883    19993616.077  
                                
  19765633.397   105361947.983    19765632.128    81948176.528    19765631.021  
                                
  23035461.232   123267406.315    23035458.749    95874638.614    23035457.962  
                                
  19590912.092   104761411.158    19590909.429    81481086.475    19590908.750  
                                
  23519054.461   123593465.921                                                  
  23519055.086    92293823.942  
  23915452.789   125676553.263                                                  
  23915454.719    93849380.579  
  24187453.306   127105925.433                                                  
  24187454.181    94916765.753  
  23784008.650   124985809.326                                                  
  23784009.650    93333561.570  
 21  9  1  9 44  8.0000000  0 18G 1G 3G 7G 8G14G17G19G21G22G30R13R14
                                R17R24E13E15E21E27
  20179962.576   106046418.652    20179961.057    82633566.319    20179961.039  
  20179959.252    79190494.338  
  23803755.903   125089580.487    23803754.938    97472394.201    23803754.367  
  23803754.277    93411043.938  
  23374102.287   122831736.236    23374098.338    95713022.562    23374097.944  
                                
  24615566.506   129355673.596    24615565.880   100796622.758    24615565.040  
  24615564.004    96596758.294  
  20488263.816   107666552.961    20488259.706    83895996.554    20488259.313  
  20488262.654    80400343.165  
  21404600.250   112481933.539    21404595.587    87648238.430    21404595.122  
                                
  23205431.522   121945366.054                    95022335.190    23205424.714  
                                
  22373894.894   117575611.289                    91617335.936    22373889.373  
                                
  23082216.818   121297868.161                    94517791.480    23082210.010  
                                
  21924720.317   115215182.261    21924718.584    89778054.478    21924717.994  
  21924717.708    86037300.987  
  19994101.579   106767386.265    19994099.667    83041292.582    19994098.755  
                                
  19765282.771   105360078.905    19765281.485    81946722.798    19765280.395  
                                
  23034798.596   123263860.405    23034796.094    95871880.691    23034795.325  
                                
  19590699.719   104760275.532    19590697.056    81480203.208    19590696.377  
                                
  23518813.872   123592201.626                                                  
  23518814.498    92292879.836  
  23915744.626   125678086.958                                                  
  23915746.574    93850525.874  
  24187181.875   127104499.115                                                  
  24187182.769    94915700.652  
  23784251.668   124987086.427                                                  
  23784252.669    93334515.254  
 21  9  1  9 44  9.0000000  0 18G 1G 3G 7G 8G14G17G19G21G22G30R13R14
                                R17R24E13E15E21E27
  20180142.946   106047366.508    20180141.409    82634304.916    20180141.409  
  20180139.640    79191202.146  
  23803199.569   125086656.887    23803198.604    97470116.073    23803198.033  
  23803197.943    93408860.735  
  23374785.705   122835327.561    23374781.756    95715821.002    23374781.345  
                                
  24616132.024   129358645.385    24616131.381   100798938.440    24616130.541  
  24616129.505    96598977.504  
  20488025.782   107665302.065    20488021.673    83895021.824    20488021.262  
  20488024.603    80399409.054  
  21404335.557   112480542.572    21404330.893    87647154.557    21404330.428  
                                
  23204893.235   121942537.410                    95020131.068    23204886.409  
                                
  22374386.364   117578193.944                    91619348.389    22374380.842  
                                
  23081911.222   121296262.266                    94516540.138    23081904.414  
                                
  21925174.315   115217568.141    21925172.600    89779913.607    21925171.992  
  21925171.724    86039082.657  
  19994584.417   106769964.582    19994582.505    83043297.945    19994581.594  
                                
  19764932.306   105358210.758    19764931.019    81945269.797    19764929.929  
                                
  23034136.030   123260314.964    23034133.528    95869123.121    23034132.778  
                                
  19590487.506   104759140.712    19590484.844    81479320.575    19590484.165  
                                
  23518573.409   123590937.920                                                  
  23518574.034    92291936.151  
  23916036.570   125679621.152                                                  
  23916038.518    93851671.538  
  24186910.552   127103073.278                                                  
  24186911.428    94914635.899  
  23784494.794   124988364.057                                                  
  23784495.813    93335469.328  
 21  9  1  9 44 10.0000000  0 18G 1G 3G 7G 8G14G17G19G21G22G30R13R14
                                R17R24E13E15E21E27
  20180323.458   106048315.139    20180321.940    82635044.106    20180321.922  
  20180320.153    79191910.541  
  23802643.289   125083733.624    23802642.342    97467838.204    23802641.752  
  23802641.680    93406677.780  
  23375469.160   122838919.135    23375465.211    95718619.629    23375464.800  
                                
  24616697.561   129361617.315    24616696.918   100801254.225    24616696.078  
  24616695.042    96601196.799  
  20487787.838   107664051.714    20487783.746    83894047.525    20487783.353  
  20487786.677    80398475.346  
  21404070.934   112479151.981    21404066.270    87646070.980    21404065.806  
                                
  23204355.003   121939709.080                    95017927.179    23204348.195  
                                
  22374877.905   117580777.007                    91621361.166    22374872.383  
                                
  23081605.751   121294656.962                    94515289.251    23081598.925  
                                
  21925628.456   115219954.625    21925626.759    89781773.207    21925626.151  
  21925625.848    86040864.761  
  19995067.417   106772543.750    19995065.505    83045303.962    19995064.594  
                                
  19764582.002   105356343.463    19764580.733    81943817.454    19764579.643  
                                
  23033473.554   123256769.875    23033471.052    95866365.837    23033470.284  
                                
  19590275.437   104758006.657    19590272.774    81478438.530    19590272.095  
                                
  23518333.035   123589674.705                                                  
  23518333.660    92290992.841  
  23916328.604   125681155.760                                                  
  23916330.552    93852817.509  
  24186639.318   127101647.835                                                  
  24186640.194    94913571.440  
  23784738.009   124989642.147                                                  
  23784739.028    93336423.737  
 21  9  1  9 44 11.0000000  0 18G 1G 3G 7G 8G14G17G19G21G22G30R13R14
                                R17R24E13E15E21E27
  20180504.078   106049264.184    20180502.542    82635783.621    20180502.524  
  20180500.737    79192619.245  
  23802087.008   125080810.321    23802086.061    97465560.301    23802085.454  
  23802085.400    93404494.795  
  23376152.578   122842510.586    23376148.647    95721418.166    23376148.218  
                                
  24617263.026   129364588.902    24617262.383   100803569.747    24617261.543  
  24617260.507    96603415.856  
  20487549.948   107662801.498    20487545.820    83893073.326    20487545.427  
  20487548.769    80397541.743  
  21403806.294   112477761.326    21403801.630    87644987.347    21403801.184  
                                
  23203816.770   121936880.601                    95015723.169    23203809.962  
                                
  22375369.446   117583360.082                    91623373.949    22375363.924  
                                
  23081300.298   121293051.845                    94514038.506    23081293.489  
                                
  21926082.615   115222341.279    21926080.918    89783632.936    21926080.328  
  21926080.024    86042647.005  
  19995550.470   106775123.287    19995548.576    83047310.269    19995547.647  
                                
  19764231.787   105354476.569    19764230.500    81942365.421    19764229.428  
                                
  23032811.060   123253224.742    23032808.558    95863608.516    23032807.790  
                                
  19590063.421   104756872.931    19590060.776    81477556.745    19590060.097  
                                
  23518092.678   123588411.571                                                  
  23518093.286    92290049.592  
  23916620.637   125682690.380                                                  
  23916622.567    93853963.500  
  24186368.049   127100222.359                                                  
  24186368.924    94912506.972  
  23784981.225   124990920.284                                                  
  23784982.243    93337378.197  
 21  9  1  9 44 12.0000000  0 18G 1G 3G 7G 8G14G17G19G21G22G30R13R14
                                R17R24E13E15E21E27
  20180684.734   106050213.598    20180683.198    82636523.423    20180683.198  
  20180681.411    79193328.224  
  23801530.710   125077886.921    23801529.745    97463282.329    23801529.173  
  23801529.102    93402311.737  
  23376835.979   122846101.837    23376832.012    95724216.555    23376831.619  
                                
  24617828.474   129367560.228    24617827.848   100805885.066    24617826.991  
  24617825.972    96605634.681  
  20487312.058   107661551.394    20487307.930    83892099.224    20487307.537  
  20487310.879    80396608.226  
  21403541.654   112476370.635    21403536.990    87643903.697    21403536.543  
                                
  23203278.501   121934052.021                    95013519.085    23203271.693  
                                
  22375860.987   117585943.130                    91625386.714    22375855.466  
                                
  23080994.898   121291446.916                    94512787.917    23080988.072  
                                
  21926536.810   115224728.098    21926535.113    89785492.797    21926534.505  
  21926534.219    86044429.374  
  19996033.613   106777703.206    19996031.701    83049316.875    19996030.790  
                                
  19763881.625   105352610.057    19763880.339    81940913.689    19763879.267  
                                
  23032148.566   123249679.594    23032146.064    95860851.180    23032145.278  
                                
  19589851.458   104755739.517    19589848.814    81476675.201    19589848.117  
                                
  23517852.304   123587148.520                                                  
  23517852.930    92289106.404  
  23916912.653   125684225.011                                                  
  23916914.601    93855109.487  
  24186096.779   127098796.866                                                  
  24186097.655    94911442.481  
  23785224.440   124992198.459                                                  
  23785225.476    93338332.681  
 21  9  1  9 44 13.0000000  0 18G 1G 3G 7G 8G14G17G19G21G22G30R13R14
                                R17R24E13E15E21E27
  20180865.569   106051163.878    20180864.032    82637263.903    20180864.032  
  20180862.245    79194037.846  
  23800974.483   125074963.964    23800973.536    97461004.691    23800972.946  
  23800972.875    93400128.994  
  23377519.433   122849693.473    23377515.484    95727015.233    23377515.073  
                                
  24618393.921   129370531.723    24618393.314   100808200.513    24618392.438  
  24618391.419    96607853.651  
  20487074.293   107660301.911    20487070.183    83891125.601    20487069.772  
  20487073.113    80395675.167  
  21403277.103   112474980.375    21403272.439    87642820.380    21403271.975  
                                
  23202740.322   121931223.788                    95011315.272    23202733.496  
                                
  22376352.618   117588526.686                    91627399.874    22376347.096  
                                
  23080689.606   121289842.641                    94511537.830    23080682.780  
                                
  21926991.148   115227115.580    21926989.451    89787353.172    21926988.843  
  21926988.539    86046212.223  
  19996516.899   106780284.026    19996515.005    83051324.174    19996514.093  
                                
  19763531.643   105350744.428    19763530.374    81939462.642    19763529.284  
                                
  23031486.143   123246134.912    23031483.642    95858094.203    23031482.891  
                                
  19589639.657   104754606.884    19589637.012    81475794.266    19589636.315  
                                
  23517612.055   123585886.041                                                  
  23517612.681    92288163.640  
  23917204.776   125685760.130                                                  
  23917206.741    93856255.833  
  24185825.616   127097371.839                                                  
  24185826.492    94910378.326  
  23785467.780   124993477.172                                                  
  23785468.799    93339287.559  
 21  9  1  9 44 14.0000000  0 18G 1G 3G 7G 8G14G17G19G21G22G30R13R14
                                R17R24E13E15E21E27
  20181046.546   106052114.877    20181045.010    82638004.936    20181045.010  
  20181043.223    79194748.012  
  23800418.309   125072041.238    23800417.362    97458727.247    23800416.773  
  23800416.701    93397946.459  
  23378202.924   122853285.261    23378198.957    95729814.036    23378198.564  
                                
  24618959.386   129373503.234    24618958.761   100810515.969    24618957.921  
  24618956.885    96610072.625  
  20486836.599   107659052.878    20486832.489    83890152.328    20486832.096  
  20486835.437    80394742.452  
  21403012.606   112473590.424    21403007.942    87641737.294    21403007.477  
                                
  23202202.143   121928395.758                    95009111.600    23202195.335  
                                
  22376844.319   117591110.573                    91629413.286    22376838.798  
                                
  23080384.421   121288238.868                    94510288.144    23080377.613  
                                
  21927445.557   115229503.543    21927443.842    89789213.921    21927443.234  
  21927442.948    86047995.451  
  19997000.345   106782865.546    19996998.451    83053332.018    19996997.522  
                                
  19763181.785   105348879.538    19763180.534    81938012.170    19763179.426  
                                
  23030823.792   123242590.534    23030821.308    95855337.451    23030820.522  
                                
  19589427.980   104753474.910    19589425.318    81474913.840    19589424.639  
                                
  23517371.896   123584623.967                                                  
  23517372.521    92287221.191  
  23917496.970   125687295.592                                                  
  23917498.918    93857402.455  
  24185554.490   127095947.123                                                  
  24185555.365    94909314.424  
  23785711.192   124994756.251                                                  
  23785712.193    93340242.724  
 21  9  1  9 44 15.0000000  0 18G 1G 3G 7G 8G14G17G19G21G22G30R13R14
                                R17R24E13E15E21E27
  20181227.577   106053066.258    20181226.058    82638746.270    20181226.041  
  20181224.254    79195458.456  
  23799862.118   125069118.454    23799861.171    97456449.753    23799860.581  
  23799860.528    93395763.850  
  23378886.396   122856876.891    23378882.429    95732612.713    23378882.036  
                                
  24619524.780   129376474.425    24619524.173   100812831.175    24619523.297  
  24619522.278    96612291.374  
  20486598.923   107657803.971    20486594.831    83889179.154    20486594.438  
  20486597.779    80393809.833  
  21402748.091   112472200.414    21402743.427    87640654.167    21402742.980  
                                
  23201663.963   121925567.604                    95006907.844    23201657.155  
                                
  22377336.021   117593694.470                    91631426.714    22377330.482  
                                
  23080079.272   121286635.295                    94509038.602    23080072.463  
                                
  21927900.002   115231891.694    21927898.287    89791074.815    21927897.679  
  21927897.376    86049778.811  
  19997483.863   106785447.445    19997481.951    83055340.162    19997481.040  
                                
  19762832.035   105347015.067    19762830.748    81936562.031    19762829.676  
                                
  23030161.441   123239046.121    23030158.957    95852580.683    23030158.171  
                                
  19589216.357   104752343.270    19589213.695    81474033.681    19589213.016  
                                
  23517131.754   123583361.976                                                  
  23517132.379    92286278.796  
  23917789.164   125688831.053                                                  
  23917791.094    93858549.068  
  24185283.381   127094522.378                                                  
  24185284.257    94908250.493  
  23785954.604   124996035.389                                                  
  23785955.605    93341197.922  
 21  9  1  9 44 16.0000000  0 18G 1G 3G 7G 8G14G17G19G21G22G30R13R14
                                R17R24E13E15E21E27
  20181408.734   106054018.202    20181407.197    82639488.046    20181407.197  
  20181405.410    79196169.324  
  23799305.945   125066195.753    23799305.016    97454172.326    23799304.426  
  23799304.355    93393581.328  
  23379569.850   122860468.548    23379565.901    95735411.401    23379565.490  
                                
  24620090.138   129379445.477    24620089.531   100815146.281    24620088.691  
  24620087.636    96614510.019  
  20486361.354   107656555.372    20486357.227    83888206.222    20486356.834  
  20486360.175    80392877.433  
  21402483.611   112470810.524    21402478.947    87639571.138    21402478.483  
                                
  23201125.784   121922739.509                    95004704.138    23201118.994  
                                
  22377827.741   117596278.530                    91633440.268    22377822.220  
                                
  23079774.176   121285032.053                    94507789.334    23079767.368  
                                
  21928354.519   115234280.189    21928352.821    89792935.980    21928352.214  
  21928351.910    86051562.422  
  19997967.470   106788029.916    19997965.558    83057348.751    19997964.665  
                                
  19762482.374   105345151.207    19762481.087    81935112.359    19762480.015  
                                
  23029499.108   123235501.839    23029496.624    95849824.019    23029495.838  
                                
  19589004.824   104751212.109    19589002.161    81473153.891    19589001.482  
                                
  23516891.648   123582100.239                                                  
  23516892.255    92285336.595  
  23918081.376   125690366.694                                                  
  23918083.324    93859695.809  
  24185012.272   127093097.785                                                  
  24185013.166    94907186.674  
  23786198.052   124997314.729                                                  
  23786199.070    93342153.274  
 21  9  1  9 44 17.0000000  0 18G 1G 3G 7G 8G14G17G19G21G22G30R13R14
                                R17R24E13E15E21E27
  20181590.068   106054971.090    20181588.532    82640230.562    20181588.532  
  20181586.745    79196880.896  
  23798749.879   125063273.582    23798748.932    97451895.312    23798748.360  
  23798748.271    93391399.172  
  23380253.394   122864060.635    23380249.463    95738210.435    23380249.034  
                                
  24620655.568   129382416.791    24620654.942   100817461.586    24620654.084  
  24620653.066    96616728.870  
  20486123.893   107655307.471    20486119.765    83887233.827    20486119.372  
  20486122.714    80391945.553  
  21402219.203   112469421.174    21402214.575    87638488.528    21402214.110  
                                
  23200587.712   121919911.859                    95002500.780    23200580.904  
                                
  22378319.586   117598863.172                    91635454.274    22378314.064  
                                
  23079469.223   121283429.592                    94506540.665    23079462.433  
                                
  21928809.178   115236669.437    21928807.481    89794797.732    21928806.891  
  21928806.587    86053346.588  
  19998451.256   106790613.327    19998449.362    83059358.070    19998448.433  
                                
  19762132.909   105343288.347    19762131.640    81933663.468    19762130.550  
                                
  23028836.882   123231958.125    23028834.380    95847067.800    23028833.612  
                                
  19588793.451   104750081.828    19588790.789    81472274.781    19588790.110  
                                
  23516651.685   123580839.172                                                  
  23516652.310    92284394.875  
  23918373.731   125691902.922                                                  
  23918375.661    93860842.985  
  24184741.324   127091673.756                                                  
  24184742.200    94906123.267  
  23786441.624   124998594.697                                                  
  23786442.643    93343109.088  
 21  9  1  9 44 18.0000000  0 18G 1G 3G 7G 8G14G17G19G21G22G30R13R14
                                R17R24E13E15E21E27
  20181771.582   106055925.033    20181770.063    82640973.889    20181770.045  
  20181768.276    79197593.260  
  23798193.920   125060351.998    23798192.991    97449618.748    23798192.401  
  23798192.329    93389217.472  
  23380937.063   122867653.245    23380933.114    95741009.874    23380932.685  
                                
  24621221.086   129385388.510    24621220.461   100819777.202    24621219.621  
  24621218.585    96618947.985  
  20485886.557   107654060.363    20485882.447    83886262.057    20485882.036  
  20485885.377    80391014.279  
  21401954.956   112468032.444    21401950.292    87637406.398    21401949.828  
                                
  23200049.712   121917084.738                    95000297.833    23200042.921  
                                
  22378811.556   117601448.474                    91637468.800    22378806.034  
                                
  23079164.467   121281827.967                    94505292.646    23079157.641  
                                
  21929263.998   115239059.510    21929262.301    89796660.122    21929261.693  
  21929261.390    86055131.392  
  19998935.256   106793197.826    19998933.362    83061368.236    19998932.433  
                                
  19761783.641   105341426.552    19761782.373    81932215.403    19761781.283  
                                
  23028174.763   123228415.039    23028172.261    95844312.068    23028171.493  
                                
  19588582.257   104748952.530    19588579.631    81471396.442    19588578.916  
                                
  23516411.847   123579578.841                                                  
  23516412.472    92283453.724  
  23918666.176   125693439.813                                                  
  23918668.124    93861990.672  
  24184470.448   127090250.361                                                  
  24184471.305    94905060.350  
  23786685.322   124999875.370                                                  
  23786686.341    93344065.438  
 21  9  1  9 44 19.0000000  0 18G 1G 3G 7G 8G14G17G19G21G22G30R13R14
                                R17R24E13E15E21E27
  20181953.274   106056879.805    20181951.737    82641717.870    20181951.737  
  20181949.950    79198306.240  
  23797638.032   125057430.775    23797637.085    97447342.475    23797636.514  
  23797636.442    93387036.052  
  23381620.767   122871246.146    23381616.783    95743809.534    23381616.389  
                                
  24621786.605   129388360.376    24621785.998   100822092.941    24621785.140  
  24621784.122    96621167.233  
  20485649.345   107652813.827    20485645.235    83885290.735    20485644.842  
  20485648.184    80390083.422  
  21401690.763   112466644.106    21401686.099    87636324.581    21401685.652  
                                
  23199511.800   121914257.967                    94998095.153    23199505.010  
                                
  22379303.615   117604034.242                    91639483.680    22379298.094  
                                
  23078859.800   121280226.991                    94504045.129    23078852.974  
                                
  21929718.926   115241450.193    21929717.228    89798522.989    21929716.621  
  21929716.317    86056916.642  
  19999419.400   106795783.127    19999417.488    83063379.029    19999416.594  
                                
  19761434.534   105339565.594    19761433.265    81930767.994    19761432.175  
                                
  23027512.716   123224872.397    23027510.232    95841556.685    23027509.464  
                                
  19588371.206   104747823.981    19588368.579    81470518.678    19588367.883  
                                
  23516172.098   123578319.029                                                  
  23516172.723    92282512.962  
  23918958.727   125694977.165                                                  
  23918960.657    93863138.688  
  24184199.660   127088827.403                                                  
  24184200.518    94903997.752  
  23786929.127   125001156.532                                                  
  23786930.145    93345022.149  
 21  9  1  9 44 20.0000000  0 18G 1G 3G 7G 8G14G17G19G21G22G30R13R14
                                R17R24E13E15E21E27
  20182135.074   106057835.127    20182133.519    82642462.274    20182133.519  
  20182131.750    79199019.618  
  23797082.181   125054509.664    23797081.216    97445066.278    23797080.644  
  23797080.572    93384854.679  
  23382304.472   122874839.032    23382300.523    95746609.181    23382300.094  
                                
  24622352.124   129391332.095    24622351.517   100824408.562    24622350.677  
  24622349.640    96623386.352  
  20485412.205   107651567.584    20485408.096    83884319.630    20485407.685  
  20485411.044    80389152.780  
  21401426.605   112465255.898    21401421.941    87635242.856    21401421.476  
                                
  23198973.889   121911431.198                    94995892.479    23198967.081  
                                
  22379795.692   117606620.160                    91641498.678    22379790.171  
                                
  23078555.223   121278626.337                    94502797.867    23078548.397  
                                
  21930173.943   115243841.220    21930172.209    89800386.127    21930171.620  
  21930171.316    86058702.149  
  19999903.650   106798368.974    19999901.756    83065390.236    19999900.827  
                                
  19761085.516   105337705.222    19761084.266    81929321.033    19761083.158  
                                
  23026850.722   123221329.903    23026848.220    95838801.416    23026847.470  
                                
  19588160.262   104746695.919    19588157.618    81469641.294    19588156.921  
                                
  23515932.439   123577059.476                                                  
  23515933.046    92281572.375  
  23919251.315   125696514.678                                                  
  23919253.245    93864286.829  
  24183928.909   127087404.580                                                  
  24183929.785    94902935.245  
  23787172.950   125002437.903                                                  
  23787173.968    93345979.008  
 21  9  1  9 44 21.0000000  0 18G 1G 3G 7G 8G14G17G19G21G22G30R13R14
                                R17R24E13E15E21E27
  20182316.980   106058791.117    20182315.443    82643207.204    20182315.443  
  20182313.657    79199733.518  
  23796526.347   125051588.767    23796525.400    97442790.259    23796524.828  
  23796524.757    93382673.503  
  23382988.194   122878432.088    23382984.245    95749408.970    23382983.834  
                                
  24622917.607   129394303.764    24622916.982   100826724.141    24622916.142  
  24622915.106    96625605.475  
  20485175.119   107650321.758    20485171.009    83883348.856    20485170.616  
  20485173.958    80388222.460  
  21401162.483   112463867.924    21401157.819    87634161.316    21401157.372  
                                
  23198435.996   121908604.620                    94993689.950    23198429.188  
                                
  22380287.841   117609206.384                    91643513.915    22380282.319  
                                
  23078250.717   121277026.159                    94501550.979    23078243.891  
                                
  21930629.031   115246232.722    21930627.298    89802249.635    21930626.708  
  21930626.404    86060488.004  
  20000388.026   106800955.504    20000386.132    83067401.979    20000385.203  
                                
  19760736.659   105335845.559    19760735.373    81927874.628    19760734.301  
                                
  23026188.764   123217787.677    23026186.263    95836046.356    23026185.512  
                                
  19587949.444   104745568.480    19587946.781    81468764.397    19587946.102  
                                
  23515692.815   123575800.283                                                  
  23515693.423    92280632.078  
  23919543.938   125698052.490                                                  
  23919545.886    93865435.197  
  24183658.193   127085982.024                                                  
  24183659.087    94901872.954  
  23787416.862   125003719.609                                                  
  23787417.880    93346936.132  
 21  9  1  9 44 22.0000000  0 18G 1G 3G 7G 8G14G17G19G21G22G30R13R14
                                R17R24E13E15E21E27
  20182499.066   106059747.888    20182497.511    82643952.735    20182497.511  
  20182495.742    79200447.979  
  23795970.585   125048668.195    23795969.620    97440514.489    23795969.048  
  23795968.994    93380492.535  
  23383671.970   122882025.329    23383668.003    95752208.898    23383667.610  
                                
  24623483.126   129397275.529    24623482.501   100829039.801    24623481.661  
  24623480.624    96627824.635  
  20484938.158   107649076.440    20484934.030    83882378.481    20484933.637  
  20484936.979    80387292.510  
  21400898.414   112462480.285    21400893.768    87633080.043    21400893.304  
                                
  23197898.156   121905778.282                    94991487.616    23197891.366  
                                
  22380780.061   117611792.997                    91645529.451    22380774.540  
                                
  23077946.300   121275426.562                    94500304.542    23077939.492  
                                
  21931084.209   115248624.755    21931082.493    89804113.555    21931081.886  
  21931081.600    86062274.267  
  20000872.544   106803542.794    20000870.650    83069414.318    20000869.721  
                                
  19760387.945   105333986.684    19760386.659    81926428.837    19760385.587  
                                
  23025526.896   123214245.759    23025524.394    95833291.531    23025523.608  
                                
  19587738.732   104744441.744    19587736.088    81467888.049    19587735.391  
                                
  23515453.299   123574541.564                                                  
  23515453.888    92279692.118  
  23919836.650   125699590.687                                                  
  23919838.580    93866583.846  
  24183387.567   127084559.834                                                  
  24183388.460    94900810.925  
  23787660.846   125005001.737                                                  
  23787661.846    93347893.559  
 21  9  1  9 44 23.0000000  0 18G 1G 3G 7G 8G14G17G19G21G22G30R13R14
                                R17R24E13E15E21E27
  20182681.205   106060705.179    20182679.686    82644698.678    20182679.686  
  20182677.917    79201162.852  
  23795414.822   125045747.668    23795413.875    97438238.751    23795413.285  
  23795413.232    93378311.650  
  23384355.746   122885618.613    23384351.797    95755008.855    23384351.386  
                                
  24624048.609   129400247.163    24624048.002   100831355.353    24624047.144  
  24624046.125    96630043.708  
  20484701.233   107647831.412    20484697.105    83881408.329    20484696.712  
  20484700.053    80386362.786  
  21400634.382   112461092.761    21400629.736    87631998.853    21400629.271  
                                
  23197360.334   121902951.989                    94989285.307    23197353.544  
                                
  22381272.299   117614379.760                    91647545.113    22381266.795  
                                
  23077641.973   121273827.284                    94499058.350    23077635.164  
                                
  21931539.458   115251017.138    21931537.760    89805977.751    21931537.135  
  21931536.849    86064060.785  
  20001357.170   106806130.627    20001355.258    83071427.075    20001354.347  
                                
  19760039.321   105332128.364    19760038.052    81924983.477    19760036.962  
                                
  23024865.009   123210704.002    23024862.525    95830536.831    23024861.757  
                                
  19587528.128   104743315.500    19587525.465    81467012.079    19587524.786  
                                
  23515213.818   123573283.081                                                  
  23515214.408    92278752.347  
  23920129.399   125701129.063                                                  
  23920131.328    93867732.640  
  24183116.976   127083137.783                                                  
  24183117.834    94899749.008  
  23787904.865   125006284.076                                                  
  23787905.866    93348851.152  
 21  9  1  9 44 24.0000000  0 18G 1G 3G 7G 8G14G17G19G21G22G30R13R14
                                R17R24E13E15E21E27
  20182863.540   106061663.308    20182862.003    82645445.277    20182862.003  
  20182860.234    79201878.334  
  23794859.131   125042827.543    23794858.202    97435963.335    23794857.612  
  23794857.541    93376131.041  
  23385039.576   122889212.154    23385035.609    95757809.021    23385035.216  
                                
  24624614.128   129403218.917    24624613.520   100833671.010    24624612.681  
  24624611.644    96632262.866  
  20484464.415   107646586.936    20484460.287    83880438.610    20484459.894  
  20484463.235    80385433.473  
  21400370.420   112459705.629    21400365.757    87630917.976    21400365.292  
                                
  23196822.566   121900126.021                    94987083.252    23196815.776  
                                
  22381764.626   117616966.964                    91649561.120    22381759.105  
                                
  23077337.752   121272228.635                    94497812.653    23077330.944  
                                
  21931994.832   115253410.131    21931993.134    89807842.419    21931992.527  
  21931992.241    86065847.749  
  20001841.921   106808719.286    20001840.027    83073440.478    20001839.116  
                                
  19759690.875   105330270.885    19759689.588    81923538.771    19759688.480  
                                
  23024203.230   123207162.630    23024200.728    95827782.434    23024199.978  
                                
  19587317.649   104742190.033    19587314.986    81466136.721    19587314.307  
                                
  23514974.427   123572025.119                                                  
  23514975.034    92277812.957  
  23920422.218   125702667.870                                                  
  23920424.166    93868881.749  
  24182846.439   127081716.148                                                  
  24182847.333    94898687.389  
  23788148.974   125007566.882                                                  
  23788149.992    93349809.089  
 21  9  1  9 44 25.0000000  0 18G 1G 3G 7G 8G14G17G19G21G22G30R13R14
                                R17R24E13E15E21E27
  20183046.001   106062622.116    20183044.464    82646192.402    20183044.464  
  20183042.677    79202594.327  
  23794303.494   125039907.652    23794302.565    97433688.094    23794301.975  
  23794301.904    93373950.605  
  23385723.424   122892805.846    23385719.457    95760609.308    23385719.064  
                                
  24625179.629   129406190.662    24625179.004   100835986.653    24625178.164  
  24625177.145    96634482.040  
  20484227.668   107645342.900    20484223.576    83879469.231    20484223.165  
  20484226.506    80384504.483  
  21400106.495   112458318.753    21400101.849    87629837.293    21400101.384  
                                
  23196284.834   121897300.206                    94984881.314    23196278.026  
                                
  22382257.007   117619554.472                    91651577.361    22382251.486  
                                
  23077033.622   121270630.467                    94496567.332    23077026.831  
                                
  21932450.278   115255803.575    21932448.580    89809707.441    21932447.990  
  21932447.687    86067635.068  
  20002326.833   106811308.660    20002324.921    83075454.436    20002324.027  
                                
  19759342.536   105328414.121    19759341.267    81922094.621    19759340.177  
                                
  23023541.504   123203621.558    23023539.003    95825028.261    23023538.234  
                                
  19587107.294   104741065.208    19587104.650    81465261.857    19587103.971  
                                
  23514735.107   123570767.531                                                  
  23514735.732    92276873.854  
  23920715.109   125704206.988                                                  
  23920717.057    93870031.093  
  24182575.956   127080294.790                                                  
  24182576.849    94897625.989  
  23788393.154   125008850.040                                                  
  23788394.172    93350767.296  
 21  9  1  9 44 26.0000000  0 18G 1G 3G 7G 8G14G17G19G21G22G30R13R14
                                R17R24E13E15E21E27
  20183228.551   106063581.454    20183227.014    82646939.939    20183227.014  
  20183225.245    79203310.729  
  23793747.893   125036987.838    23793746.928    97431412.914    23793746.338  
  23793746.284    93371770.227  
  23386407.289   122896399.574    23386403.322    95763409.618    23386402.929  
                                
  24625745.076   129409162.284    24625744.487   100838302.198    24625743.647  
  24625742.610    96636701.115  
  20483991.011   107644099.149    20483986.883    83878500.074    20483986.490  
  20483989.831    80383575.710  
  21399842.605   112456931.983    21399837.941    87628756.695    21399837.495  
                                
  23195747.119   121894474.420                    94982679.403    23195740.311  
                                
  22382749.424   117622142.122                    91653593.713    22382743.902  
                                
  23076729.580   121269032.645                    94495322.272    23076722.754  
                                
  21932905.813   115258197.358    21932904.097    89811572.721    21932903.490  
  21932903.186    86069422.637  
  20002811.834   106813898.554    20002809.940    83077468.800    20002809.010  
                                
  19758994.305   105326557.940    19758993.054    81920650.925    19758991.946  
                                
  23022879.779   123200080.599    23022877.295    95822274.182    23022876.526  
                                
  19586897.030   104739940.828    19586894.367    81464387.343    19586893.688  
                                
  23514495.841   123569510.191                                                  
  23514496.466    92275934.933  
  23921008.018   125705746.265                                                  
  23921009.948    93871180.560  
  24182305.490   127078873.557                                                  
  24182306.384    94896564.694  
  23788637.370   125010133.400                                                  
  23788638.370    93351725.652  
 21  9  1  9 44 27.0000000  0 18G 1G 3G 7G 8G14G17G19G21G22G30R13R14
                                R17R24E13E15E21E27
  20183411.315   106064541.817    20183409.778    82647688.271    20183409.760  
  20183407.991    79204027.870  
  23793192.345   125034068.575    23793191.415    97429138.161    23793190.826  
  23793190.772    93369590.258  
  23387091.244   122899993.728    23387087.277    95766210.255    23387086.866  
                                
  24626310.667   129412134.267    24626310.059   100840618.024    24626309.219  
  24626308.183    96638920.418  
  20483754.460   107642856.152    20483750.368    83877531.503    20483749.975  
  20483753.299    80382647.487  
  21399578.841   112455545.805    21399574.177    87627676.559    21399573.712  
                                
  23195209.476   121891649.151                    94980477.890    23195202.686  
                                
  22383241.966   117624730.429                    91655610.576    22383236.444  
                                
  23076425.682   121267435.633                    94494077.844    23076418.874  
                                
  21933361.473   115260591.935    21933359.775    89813438.628    21933359.185  
  21933358.882    86071210.782  
  20003297.031   106816489.461    20003295.137    83079483.950    20003294.208  
                                
  19758646.323   105324702.834    19758645.037    81919208.065    19758643.965  
                                
  23022218.178   123196540.259    23022215.694    95819520.580    23022214.926  
                                
  19586686.944   104738817.391    19586684.281    81463513.557    19586683.602  
                                
  23514256.717   123568253.551                                                  
  23514257.343    92274996.525  
  23921301.070   125707286.175                                                  
  23921303.000    93872330.480  
  24182035.168   127077452.950                                                  
  24182036.061    94895503.829  
  23788881.729   125011417.427                                                  
  23788882.729    93352684.492  
 21  9  1  9 44 28.0000000  0 18G 1G 3G 7G 8G14G17G19G21G22G30R13R14
                                R17R24E13E15E21E27
  20183594.097   106065502.362    20183592.543    82648436.750    20183592.543  
  20183590.774    79204745.171  
  23792636.797   125031149.057    23792635.850    97426863.208    23792635.260  
  23792635.188    93367410.105  
  23387775.127   122903587.576    23387771.160    95769010.658    23387770.749  
                                
  24626876.078   129415105.684    24626875.471   100842933.412    24626874.631  
  24626873.594    96641139.372  
  20483517.910   107641613.078    20483513.800    83876562.872    20483513.407  
  20483516.749    80381719.229  
  21399315.004   112454159.381    21399310.341    87626596.231    21399309.876  
                                
  23194671.797   121888823.556                    94978276.130    23194664.989  
                                
  22383734.472   117627318.512                    91657627.269    22383728.932  
                                
  23076121.783   121265838.610                    94492833.406    23076114.975  
                                
  21933817.151   115262986.489    21933815.453    89815304.512    21933814.828  
  21933814.524    86072998.934  
  20003782.265   106819080.565    20003780.371    83081499.251    20003779.441  
                                
  19758298.342   105322847.949    19758297.073    81917765.376    19758295.983  
                                
  23021556.542   123192999.658    23021554.058    95816766.775    23021553.289  
                                
  19586476.875   104737694.062    19586474.213    81462639.852    19586473.534  
                                
  23514017.576   123566996.809                                                  
  23514018.184    92274058.059  
  23921594.051   125708825.907                                                  
  23921595.999    93873480.288  
  24181764.810   127076032.119                                                  
  24181765.667    94894442.832  
  23789126.016   125012701.313                                                  
  23789127.035    93353643.249  
 21  9  1  9 44 29.0000000  0 18G 1G 3G 7G 8G14G17G19G21G22G30R13R14
                                R17R24E13E15E21E27
  20183777.004   106066463.652    20183775.486    82649185.809    20183775.468  
  20183773.699    79205463.013  
  23792081.284   125028229.841    23792080.337    97424588.499    23792079.766  
  23792079.676    93365230.160  
  23388459.064   122907181.615    23388455.079    95771811.201    23388454.686  
                                
  24627441.561   129418077.209    24627440.954   100845248.886    24627440.114  
  24627439.078    96643358.338  
  20483281.467   107640370.513    20483277.340    83875594.641    20483276.947  
  20483280.306    80380791.337  
  21399051.240   112452773.282    21399046.558    87625516.149    21399046.129  
                                
  23194134.136   121885998.175                    94976074.543    23194127.328  
                                
  22384227.031   117629906.989                    91659644.262    22384221.510  
                                
  23075817.992   121264242.129                    94491589.393    23075811.184  
                                
  21934272.918   115265381.583    21934271.220    89817170.821    21934270.613  
  21934270.327    86074787.472  
  20004267.623   106821672.393    20004265.729    83083515.115    20004264.800  
                                
  19757950.504   105320993.813    19757949.235    81916323.273    19757948.145  
                                
  23020894.959   123189459.420    23020892.493    95814013.256    23020891.707  
                                
  19586266.950   104736571.458    19586264.288    81461766.718    19586263.609  
                                
  23513778.507   123565740.519                                                  
  23513779.114    92273119.914  
  23921887.121   125710366.011                                                  
  23921889.069    93874630.363  
  24181494.487   127074611.646                                                  
  24181495.363    94893382.085  
  23789370.411   125013985.609                                                  
  23789371.429    93354602.297  
 21  9  1  9 44 30.0000000  0 18G 1G 3G 7G 8G14G17G19G21G22G30R13R14
                                R17R24E13E15E21E27
  20183960.055   106067425.591    20183958.518    82649935.369    20183958.518  
  20183956.749    79206181.331  
  23791525.808   125025310.813    23791524.861    97422313.936    23791524.289  
  23791524.200    93363050.349  
  23389142.983   122910775.748    23389139.016    95774611.829    23389138.623  
                                
  24628007.009   129421048.661    24628006.401   100847564.305    24628005.561  
  24628004.525    96645577.279  
  20483045.078   107639128.319    20483040.986    83874626.698    20483040.575  
  20483043.917    80379863.718  
  21398787.511   112451387.372    21398782.847    87624436.217    21398782.383  
                                
  23193596.511   121883172.961                    94973873.083    23193589.720  
                                
  22384719.627   117632495.704                    91661661.442    22384714.123  
                                
  23075514.272   121262646.062                    94490345.699    23075507.464  
                                
  21934728.792   115267777.096    21934727.095    89819037.452    21934726.469  
  21934726.166    86076576.318  
  20004753.124   106824264.887    20004751.212    83085531.494    20004750.301  
                                
  19757602.808   105319140.314    19757601.522    81914881.663    19757600.449  
                                
  23020233.430   123185919.402    23020230.946    95811259.904    23020230.160  
                                
  19586057.132   104735449.446    19586054.470    81460894.041    19586053.791  
                                
  23513539.508   123564484.557                                                  
  23513540.116    92272182.010  
  23922180.244   125711906.367                                                  
  23922182.192    93875780.621  
  24181224.236   127073191.388                                                  
  24181225.094    94892321.494  
  23789614.877   125015270.193                                                  
  23789615.877    93355561.555  
 21  9  1  9 44 31.0000000  0 18G 1G 3G 7G 8G14G17G19G21G22G30R13R14
                                R17R24E13E15E21E27
  20184143.159   106068387.744    20184141.622    82650685.097    20184141.622  
  20184139.835    79206899.832  
  23790970.278   125022391.545    23790969.349    97420039.188    23790968.759  
  23790968.688    93360870.382  
  23389826.866   122914369.576    23389822.881    95777412.223    23389822.488  
                                
  24628572.367   129424019.655    24628571.759   100849879.363    24628570.919  
  24628569.883    96647795.876  
  20482808.707   107637886.100    20482804.579    83873658.733    20482804.186  
  20482807.527    80378936.094  
  21398523.728   112450001.279    21398519.065    87623356.142    21398518.636  
                                
  23193058.832   121880347.440                    94971671.380    23193052.024  
                                
  22385212.222   117635084.257                    91663678.496    22385206.701  
                                
  23075210.552   121261050.042                    94489102.047    23075203.744  
                                
  21935184.631   115270172.610    21935182.916    89820904.089    21935182.326  
  21935182.022    86078365.189  
  20005238.662   106826857.568    20005236.732    83087548.029    20005235.838  
                                
  19757255.131   105317287.065    19757253.862    81913440.249    19757252.772  
                                
  23019571.865   123182379.220    23019569.363    95808506.424    23019568.613  
                                
  19585847.332   104734327.597    19585844.669    81460021.491    19585843.990  
                                
  23513300.492   123563228.517                                                  
  23513301.082    92271244.066  
  23922473.332   125713446.565                                                  
  23922475.280    93876930.778  
  24180953.931   127071770.959                                                  
  24180954.807    94891260.795  
  23789859.289   125016554.660                                                  
  23789860.290    93356520.746  
 21  9  1  9 44 32.0000000  0 18G 1G 3G 7G 8G14G17G19G21G22G30R13R14
                                R17R24E13E15E21E27
  20184326.405   106069350.785    20184324.869    82651435.521    20184324.869  
  20184323.100    79207618.985  
  23790414.855   125019472.714    23790413.908    97417764.767    23790413.301  
  23790413.247    93358690.734  
  23390510.803   122917963.765    23390506.836    95780212.892    23390506.425  
                                
  24629137.761   129426990.843    24629137.189   100852194.577    24629136.349  
  24629135.295    96650014.616  
  20482572.425   107636644.506    20482568.315    83872691.259    20482567.922  
  20482571.263    80378008.924  
  21398260.053   112448615.633    21398255.389    87622276.420    21398254.943  
                                
  23192521.206   121877522.296                    94969469.974    23192514.416  
                                
  22385704.907   117637673.321                    91665695.947    22385699.385  
                                
  23074906.958   121259454.691                    94487858.921    23074900.168  
                                
  21935640.613   115272568.807    21935638.915    89822771.257    21935638.290  
  21935637.986    86080154.561  
  20005724.359   106829451.168    20005722.430    83089565.273    20005721.536  
                                
  19756907.649   105315434.757    19756906.363    81911999.565    19756905.291  
                                
  23018910.389   123178839.510    23018907.888    95805753.319    23018907.137  
                                
  19585637.692   104733206.538    19585635.030    81459149.557    19585634.351  
                                
  23513061.584   123561973.060                                                  
  23513062.191    92270306.552  
  23922766.527   125714987.283                                                  
  23922768.475    93878081.313  
  24180683.734   127070351.015                                                  
  24180684.591    94890200.443  
  23790103.827   125017839.684                                                  
  23790104.828    93357480.338  
 21  9  1  9 44 33.0000000  0 18G 1G 3G 7G 8G14G17G19G21G22G30R13R14
                                R17R24E13E15E21E27
  20184509.849   106070314.690    20184508.312    82652186.616    20184508.312  
  20184506.525    79208338.786  
  23789859.486   125016554.290    23789858.539    97415490.669    23789857.949  
  23789857.896    93356511.400  
  23391194.829   122921558.276    23391190.862    95783013.804    23391190.451  
                                
  24629703.208   129429962.192    24629702.600   100854509.914    24629701.778  
  24629700.724    96652233.476  
  20482336.285   107635403.530    20482332.158    83871724.267    20482331.765  
  20482335.106    80377082.227  
  21397996.467   112447230.432    21397991.803    87621197.043    21397991.339  
                                
  23191983.688   121874697.520                    94967268.852    23191976.880  
                                
  22386197.681   117640262.875                    91667713.781    22386192.159  
                                
  23074603.524   121257860.029                    94486616.326    23074596.716  
                                
  21936096.720   115274965.670    21936095.022    89824638.939    21936094.397  
  21936094.093    86081944.422  
  20006210.200   106832045.650    20006208.306    83091583.204    20006207.395  
                                
  19756560.329   105313583.369    19756559.061    81910559.596    19756557.971  
                                
  23018248.985   123175300.260    23018246.484    95803000.571    23018245.733  
                                
  19585428.196   104732086.266    19585425.551    81458278.233    19585424.855  
                                
  23512822.782   123560718.178                                                  
  23512823.389    92269369.467  
  23923059.811   125716528.485                                                  
  23923061.741    93879232.211  
  24180413.608   127068931.531                                                  
  24180414.465    94889140.441  
  23790348.454   125019125.228                                                  
  23790349.472    93358440.326  
 21  9  1  9 44 34.0000000  0 18G 1G 3G 7G 8G14G17G19G21G22G30R13R14
                                R17R24E13E15E21E27
  20184693.382   106071279.202    20184691.845    82652938.184    20184691.845  
  20184690.058    79209059.032  
  23789304.152   125013636.008    23789303.223    97413216.685    23789302.616  
  23789302.562    93354332.159  
  23391878.855   122925152.826    23391874.870    95785814.754    23391874.477  
                                
  24630268.584   129432933.409    24630267.976   100856825.139    24630267.136  
  24630266.100    96654452.266  
  20482100.200   107634162.881    20482096.072    83870757.530    20482095.679  
  20482099.021    80376155.765  
  21397732.917   112445845.378    21397728.235    87620117.780    21397727.789  
                                
  23191446.152   121871872.823                    94965067.789    23191439.362  
                                
  22386690.491   117642852.622                    91669731.766    22386684.969  
                                
  23074300.126   121256265.752                    94485374.027    23074293.335  
                                
  21936552.898   115277362.900    21936551.183    89826506.917    21936550.593  
  21936550.289    86083734.560  
  20006696.184   106834640.717    20006694.290    83093601.587    20006693.361  
                                
  19756213.116   105311732.570    19756211.865    81909120.088    19756210.758  
                                
  23017587.635   123171761.163    23017585.133    95800247.945    23017584.365  
                                
  19585218.789   104730966.511    19585216.144    81457407.310    19585215.465  
                                
  23512584.052   123559463.578                                                  
  23512584.659    92268432.586  
  23923353.131   125718069.889                                                  
  23923355.061    93880383.259  
  24180143.535   127067512.227                                                  
  24180144.411    94888080.571  
  23790593.152   125020411.033                                                  
  23790594.153    93359400.492  
 21  9  1  9 44 35.0000000  0 18G 1G 3G 7G 8G14G17G19G21G22G30R13R14
                                R17R24E13E15E21E27
  20184877.129   106072244.797    20184875.610    82653690.593    20184875.574  
  20184873.823    79209780.100  
  23788748.944   125010718.374    23788747.997    97410943.199    23788747.425  
  23788747.336    93352153.404  
  23392562.989   122928747.942    23392559.004    95788616.147    23392558.611  
                                
  24630834.085   129435905.093    24630833.477   100859140.732    24630832.637  
  24630831.601    96656671.380  
  20481864.257   107632923.073    20481860.147    83869791.446    20481859.736  
  20481863.096    80375229.939  
  21397469.456   112444461.000    21397464.792    87619039.041    21397464.363  
                                
  23190908.759   121869048.716                    94962867.186    23190901.951  
                                
  22387183.461   117645443.092                    91671750.311    22387177.922  
                                
  23073996.924   121254672.367                    94484132.431    23073990.134  
                                
  21937009.237   115279761.017    21937007.540    89828375.577    21937006.914  
  21937006.628    86085525.367  
  20007182.382   106837236.884    20007180.453    83095620.825    20007179.559  
                                
  19755866.118   105309882.884    19755864.867    81907681.442    19755863.759  
                                
  23016926.392   123168222.792    23016923.908    95797495.876    23016923.140  
                                
  19585009.596   104729847.810    19585006.952    81456537.207    19585006.273  
                                
  23512345.447   123558209.779                                                  
  23512346.054    92267496.312  
  23923646.594   125719612.024                                                  
  23923648.506    93881534.853  
  24179873.570   127066093.620                                                  
  24179874.446    94887021.228  
  23790837.958   125021697.586                                                  
  23790838.959    93360361.236  
 21  9  1  9 44 36.0000000  0 18G 1G 3G 7G 8G14G17G19G21G22G30R13R14
                                R17R24E13E15E21E27
  20185061.001   106073211.055    20185059.464    82654443.517    20185059.464  
  20185057.695    79210501.647  
  23788193.789   125007800.939    23788192.824    97408669.874    23788192.235  
  23788192.163    93349974.809  
  23393247.122   122932343.193    23393243.137    95791417.644    23393242.744  
                                
  24631399.568   129438876.744    24631398.978   100861456.304    24631398.138  
  24631397.102    96658890.466  
  20481628.404   107631683.668    20481624.294    83868825.673    20481623.901  
  20481627.243    80374304.412  
  21397206.067   112443076.850    21397201.403    87617960.485    21397200.956  
                                
  23190371.366   121866224.758                    94960666.704    23190364.558  
                                
  22387676.450   117648033.834                    91673769.074    22387670.928  
                                
  23073693.794   121253079.434                    94482891.182    23073687.004  
                                
  21937465.666   115282159.562    21937463.968    89830244.575    21937463.343  
  21937463.039    86087316.491  
  20007668.670   106839833.719    20007666.776    83097640.584    20007665.847  
                                
  19755519.262   105308033.883    19755517.976    81906243.330    19755516.903  
                                
  23016265.220   123164684.642    23016262.718    95794743.986    23016261.950  
                                
  19584800.529   104728729.736    19584797.866    81455667.594    19584797.187  
                                
  23512106.931   123556956.318                                                  
  23512107.539    92266560.290  
  23923940.111   125721154.440                                                  
  23923942.023    93882686.656  
  24179603.658   127064675.267                                                  
  24179604.534    94885962.064  
  23791082.835   125022984.456                                                  
  23791083.853    93361322.208  
 21  9  1  9 44 37.0000000  0 18G 1G 3G 7G 8G14G17G19G21G22G30R13R14
                                R17R24E13E15E21E27
  20185244.980   106074177.798    20185243.444    82655196.822    20185243.444  
  20185241.657    79211223.563  
  23787638.599   125004883.549    23787637.669    97406396.582    23787637.062  
  23787637.008    93347796.243  
  23393931.273   122935938.377    23393927.289    95794219.081    23393926.895  
                                
  24631965.033   129441848.251    24631964.461   100863771.765    24631963.621  
  24631962.585    96661109.423  
  20481392.604   107630444.506    20481388.495    83867860.095    20481388.102  
  20481391.443    80373379.057  
  21396942.695   112441692.767    21396938.031    87616881.979    21396937.567  
                                
  23189833.973   121863400.780                    94958466.202    23189827.183  
                                
  22388169.474   117650624.688                    91675787.921    22388163.952  
                                
  23073390.753   121251486.818                    94481650.180    23073383.927  
                                
  21937922.148   115284558.403    21937920.450    89832113.802    21937919.825  
  21937919.539    86089107.829  
  20008155.065   106842431.082    20008153.171    83099660.755    20008152.259  
                                
  19755172.496   105306185.427    19755171.227    81904805.639    19755170.119  
                                
  23015604.031   123161146.554    23015601.547    95791992.147    23015600.778  
                                
  19584591.515   104727612.099    19584588.852    81454798.320    19584588.173  
                                
  23511868.451   123555703.074                                                  
  23511869.041    92265624.413  
  23924233.627   125722696.971                                                  
  23924235.575    93883838.539  
  24179333.783   127063257.015                                                  
  24179334.658    94884902.973  
  23791327.766   125024271.482                                                  
  23791328.784    93362283.299  
 21  9  1  9 44 38.0000000  0 18G 1G 3G 7G 8G14G17G19G21G22G30R13R14
                                R17R24E13E15E21E27
  20185429.049   106075145.139    20185427.513    82655950.595    20185427.513  
  20185425.726    79211945.932  
  23787083.462   125001966.317    23787082.533    97404123.410    23787081.925  
  23787081.871    93345617.788  
  23394615.425   122939533.636    23394611.458    95797020.587    23394611.047  
                                
  24632530.463   129444819.609    24632529.873   100866087.108    24632529.033  
  24632527.997    96663328.303  
  20481156.876   107629205.696    20481152.766    83866894.791    20481152.355  
  20481155.697    80372453.970  
  21396679.341   112440308.858    21396674.678    87615803.608    21396674.213  
                                
  23189296.616   121860576.899                    94956265.768    23189289.808  
                                
  22388662.534   117653215.765                    91677806.942    22388657.012  
                                
  23073087.748   121249894.580                    94480409.478    23073080.940  
                                
  21938378.719   115286957.643    21938377.021    89833983.340    21938376.396  
  21938376.092    86090899.458  
  20008641.585   106845029.020    20008639.673    83101681.378    20008638.761  
                                
  19754825.855   105304337.611    19754824.568    81903368.449    19754823.496  
                                
  23014942.895   123157608.682    23014940.393    95789240.474    23014939.642  
                                
  19584382.608   104726494.968    19584379.946    81453929.439    19584379.266  
                                
  23511630.025   123554450.117                                                  
  23511630.632    92264688.765  
  23924527.197   125724239.722                                                  
  23924529.145    93884990.596  
  24179063.942   127061838.952                                                  
  24179064.818    94883844.032  
  23791572.714   125025558.774                                                  
  23791573.733    93363244.587  
 21  9  1  9 44 39.0000000  0 18G 1G 3G 7G 8G14G17G19G21G22G30R13R14
                                R17R24E13E15E21E27
  20185613.225   106076113.055    20185611.706    82656704.819    20185611.689  
  20185609.937    79212668.729  
  23786528.378   124999049.214    23786527.431    97401850.350    23786526.824  
  23786526.752    93343439.428  
  23395299.594   122943128.949    23395295.609    95799822.127    23395295.216  
                                
  24633095.856   129447790.876    24633095.285   100868402.381    24633094.445  
  24633093.408    96665547.108  
  20480921.202   107627967.207    20480917.074    83865929.730    20480916.681  
  20480920.022    80371529.123  
  21396416.024   112438925.095    21396411.342    87614725.354    21396410.895  
                                
  23188759.259   121857753.096                    94954065.400    23188752.469  
                                
  22389155.647   117655807.041                    91679826.111    22389150.126  
                                
  23072784.833   121248302.715                    94479169.066    23072778.024  
                                
  21938835.344   115289357.235    21938833.646    89835853.150    21938833.021  
  21938832.735    86092691.362  
  20009128.212   106847627.576    20009126.318    83103702.472    20009125.388  
                                
  19754479.321   105302490.402    19754478.052    81901931.728    19754476.962  
                                
  23014281.776   123154070.989    23014279.293    95786488.930    23014278.524  
                                
  19584173.791   104725378.355    19584171.146    81453060.964    19584170.467  
                                
  23511391.652   123553197.442                                                  
  23511392.242    92263753.322  
  23924820.839   125725782.681                                                  
  23924822.769    93886142.797  
  24178794.138   127060421.076                                                  
  24178794.996    94882785.220  
  23791817.734   125026846.308                                                  
  23791818.753    93364206.050  
 21  9  1  9 44 40.0000000  0 18G 1G 3G 7G 8G14G17G19G21G22G30R13R14
                                R17R24E13E15E21E27
  20185797.580   106077081.810    20185796.043    82657459.689    20185796.043  
  20185794.274    79213392.148  
  23785973.331   124996132.487    23785972.402    97399577.582    23785971.794  
  23785971.705    93341261.352  
  23395983.817   122946724.534    23395979.814    95802623.877    23395979.421  
                                
  24633661.339   129450762.325    24633660.768   100870717.791    24633659.928  
  24633658.873    96667766.023  
  20480685.617   107626729.289    20480681.525    83864965.118    20480681.114  
  20480684.455    80370604.709  
  21396152.759   112437541.740    21396148.113    87613647.413    21396147.649  
                                
  23188221.973   121854929.620                    94951865.287    23188215.183  
                                
  22389648.850   117658398.752                    91681845.626    22389643.311  
                                
  23072482.024   121246711.505                    94477929.162    23072475.234  
                                
  21939292.094   115291757.444    21939290.397    89837723.438    21939289.771  
  21939289.467    86094483.721  
  20009614.982   106850226.940    20009613.088    83105724.202    20009612.176  
                                
  19754132.948   105300644.041    19754131.679    81900495.668    19754130.607  
                                
  23013620.766   123150533.700    23013618.264    95783737.707    23013617.496  
                                
  19583965.116   104724262.509    19583962.472    81452193.083    19583961.793  
                                
  23511153.368   123551945.292                                                  
  23511153.958    92262818.284  
  23925114.534   125727326.099                                                  
  23925116.464    93887295.346  
  24178524.387   127059003.612                                                  
  24178525.263    94881726.728  
  23792062.826   125028134.328                                                  
  23792063.844    93365167.888  
 21  9  1  9 44 41.0000000  0 18G 1G 3G 7G 8G14G17G19G21G22G30R13R14
                                R17R24E13E15E21E27
  20185982.131   106078051.528    20185980.577    82658215.313    20185980.577  
  20185978.808    79214116.292  
  23785418.390   124993216.264    23785417.443    97397305.198    23785416.854  
  23785416.800    93339083.671  
  23396668.129   122950320.551    23396664.126    95805425.968    23396663.715  
                                
  24634226.805   129453733.988    24634226.215   100873033.373    24634225.375  
  24634224.339    96669985.153  
  20480450.192   107625492.093    20480446.082    83864001.072    20480445.689  
  20480449.013    80369680.831  
  21395889.638   112436158.923    21395884.974    87612569.893    21395884.509  
                                
  23187684.777   121852106.587                    94949665.523    23187677.969  
                                
  22390142.125   117660991.056                    91683865.608    22390136.621  
                                
  23072179.376   121245121.060                    94476689.854    23072172.568  
                                
  21939748.987   115294158.407    21939747.290    89839594.318    21939746.664  
  21939746.360    86096276.650  
  20010101.948   106852827.279    20010100.036    83107746.688    20010099.125  
                                
  19753786.771   105298798.683    19753785.484    81899060.392    19753784.412  
                                
  23012959.844   123146996.981    23012957.342    95780986.928    23012956.574  
                                
  19583756.638   104723147.573    19583753.976    81451325.909    19583753.297  
                                
  23510915.210   123550693.818                                                  
  23510915.818    92261883.741  
  23925408.355   125728870.091                                                  
  23925410.267    93888448.334  
  24178254.762   127057586.731                                                  
  24178255.637    94880668.668  
  23792308.042   125029422.985                                                  
  23792309.061    93366130.199  
 21  9  1  9 44 42.0000000  0 18G 1G 3G 7G 8G14G17G19G21G22G30R13R14
                                R17R24E13E15E21E27
  20186166.790   106079021.891    20186165.235    82658971.443    20186165.217  
  20186163.466    79214840.912  
  23784863.504   124990300.256    23784862.539    97395032.993    23784861.967  
  23784861.878    93336906.132  
  23397352.423   122953916.674    23397348.438    95808228.139    23397348.045  
                                
  24634792.306   129456705.648    24634791.716   100875348.950    24634790.876  
  24634789.822    96672204.246  
  20480214.839   107624255.279    20480210.729    83863037.325    20480210.318  
  20480213.660    80368757.234  
  21395626.534   112434776.319    21395621.853    87611492.537    21395621.424  
                                
  23187147.598   121849283.686                    94947465.857    23187140.790  
                                
  22390635.471   117663583.611                    91685885.779    22390629.967  
                                
  23071876.818   121243531.035                    94475450.869    23071869.992  
                                
  21940205.952   115296559.801    21940204.254    89841465.529    21940203.629  
  21940203.325    86098069.894  
  20010589.040   106855428.270    20010587.110    83109769.681    20010586.217  
                                
  19753440.702   105296954.025    19753439.433    81897625.655    19753438.343  
                                
  23012298.958   123143460.510    23012296.457    95778236.335    23012295.706  
                                
  19583548.250   104722033.235    19583545.587    81450459.204    19583544.908  
                                
  23510677.141   123549442.689                                                  
  23510677.731    92260949.450  
  23925702.211   125730414.359                                                  
  23925704.141    93889601.515  
  24177985.190   127056170.076                                                  
  24177986.065    94879610.785  
  23792553.348   125030711.945                                                  
  23792554.349    93367092.731  
 21  9  1  9 44 43.0000000  0 18G 1G 3G 7G 8G14G17G19G21G22G30R13R14
                                R17R24E13E15E21E27
  20186351.502   106079992.616    20186349.965    82659727.849    20186349.965  
  20186348.178    79215565.802  
  23784308.581   124987384.162    23784307.634    97392760.717    23784307.062  
  23784306.973    93334728.515  
  23398036.735   122957512.629    23398032.750    95811030.180    23398032.321  
                                
  24635357.717   129459676.989    24635357.145   100877664.273    24635356.306  
  24635355.269    96674423.104  
  20479979.504   107623018.582    20479975.377    83862073.663    20479975.001  
  20479978.343    80367833.726  
  21395363.431   112433393.639    21395358.749    87610415.126    21395358.302  
                                
  23186610.384   121846460.649                    94945266.089    23186603.576  
                                
  22391128.816   117666176.153                    91687905.943    22391123.313  
                                
  23071574.296   121241941.207                    94474212.037    23071567.470  
                                
  21940662.934   115298961.339    21940661.237    89843336.855    21940660.611  
  21940660.325    86099863.257  
  20011076.168   106858029.629    20011074.273    83111792.960    20011073.344  
                                
  19753094.739   105295109.751    19753093.453    81896191.220    19753092.381  
                                
  23011638.090   123139924.042    23011635.606    95775485.747    23011634.820  
                                
  19583339.897   104720919.195    19583337.252    81449592.731    19583336.573  
                                
  23510439.072   123548191.611                                                  
  23510439.680    92260015.205  
  23925996.067   125731958.610                                                  
  23925998.015    93890754.687  
  24177715.600   127054753.383                                                  
  24177716.457    94878552.860  
  23792798.619   125032000.919                                                  
  23792799.637    93368055.277  
 21  9  1  9 44 44.0000000  0 18G 1G 3G 7G 8G14G17G19G21G22G30R13R14
                                R17R24E13E15E21E27
  20186536.321   106080963.903    20186534.802    82660484.702    20186534.784  
  20186533.015    79216291.118  
  23783753.676   124984468.163    23783752.747    97390488.498    23783752.158  
  23783752.086    93332550.976  
  23398721.011   122961108.561    23398717.027    95813832.209    23398716.616  
                                
  24635923.129   129462648.185    24635922.539   100879979.487    24635921.699  
  24635920.663    96676641.859  
  20479744.223   107621782.176    20479740.095    83861110.227    20479739.702  
  20479743.044    80366910.436  
  21395100.327   112432011.092    21395095.664    87609337.819    21395095.217  
                                
  23186073.187   121843637.660                    94943066.364    23186066.397  
                                
  22391622.198   117668768.861                    91689926.235    22391616.676  
                                
  23071271.827   121240351.707                    94472973.464    23071265.001  
                                
  21941120.006   115301363.220    21941118.308    89845208.453    21941117.683  
  21941117.379    86101656.872  
  20011563.420   106860631.545    20011561.526    83113816.678    20011560.597  
                                
  19752748.849   105293266.069    19752747.580    81894757.245    19752746.490  
                                
  23010977.240   123136387.685    23010974.739    95772735.252    23010973.988  
                                
  19583131.651   104719805.624    19583129.007    81448726.627    19583128.328  
                                
  23510201.057   123546940.787                                                  
  23510201.629    92259081.153  
  23926289.959   125733503.036                                                  
  23926291.906    93891907.997  
  24177446.045   127053336.848                                                  
  24177446.903    94877495.061  
  23793043.942   125033290.119                                                  
  23793044.961    93369017.993  
 21  9  1  9 44 45.0000000  0 18G 1G 3G 7G 8G14G17G19G21G22G30R13R14
                                R17R24E13E15E21E27
  20186721.283   106081935.840    20186719.729    82661242.052    20186719.729  
  20186717.978    79217016.917  
  23783198.843   124981552.380    23783197.878    97388216.460    23783197.307  
  23783197.217    93330373.604  
  23399405.306   122964704.654    23399401.339    95816634.362    23399400.928  
                                
  24636488.523   129465619.361    24636487.969   100882294.684    24636487.129  
  24636486.057    96678860.576  
  20479509.031   107620546.183    20479504.903    83860147.118    20479504.510  
  20479507.851    80365987.454  
  21394837.277   112430628.779    21394832.596    87608260.696    21394832.167  
                                
  23185536.027   121840814.809                    94940866.742    23185529.219  
                                
  22392115.633   117671361.854                    91691946.749    22392110.094  
                                
  23070969.429   121238762.695                    94471735.277    23070962.639  
                                
  21941577.149   115303765.547    21941575.452    89847080.401    21941574.826  
  21941574.540    86103450.822  
  20012050.798   106863234.081    20012048.904    83115840.875    20012047.974  
                                
  19752403.101   105291423.066    19752401.832    81893323.798    19752400.742  
                                
  23010316.426   123132851.552    23010313.924    95769984.926    23010313.174  
                                
  19582923.531   104718692.624    19582920.868    81447860.967    19582920.189  
                                
  23509963.095   123545690.325                                                  
  23509963.667    92258147.371  
  23926583.922   125735047.747                                                  
  23926585.852    93893061.513  
  24177176.527   127051920.569                                                  
  24177177.403    94876437.454  
  23793289.338   125034579.636                                                  
  23793290.356    93369980.946  
 21  9  1  9 44 46.0000000  0 18G 1G 3G 7G 8G14G17G19G21G22G30R13R14
                                R17R24E13E15E21E27
  20186906.478   106082909.073    20186904.941    82662000.420    20186904.941  
  20186903.172    79217743.678  
  23782644.153   124978637.425    23782643.206    97385945.060    23782642.599  
  23782642.527    93328196.854  
  23400089.779   122968301.519    23400085.794    95819437.116    23400085.401  
                                
  24637054.024   129468591.121    24637053.470   100884610.339    24637052.630  
  24637051.558    96681079.752  
  20479274.000   107619311.223    20479269.908    83859184.812    20479269.497  
  20479272.838    80365065.249  
  21394574.388   112429247.302    21394569.725    87607184.219    21394569.278  
                                
  23184998.991   121837992.761                    94938667.748    23184992.201  
                                
  22392609.229   117673955.742                    91693967.963    22392603.708  
                                
  23070667.246   121237174.759                    94470497.929    23070660.438  
                                
  21942034.507   115306168.949    21942032.809    89848953.181    21942032.184  
  21942031.898    86105245.565  
  20012538.425   106865837.954    20012536.513    83117866.109    20012535.602  
                                
  19752057.604   105289581.367    19752056.353    81891891.368    19752055.245  
                                
  23009655.772   123129316.277    23009653.271    95767235.274    23009652.502  
                                
  19582715.625   104717580.875    19582712.962    81446996.276    19582712.283  
                                
  23509725.330   123544440.866                                                  
  23509725.919    92257214.327  
  23926878.046   125736593.371                                                  
  23926879.958    93894215.717  
  24176907.187   127050505.176                                                  
  24176908.045    94875380.505  
  23793534.894   125035870.100                                                  
  23793535.912    93370944.607  
 21  9  1  9 44 47.0000000  0 18G 1G 3G 7G 8G14G17G19G21G22G30R13R14
                                R17R24E13E15E21E27
  20187091.869   106083883.304    20187090.332    82662759.559    20187090.332  
  20187088.545    79218471.190  
  23782089.552   124975723.028    23782088.605    97383674.096    23782088.033  
  23782087.944    93326020.523  
  23400774.323   122971898.836    23400770.338    95822240.225    23400769.945  
                                
  24637619.596   129471563.219    24637619.042   100886926.259    24637618.202  
  24637617.166    96683299.160  
  20479039.147   107618077.009    20479035.019    83858223.087    20479034.626  
  20479037.985    80364143.599  
  21394311.624   112427866.397    21394306.943    87606108.194    21394306.496  
                                
  23184462.080   121835171.201                    94936469.130    23184455.272  
                                
  22393102.950   117676550.249                    91695989.659    22393097.411  
                                
  23070365.242   121235587.642                    94469261.219    23070358.416  
                                
  21942492.007   115308573.142    21942490.310    89850826.574    21942489.684  
  21942489.398    86107040.905  
  20013026.214   106868442.819    20013024.320    83119892.113    20013023.409  
                                
  19751712.303   105287740.694    19751711.052    81890459.734    19751709.944  
                                
  23008995.226   123125781.623    23008992.724    95764486.101    23008991.974  
                                
  19582507.897   104716470.099    19582505.235    81446132.339    19582504.556  
                                
  23509487.707   123543192.091                                                  
  23509488.279    92256281.802  
  23927172.277   125738139.620                                                  
  23927174.207    93895370.377  
  24176637.972   127049090.385                                                  
  24176638.830    94874324.002  
  23793780.593   125037161.234                                                  
  23793781.611    93371908.766  
 21  9  1  9 44 48.0000000  0 18G 1G 3G 7G 8G14G17G19G21G22G30R13R14
                                R17R24E13E15E21E27
  20187277.350   106084857.981    20187275.813    82663519.048    20187275.795  
  20187274.026    79219199.027  
  23781534.951   124972808.622    23781534.004    97381403.131    23781533.433  
  23781533.343    93323844.174  
  23401458.849   122975496.041    23401454.865    95825043.242    23401454.454  
                                
  24638185.133   129474535.069    24638184.579   100889241.992    24638183.739  
  24638182.685    96685518.395  
  20478804.330   107616842.994    20478800.202    83857261.514    20478799.827  
  20478803.169    80363222.086  
  21394048.843   112426485.508    21394044.161    87605032.174    21394043.732  
                                
  23183925.116   121832349.571                    94934270.459    23183918.344  
                                
  22393596.671   117679144.815                    91698011.399    22393591.132  
                                
  23070063.255   121234000.739                    94468024.667    23070056.447  
                                
  21942949.562   115310977.571    21942947.864    89852700.157    21942947.239  
  21942946.953    86108836.410  
  20013514.110   106871048.105    20013512.216    83121918.446    20013511.287  
                                
  19751367.091   105285900.522    19751365.840    81889028.488    19751364.732  
                                
  23008334.715   123122247.047    23008332.214    95761736.989    23008331.445  
                                
  19582300.259   104715359.696    19582297.597    81445268.695    19582296.918  
                                
  23509250.103   123541943.463                                                  
  23509250.675    92255349.378  
  23927466.545   125739685.928                                                  
  23927468.474    93896525.085  
  24176368.740   127047675.643                                                  
  24176369.633    94873267.533  
  23794026.310   125038452.468                                                  
  23794027.328    93372872.994  
