     2.11           OBSERVATION DATA    M (MIXED)           RINEX VERSION / TYPE
CONVBIN 2.4.3                           20210902 201913 UTC PGM / RUN BY / DATE 
log: logs/21_09_01_11_12_51_talh_SW.rtcm                    COMMENT             
format: RTCM 3, station ID: 462                             COMMENT             
0462                                                        MARKER NAME         
                                                            MARKER NUMBER       
                                                            OBSERVER / AGENCY   
                    SWFT                                    REC # / TYPE / VERS 
                    NULL                                    ANT # / TYPE        
   546420.2590 -5528946.1897  3122095.9476                  APPROX POSITION XYZ 
        0.0000        0.0000        0.0000                  ANTENNA: DELTA H/E/N
     1     1                                                WAVELENGTH FACT L1/2
     5    C1    L1    P2    L2    C2                        # / TYPES OF OBSERV 
  2021     9     1    11    12   56.0000000     GPS         TIME OF FIRST OBS   
  2021     9     1    11    42   54.0000000     GPS         TIME OF LAST OBS    
                                                            END OF HEADER       
 21  9  1 11 12 56.0000000  0 12G 1G 2G 6G14G17G19G22G24G30E13E26E27
  24322682.784   127816509.906    24322686.286    99597266.731                  
  23664915.060   124359988.086    23664913.077    96903892.125                  
  20950225.287   110094139.805    20950228.093    85787631.508                  
  20550458.219   107993398.359    20550458.397    84150705.016                  
  21380468.975   112355137.472    21380468.314    87549460.878                  
  20957510.113   110132482.817    20957507.718    85817525.508                  
  24683678.021   129713620.399    24683675.984   101075553.309                  
  24048363.100   126374969.074    24048365.477    98473993.864                  
  23572641.713   123875022.121    23572644.268    96525979.680                  
  23895805.048   125573265.194                                                  
  23532146.987   123662237.317                                                  
  25454254.334   133762990.070                                                  
 21  9  1 11 12 57.0000000  0 12G 1G 2G 6G14G17G19G22G24G30E13E26E27
  24323386.895   127820210.043    24323390.397    99600149.953                  
  23664383.528   124357194.878    23664381.545    96901715.602                  
  20949884.686   110092349.988    20949887.527    85786236.843                  
  20550620.791   107994252.750    20550620.988    84151370.773                  
  21380592.968   112355789.043    21380592.307    87549968.598                  
  20957417.140   110131994.161    20957414.746    85817144.735                  
  24684049.947   129715574.856    24684047.892   101077076.258                  
  24048084.397   126373504.511    24048086.792    98472852.648                  
  23573291.949   123878439.093    23573294.486    96528642.255                  
  23896100.995   125574820.499                                                  
  23531960.559   123661257.634                                                  
  25454668.538   133765166.747                                                  
 21  9  1 11 12 58.0000000  0 12G 1G 2G 6G14G17G19G22G24G30E13E26E27
  24324091.024   127823910.227    24324094.526    99603033.215                  
  23663852.068   124354401.976    23663850.084    96899539.316                  
  20949544.191   110090560.685    20949547.015    85784842.581                  
  20550783.489   107995107.622    20550783.667    84152036.907                  
  21380716.979   112356440.687    21380716.318    87550476.370                  
  20957324.185   110131505.692    20957321.773    85816764.110                  
  24684421.962   129717529.786    24684419.907   101078599.582                  
  24047805.819   126372040.474    24047808.196    98471711.835                  
  23573942.185   123881856.129    23573944.722    96531304.878                  
  23896396.995   125576376.021                                                  
  23531774.203   123660278.288                                                  
  25455082.796   133767343.702                                                  
 21  9  1 11 12 59.0000000  0 12G 1G 2G 6G14G17G19G22G24G30E13E26E27
  24324795.135   127827610.437    24324798.655    99605916.492                  
  23663320.643   124351609.387    23663318.660    96897363.274                  
  20949203.804   110088771.889    20949206.628    85783448.719                  
  20550946.240   107995962.976    20550946.418    84152703.421                  
  21380840.972   112357092.381    21380840.329    87550984.188                  
  20957231.284   110131017.406    20957228.854    85816383.629                  
  24684794.067   129719485.188    24684791.994   101080123.274                  
  24047527.313   126370576.977    24047529.707    98470571.450                  
  23574592.438   123885273.218    23574594.976    96533967.547                  
  23896693.067   125577931.742                                                  
  23531587.883   123659299.271                                                  
  25455497.125   133769520.922                                                  
 21  9  1 11 13  0.0000000  0 12G 1G 2G 6G14G17G19G22G24G30E13E26E27
  24325499.281   127831310.695    24325502.784    99608799.809                  
  23662789.272   124348817.110    23662787.306    96895187.473                  
  20948863.507   110086983.613    20948866.312    85782055.254                  
  20551109.098   107996818.840    20551109.294    84153370.324                  
  21380965.019   112357744.146    21380964.358    87551492.050                  
  20957138.401   110130529.313    20957135.989    85816003.297                  
  24685166.243   129721441.044    24685164.206   101081647.314                  
  24047248.913   126369114.004    24047251.308    98469431.472                  
  23575242.692   123888690.374    23575245.247    96536630.266                  
  23896989.139   125579487.669                                                  
  23531401.652   123658320.579                                                  
  25455911.472   133771698.409                                                  
 21  9  1 11 13  1.0000000  0 16G 1G 2G 6G14G17G19G22G24G30C23C27C28
                                C33E13E26E27
  24326203.428   127835010.981    24326206.912    99611683.149                  
  23662258.008   124346025.141    23662256.025    96893011.910                  
  20948523.298   110085195.865    20948526.122    85780662.199                  
  20551272.063   107997675.170    20551272.242    84154037.597                  
  21381089.066   112358395.969    21381088.387    87551999.969                  
  20957045.536   110130041.411    20957043.141    85815623.114                  
  24685538.526   129723397.368    24685536.471   101083171.724                  
  24046970.639   126367651.569    24046973.015    98468291.914                  
  23575892.982   123892107.595    23575895.519    96539293.031                  
                 122814082.423                   122814082.423    23585145.240  
                 122469522.559                   122469522.559    23518983.467  
                 115184222.605                   115184222.605    22119917.182  
                 134022431.127                   134022431.127    25737633.076  
  23897285.264   125581043.804                                                  
  23531215.474   123657342.214                                                  
  25456325.908   133773876.169                                                  
 21  9  1 11 13  2.0000000  0 16G 1G 2G 6G14G17G19G22G24G30C23C27C28
                                C33E13E26E27
  24326907.575   127838711.303    24326911.077    99614566.515                  
  23661726.762   124343233.497    23661724.778    96890836.601                  
  20948183.197   110083408.621    20948186.021    85779269.547                  
  20551435.118   107998531.991    20551435.297    84154705.249                  
  21381213.095   112359047.848    21381212.433    87552507.926                  
  20956952.742   110129553.700    20956950.348    85815243.077                  
  24685910.899   129725354.155    24685908.844   101084696.493                  
  24046692.436   126366189.671    24046694.813    98467152.773                  
  23576543.253   123895524.866    23576545.808    96541955.844                  
                 122816813.675                   122816813.675    23585669.732  
                 122468095.674                   122468095.674    23518709.463  
                 115184902.808                   115184902.808    22120047.822  
                 134020437.696                   134020437.696    25737250.268  
  23897581.426   125582600.147                                                  
  23531029.369   123656364.192                                                  
  25456740.362   133776054.199                                                  
 21  9  1 11 13  3.0000000  0 16G 1G 2G 6G14G17G19G22G24G30C23C27C28
                                C33E13E26E27
  24327611.721   127842411.669    24327615.242    99617449.914                  
  23661195.587   124340442.153    23661193.604    96888661.530                  
  20947843.203   110081621.897    20947846.027    85777877.296                  
  20551598.262   107999389.308    20551598.441    84155373.288                  
  21381337.159   112359699.789    21381336.498    87553015.934                  
  20956859.966   110129066.171    20956857.554    85814863.186                  
  24686283.343   129727311.414    24686281.288   101086221.628                  
  24046414.358   126364728.310    24046416.735    98466014.047                  
  23577193.561   123898942.207    23577196.098    96544618.703                  
                 122819545.224                   122819545.224    23586194.295  
                 122466668.997                   122466668.997    23518435.478  
                 115185583.177                   115185583.177    22120178.480  
                 134018444.421                   134018444.421    25736867.478  
  23897877.623   125584156.699                                                  
  23530843.316   123655386.480                                                  
  25457154.888   133778232.504                                                  
 21  9  1 11 13  4.0000000  0 16G 1G 2G 6G14G17G19G22G24G30C23C27C28
                                C33E13E26E27
  24328315.904   127846112.070    24328319.406    99620333.344                  
  23660664.466   124337651.102    23660662.483    96886486.688                  
  20947503.299   110079835.696    20947506.122    85776485.449                  
  20551761.478   108000247.103    20551761.657    84156041.695                  
  21381461.242   112360351.788    21381460.563    87553523.983                  
  20956767.226   110128578.832    20956764.813    85814483.442                  
  24686655.876   129729269.140    24686653.839   101087747.124                  
  24046136.352   126363267.468    24046138.747    98464875.731                  
  23577843.886   123902359.610    23577846.405    96547281.614                  
                 122822277.055                   122822277.055    23586718.911  
                 122465242.522                   122465242.522    23518161.546  
                 115186263.712                   115186263.712    22120309.156  
                 134016451.301                   134016451.301    25736484.723  
  23898173.855   125585713.456                                                  
  23530657.318   123654409.101                                                  
  25457569.449   133780411.077                                                  
 21  9  1 11 13  5.0000000  0 16G 1G 2G 6G14G17G19G22G24G30C23C27C28
                                C33E13E26E27
  24329020.068   127849812.512    24329023.589    99623216.805                  
  23660133.417   124334860.374    23660131.416    96884312.095                  
  20947163.484   110078050.007    20947166.325    85775094.003                  
  20551924.819   108001105.388    20551924.998    84156710.491                  
  21381585.324   112361003.854    21381584.663    87554032.085                  
  20956674.521   110128091.688    20956672.127    85814103.849                  
  24687028.517   129731227.336    24687026.462   101089272.993                  
  24045858.489   126361807.163    24045860.865    98463737.832                  
  23578494.193   123905777.063    23578496.713    96549944.562                  
                 122825009.180                   122825009.180    23587243.599  
                 122463816.258                   122463816.258    23517887.631  
                 115186944.415                   115186944.415    22120439.886  
                 134014458.340                   134014458.340    25736101.987  
  23898470.141   125587270.422                                                  
  23530471.408   123653432.067                                                  
  25457984.082   133782589.925                                                  
 21  9  1 11 13  6.0000000  0 16G 1G 2G 6G14G17G19G22G24G30C23C27C28
                                C33E13E26E27
  24329724.233   127853512.981    24329727.735    99626100.285                  
  23659602.421   124332069.966    23659600.420    96882137.751                  
  20946823.776   110076264.821    20946826.599    85773702.949                  
  20552088.249   108001964.151    20552088.428    84157379.660                  
  21381709.407   112361655.965    21381708.745    87554540.225                  
  20956581.853   110127604.707    20956579.458    85813724.383                  
  24687401.247   129733185.992    24687399.174   101090799.219                  
  24045580.697   126360347.387    24045583.074    98462600.343                  
  23579144.536   123909194.610    23579147.056    96552607.590                  
                 122827741.592                   122827741.592    23587768.341  
                 122462390.199                   122462390.199    23517613.789  
                 115187625.285                   115187625.285    22120570.634  
                 134012465.531                   134012465.531    25735719.304  
  23898766.463   125588827.587                                                  
  23530285.535   123652455.351                                                  
  25458398.732   133784769.032                                                  
 21  9  1 11 13  7.0000000  0 16G 1G 2G 6G14G17G19G22G24G30C23C27C28
                                C33E13E26E27
  24330428.415   127857213.482    24330431.918    99628983.790                  
  23659071.479   124329279.852    23659069.477    96879963.638                  
  20946484.157   110074480.169    20946486.998    85772312.309                  
  20552251.733   108002823.414    20552251.911    84158049.215                  
  21381833.525   112362308.138    21381832.864    87555048.414                  
  20956489.220   110127117.917    20956486.825    85813345.067                  
  24687774.066   129735145.121    24687771.993   101092325.813                  
  24045302.994   126358888.147    24045305.389    98461463.274                  
  23579794.879   123912612.206    23579797.417    96555270.652                  
                 122830474.296                   122830474.296    23588293.119  
                 122460964.347                   122460964.347    23517339.964  
                 115188306.320                   115188306.320    22120701.417  
                 134010472.888                   134010472.888    25735336.621  
  23899062.821   125590384.969                                                  
  23530099.733   123651478.957                                                  
  25458813.455   133786948.409                                                  
 21  9  1 11 13  8.0000000  0 16G 1G 2G 6G14G17G19G22G24G30C23C27C28
                                C33E13E26E27
  24331132.616   127860914.027    24331136.118    99631867.331                  
  23658540.608   124326490.054    23658538.607    96877789.769                  
  20946144.663   110072696.039    20946147.487    85770922.077                  
  20552415.341   108003683.169    20552415.538    84158719.151                  
  21381957.625   112362960.369    21381956.964    87555556.644                  
  20956396.640   110126631.350    20956394.228    85812965.926                  
  24688146.939   129737104.696    24688144.902   101093852.754                  
  24045025.417   126357429.453    24045027.794    98460326.629                  
  23580445.222   123916029.820    23580447.760    96557933.726                  
                 122833207.293                   122833207.293    23588817.968  
                 122459538.699                   122459538.699    23517066.175  
                 115188987.526                   115188987.526    22120832.236  
                 134008480.395                   134008480.395    25734953.973  
  23899359.215   125591942.551                                                  
  23529914.002   123650502.910                                                  
  25459228.248   133789128.082                                                  
 21  9  1 11 13  9.0000000  0 16G 1G 2G 6G14G17G19G22G24G30C23C27C28
                                C33E13E26E27
  24331836.798   127864614.598    24331840.318    99634750.895                  
  23658009.755   124323700.567    23658007.772    96875616.141                  
  20945805.241   110070912.422    20945808.083    85769532.246                  
  20552579.039   108004543.402    20552579.218    84159389.466                  
  21382081.761   112363612.650    21382081.100    87556064.915                  
  20956304.079   110126144.948    20956301.666    85812586.911                  
  24688519.937   129739064.746    24688517.882   101095380.066                  
  24044747.947   126355971.285    24044750.323    98459190.394                  
  23581095.601   123919447.522    23581098.121    96560596.871                  
                 122835940.575                   122835940.575    23589342.852  
                 122458113.257                   122458113.257    23516792.439  
                 115189668.899                   115189668.899    22120963.091  
                 134006488.063                   134006488.063    25734571.380  
  23899655.662   125593500.352                                                  
  23529728.325   123649527.197                                                  
  25459643.060   133791308.010                                                  
 21  9  1 11 13 10.0000000  0 17G 1G 2G 3G 6G14G17G19G22G24G30C23C27
                                C28C33E13E26E27
  24332541.016   127868315.210    24332544.519    99637634.487                  
  23657478.991   124320911.398    23657477.026    96873442.762                  
  23292759.689   122404247.847    23292762.315    95379925.110                  
  20945465.944   110069129.314    20945468.768    85768142.813                  
  20552742.845   108005404.132    20552743.024    84160060.159                  
  21382205.880   112364264.989    21382205.218    87556573.231                  
  20956211.553   110125658.745    20956209.140    85812208.052                  
  24688893.006   129741025.266    24688890.951   101096907.741                  
  24044470.566   126354513.647    24044472.943    98458054.575                  
  23581745.980   123922865.301    23581748.517    96563260.075                  
                 122838674.148                   122838674.148    23589867.826  
                 122456688.018                   122456688.018    23516518.721  
                 115190350.437                   115190350.437    22121093.982  
                 134004495.887                   134004495.887    25734188.804  
  23899952.145   125595058.351                                                  
  23529542.719   123648551.804                                                  
  25460057.943   133793488.212                                                  
 21  9  1 11 13 11.0000000  0 17G 1G 2G 3G 6G14G17G19G22G24G30C23C27
                                C28C33E13E26E27
  24333245.217   127872015.864    24333248.737    99640518.113                  
  23656948.299   124318122.530    23656946.316    96871269.621                  
  23292859.702   122404773.495    23292862.346    95380334.708                  
  20945126.719   110067346.721    20945129.542    85766753.780                  
  20552906.722   108006265.343    20552906.900    84160731.235                  
  21382330.034   112364917.393    21382329.372    87557081.598                  
  20956119.063   110125172.721    20956116.668    85811829.332                  
  24689266.183   129742986.258    24689264.128   101098435.785                  
  24044193.292   126353056.556    24044195.687    98456919.176                  
  23582396.359   123926283.115    23582398.896    96565923.302                  
                 122841408.011                   122841408.011    23590392.818  
                 122455262.989                   122455262.989    23516245.057  
                 115191032.143                   115191032.143    22121224.872  
                 134002503.866                   134002503.866    25733806.264  
  23900248.663   125596616.558                                                  
  23529357.168   123647576.742                                                  
  25460472.879   133795668.689                                                  
 21  9  1 11 13 12.0000000  0 17G 1G 2G 3G 6G14G17G19G22G24G30C23C27
                                C28C33E13E26E27
  24333949.435   127875716.550    24333952.955    99643401.767                  
  23656417.661   124315333.977    23656415.677    96869096.722                  
  23292959.840   122405299.753    23292962.484    95380744.777                  
  20944787.600   110065564.648    20944790.442    85765365.157                  
  20553070.706   108007127.035    20553070.884    84161402.683                  
  21382454.205   112365569.868    21382453.544    87557590.020                  
  20956026.626   110124686.888    20956024.196    85811450.758                  
  24689639.413   129744947.699    24689637.358   101099964.183                  
  24043916.126   126351599.990    24043918.503    98455784.192                  
  23583046.756   123929700.996    23583049.293    96568586.586                  
                 122844142.160                   122844142.160    23590917.899  
                 122453838.164                   122453838.164    23515971.447  
                 115191714.019                   115191714.019    22121355.835  
                 134000512.008                   134000512.008    25733423.742  
  23900545.217   125598174.961                                                  
  23529171.687   123646602.006                                                  
  25460887.852   133797849.427                                                  
 21  9  1 11 13 13.0000000  0 17G 1G 2G 3G 6G14G17G19G22G24G30C23C27
                                C28C33E13E26E27
  24334653.653   127879417.262    24334657.173    99646285.434                  
  23655887.076   124312545.734    23655885.075    96866924.066                  
  23293060.103   122405826.625    23293062.747    95381155.329                  
  20944448.572   110063783.095    20944451.413    85763976.931                  
  20553234.761   108007989.223    20553234.940    84162074.520                  
  21382578.377   112366222.401    21382577.716    87558098.485                  
  20955934.208   110124201.234    20955931.795    85811072.329                  
  24690012.769   129746909.609    24690010.696   101101492.946                  
  24043639.049   126350143.957    24043641.426    98454649.621                  
  23583697.188   123933118.927    23583699.725    96571249.911                  
                 122846876.602                   122846876.602    23591443.016  
                 122452413.547                   122452413.547    23515697.854  
                 115192396.060                   115192396.060    22121486.814  
                 133998520.303                   133998520.303    25733041.255  
  23900841.808   125599733.584                                                  
  23528986.260   123645627.605                                                  
  25461302.895   133800030.429                                                  
 21  9  1 11 13 14.0000000  0 17G 1G 2G 3G 6G14G17G19G22G24G30C23C27
                                C28C33E13E26E27
  24335357.907   127883118.027    24335361.392    99649169.149                  
  23655356.545   124309757.809    23655354.561    96864751.656                  
  23293160.473   122406354.118    23293163.118    95381566.360                  
  20944109.668   110062002.055    20944112.509    85762589.110                  
  20553398.924   108008851.898    20553399.103    84162746.735                  
  21382702.567   112366874.996    21382701.906    87558607.003                  
  20955841.825   110123715.773    20955839.412    85810694.048                  
  24690386.178   129748871.984    24690384.141   101103022.067                  
  24043362.061   126348688.462    24043364.456    98453515.469                  
  23584347.603   123936536.923    23584350.140    96573913.282                  
                 122849611.332                   122849611.332    23591968.205  
                 122450989.132                   122450989.132    23515424.315  
                 115193078.267                   115193078.267    22121617.812  
                 133996528.762                   133996528.762    25732658.805  
  23901138.433   125601292.408                                                  
  23528800.905   123644653.527                                                  
  25461717.975   133802211.722                                                  
 21  9  1 11 13 15.0000000  0 17G 1G 2G 3G 6G14G17G19G22G24G30C23C27
                                C28C33E13E26E27
  24336062.143   127886818.812    24336065.645    99652052.876                  
  23654826.085   124306970.191    23654824.101    96862579.489                  
  23293260.986   122406882.219    23293263.613    95381977.867                  
  20943770.835   110060221.531    20943773.659    85761201.684                  
  20553563.176   108009715.060    20553563.355    84163419.324                  
  21382826.757   112367527.656    21382826.095    87559115.566                  
  20955749.478   110123230.501    20955747.065    85810315.911                  
  24690759.694   129750834.822    24690757.657   101104551.546                  
  24043085.199   126347233.507    24043087.575    98452381.738                  
  23584998.035   123939954.974    23585000.572    96576576.698                  
                 122852346.350                   122852346.350    23592493.411  
                 122449564.926                   122449564.926    23515150.812  
                 115193760.639                   115193760.639    22121748.864  
                 133994537.374                   133994537.374    25732276.372  
  23901435.113   125602851.442                                                  
  23528615.603   123643679.780                                                  
  25462133.126   133804393.270                                                  
 21  9  1 11 13 16.0000000  0 17G 1G 2G 3G 6G14G17G19G22G24G30C23C27
                                C28C33E13E26E27
  24336766.379   127890519.630    24336769.882    99654936.630                  
  23654295.679   124304182.882    23654293.677    96860407.560                  
  23293361.607   122407410.933    23293364.216    95382389.852                  
  20943432.128   110058441.527    20943434.933    85759814.673                  
  20553727.517   108010578.703    20553727.696    84164092.297                  
  21382950.964   112368180.374    21382950.303    87559624.180                  
  20955657.166   110122745.410    20955654.754    85809937.923                  
  24691133.299   129752798.126    24691131.262   101106081.394                  
  24042808.425   126345779.062    24042810.820    98451248.407                  
  23585648.485   123943373.087    23585651.023    96579240.163                  
                 122855081.659                   122855081.659    23593018.725  
                 122448140.923                   122448140.923    23514877.344  
                 115194443.183                   115194443.183    22121879.933  
                 133992546.144                   133992546.144    25731893.975  
  23901731.828   125604410.679                                                  
  23528430.355   123642706.368                                                  
  25462548.295   133806575.086                                                  
 21  9  1 11 13 17.0000000  0 17G 1G 2G 3G 6G14G17G19G22G24G30C23C27
                                C28C33E13E26E27
  24337470.633   127894220.480    24337474.135    99657820.396                  
  23653765.326   124301395.907    23653763.343    96858235.891                  
  23293462.316   122407940.273    23293464.961    95382802.329                  
  20943093.492   110056662.040    20943096.315    85758428.050                  
  20553891.966   108011442.848    20553892.145    84164765.653                  
  21383075.172   112368833.180    21383074.529    87560132.872                  
  20955564.873   110122260.539    20955562.478    85809560.108                  
  24691506.994   129754761.882    24691504.957   101107611.582                  
  24042531.759   126344325.087    24042534.136    98450115.396                  
  23586298.936   123946791.253    23586301.473    96581903.664                  
                 122857817.259                   122857817.259    23593544.056  
                 122446717.130                   122446717.130    23514603.913  
                 115195125.890                   115195125.890    22122011.038  
                 133990555.074                   133990555.074    25731511.613  
  23902028.579   125605970.042                                                  
  23528245.196   123641733.372                                                  
  25462963.535   133808757.183                                                  
 21  9  1 11 13 18.0000000  0 17G 1G 2G 3G 6G14G17G19G22G24G30C23C27
                                C28C33E13E26E27
  24338174.887   127897921.380    24338178.407    99660704.211                  
  23653235.045   124298609.234    23653233.061    96856064.458                  
  23293563.151   122408470.234    23293565.796    95383215.286                  
  20942754.963   110054883.077    20942757.805    85757041.847                  
  20554056.504   108012307.481    20554056.683    84165439.390                  
  21383199.415   112369486.030    21383198.754    87560641.586                  
  20955472.669   110121775.833    20955470.238    85809182.415                  
  24691880.778   129756726.117    24691878.741   101109142.157                  
  24042255.200   126342871.725    24042257.577    98448982.906                  
  23586949.404   123950209.483    23586951.941    96584567.218                  
                 122860553.143                   122860553.143    23594069.459  
                 122445293.540                   122445293.540    23514330.534  
                 115195808.766                   115195808.766    22122142.179  
                 133988564.163                   133988564.163    25731129.288  
  23902325.383   125607529.707                                                  
  23528060.073   123640760.626                                                  
  25463378.811   133810939.555                                                  
 21  9  1 11 13 19.0000000  0 17G 1G 2G 3G 6G14G17G19G22G24G30C23C27
                                C28C33E13E26E27
  24338879.159   127901622.309    24338882.661    99663588.055                  
  23652704.817   124295822.867    23652702.816    96853893.269                  
  23293664.111   122409000.797    23293666.756    95383628.712                  
  20942416.542   110053104.625    20942419.365    85755656.048                  
  20554221.113   108013172.582    20554221.292    84166113.504                  
  21383323.658   112370138.933    21383322.997    87561150.344                  
  20955380.447   110121291.312    20955378.034    85808804.871                  
  24692254.652   129758690.821    24692252.597   101110673.098                  
  24041978.713   126341418.894    24041981.125    98447850.837                  
  23587599.872   123953627.772    23587602.427    96587230.825                  
                 122863289.321                   122863289.321    23594594.898  
                 122443870.151                   122443870.151    23514057.192  
                 115196491.807                   115196491.807    22122273.355  
                 133986573.410                   133986573.410    25730746.980  
  23902622.205   125609089.563                                                  
  23527875.039   123639788.208                                                  
  25463794.159   133813122.186                                                  
 21  9  1 11 13 20.0000000  0 17G 1G 2G 3G 6G14G17G19G22G24G30C23C27
                                C28C33E13E26E27
  24339583.413   127905323.277    24339586.933    99666471.925                  
  23652174.643   124293036.802    23652172.660    96851722.309                  
  23293765.196   122409531.976    23293767.841    95384042.620                  
  20942078.192   110051326.696    20942081.033    85754270.644                  
  20554385.848   108014038.192    20554386.027    84166788.003                  
  21383447.920   112370791.898    21383447.258    87561659.148                  
  20955288.278   110120806.981    20955285.884    85808427.468                  
  24692628.615   129760655.992    24692626.560   101112204.400                  
  24041702.368   126339966.595    24041704.745    98446719.175                  
  23588250.376   123957046.117    23588252.895    96589894.468                  
                 122866025.785                   122866025.785    23595120.426  
                 122442446.971                   122442446.971    23513783.885  
                 115197175.020                   115197175.020    22122404.567  
                 133984582.816                   133984582.816    25730364.708  
  23902919.081   125610649.624                                                  
  23527690.059   123638816.114                                                  
  25464209.560   133815305.099                                                  
 21  9  1 11 13 21.0000000  0 17G 1G 2G 3G 6G14G17G19G22G24G30C23C27
                                C28C33E13E26E27
  24340287.703   127909024.282    24340291.223    99669355.824                  
  23651644.541   124290251.051    23651642.540    96849551.594                  
  23293866.407   122410063.766    23293869.033    95384456.999                  
  20941739.985   110049549.277    20941742.808    85752885.644                  
  20554550.654   108014904.283    20554550.833    84167462.879                  
  21383572.181   112371444.921    21383571.520    87562167.997                  
  20955196.163   110120322.829    20955193.733    85808050.211                  
  24693002.667   129762621.629    24693000.612   101113736.063                  
  24041426.096   126338514.832    24041428.472    98445587.933                  
  23588900.880   123960464.512    23588903.399    96592558.152                  
                 122868762.539                   122868762.539    23595645.971  
                 122441024.001                   122441024.001    23513510.614  
                 115197858.393                   115197858.393    22122535.798  
                 133982592.380                   133982592.380    25729982.454  
  23903215.975   125612209.900                                                  
  23527505.133   123637844.351                                                  
  25464624.997   133817488.276                                                  
 21  9  1 11 13 22.0000000  0 17G 1G 2G 3G 6G14G17G19G22G24G30C23C27
                                C28C33E13E26E27
  24340991.974   127912725.308    24340995.495    99672239.738                  
  23651114.474   124287465.625    23651112.509    96847381.133                  
  23293967.724   122410596.174    23293970.369    95384871.868                  
  20941401.832   110047772.377    20941404.673    85751501.047                  
  20554715.567   108015770.852    20554715.746    84168138.130                  
  21383696.460   112372098.003    21383695.799    87562676.890                  
  20955104.066   110119838.868    20955101.654    85807673.099                  
  24693376.809   129764587.719    24693374.736   101115268.083                  
  24041149.948   126337063.607    24041152.324    98444457.106                  
  23589551.384   123963882.977    23589553.921    96595221.891                  
                 122871499.577                   122871499.577    23596171.607  
                 122439601.234                   122439601.234    23513237.397  
                 115198541.938                   115198541.938    22122667.063  
                 133980602.103                   133980602.103    25729600.235  
  23903512.941   125613770.378                                                  
  23527320.278   123636872.919                                                  
  25465040.505   133819671.720                                                  
 21  9  1 11 13 23.0000000  0 17G 1G 2G 3G 6G14G17G19G22G24G30C23C27
                                C28C33E13E26E27
  24341696.282   127916426.378    24341699.784    99675123.691                  
  23650584.497   124284680.499    23650582.496    96845210.907                  
  23294069.166   122411129.196    23294071.775    95385287.207                  
  20941063.803   110045995.986    20941066.644    85750116.848                  
  20554880.552   108016637.914    20554880.748    84168813.762                  
  21383820.739   112372751.144    21383820.078    87563185.833                  
  20955012.005   110119355.098    20955009.593    85807296.133                  
  24693751.022   129766554.277    24693748.985   101116800.464                  
  24040873.871   126335612.909    24040876.266    98443326.695                  
  23590201.906   123967301.492    23590204.443    96597885.671                  
                 122874236.910                   122874236.910    23596697.277  
                 122438178.671                   122438178.671    23512964.197  
                 115199225.645                   115199225.645    22122798.365  
                 133978611.980                   133978611.980    25729218.053  
  23903809.924   125615331.055                                                  
  23527135.476   123635901.807                                                  
  25465456.031   133821855.434                                                  
 21  9  1 11 13 24.0000000  0 17G 1G 2G 3G 6G14G17G19G22G24G30C23C27
                                C28C33E13E26E27
  24342400.572   127920127.478    24342404.074    99678007.664                  
  23650054.555   124281895.684    23650052.572    96843040.919                  
  23294170.698   122411662.829    23294173.343    95385703.022                  
  20940725.882   110044220.122    20940728.706    85748733.054                  
  20555045.644   108017505.466    20555045.822    84169489.777                  
  21383945.036   112373404.352    21383944.375    87563694.829                  
  20954919.980   110118871.513    20954917.585    85806919.313                  
  24694125.342   129768521.297    24694123.287   101118333.206                  
  24040597.938   126334162.749    24040600.314    98442196.700                  
  23590852.445   123970720.072    23590854.983    96600549.497                  
                 122876974.528                   122876974.528    23597223.002  
                 122436756.317                   122436756.317    23512691.051  
                 115199909.521                   115199909.521    22122929.702  
                 133976622.021                   133976622.021    25728835.924  
  23904106.943   125616891.938                                                  
  23526950.746   123634931.036                                                  
  25465871.647   133824039.417                                                  
 21  9  1 11 13 25.0000000  0 17G 1G 2G 3G 6G14G17G19G22G24G30C23C27
                                C28C33E13E26E27
  24343104.879   127923828.607    24343108.381    99680891.661                  
  23649524.685   124279111.180    23649522.702    96840871.176                  
  23294272.355   122412197.086    23294275.000    95386119.329                  
  20940388.033   110042444.778    20940390.856    85747349.671                  
  20555210.825   108018373.499    20555211.004    84170166.169                  
  21384069.369   112374057.622    21384068.707    87564203.868                  
  20954827.972   110118388.118    20954825.578    85806542.642                  
  24694499.734   129770488.789    24694497.679   101119866.317                  
  24040322.076   126332713.125    24040324.452    98441067.121                  
  23591502.985   123974138.698    23591505.522    96603213.364                  
                 122879712.433                   122879712.433    23597748.798  
                 122435334.163                   122435334.163    23512417.941  
                 115200593.562                   115200593.562    22123061.058  
                 133974632.218                   133974632.218    25728453.795  
  23904404.015   125618453.033                                                  
  23526766.088   123633960.585                                                  
  25466287.298   133826223.671                                                  
 21  9  1 11 13 26.0000000  0 17G 1G 2G 3G 6G14G17G19G22G24G30C23C27
                                C28C33E13E26E27
  24343809.187   127927529.785    24343812.707    99683775.696                  
  23648994.887   124276326.996    23648992.885    96838701.684                  
  23294374.137   122412731.957    23294376.782    95386536.109                  
  20940050.308   110040669.944    20940053.113    85745966.688                  
  20555376.096   108019242.031    20555376.274    84170842.943                  
  21384193.683   112374710.962    21384193.022    87564712.962                  
  20954736.036   110117904.914    20954733.642    85806166.122                  
  24694874.215   129772456.738    24694872.178   101121399.784                  
  24040046.321   126331264.039    24040048.698    98439937.965                  
  23592153.542   123977557.401    23592156.080    96605877.286                  
                 122882450.629                   122882450.629    23598274.648  
                 122433912.220                   122433912.220    23512144.885  
                 115201277.770                   115201277.770    22123192.466  
                 133972642.578                   133972642.578    25728071.701  
  23904701.123   125620014.332                                                  
  23526581.465   123632990.476                                                  
  25466703.003   133828408.204                                                  
 21  9  1 11 13 27.0000000  0 17G 1G 2G 3G 6G14G17G19G22G24G30C23C27
                                C28C33E13E26E27
  24344513.494   127931230.988    24344517.014    99686659.745                  
  23648465.124   124273543.117    23648463.140    96836532.425                  
  23294476.044   122413267.418    23294478.689    95386953.356                  
  20939712.655   110038895.633    20939715.478    85744584.106                  
  20555541.455   108020111.042    20555541.652    84171520.094                  
  21384318.016   112375364.353    21384317.355    87565222.097                  
  20954644.118   110117421.889    20954641.723    85805789.739                  
  24695248.803   129774425.152    24695246.766   101122933.613                  
  24039770.673   126329815.478    24039773.068    98438809.216                  
  23592804.118   123980976.145    23592806.637    96608541.243                  
                 122885189.113                   122885189.113    23598800.533  
                 122432490.479                   122432490.479    23511871.846  
                 115201962.146                   115201962.146    22123323.875  
                 133970653.093                   133970653.093    25727689.644  
  23904998.267   125621575.829                                                  
  23526396.914   123632020.676                                                  
  25467118.762   133830592.988                                                  
 21  9  1 11 13 28.0000000  0 17G 1G 2G 3G 6G14G17G19G22G24G30C23C27
                                C28C33E13E26E27
  24345217.820   127934932.228    24345221.340    99689543.829                  
  23647935.414   124270759.555    23647933.449    96834363.418                  
  23294578.058   122413803.509    23294580.703    95387371.087                  
  20939375.127   110037121.835    20939377.932    85743201.925                  
  20555706.923   108020980.548    20555707.119    84172197.633                  
  21384442.366   112376017.804    21384441.705    87565731.280                  
  20954552.235   110116939.058    20954549.841    85805413.509                  
  24695623.463   129776394.032    24695621.426   101124467.800                  
  24039495.115   126328367.454    24039497.492    98437680.883                  
  23593454.675   123984394.953    23593457.213    96611205.249                  
                 122887927.888                   122887927.888    23599326.472  
                 122431068.945                   122431068.945    23511598.861  
                 115202646.688                   115202646.688    22123455.338  
                 133968663.770                   133968663.770    25727307.622  
  23905295.447   125623137.536                                                  
  23526212.434   123631051.220                                                  
  25467534.556   133832778.058                                                  
 21  9  1 11 13 29.0000000  0 17G 1G 2G 3G 6G14G17G19G22G24G30C23C27
                                C28C33E13E26E27
  24345922.163   127938633.501    24345925.665    99692427.937                  
  23647405.776   124267976.304    23647403.793    96832194.651                  
  23294680.180   122414340.223    23294682.824    95387789.305                  
  20939037.653   110035348.554    20939040.494    85741820.148                  
  20555872.479   108021850.539    20555872.658    84172875.546                  
  21384566.735   112376671.329    21384566.056    87566240.518                  
  20954460.406   110116456.406    20954457.994    85805037.414                  
  24695998.212   129778363.366    24695996.157   101126002.351                  
  24039219.682   126326919.958    24039222.059    98436552.964                  
  23594105.286   123987813.823    23594107.824    96613869.302                  
                 122890666.945                   122890666.945    23599852.500  
                 122429647.618                   122429647.618    23511325.894  
                 115203331.395                   115203331.395    22123586.818  
                 133966674.607                   133966674.607    25726925.618  
  23905592.663   125624699.449                                                  
  23526028.026   123630082.095                                                  
  25467950.422   133834963.395                                                  
 21  9  1 11 13 30.0000000  0 17G 1G 2G 3G 6G14G17G19G22G24G30C23C27
                                C28C33E13E26E27
  24346626.506   127942334.808    24346630.008    99695312.073                  
  23646876.228   124265193.364    23646874.227    96830026.124                  
  23294782.444   122414877.544    23294785.089    95388207.997                  
  20938700.321   110033575.798    20938703.145    85740438.777                  
  20556038.125   108022721.010    20556038.322    84173553.836                  
  21384691.103   112377324.899    21384690.442    87566749.798                  
  20954368.577   110115973.939    20954366.183    85804661.465                  
  24696373.069   129780333.171    24696371.014   101127537.266                  
  24038944.321   126325473.005    24038946.697    98435425.468                  
  23594755.880   123991232.755    23594758.417    96616533.402                  
                 122893406.293                   122893406.293    23600378.564  
                 122428226.491                   122428226.491    23511052.980  
                 115204016.268                   115204016.268    22123718.352  
                 133964685.601                   133964685.601    25726543.632  
  23905889.914   125626261.568                                                  
  23525843.653   123629113.290                                                  
  25468366.324   133837149.001                                                  
 21  9  1 11 13 31.0000000  0 17G 1G 2G 3G 6G14G17G19G22G24G30C23C27
                                C28C33E13E26E27
  24347330.832   127946036.151    24347334.334    99698196.234                  
  23646346.697   124262410.741    23646344.696    96827857.851                  
  23294884.798   122415415.484    23294887.443    95388627.171                  
  20938363.079   110031803.552    20938365.902    85739057.809                  
  20556203.860   108023591.975    20556204.057    84174232.512                  
  21384815.472   112377978.547    21384814.828    87567259.132                  
  20954276.820   110115491.665    20954274.408    85804285.663                  
  24696747.996   129782303.444    24696745.942   101129072.540                  
  24038669.084   126324026.589    24038671.461    98434298.395                  
  23595406.473   123994651.731    23595409.028    96619197.539                  
                 122896145.931                   122896145.931    23600904.682  
                 122426805.573                   122426805.573    23510780.120  
                 115204701.307                   115204701.307    22123849.903  
                 133962696.755                   133962696.755    25726161.717  
  23906187.219   125627823.894                                                  
  23525659.388   123628144.819                                                  
  25468782.279   133839334.878                                                  
 21  9  1 11 13 32.0000000  0 17G 1G 2G 3G 6G14G17G19G22G24G30C23C27
                                C28C33E13E26E27
  24348035.175   127949737.536    24348038.695    99701080.430                  
  23645817.238   124259628.427    23645815.255    96825689.811                  
  23294987.277   122415954.040    23294989.921    95389046.823                  
  20938025.926   110030031.820    20938028.768    85737677.243                  
  20556369.703   108024463.430    20556369.881    84174911.563                  
  21384939.876   112378632.257    21384939.215    87567768.519                  
  20954185.080   110115009.573    20954182.668    85803910.012                  
  24697123.014   129784274.179    24697120.959   101130608.175                  
  24038393.937   126322580.704    24038396.313    98433171.727                  
  23596057.102   123998070.762    23596059.639    96621861.719                  
                 122898885.855                   122898885.855    23601430.853  
                 122425384.862                   122425384.862    23510507.278  
                 115205386.515                   115205386.515    22123981.509  
                 133960708.066                   133960708.066    25725779.803  
  23906484.559   125629386.426                                                  
  23525475.140   123627176.683                                                  
  25469198.287   133841521.024                                                  
 21  9  1 11 13 33.0000000  0 17G 1G 2G 3G 6G14G17G19G22G24G30C23C27
                                C28C33E13E26E27
  24348739.536   127953438.949    24348743.056    99703964.643                  
  23645287.833   124256846.426    23645285.867    96823522.019                  
  23295089.881   122416493.198    23295092.525    95389466.949                  
  20937688.881   110028260.611    20937691.704    85736297.075                  
  20556535.616   108025335.372    20556535.795    84175591.001                  
  21385064.298   112379286.020    21385063.619    87568277.946                  
  20954093.377   110114527.672    20954090.964    85803534.504                  
  24697498.120   129786245.380    24697496.065   101132144.175                  
  24038118.897   126321135.347    24038121.273    98432045.478                  
  23596707.749   124001489.853    23596710.286    96624525.945                  
                 122901626.066                   122901626.066    23601957.078  
                 122423964.355                   122423964.355    23510234.508  
                 115206071.885                   115206071.885    22124113.114  
                 133958719.543                   133958719.543    25725397.924  
  23906781.935   125630949.173                                                  
  23525290.964   123626208.863                                                  
  25469614.332   133843707.438                                                  
 21  9  1 11 13 34.0000000  0 17G 1G 2G 3G 6G14G17G19G22G24G30C23C27
                                C28C33E13E26E27
  24349443.897   127957140.392    24349447.417    99706848.887                  
  23644758.499   124254064.727    23644756.515    96821354.461                  
  23295192.592   122417032.981    23295195.236    95389887.559                  
  20937351.925   110026489.909    20937354.766    85734917.312                  
  20556701.638   108026207.801    20556701.816    84176270.815                  
  21385188.720   112379939.850    21385188.041    87568787.422                  
  20954001.709   110114045.944    20953999.296    85803159.132                  
  24697873.316   129788217.042    24697871.261   101133680.540                  
  24037843.964   126319690.530    24037846.341    98430919.649                  
  23597358.378   124004909.007    23597360.915    96627190.222                  
                 122904366.565                   122904366.565    23602483.356  
                 122422544.054                   122422544.054    23509961.737  
                 115206757.425                   115206757.425    22124244.755  
                 133956731.176                   133956731.176    25725016.081  
  23907079.365   125632512.104                                                  
  23525106.860   123625241.382                                                  
  25470030.466   133845894.133                                                  
 21  9  1 11 13 35.0000000  0 17G 1G 2G 3G 6G14G17G19G22G24G30C23C27
                                C28C33E13E26E27
  24350148.258   127960841.858    24350151.778    99709733.144                  
  23644229.218   124251283.360    23644227.235    96819187.160                  
  23295295.446   122417573.383    23295298.073    95390308.649                  
  20937015.076   110024719.741    20937017.899    85733537.956                  
  20556867.766   108027080.718    20556867.945    84176951.012                  
  21385313.142   112380593.742    21385312.481    87569296.946                  
  20953910.076   110113564.425    20953907.664    85802783.922                  
  24698248.601   129790189.173    24698246.546   101135217.259                  
  24037569.121   126318246.254    24037571.497    98429794.238                  
  23598009.042   124008328.206    23598011.580    96629854.530                  
                 122907107.355                   122907107.355    23603009.706  
                 122421123.956                   122421123.956    23509689.020  
                 115207443.132                   115207443.132    22124376.432  
                 133954742.970                   133954742.970    25724634.255  
  23907376.813   125634075.250                                                  
  23524922.827   123624274.234                                                  
  25470446.617   133848081.083                                                  
 21  9  1 11 13 36.0000000  0 17G 1G 2G 3G 6G14G17G19G22G24G30C23C27
                                C28C33E13E26E27
  24350852.637   127964543.371    24350856.157    99712617.442                  
  23643699.991   124248502.289    23643698.026    96817020.094                  
  23295398.407   122418114.396    23295401.016    95390730.220                  
  20936678.316   110022950.081    20936681.140    85732159.005                  
  20557033.966   108027954.124    20557034.144    84177631.586                  
  21385437.582   112381247.693    21385436.921    87569806.520                  
  20953818.480   110113083.070    20953816.067    85802408.840                  
  24698623.976   129792161.765    24698621.921   101136754.343                  
  24037294.384   126316802.508    24037296.761    98428669.239                  
  23598659.707   124011747.472    23598662.245    96632518.894                  
                 122909848.430                   122909848.430    23603536.092  
                 122419704.065                   122419704.065    23509416.339  
                 115208129.003                   115208129.003    22124508.162  
                 133952754.921                   133952754.921    25724252.484  
  23907674.314   125635638.606                                                  
  23524738.847   123623307.407                                                  
  25470862.840   133850268.315                                                  
 21  9  1 11 13 37.0000000  0 17G 1G 2G 3G 6G14G17G19G22G24G30C23C27
                                C28C33E13E26E27
  24351557.016   127968244.914    24351560.536    99715501.757                  
  23643170.836   124245721.533    23643168.852    96814853.268                  
  23295501.458   122418656.013    23295504.103    95391152.254                  
  20936341.664   110021180.949    20936344.487    85730780.458                  
  20557200.255   108028828.014    20557200.433    84178312.540                  
  21385562.039   112381901.699    21385561.378    87570316.133                  
  20953726.901   110112601.905    20953724.506    85802033.911                  
  24698999.422   129794134.818    24698997.385   101138291.785                  
  24037019.737   126315359.293    24037022.132    98427544.656                  
  23599310.372   124015166.797    23599312.927    96635183.305                  
                 122912589.790                   122912589.790    23604062.531  
                 122418284.378                   122418284.378    23509143.729  
                 115208815.039                   115208815.039    22124639.893  
                 133950767.034                   133950767.034    25723870.748  
  23907971.851   125637202.157                                                  
  23524554.921   123622340.917                                                  
  25471279.117   133852455.809                                                  
 21  9  1 11 13 38.0000000  0 17G 1G 2G 3G 6G14G17G19G22G24G30C23C27
                                C28C33E13E26E27
  24352261.395   127971946.480    24352264.915    99718386.094                  
  23642641.734   124242941.087    23642639.768    96812686.692                  
  23295604.634   122419198.249    23295607.278    95391574.780                  
  20936005.101   110019412.321    20936007.924    85729402.304                  
  20557366.633   108029702.392    20557366.812    84178993.871                  
  21385686.497   112382555.770    21385685.836    87570825.801                  
  20953635.376   110112120.937    20953632.981    85801659.129                  
  24699374.975   129796108.328    24699372.920   101139829.590                  
  24036745.216   126313916.610    24036747.592    98426420.488                  
  23599961.055   124018586.175    23599963.592    96637847.755                  
                 122915331.440                   122915331.440    23604589.060  
                 122416864.900                   122416864.900    23508871.119  
                 115209501.242                   115209501.242    22124771.677  
                 133948779.308                   133948779.308    25723488.994  
  23908269.424   125638765.918                                                  
  23524371.067   123621374.753                                                  
  25471695.412   133854643.569                                                  
 21  9  1 11 13 39.0000000  0 17G 1G 2G 3G 6G14G17G19G22G24G30C23C27
                                C28C33E13E26E27
  24352965.792   127975648.099    24352969.312    99721270.468                  
  23642112.704   124240160.964    23642110.720    96810520.362                  
  23295707.934   122419741.101    23295710.579    95391997.782                  
  20935668.645   110017644.222    20935671.486    85728024.567                  
  20557533.119   108030577.268    20557533.315    84179675.593                  
  21385810.973   112383209.903    21385810.312    87571335.513                  
  20953543.904   110111640.157    20953541.474    85801284.493                  
  24699750.618   129798082.308    24699748.563   101141367.754                  
  24036470.783   126312474.464    24036473.160    98425296.739                  
  23600611.755   124022005.609    23600614.292    96640512.246                  
                 122918073.379                   122918073.379    23605115.624  
                 122415445.625                   122415445.625    23508598.563  
                 115210187.612                   115210187.612    22124903.497  
                 133946791.738                   133946791.738    25723107.311  
  23908567.033   125640329.891                                                  
  23524187.284   123620408.914                                                  
  25472111.796   133856831.617                                                  
 21  9  1 11 13 40.0000000  0 20G 1G 2G 3G 6G14G17G19G22G24G30C23C27
                                C28C33E 1E13E21E26E27E33
  24353670.207   127979349.738    24353673.727    99724154.867                  
  23641583.727   124237381.155    23641581.744    96808354.282                  
  23295811.360   122420284.570    23295814.005    95392421.262                  
  20935332.278   110015876.634    20935335.102    85726647.223                  
  20557699.694   108031452.629    20557699.873    84180357.692                  
  21385935.466   112383864.094    21385934.805    87571845.275                  
  20953452.433   110111159.559    20953450.038    85800910.001                  
  24700126.332   129800056.755    24700124.277   101142906.286                  
  24036196.458   126311032.860    24036198.834    98424173.410                  
  23601262.473   124025425.110    23601264.993    96643176.793                  
                 122920815.602                   122920815.602    23605642.242  
                 122414026.554                   122414026.554    23508326.042  
                 115210874.149                   115210874.149    22125035.334  
                 133944804.332                   133944804.332    25722725.665  
  25759163.533   135365287.645                                                  
  23908864.695   125641894.064                                                  
  23440506.596   123180671.422                                                  
  23524003.537   123619443.410                                                  
  25472528.216   133859019.918                                                  
  27728200.921   145712699.087                                                  
 21  9  1 11 13 41.0000000  0 20G 1G 2G 3G 6G14G17G19G22G24G30C23C27
                                C28C33E 1E13E21E26E27E33
  24354374.622   127983051.422    24354378.124    99727039.293                  
  23641054.804   124234601.660    23641052.821    96806188.437                  
  23295914.893   122420828.649    23295917.538    95392845.222                  
  20934996.019   110014109.568    20934998.842    85725270.289                  
  20557866.358   108032328.474    20557866.555    84181040.168                  
  21386059.960   112384518.344    21386059.299    87572355.077                  
  20953361.015   110110679.152    20953358.620    85800535.660                  
  24700502.153   129802031.656    24700500.098   101144445.168                  
  24035922.222   126309591.782    24035924.616    98423050.492                  
  23601913.192   124028844.658    23601915.711    96645841.375                  
                 122923558.114                   122923558.114    23606168.896  
                 122412607.692                   122412607.692    23508053.558  
                 115211560.848                   115211560.848    22125167.208  
                 133942817.085                   133942817.085    25722344.018  
  25758733.855   135363029.740                                                  
  23909162.375   125643458.442                                                  
  23440482.633   123180545.493                                                  
  23523819.879   123618478.238                                                  
  25472944.707   133861208.500                                                  
  27727747.405   145710315.828                                                  
 21  9  1 11 13 42.0000000  0 20G 1G 2G 3G 6G14G17G19G22G24G30C23C27
                                C28C33E 1E13E21E26E27E33
  24355079.019   127986753.126    24355082.539    99729923.735                  
  23640525.935   124231822.477    23640523.951    96804022.840                  
  23296018.534   122421373.347    23296021.178    95393269.665                  
  20934659.867   110012343.015    20934662.673    85723893.759                  
  20558033.148   108033204.806    20558033.326    84181723.027                  
  21386184.471   112385172.655    21386183.828    87572864.933                  
  20953269.633   110110198.926    20953267.238    85800161.458                  
  24700878.046   129804007.018    24700876.009   101145984.411                  
  24035648.093   126308151.237    24035650.488    98421927.992                  
  23602563.928   124032264.258    23602566.465    96648505.999                  
                 122926300.913                   122926300.913    23606695.621  
                 122411189.031                   122411189.031    23507781.126  
                 115212247.716                   115212247.716    22125299.117  
                 133940830.004                   133940830.004    25721962.425  
  25758304.248   135360772.004                                                  
  23909460.127   125645023.016                                                  
  23440458.743   123180419.943                                                  
  23523636.275   123617513.397                                                  
  25473361.216   133863397.340                                                  
  27727293.907   145707932.739                                                  
 21  9  1 11 13 43.0000000  0 20G 1G 2G 3G 6G14G17G19G22G24G30C23C27
                                C28C33E 1E13E21E26E27E33
  24355783.433   127990454.874    24355786.954    99732808.214                  
  23639997.137   124229043.607    23639995.135    96801857.484                  
  23296122.317   122421918.662    23296124.962    95393694.583                  
  20934323.804   110010576.982    20934326.628    85722517.624                  
  20558199.973   108034081.637    20558200.152    84182406.269                  
  21386309.000   112385827.029    21386308.339    87573374.832                  
  20953178.286   110109718.892    20953175.874    85799787.403                  
  24701254.046   129805982.856    24701251.973   101147524.024                  
  24035374.072   126306711.230    24035376.466    98420805.906                  
  23603214.664   124035683.921    23603217.202    96651170.671                  
                 122929044.000                   122929044.000    23607222.400  
                 122409770.579                   122409770.579    23507508.713  
                 115212934.750                   115212934.750    22125431.062  
                 133938843.077                   133938843.077    25721580.868  
  25757874.623   135358514.419                                                  
  23909757.878   125646587.808                                                  
  23440434.923   123180294.774                                                  
  23523452.742   123616548.876                                                  
  25473777.796   133865586.465                                                  
  27726840.463   145705549.843                                                  
 21  9  1 11 13 44.0000000  0 20G 1G 2G 3G 6G14G17G19G22G24G30C23C27
                                C28C33E 1E13E21E26E27E33
  24356487.866   127994156.645    24356491.386    99735692.712                  
  23639468.392   124226265.042    23639466.409    96799692.376                  
  23296226.208   122422464.595    23296228.834    95394119.981                  
  20933987.813   110008811.462    20933990.654    85721141.899                  
  20558366.941   108034958.946    20558367.120    84183089.887                  
  21386433.547   112386481.463    21386432.886    87573884.786                  
  20953086.975   110109239.036    20953084.581    85799413.489                  
  24701630.117   129807959.154    24701628.062   101149063.992                  
  24035100.158   126305271.763    24035102.534    98419684.246                  
  23603865.400   124039103.630    23603867.938    96653835.375                  
                 122931787.372                   122931787.372    23607749.232  
                 122408352.328                   122408352.328    23507236.354  
                 115213621.946                   115213621.946    22125563.024  
                 133936856.313                   133936856.313    25721199.329  
  25757445.051   135356256.980                                                  
  23910055.683   125648152.793                                                  
  23440411.175   123180169.989                                                  
  23523269.263   123615584.678                                                  
  25474194.413   133867775.851                                                  
  27726387.037   145703167.130                                                  
 21  9  1 11 13 45.0000000  0 19G 2G 3G 6G14G17G19G22G24G30C23C27C28
                                C33E 1E13E21E26E27E33
  23638939.719   124223486.797    23638937.718    96797527.503                  
  23296330.205   122423011.133    23296332.832    95394545.859                  
  20933651.965   110007046.462    20933654.788    85719766.574                  
  20558533.981   108035836.745    20558534.159    84183773.886                  
  21386558.077   112387135.960    21386557.416    87574394.778                  
  20952995.700   110108759.380    20952993.306    85799039.731                  
  24702006.278   129809935.910    24702004.241   101150604.324                  
  24034826.333   126303832.827    24034828.727    98418562.997                  
  23604516.154   124042523.398    23604518.692    96656500.132                  
                 122934531.032                   122934531.032    23608276.136  
                 122406934.284                   122406934.284    23506964.047  
                 115214309.309                   115214309.309    22125695.023  
                 133934869.712                   133934869.712    25720817.825  
  25757015.498   135353999.708                                                  
  23910353.542   125649717.987                                                  
  23440387.499   123180045.583                                                  
  23523085.837   123614620.821                                                  
  25474611.100   133869965.507                                                  
  27725933.664   145700784.592                                                  
 21  9  1 11 13 46.0000000  0 19G 2G 3G 6G14G17G19G22G24G30C23C27C28
                                C33E 1E13E21E26E27E33
  23638411.082   124220708.861    23638409.099    96795362.884                  
  23296434.328   122423558.290    23296436.955    95394972.211                  
  20933316.188   110005281.975    20933319.011    85718391.652                  
  20558701.092   108036715.031    20558701.288    84184458.265                  
  21386682.642   112387790.512    21386681.980    87574904.821                  
  20952904.461   110108279.903    20952902.067    85798666.113                  
  24702382.546   129811913.132    24702380.473   101152145.019                  
  24034552.615   126302394.425    24034554.992    98417442.164                  
  23605166.944   124045943.222    23605169.482    96659164.930                  
                 122937274.979                   122937274.979    23608803.076  
                 122405516.446                   122405516.446    23506691.759  
                 115214996.840                   115214996.840    22125827.057  
                 133932883.271                   133932883.271    25720436.339  
  25756585.998   135351742.595                                                  
  23910651.419   125651283.392                                                  
  23440363.894   123179921.559                                                  
  23522902.483   123613657.300                                                  
  25475027.824   133872155.427                                                  
  27725480.327   145698402.243                                                  
 21  9  1 11 13 47.0000000  0 19G 2G 3G 6G14G17G19G22G24G30C23C27C28
                                C33E 1E13E21E26E27E33
  23637882.516   124217931.235    23637880.533    96793198.500                  
  23296538.558   122424106.058    23296541.203    95395399.047                  
  20932980.518   110003518.020    20932983.342    85717017.136                  
  20558868.328   108037593.802    20558868.525    84185143.019                  
  21386807.224   112388445.126    21386806.545    87575414.905                  
  20952813.258   110107800.613    20952810.845    85798292.640                  
  24702758.886   129813890.813    24702756.813   101153686.067                  
  24034279.005   126300956.572    24034281.381    98416321.759                  
  23605817.716   124049363.113    23605820.254    96661829.778                  
                 122940019.215                   122940019.215    23609330.087  
                 122404098.814                   122404098.814    23506419.525  
                 115215684.536                   115215684.536    22125959.127  
                 133930896.989                   133930896.989    25720054.907  
  25756156.498   135349485.632                                                  
  23910949.349   125652849.000                                                  
  23440340.378   123179797.913                                                  
  23522719.201   123612694.097                                                  
  25475444.601   133874345.629                                                  
  27725027.007   145696020.075                                                  
 21  9  1 11 13 48.0000000  0 19G 2G 3G 6G14G17G19G22G24G30C23C27C28
                                C33E 1E13E21E26E27E33
  23637354.022   124215153.929    23637352.039    96791034.364                  
  23296642.913   122424654.445    23296645.558    95395826.359                  
  20932644.938   110001754.574    20932647.762    85715643.028                  
  20559035.636   108038473.062    20559035.832    84185828.159                  
  21386931.807   112389099.801    21386931.146    87575925.047                  
  20952722.072   110107321.503    20952719.678    85797919.312                  
  24703135.297   129815868.959    24703133.260   101155227.480                  
  24034005.483   126299519.232    24034007.860    98415201.754                  
  23606468.524   124052783.057    23606471.061    96664494.667                  
                 122942763.736                   122942763.736    23609857.134  
                 122402681.383                   122402681.383    23506147.326  
                 115216372.393                   115216372.393    22126091.215  
                 133928910.868                   133928910.868    25719673.475  
  25755727.052   135347228.832                                                  
  23911247.315   125654414.809                                                  
  23440316.916   123179674.648                                                  
  23522535.954   123611731.231                                                  
  25475861.432   133876536.086                                                  
  27724573.724   145693638.078                                                  
 21  9  1 11 13 49.0000000  0 19G 2G 3G 6G14G17G19G22G24G30C23C27C28
                                C33E 1E13E21E26E27E33
  23636825.582   124212376.935    23636823.580    96788870.472                  
  23296747.393   122425203.448    23296750.038    95396254.156                  
  20932309.465   109999991.649    20932312.306    85714269.317                  
  20559203.068   108039352.821    20559203.247    84186513.688                  
  21387056.372   112389754.538    21387055.711    87576435.231                  
  20952630.940   110106842.598    20952628.546    85797546.133                  
  24703511.815   129817847.573    24703509.778   101156769.254                  
  24033732.087   126298082.441    24033734.464    98414082.176                  
  23607119.314   124056203.040    23607121.869    96667159.591                  
                 122945508.538                   122945508.538    23610384.252  
                 122401264.161                   122401264.161    23505875.163  
                 115217060.421                   115217060.421    22126223.339  
                 133926924.906                   133926924.906    25719292.096  
  25755297.624   135344972.189                                                  
  23911545.317   125655980.813                                                  
  23440293.543   123179551.765                                                  
  23522352.796   123610768.679                                                  
  25476278.316   133878726.819                                                  
  27724120.476   145691256.262                                                  
 21  9  1 11 13 50.0000000  0 19G 2G 3G 6G14G17G19G22G24G30C23C27C28
                                C33E 1E13E21E26E27E33
  23636297.177   124209600.251    23636295.193    96786706.824                  
  23296851.981   122425753.058    23296854.625    95396682.422                  
  20931974.099   109998229.240    20931976.923    85712896.012                  
  20559370.555   108040233.059    20559370.733    84187199.585                  
  21387180.973   112390409.331    21387180.312    87576945.462                  
  20952539.844   110106363.866    20952537.431    85797173.097                  
  24703888.422   129819826.653    24703886.385   101158311.390                  
  24033458.763   126296646.181    24033461.139    98412963.013                  
  23607770.139   124059623.083    23607772.677    96669824.558                  
                 122948253.632                   122948253.632    23610911.424  
                 122399847.140                   122399847.140    23505603.035  
                 115217748.612                   115217748.612    22126355.498  
                 133924939.111                   133924939.111    25718910.736  
  25754868.231   135342715.692                                                  
  23911843.354   125657547.031                                                  
  23440270.224   123179429.258                                                  
  23522169.693   123609806.465                                                  
  25476695.254   133880917.819                                                  
  27723667.264   145688874.629                                                  
 21  9  1 11 13 51.0000000  0 19G 2G 3G 6G14G17G19G22G24G30C23C27C28
                                C33E 1E13E21E26E27E33
  23635768.861   124206823.884    23635766.878    96784543.422                  
  23296956.675   122426303.294    23296959.320    95397111.177                  
  20931638.823   109996467.347    20931641.646    85711523.110                  
  20559538.166   108041113.784    20559538.345    84187885.867                  
  21387305.592   112391064.191    21387304.948    87577455.738                  
  20952448.783   110105885.328    20952446.389    85796800.210                  
  24704265.119   129821806.191    24704263.082   101159853.891                  
  24033185.563   126295210.452    24033187.940    98411844.265                  
  23608420.965   124063043.189    23608423.502    96672489.577                  
                 122950999.028                   122950999.028    23611438.632  
                 122398430.337                   122398430.337    23505330.944  
                 115218436.966                   115218436.966    22126487.693  
                 133922953.446                   133922953.446    25718529.429  
  25754438.856   135340459.362                                                  
  23912141.445   125659113.454                                                  
  23440246.977   123179307.141                                                  
  23521986.660   123608844.582                                                  
  25477112.245   133883109.095                                                  
  27723214.106   145686493.192                                                  
 21  9  1 11 13 52.0000000  0 19G 2G 3G 6G14G17G19G22G24G30C23C27C28
                                C33E 1E13E21E26E27E33
  23635240.563   124204048.007    23635238.562    96782380.492                  
  23297061.495   122426854.175    23297064.140    95397540.458                  
  20931303.618   109994706.047    20931306.441    85710150.708                  
  20559705.867   108041994.981    20559706.046    84188572.500                  
  21387430.246   112391719.064    21387429.585    87577966.005                  
  20952357.741   110105407.087    20952355.328    85796427.609                  
  24704641.905   129823786.210    24704639.868   101161396.761                  
  24032912.489   126293775.134    24032914.883    98410725.765                  
  23609071.826   124066463.203    23609074.381    96675154.448                  
                 122953744.700                   122953744.700    23611965.929  
                 122397013.892                   122397013.892    23505058.888  
                 115219125.535                   115219125.535    22126619.924  
                 133920967.947                   133920967.947    25718148.139  
  25754009.553   135338203.094                                                  
  23912439.554   125660680.062                                                  
  23440223.801   123179185.534                                                  
  23521803.664   123607883.157                                                  
  25477529.273   133885300.632                                                  
  27722760.840   145684112.559                                                  
 21  9  1 11 13 53.0000000  0 19G 2G 3G 6G14G17G19G22G24G30C23C27C28
                                C33E 1E13E21E26E27E33
  23634712.355   124201272.254    23634710.336    96780217.567                  
  23297166.440   122427405.634    23297169.084    95397970.164                  
  20930968.538   109992945.178    20930971.361    85708778.602                  
  20559873.639   108042876.680    20559873.818    84189259.543                  
  21387554.882   112392374.032    21387554.221    87578476.370                  
  20952266.734   110104928.915    20952264.321    85796055.011                  
  24705018.781   129825766.672    24705016.744   101162939.976                  
  24032639.468   126292340.473    24032641.863    98409607.847                  
  23609722.687   124069883.415    23609725.225    96677819.548                  
                 122956490.654                   122956490.654    23612493.261  
                 122395597.487                   122395597.487    23504786.868  
                 115219814.223                   115219814.223    22126752.154  
                 133918982.634                   133918982.634    25717766.886  
  25753580.232   135335947.070                                                  
  23912737.716   125662246.882                                                  
  23440200.696   123179064.169                                                  
  23521620.738   123606921.925                                                  
  25477946.353   133887492.442                                                  
  27722307.735   145681731.474                                                  
 21  9  1 11 13 54.0000000  0 19G 2G 3G 6G14G17G19G22G24G30C23C27C28
                                C33E 1E13E21E26E27E33
  23634184.218   124198496.820    23634182.199    96778054.890                  
  23297271.492   122427957.706    23297274.136    95398400.348                  
  20930633.565   109991184.841    20930636.389    85707406.906                  
  20560041.519   108043758.864    20560041.697    84189946.956                  
  21387679.519   112393029.054    21387678.875    87578986.781                  
  20952175.798   110104450.929    20952173.386    85795682.554                  
  24705395.746   129827747.595    24705393.709   101164483.555                  
  24032366.554   126290906.347    24032368.967    98408490.348                  
  23610373.513   124073303.676    23610376.086    96680484.688                  
                 122959236.890                   122959236.890    23613020.648  
                 122394181.289                   122394181.289    23504514.901  
                 115220503.075                   115220503.075    22126884.457  
                 133916997.480                   133916997.480    25717385.668  
  25753150.982   135333691.207                                                  
  23913035.915   125663813.915                                                  
  23440177.681   123178943.187                                                  
  23521437.902   123605961.034                                                  
  25478363.506   133889684.519                                                  
  27721854.666   145679350.565                                                  
 21  9  1 11 13 55.0000000  0 19G 2G 3G 6G14G17G19G22G24G30C23C27C28
                                C33E 1E13E21E26E27E33
  23633656.117   124195721.695    23633654.116    96775892.456                  
  23297376.687   122428510.386    23297379.314    95398831.012                  
  20930298.682   109989425.023    20930301.505    85706035.622                  
  20560209.488   108044641.546    20560209.684    84190634.763                  
  21387804.209   112393684.155    21387803.548    87579497.245                  
  20952084.881   110103973.136    20952082.468    85795310.250                  
  24705772.782   129829728.984    24705770.745   101166027.492                  
  24032093.766   126289472.766    24032096.160    98407373.270                  
  23611024.392   124076723.992    23611026.965    96683149.868                  
                 122961983.414                   122961983.414    23613548.088  
                 122392765.297                   122392765.297    23504242.988  
                 115221192.094                   115221192.094    22127016.777  
                 133915012.487                   133915012.487    25717004.468  
  25752721.715   135331435.496                                                  
  23913334.167   125665381.151                                                  
  23440154.737   123178822.590                                                  
  23521255.102   123605000.457                                                  
  25478780.694   133891876.866                                                  
  27721401.633   145676969.847                                                  
 21  9  1 11 13 56.0000000  0 19G 2G 3G 6G14G17G19G22G24G30C23C27C28
                                C33E 1E13E21E26E27E33
  23633128.105   124192946.889    23633126.086    96773730.270                  
  23297481.953   122429063.682    23297484.598    95399262.147                  
  20929963.906   109987665.707    20929966.711    85704664.726                  
  20560377.546   108045524.712    20560377.742    84191322.942                  
  21387928.863   112394339.312    21387928.202    87580007.757                  
  20951993.981   110103495.531    20951991.586    85794938.086                  
  24706149.926   129831710.829    24706147.889   101167571.789                  
  24031821.067   126288039.708    24031823.461    98406256.606                  
  23611675.271   124080144.371    23611677.826    96685815.093                  
                 122964730.226                   122964730.226    23614075.581  
                 122391349.509                   122391349.509    23503971.075  
                 115221881.277                   115221881.277    22127149.115  
                 133913027.660                   133913027.660    25716623.304  
  25752292.519   135329179.953                                                  
  23913632.418   125666948.581                                                  
  23440131.865   123178702.360                                                  
  23521072.374   123604040.218                                                  
  25479197.936   133894069.483                                                  
  27720948.635   145674589.317                                                  
 21  9  1 11 13 57.0000000  0 19G 2G 3G 6G14G17G19G22G24G30C23C27C28
                                C33E 1E13E21E26E27E33
  23632600.147   124190172.398    23632598.128    96771568.329                  
  23297587.380   122429617.595    23297590.007    95399693.770                  
  20929629.219   109985906.930    20929632.042    85703294.251                  
  20560545.693   108046408.362    20560545.908    84192011.501                  
  21388053.553   112394994.530    21388052.892    87580518.317                  
  20951903.135   110103018.105    20951900.722    85794566.070                  
  24706527.141   129833693.134    24706525.104   101169116.442                  
  24031548.457   126286607.192    24031550.851    98405140.355                  
  23612326.168   124083564.796    23612328.724    96688480.362                  
                 122967477.323                   122967477.323    23614603.129  
                 122389933.927                   122389933.927    23503699.234  
                 115222570.628                   115222570.628    22127281.506  
                 133911042.995                   133911042.995    25716242.158  
  25751863.323   135326924.562                                                  
  23913930.742   125668516.228                                                  
  23440109.064   123178582.523                                                  
  23520889.717   123603080.310                                                  
  25479615.249   133896262.367                                                  
  27720495.673   145672208.957                                                  
 21  9  1 11 13 58.0000000  0 19G 2G 3G 6G14G17G19G22G24G30C23C27C28
                                C33E 1E13E21E26E27E33
  23632072.225   124187398.208    23632070.224    96769406.625                  
  23297692.897   122430172.126    23297695.542    95400125.872                  
  20929294.639   109984148.653    20929297.445    85701924.165                  
  20560713.966   108047292.512    20560714.144    84192700.448                  
  21388178.243   112395649.801    21388177.600    87581028.917                  
  20951812.324   110102540.867    20951809.894    85794194.196                  
  24706904.463   129835675.911    24706902.426   101170661.461                  
  24031275.972   126285175.214    24031278.385    98404024.530                  
  23612977.065   124086985.280    23612979.621    96691145.672                  
                 122970224.708                   122970224.708    23615130.747  
                 122388518.546                   122388518.546    23503427.428  
                 115223260.139                   115223260.139    22127413.916  
                 133909058.488                   133909058.488    25715861.065  
  25751434.180   135324669.333                                                  
  23914229.101   125670084.074                                                  
  23440086.316   123178463.062                                                  
  23520707.113   123602120.722                                                  
  25480032.580   133898455.533                                                  
  27720042.747   145669828.773                                                  
 21  9  1 11 13 59.0000000  0 19G 2G 3G 6G14G17G19G22G24G30C23C27C28
                                C33E 1E13E21E26E27E33
  23631544.374   124184624.345    23631542.355    96767245.173                  
  23297798.539   122430727.268    23297801.183    95400558.450                  
  20928960.131   109982390.903    20928962.955    85700554.492                  
  20560882.292   108048177.136    20560882.489    84193389.766                  
  21388302.969   112396305.140    21388302.308    87581539.573                  
  20951721.532   110102063.817    20951719.120    85793822.469                  
  24707281.857   129837659.141    24707279.802   101172206.837                  
  24031003.577   126283743.769    24031005.971    98402909.121                  
  23613627.962   124090405.823    23613630.518    96693811.030                  
                 122972972.374                   122972972.374    23615658.402  
                 122387103.371                   122387103.371    23503155.658  
                 115223949.819                   115223949.819    22127546.361  
                 133907074.149                   133907074.149    25715479.973  
  25751005.038   135322414.247                                                  
  23914527.478   125671652.120                                                  
  23440063.658   123178343.985                                                  
  23520524.581   123601161.465                                                  
  25480449.982   133900648.945                                                  
  27719589.839   145667448.777                                                  
 21  9  1 11 14  0.0000000  0 19G 2G 3G 6G14G17G19G22G24G30C23C27C28
                                C33E 1E13E21E26E27E33
  23631016.577   124181850.789    23631014.575    96765083.961                  
  23297904.305   122431283.032    23297906.932    95400991.511                  
  20928625.766   109980633.677    20928628.572    85699185.222                  
  20561050.725   108049062.257    20561050.922    84194079.468                  
  21388427.677   112396960.534    21388427.016    87582050.270                  
  20951630.793   110101586.954    20951628.381    85793450.887                  
  24707659.340   129839642.839    24707657.303   101173752.574                  
  24030731.289   126282312.856    24030733.683    98401794.122                  
  23614278.877   124093826.401    23614281.432    96696476.418                  
                 122975720.332                   122975720.332    23616186.127  
                 122385688.403                   122385688.403    23502883.942  
                 115224639.665                   115224639.665    22127678.842  
                 133905089.964                   133905089.964    25715098.934  
  25750575.967   135320159.329                                                  
  23914825.926   125673220.375                                                  
  23440041.072   123178225.286                                                  
  23520342.103   123600202.543                                                  
  25480867.438   133902842.645                                                  
  27719136.984   145665068.969                                                  
 21  9  1 11 14  1.0000000  0 19G 2G 3G 6G14G17G19G22G24G30C23C27C28
                                C33E 1E13E21E26E27E33
  23630488.869   124179077.550    23630486.832    96762922.996                  
  23298010.179   122431839.398    23298012.824    95401425.042                  
  20928291.455   109978876.954    20928294.278    85697816.348                  
  20561219.266   108049947.868    20561219.445    84194769.555                  
  21388552.403   112397615.996    21388551.759    87582561.015                  
  20951540.108   110101110.276    20951537.678    85793079.450                  
  24708036.913   129841626.993    24708034.875   101175298.663                  
  24030459.108   126280882.479    24030461.502    98400679.543                  
  23614929.828   124097247.052    23614932.383    96699141.856                  
                 122978468.572                   122978468.572    23616713.871  
                 122384273.642                   122384273.642    23502612.243  
                 115225329.676                   115225329.676    22127811.359  
                 133903105.950                   133903105.950    25714717.912  
  25750146.878   135317904.564                                                  
  23915124.375   125674788.832                                                  
  23440018.557   123178106.969                                                  
  23520159.678   123599243.953                                                  
  25481284.948   133905036.608                                                  
  27718684.165   145662689.331                                                  
 21  9  1 11 14  2.0000000  0 19G 2G 3G 6G14G17G19G22G24G30C23C27C28
                                C33E 1E13E21E26E27E33
  23629961.196   124176304.626    23629959.177    96760762.277                  
  23298116.178   122432396.383    23298118.805    95401859.059                  
  20927957.286   109977120.749    20927960.074    85696447.878                  
  20561387.878   108050833.965    20561388.057    84195460.020                  
  21388677.146   112398271.511    21388676.503    87583071.808                  
  20951449.440   110100633.790    20951447.028    85792708.160                  
  24708414.574   129843611.616    24708412.537   101176845.125                  
  24030187.016   126279452.646    24030189.393    98399565.387                  
  23615580.761   124100667.750    23615583.316    96701807.335                  
                 122981217.099                   122981217.099    23617241.704  
                 122382859.083                   122382859.083    23502340.581  
                 115226019.847                   115226019.847    22127943.893  
                 133901122.094                   133901122.094    25714336.945  
  25749717.860   135315649.968                                                  
  23915422.895   125676357.497                                                  
  23439996.114   123177989.031                                                  
  23519977.342   123598285.682                                                  
  25481702.476   133907230.836                                                  
  27718231.364   145660309.883                                                  
 21  9  1 11 14  3.0000000  0 19G 2G 3G 6G14G17G19G22G24G30C23C27C28
                                C33E 1E13E21E26E27E33
  23629433.578   124173532.015    23629431.576    96758601.801                  
  23298222.285   122432953.992    23298224.911    95402293.558                  
  20927623.189   109975365.074    20927625.994    85695079.820                  
  20561556.597   108051720.547    20561556.776    84196150.864                  
  21388801.908   112398927.087    21388801.247    87583582.644                  
  20951358.809   110100157.485    20951356.378    85792337.013                  
  24708792.343   129845596.700    24708790.288   101178391.946                  
  24029915.014   126278023.332    24029917.426    98398451.638                  
  23616231.693   124104088.496    23616234.267    96704472.855                  
                 122983965.912                   122983965.912    23617769.609  
                 122381444.726                   122381444.726    23502068.972  
                 115226710.187                   115226710.187    22128076.463  
                 133899138.398                   133899138.398    25713955.995  
  25749288.843   135313395.520                                                  
  23915721.432   125677926.358                                                  
  23439973.759   123177871.480                                                  
  23519795.042   123597327.746                                                  
  25482120.075   133909425.337                                                  
  27717778.599   145657930.612                                                  
 21  9  1 11 14  4.0000000  0 19G 2G 3G 6G14G17G19G22G24G30C23C27C28
                                C33E 1E13E21E26E27E33
  23628906.048   124170759.727    23628904.011    96756441.575                  
  23298328.498   122433512.204    23298331.143    95402728.527                  
  20927289.181   109973609.910    20927292.004    85693712.159                  
  20561725.406   108052607.625    20561725.585    84196842.093                  
  21388926.651   112399582.722    21388926.026    87584093.531                  
  20951268.195   110099681.376    20951265.782    85791966.019                  
  24709170.184   129847582.245    24709168.129   101179939.126                  
  24029643.137   126276594.578    24029645.531    98397338.321                  
  23616882.662   124107509.308    23616885.217    96707138.421                  
                 122986715.009                   122986715.009    23618297.513  
                 122380030.575                   122380030.575    23501797.398  
                 115227400.693                   115227400.693    22128209.052  
                 133897154.867                   133897154.867    25713575.081  
  25748859.879   135311141.238                                                  
  23916020.024   125679495.429                                                  
  23439951.459   123177754.304                                                  
  23519612.814   123596370.142                                                  
  25482537.745   133911620.114                                                  
  27717325.887   145655551.531                                                  
 21  9  1 11 14  5.0000000  0 19G 2G 3G 6G14G17G19G22G24G30C23C27C28
                                C33E 1E13E21E26E27E33
  23628378.537   124167987.739    23628376.536    96754281.586                  
  23298434.855   122434071.028    23298437.481    95403163.977                  
  20926955.298   109971855.274    20926958.104    85692344.911                  
  20561894.304   108053495.184    20561894.483    84197533.695                  
  21389051.449   112400238.419    21389050.805    87584604.466                  
  20951177.635   110099205.447    20951175.222    85791595.165                  
  24709548.096   129849568.259    24709546.059   101181486.665                  
  24029371.367   126275166.335    24029373.761    98396225.407                  
  23617533.648   124110930.165    23617536.204    96709804.024                  
                 122989464.386                   122989464.386    23618825.525  
                 122378616.633                   122378616.633    23501525.878  
                 115228091.358                   115228091.358    22128341.693  
                 133895171.499                   133895171.499    25713194.203  
  25748430.916   135308887.098                                                  
  23916318.669   125681064.698                                                  
  23439929.248   123177637.504                                                  
  23519430.657   123595412.860                                                  
  25482955.434   133913815.158                                                  
  27716873.194   145653172.630                                                  
 21  9  1 11 14  6.0000000  0 19G 2G 3G 6G14G17G19G22G24G30C23C27C28
                                C33E 1E13E21E26E27E33
  23627851.115   124165216.073    23627849.096    96752121.847                  
  23298541.318   122434630.469    23298543.945    95403599.903                  
  20926621.505   109970101.149    20926624.328    85690978.058                  
  20562063.274   108054383.222    20562063.488    84198225.675                  
  21389176.246   112400894.177    21389175.585    87585115.446                  
  20951087.092   110098729.696    20951084.680    85791224.448                  
  24709926.115   129851554.734    24709924.060   101183034.568                  
  24029099.686   126273738.650    24029102.081    98395112.922                  
  23618184.617   124114351.086    23618187.172    96712469.675                  
                 122992214.056                   122992214.056    23619353.555  
                 122377202.892                   122377202.892    23501254.376  
                 115228782.195                   115228782.195    22128474.389  
                 133893188.292                   133893188.292    25712813.343  
  25748002.023   135306633.133                                                  
  23916617.314   125682634.173                                                  
  23439907.108   123177521.095                                                  
  23519248.554   123594455.925                                                  
  25483373.194   133916010.454                                                  
  27716420.535   145650793.919                                                  
 21  9  1 11 14  7.0000000  0 19G 2G 3G 6G14G17G19G22G24G30C23C27C28
                                C33E 1E13E21E26E27E33
  23627323.764   124162444.748    23627321.745    96749962.368                  
  23298647.871   122435190.514    23298650.516    95404036.300                  
  20926287.801   109968347.543    20926290.624    85689611.614                  
  20562232.386   108055271.761    20562232.565    84198918.043                  
  21389301.043   112401549.988    21389300.382    87585626.468                  
  20950996.603   110098254.128    20950994.173    85790853.880                  
  24710304.224   129853541.667    24710302.186   101184582.824                  
  24028828.095   126272311.484    24028830.507    98394000.845                  
  23618835.603   124117772.058    23618838.158    96715135.367                  
                 122994964.008                   122994964.008    23619881.656  
                 122375789.354                   122375789.354    23500982.928  
                 115229473.195                   115229473.195    22128607.084  
                 133891205.250                   133891205.250    25712432.518  
  25747573.113   135304379.324                                                  
  23916916.012   125684203.848                                                  
  23439885.022   123177405.067                                                  
  23519066.522   123593499.315                                                  
  25483791.007   133918206.023                                                  
  27715967.913   145648415.396                                                  
 21  9  1 11 14  8.0000000  0 19G 2G 3G 6G14G17G19G22G24G30C23C27C28
                                C33E 1E13E21E26E27E33
  23626796.432   124159673.651    23626794.412    96747803.074                  
  23298754.585   122435751.214    23298757.212    95404473.211                  
  20925954.204   109966594.465    20925957.028    85688245.582                  
  20562401.552   108056160.796    20562401.749    84199610.800                  
  21389425.840   112402205.873    21389425.179    87586137.542                  
  20950906.168   110097778.794    20950903.738    85790483.488                  
  24710682.404   129855529.051    24710680.366   101186131.438                  
  24028556.629   126270884.861    24028559.023    98392889.190                  
  23619486.607   124121193.055    23619489.163    96717801.079                  
                 122997714.245                   122997714.245    23620409.828  
                 122374376.023                   122374376.023    23500711.498  
                 115230164.355                   115230164.355    22128739.797  
                 133889222.370                   133889222.370    25712051.747  
  25747144.274   135302125.656                                                  
  23917214.764   125685773.734                                                  
  23439863.007   123177289.417                                                  
  23518884.562   123592542.996                                                  
  25484208.856   133920401.891                                                  
  27715515.344   145646036.999                                                  
 21  9  1 11 14  9.0000000  0 19G 2G 3G 6G14G17G19G22G24G30C23C27C28
                                C33E 1E13E21E26E27E33
  23626269.188   124156902.930    23626267.187    96745644.075                  
  23298861.406   122436312.507    23298864.033    95404910.582                  
  20925620.697   109964841.890    20925623.520    85686879.938                  
  20562570.825   108057050.313    20562571.022    84200303.930                  
  21389550.656   112402861.810    21389550.012    87586648.664                  
  20950815.733   110097303.613    20950813.321    85790113.219                  
  24711060.673   129857516.914    24711058.636   101187680.422                  
  24028285.252   126269458.774    24028287.664    98391777.952                  
  23620137.612   124124614.126    23620140.185    96720466.849                  
                 123000464.771                   123000464.771    23620938.019  
                 122372962.898                   122372962.898    23500440.121  
                 115230855.684                   115230855.684    22128872.564  
                 133887239.657                   133887239.657    25711670.976  
  25746715.436   135299872.155                                                  
  23917513.534   125687343.816                                                  
  23439841.082   123177174.143                                                  
  23518702.638   123591587.038                                                  
  25484626.777   133922598.003                                                  
  27715062.776   145643658.837                                                  
 21  9  1 11 14 10.0000000  0 19G 2G 3G 6G14G17G19G22G24G30C23C27C28
                                C33E 1E13E21E26E27E33
  23625741.998   124154132.515    23625739.979    96743485.307                  
  23298968.316   122436874.409    23298970.961    95405348.430                  
  20925287.297   109963089.845    20925290.120    85685514.706                  
  20562740.188   108057940.316    20562740.384    84200997.437                  
  21389675.506   112403517.809    21389674.845    87587159.832                  
  20950725.334   110096828.626    20950722.922    85789743.097                  
  24711439.067   129859505.232    24711436.995   101189229.758                  
  24028013.982   126268033.222    24028016.377    98390667.137                  
  23620788.634   124128035.250    23620791.207    96723132.659                  
                 123003215.578                   123003215.578    23621466.281  
                 122371549.977                   122371549.977    23500168.798  
                 115231547.181                   115231547.181    22129005.367  
                 133885257.100                   133885257.100    25711290.241  
  25746286.669   135297618.824                                                  
  23917812.358   125688914.098                                                  
  23439819.228   123177059.257                                                  
  23518520.784   123590631.402                                                  
  25485044.733   133924794.388                                                  
  27714610.278   145641280.845                                                  
 21  9  1 11 14 11.0000000  0 19G 2G 3G 6G14G17G19G22G24G30C23C27C28
                                C33E 1E13E21E26E27E33
  23625214.862   124151362.413    23625212.861    96741326.789                  
  23299075.388   122437436.934    23299077.996    95405786.757                  
  20924954.004   109961338.308    20924956.791    85684149.872                  
  20562909.640   108058830.813    20562909.836    84201691.328                  
  21389800.339   112404173.872    21389799.696    87587671.046                  
  20950635.006   110096353.823    20950632.576    85789373.125                  
  24711817.515   129861494.013    24711815.460   101190779.458                  
  24027742.820   126266608.195    24027745.196    98389556.726                  
  23621439.656   124131456.432    23621442.211    96725798.516                  
                 123005966.673                   123005966.673    23621994.596  
                 122370137.263                   122370137.263    23499897.492  
                 115232238.835                   115232238.835    22129138.187  
                 133883274.710                   133883274.710    25710909.541  
  25745857.883   135295365.638                                                  
  23918111.218   125690484.589                                                  
  23439797.428   123176944.754                                                  
  23518339.003   123589676.093                                                  
  25485462.744   133926991.042                                                  
  27714157.799   145638903.026                                                  
 21  9  1 11 14 12.0000000  0 19G 2G 3G 6G14G17G19G22G24G30C23C27C28
                                C33E 1E13E21E26E27E33
  23624687.798   124148592.622    23624685.778    96739168.508                  
  23299182.548   122438000.067    23299185.175    95406225.561                  
  20924620.782   109959587.302    20924623.605    85682785.450                  
  20563079.199   108059721.793    20563079.378    84202385.598                  
  21389925.208   112404829.988    21389924.565    87588182.308                  
  20950544.678   110095879.214    20950542.266    85789003.298                  
  24712196.053   129863483.249    24712193.998   101192329.512                  
  24027471.747   126265183.717    24027474.141    98388446.743                  
  23622090.696   124134877.665    23622093.251    96728464.406                  
                 123008718.050                   123008718.050    23622522.983  
                 122368724.749                   122368724.749    23499626.240  
                 115232930.655                   115232930.655    22129271.043  
                 133881292.485                   133881292.485    25710528.877  
  25745429.152   135293112.621                                                  
  23918410.095   125692055.285                                                  
  23439775.717   123176830.625                                                  
  23518157.275   123588721.121                                                  
  25485880.807   133929187.973                                                  
  27713705.337   145636525.398                                                  
 21  9  1 11 14 13.0000000  0 19G 2G 3G 6G14G17G19G22G24G30C23C27C28
                                C33E 1E13E21E26E27E33
  23624160.786   124145823.151    23624158.767    96737010.477                  
  23299289.816   122438563.824    23299292.460    95406664.848                  
  20924287.686   109957836.804    20924290.509    85681421.425                  
  20563248.848   108060613.270    20563249.026    84203080.253                  
  21390050.077   112405486.184    21390049.416    87588693.624                  
  20950454.404   110095404.802    20950451.974    85788633.617                  
  24712574.679   129865472.958    24712572.642   101193879.925                  
  24027200.781   126263759.785    24027203.175    98387337.179                  
  23622741.754   124138298.964    23622744.327    96731130.352                  
                 123011469.715                   123011469.715    23623051.424  
                 122367312.441                   122367312.441    23499355.024  
                 115233622.644                   115233622.644    22129403.917  
                 133879310.417                   133879310.417    25710148.231  
  25745000.456   135290859.751                                                  
  23918709.044   125693626.183                                                  
  23439754.060   123176716.886                                                  
  23517975.618   123587766.474                                                  
  25486298.924   133931385.176                                                  
  27713252.947   145634147.946                                                  
 21  9  1 11 14 14.0000000  0 19G 2G 3G 6G14G17G19G22G24G30C23C27C28
                                C33E 1E13E21E26E27E33
  23623633.811   124143053.997    23623631.828    96734852.688                  
  23299397.227   122439128.192    23299399.835    95407104.609                  
  20923954.678   109956086.839    20923957.484    85680057.812                  
  20563418.585   108061505.234    20563418.764    84203775.285                  
  21390174.963   112406142.438    21390174.302    87589204.984                  
  20950364.165   110094930.566    20950361.735    85788264.082                  
  24712953.396   129867463.124    24712951.358   101195430.702                  
  24026929.922   126262336.384    24026932.317    98386228.030                  
  23623392.812   124141720.299    23623395.385    96733796.321                  
                 123014221.665                   123014221.665    23623579.900  
                 122365900.340                   122365900.340    23499083.844  
                 115234314.798                   115234314.798    22129536.845  
                 133877328.520                   133877328.520    25709767.639  
  25744571.778   135288607.054                                                  
  23919008.028   125695197.286                                                  
  23439732.492   123176603.522                                                  
  23517794.016   123586812.159                                                  
  25486717.077   133933582.632                                                  
  27712800.557   145631770.691                                                  
 21  9  1 11 14 15.0000000  0 19G 2G 3G 6G14G17G19G22G24G30C23C27C28
                                C33E 1E13E21E26E27E33
  23623106.943   124140285.158    23623104.924    96732695.146                  
  23299504.727   122439693.173    23299507.353    95407544.851                  
  20923621.761   109954337.386    20923624.584    85678694.597                  
  20563588.395   108062397.691    20563588.591    84204470.699                  
  21390299.832   112406798.745    21390299.207    87589716.395                  
  20950273.962   110094456.514    20950271.532    85787894.687                  
  24713332.201   129869453.757    24713330.164   101196981.840                  
  24026659.135   126260913.511    24026661.547    98385119.296                  
  23624043.887   124145141.690    23624046.460    96736462.337                  
                 123016973.894                   123016973.894    23624108.448  
                 122364488.442                   122364488.442    23498812.700  
                 115235007.109                   115235007.109    22129669.808  
                 133875346.781                   133875346.781    25709387.065  
  25744143.136   135286354.516                                                  
  23919307.013   125696768.599                                                  
  23439710.995   123176490.555                                                  
  23517612.484   123585858.173                                                  
  25487135.302   133935780.370                                                  
  27712348.221   145629393.606                                                  
 21  9  1 11 14 16.0000000  0 19G 2G 3G 6G14G17G19G22G24G30C23C27C28
                                C33E 1E13E21E26E27E33
  23622580.093   124137516.579    23622578.091    96730537.782                  
  23299612.352   122440258.753    23299614.996    95407985.554                  
  20923288.932   109952588.446    20923291.756    85677331.782                  
  20563758.311   108063290.661    20563758.526    84205166.532                  
  21390424.755   112407455.067    21390424.093    87590227.782                  
  20950183.777   110093982.698    20950181.365    85787525.500                  
  24713711.096   129871444.848    24713709.059   101198533.337                  
  24026388.509   126259491.110    24026390.903    98384010.891                  
  23624694.963   124148563.187    23624697.536    96739128.461                  
                 123019726.414                   123019726.414    23624637.014  
                 122363076.745                   122363076.745    23498541.609  
                 115235699.589                   115235699.589    22129802.772  
                 133873365.210                   133873365.210    25709006.526  
  25743714.512   135284102.133                                                  
  23919606.086   125698340.092                                                  
  23439689.588   123176377.969                                                  
  23517431.006   123584904.401                                                  
  25487553.580   133937978.368                                                  
  27711895.902   145627016.835                                                  
 21  9  1 11 14 17.0000000  0 19G 2G 3G 6G14G17G19G22G24G30C23C27C28
                                C33E 1E13E21E26E27E33
  23622053.314   124134748.355    23622051.313    96728380.720                  
  23299720.102   122440824.963    23299722.747    95408426.754                  
  20922956.247   109950840.031    20922959.052    85675969.378                  
  20563928.335   108064184.089    20563928.514    84205862.712                  
  21390549.659   112408111.503    21390549.016    87590739.289                  
  20950093.646   110093509.019    20950091.216    85787156.390                  
  24714090.080   129873436.393    24714088.043   101200085.188                  
  24026117.936   126258069.309    24026120.348    98382902.989                  
  23625346.057   124151984.698    23625348.612    96741794.571                  
                 123022479.216                   123022479.216    23625165.669  
                 122361665.258                   122361665.258    23498270.536  
                 115236392.235                   115236392.235    22129935.807  
                 133871383.802                   133871383.802    25708626.023  
  25743285.941   135281849.906                                                  
  23919905.160   125699911.809                                                  
  23439668.217   123176265.752                                                  
  23517249.600   123583951.078                                                  
  25487971.876   133940176.640                                                  
  27711443.637   145624640.128                                                  
 21  9  1 11 14 18.0000000  0 19G 2G 3G 6G14G17G19G22G24G30C23C27C28
                                C33E 1E13E21E26E27E33
  23621526.624   124131980.460    23621524.605    96726223.914                  
  23299827.959   122441391.793    23299830.604    95408868.433                  
  20922623.615   109949092.130    20922626.438    85674607.370                  
  20564098.448   108065078.013    20564098.645    84206559.267                  
  21390674.599   112408767.995    21390673.938    87591250.836                  
  20950003.533   110093035.528    20950001.120    85786787.434                  
  24714469.135   129875428.403    24714467.098   101201637.399                  
  24025847.488   126256648.047    24025849.883    98381795.507                  
  23625997.168   124155406.253    23625999.723    96744460.711                  
                 123025232.300                   123025232.300    23625694.377  
                 122360253.974                   122360253.974    23497999.516  
                 115237085.044                   115237085.044    22130068.842  
                 133869402.554                   133869402.554    25708245.538  
  25742857.389   135279597.860                                                  
  23920204.288   125701483.711                                                  
  23439646.935   123176153.938                                                  
  23517068.247   123582998.086                                                  
  25488390.261   133942375.202                                                  
  27710991.408   145622263.606                                                  
 21  9  1 11 14 19.0000000  0 19G 2G 3G 6G14G17G19G22G24G30C23C27C28
                                C33E 1E13E21E26E27E33
  23620999.953   124129212.876    23620997.951    96724067.348                  
  23299935.942   122441959.233    23299938.586    95409310.590                  
  20922291.108   109947344.745    20922293.914    85673245.770                  
  20564268.633   108065972.421    20564268.847    84207256.204                  
  21390799.539   112409424.551    21390798.878    87591762.429                  
  20949913.473   110092562.225    20949911.060    85786418.624                  
  24714848.298   129877420.881    24714846.261   101203189.973                  
  24025577.112   126255227.325    24025579.524    98380688.444                  
  23626648.280   124158827.858    23626650.835    96747126.895                  
                 123027985.672                   123027985.672    23626223.122  
                 122358842.890                   122358842.890    23497728.514  
                 115237778.015                   115237778.015    22130201.912  
                 133867421.472                   133867421.472    25707865.106  
  25742428.854   135277345.950                                                  
  23920503.433   125703055.833                                                  
  23439625.742   123176042.500                                                  
  23516886.966   123582045.415                                                  
  25488808.682   133944574.017                                                  
  27710539.179   145619887.255                                                  
 21  9  1 11 14 20.0000000  0 19G 2G 3G 6G14G17G19G22G24G30C23C27C28
                                C33E 1E13E21E26E27E33
  23620473.353   124126445.606    23620471.351    96721911.036                  
  23300044.032   122442527.296    23300046.676    95409753.231                  
  20921958.673   109945597.882    20921961.514    85671884.574                  
  20564438.942   108066867.316    20564439.139    84207953.520                  
  21390924.480   112410081.163    21390923.836    87592274.075                  
  20949823.449   110092089.113    20949821.036    85786049.961                  
  24715227.532   129879413.821    24715225.495   101204742.906                  
  24025306.861   126253807.125    24025309.255    98379581.793                  
  23627299.373   124162249.507    23627301.964    96749793.110                  
                 123030739.326                   123030739.326    23626751.938  
                 122357432.016                   122357432.016    23497457.584  
                 115238471.152                   115238471.152    22130335.036  
                 133865440.555                   133865440.555    25707484.675  
  25742000.355   135275094.198                                                  
  23920802.668   125704628.161                                                  
  23439604.603   123175931.425                                                  
  23516705.738   123581093.081                                                  
  25489227.139   133946773.104                                                  
  27710087.021   145617511.094                                                  
 21  9  1 11 14 21.0000000  0 19G 2G 3G 6G14G17G19G22G24G30C23C27C28
                                C33E 1E13E21E26E27E33
  23619946.824   124123678.656    23619944.823    96719754.964                  
  23300152.264   122443095.960    23300154.909    95410196.344                  
  20921626.363   109943851.536    20921629.204    85670523.778                  
  20564609.323   108067762.699    20564609.520    84208651.218                  
  21391049.438   112410737.831    21391048.794    87592785.758                  
  20949733.442   110091616.188    20949731.048    85785681.446                  
  24715606.874   129881407.215    24715604.837   101206296.200                  
  24025036.717   126252387.480    24025039.111    98378475.574                  
  23627950.520   124165671.215    23627953.076    96752459.371                  
                 123033493.264                   123033493.264    23627280.807  
                 122356021.343                   122356021.343    23497186.672  
                 115239164.452                   115239164.452    22130468.179  
                 133863459.802                   133863459.802    25707104.297  
  25741571.891   135272842.613                                                  
  23921101.902   125706200.679                                                  
  23439583.536   123175820.749                                                  
  23516524.564   123580141.069                                                  
  25489645.667   133948972.453                                                  
  27709634.881   145615135.112                                                  
 21  9  1 11 14 22.0000000  0 19G 2G 3G 6G14G17G19G22G24G30C23C27C28
                                C33E 1E13E21E26E27E33
  23619420.367   124120912.008    23619418.366    96717599.132                  
  23300260.586   122443665.251    23300263.249    95410639.941                  
  20921294.142   109942105.707    20921296.983    85669163.391                  
  20564779.794   108068658.571    20564780.008    84209349.296                  
  21391174.414   112411394.564    21391173.753    87593297.493                  
  20949643.472   110091143.449    20949641.077    85785313.071                  
  24715986.305   129883401.073    24715984.268   101207849.851                  
  24024766.662   126250968.351    24024769.057    98377369.757                  
  23628601.667   124169092.972    23628604.223    96755125.669                  
                 123036247.488                   123036247.488    23627809.712  
                 122354610.879                   122354610.879    23496915.813  
                 115239857.918                   115239857.918    22130601.338  
                 133861479.211                   133861479.211    25706723.937  
  25741143.463   135270591.187                                                  
  23921401.173   125707773.411                                                  
  23439562.540   123175710.446                                                  
  23516343.480   123579189.395                                                  
  25490064.231   133951172.074                                                  
  27709182.777   145612759.309                                                  
 21  9  1 11 14 23.0000000  0 19G 2G 3G 6G14G17G19G22G24G30C23C27C28
                                C33E 1E13E21E26E27E33
  23618893.946   124118145.695    23618891.944    96715443.559                  
  23300369.033   122444235.156    23300371.678    95411084.020                  
  20920962.028   109940360.406    20920964.851    85667803.411                  
  20564950.372   108069554.933    20564950.586    84210047.758                  
  21391299.407   112412051.361    21391298.764    87593809.278                  
  20949553.555   110090670.897    20949551.160    85784944.848                  
  24716365.807   129885395.395    24716363.752   101209403.863                  
  24024496.715   126249549.777    24024499.127    98376264.370                  
  23629252.797   124172514.783    23629255.388    96757792.013                  
                 123039001.991                   123039001.991    23628338.707  
                 122353200.612                   122353200.612    23496644.973  
                 115240551.546                   115240551.546    22130734.552  
                 133859498.789                   133859498.789    25706343.613  
  25740715.054   135268339.913                                                  
  23921700.497   125709346.349                                                  
  23439541.615   123175600.528                                                  
  23516162.449   123578238.050                                                  
  25490482.867   133953371.960                                                  
  27708730.727   145610383.691                                                  
 21  9  1 11 14 24.0000000  0 19G 2G 3G 6G14G17G19G22G24G30C23C27C28
                                C33E 1E13E21E26E27E33
  23618367.578   124115379.684    23618365.576    96713288.223                  
  23300477.606   122444805.663    23300480.232    95411528.566                  
  20920630.004   109938615.618    20920632.845    85666443.832                  
  20565121.039   108070451.777    20565121.235    84210746.593                  
  21391424.383   112412708.199    21391423.740    87594321.098                  
  20949463.674   110090198.530    20949461.261    85784576.766                  
  24716745.399   129887390.168    24716743.362   101210958.228                  
  24024226.875   126248131.734    24024229.287    98375159.399                  
  23629903.962   124175936.646    23629906.535    96760458.390                  
                 123041756.785                   123041756.785    23628867.719  
                 122351790.556                   122351790.556    23496374.203  
                 115241245.341                   115241245.341    22130867.783  
                 133857518.526                   133857518.526    25705963.342  
  25740286.680   135266088.801                                                  
  23921999.839   125710919.468                                                  
  23439520.780   123175490.985                                                  
  23515981.453   123577287.019                                                  
  25490901.538   133955572.118                                                  
  27708278.676   145608008.258                                                  
 21  9  1 11 14 25.0000000  0 19G 2G 3G 6G14G17G19G22G24G30C23C27C28
                                C33E 1E13E21E26E27E33
  23617841.299   124112614.004    23617839.298    96711133.142                  
  23300586.285   122445376.801    23300588.947    95411973.606                  
  20920298.087   109936871.343    20920300.928    85665084.657                  
  20565291.795   108071349.117    20565291.992    84211445.812                  
  21391549.395   112413365.102    21391548.752    87594832.970                  
  20949373.828   110089726.360    20949371.416    85784208.831                  
  24717125.080   129889385.423    24717123.043   101212512.965                  
  24023957.124   126246714.223    24023959.537    98374054.840                  
  23630555.145   124179358.556    23630557.700    96763124.809                  
                 123044511.861                   123044511.861    23629396.821  
                 122350380.702                   122350380.702    23496103.452  
                 115241939.298                   115241939.298    22131001.069  
                 133855538.430                   133855538.430    25705583.071  
  25739858.341   135263837.847                                                  
  23922299.234   125712492.802                                                  
  23439499.998   123175381.820                                                  
  23515800.547   123576336.316                                                  
  25491320.263   133957772.535                                                  
  27707826.697   145605633.001                                                  
 21  9  1 11 14 26.0000000  0 19G 2G 3G 6G14G17G19G22G24G30C23C27C28
                                C33E 1E13E21E26E27E33
  23617315.057   124109848.621    23617313.055    96708978.300                  
  23300695.072   122445948.543    23300697.734    95412419.117                  
  20919966.259   109935127.597    20919969.082    85663725.892                  
  20565462.641   108072246.947    20565462.837    84212145.417                  
  21391674.425   112414022.072    21391673.764    87595344.890                  
  20949284.001   110089254.368    20949281.606    85783841.046                  
  24717504.832   129891381.112    24717502.813   101214068.052                  
  24023687.481   126245297.239    24023689.893    98372950.695                  
  23631206.328   124182780.522    23631208.883    96765791.276                  
                 123047267.219                   123047267.219    23629925.941  
                 122348971.055                   122348971.055    23495832.736  
                 115242633.421                   115242633.421    22131134.354  
                 133853558.499                   133853558.499    25705202.854  
  25739430.039   135261587.043                                                  
  23922598.683   125714066.333                                                  
  23439479.306   123175273.046                                                  
  23515619.695   123575385.948                                                  
  25491739.041   133959973.227                                                  
  27707374.718   145603257.923                                                  
 21  9  1 11 14 27.0000000  0 19G 2G 3G 6G14G17G19G22G24G30C23C27C28
                                C33E 1E13E21E26E27E33
  23616788.885   124107083.567    23616786.884    96706823.710                  
  23300804.001   122446520.895    23300806.646    95412865.106                  
  20919634.538   109933384.368    20919637.362    85662367.531                  
  20565633.594   108073145.260    20565633.808    84212845.406                  
  21391799.436   112414679.098    21391798.793    87595856.858                  
  20949194.227   110088782.568    20949191.814    85783473.409                  
  24717884.692   129893377.273    24717882.655   101215623.495                  
  24023417.944   126243880.819    24023420.357    98371846.993                  
  23631857.493   124186202.538    23631860.084    96768457.784                  
                 123050022.859                   123050022.859    23630455.132  
                 122347561.609                   122347561.609    23495562.074  
                 115243327.706                   115243327.706    22131267.674  
                 133851578.731                   133851578.731    25704822.655  
  25739001.754   135259336.406                                                  
  23922898.132   125715640.066                                                  
  23439458.685   123175164.653                                                  
  23515438.914   123574435.906                                                  
  25492157.873   133962174.181                                                  
  27706922.792   145600883.027                                                  
 21  9  1 11 14 28.0000000  0 19G 2G 3G 6G14G17G19G22G24G30C23C27C28
                                C33E 1E13E21E26E27E33
  23616262.785   124104318.821    23616260.784    96704669.364                  
  23300913.038   122447093.870    23300915.683    95413311.582                  
  20919302.907   109931641.649    20919305.748    85661009.570                  
  20565804.618   108074044.067    20565804.815    84213545.773                  
  21391924.484   112415336.191    21391923.840    87596368.879                  
  20949104.488   110088310.937    20949102.076    85783105.910                  
  24718264.641   129895373.896    24718262.622   101217179.305                  
  24023148.515   126242464.915    24023150.928    98370743.687                  
  23632508.694   124189624.607    23632511.285    96771124.329                  
                 123052778.789                   123052778.789    23630984.377  
                 122346152.366                   122346152.366    23495291.448  
                 115244022.155                   115244022.155    22131401.049  
                 133849599.129                   133849599.129    25704442.492  
  25738573.505   135257085.937                                                  
  23923197.653   125717214.004                                                  
  23439438.118   123175056.634                                                  
  23515258.187   123573486.195                                                  
  25492576.759   133964375.419                                                  
  27706470.903   145598508.316                                                  
 21  9  1 11 14 29.0000000  0 19G 2G 3G 6G14G17G19G22G24G30C23C27C28
                                C33E 1E13E21E26E27E33
  23615736.721   124101554.394    23615734.720    96702515.266                  
  23301022.182   122447667.458    23301024.844    95413758.531                  
  20918971.383   109929899.449    20918974.206    85659652.012                  
  20565975.768   108074943.353    20565975.964    84214246.515                  
  21392049.513   112415993.337    21392048.888    87596880.941                  
  20949014.768   110087839.495    20949012.356    85782738.552                  
  24718644.679   129897370.976    24718642.642   101218735.473                  
  24022879.175   126241049.552    24022881.588    98369640.808                  
  23633159.894   124193046.722    23633162.485    96773790.915                  
                 123055534.996                   123055534.996    23631513.675  
                 122344743.333                   122344743.333    23495020.857  
                 115244716.769                   115244716.769    22131534.441  
                 133847619.693                   133847619.693    25704062.364  
  25738145.274   135254835.608                                                  
  23923497.191   125718788.145                                                  
  23439417.640   123174948.995                                                  
  23515077.513   123572536.804                                                  
  25492995.680   133966576.910                                                  
  27706019.067   145596133.796                                                  
 21  9  1 11 14 30.0000000  0 19G 2G 3G 6G14G17G19G22G24G30C23C27C28
                                C33E 1E13E21E26E27E33
  23615210.729   124098790.279    23615208.728    96700361.410                  
  23301131.469   122448241.662    23301134.096    95414205.961                  
  20918639.949   109928157.778    20918642.772    85658294.863                  
  20566146.989   108075843.145    20566147.185    84214947.652                  
  21392174.596   112416650.542    21392173.953    87597393.051                  
  20948925.083   110087368.225    20948922.671    85782371.329                  
  24719024.807   129899368.522    24719022.752   101220292.003                  
  24022609.943   126239634.728    24022612.355    98368538.351                  
  23633811.113   124196468.891    23633813.704    96776457.540                  
                 123058291.491                   123058291.491    23632043.045  
                 122343334.500                   122343334.500    23494750.302  
                 115245411.543                   115245411.543    22131667.851  
                 133845640.422                   133845640.422    25703682.254  
  25737717.078   135252585.453                                                  
  23923796.801   125720362.488                                                  
  23439397.233   123174841.750                                                  
  23514896.929   123571587.757                                                  
  25493414.655   133968778.677                                                  
  27705567.213   145593759.457                                                  
 21  9  1 11 14 31.0000000  0 19G 2G 3G 6G14G17G19G22G24G30C23C27C28
                                C33E 1E13E21E26E27E33
  23614684.808   124096026.480    23614682.806    96698207.800                  
  23301240.845   122448816.485    23301243.472    95414653.875                  
  20918308.621   109926416.614    20918311.444    85656938.112                  
  20566318.299   108076743.414    20566318.496    84215649.160                  
  21392299.662   112417307.812    21392299.019    87597905.207                  
  20948835.435   110086897.155    20948833.040    85782004.259                  
  24719405.006   129901366.535    24719402.987   101221848.894                  
  24022340.818   126238220.438    24022343.212    98367436.305                  
  23634462.332   124199891.103    23634464.923    96779124.194                  
                 123061048.265                   123061048.265    23632572.468  
                 122341925.871                   122341925.871    23494479.801  
                 115246106.483                   115246106.483    22131801.315  
                 133843661.314                   133843661.314    25703302.198  
  25737288.919   135250335.458                                                  
  23924096.429   125721937.022                                                  
  23439376.898   123174734.874                                                  
  23514716.380   123570639.032                                                  
  25493833.702   133970980.707                                                  
  27705115.448   145591385.298                                                  
 21  9  1 11 14 32.0000000  0 19G 2G 3G 6G14G17G19G22G24G30C23C27C28
                                C33E 1E13E21E26E27E33
  23614158.922   124093263.004    23614156.921    96696054.440                  
  23301350.346   122449391.907    23301352.973    95415102.258                  
  20917977.383   109924675.975    20917980.206    85655581.773                  
  20566489.699   108077644.175    20566489.895    84216351.052                  
  21392424.763   112417965.137    21392424.102    87598417.411                  
  20948745.839   110086426.264    20948743.445    85781637.331                  
  24719785.295   129903364.997    24719783.276   101223406.137                  
  24022071.781   126236806.703    24022074.194    98366334.695                  
  23635113.586   124203313.362    23635116.159    96781790.894                  
                 123063805.327                   123063805.327    23633101.927  
                 122340517.445                   122340517.445    23494209.318  
                 115246801.589                   115246801.589    22131934.796  
                 133841682.372                   133841682.372    25702922.159  
  25736860.795   135248085.620                                                  
  23924396.075   125723511.776                                                  
  23439356.635   123174628.392                                                  
  23514535.921   123569690.644                                                  
  25494252.784   133973183.017                                                  
  27704663.701   145589011.329                                                  
 21  9  1 11 14 33.0000000  0 19G 2G 3G 6G14G17G19G22G24G30C23C27C28
                                C33E 1E13E21E26E27E33
  23613633.109   124090499.831    23613631.107    96693901.320                  
  23301459.955   122449967.954    23301462.600    95415551.126                  
  20917646.234   109922935.856    20917649.075    85654225.836                  
  20566661.206   108078545.426    20566661.420    84217053.325                  
  21392549.846   112418622.527    21392549.203    87598929.660                  
  20948656.262   110085955.567    20948653.867    85781270.554                  
  24720165.673   129905363.929    24720163.654   101224963.746                  
  24021802.853   126235393.487    24021805.283    98365233.488                  
  23635764.841   124206735.692    23635767.396    96784457.640                  
                 123066562.671                   123066562.671    23633631.440  
                 122339109.226                   122339109.226    23493938.888  
                 115247496.861                   115247496.861    22132068.314  
                 133839703.592                   133839703.592    25702542.157  
  25736432.707   135245835.942                                                  
  23924695.774   125725086.721                                                  
  23439336.443   123174522.282                                                  
  23514355.497   123568742.574                                                  
  25494671.920   133975385.587                                                  
  27704211.972   145586637.530                                                  
 21  9  1 11 14 34.0000000  0 19G 2G 3G 6G14G17G19G22G24G30C23C27C28
                                C33E 1E13E21E26E27E33
  23613107.366   124087736.980    23613105.365    96691748.452                  
  23301569.689   122450544.614    23301572.333    95416000.469                  
  20917315.228   109921196.265    20917318.034    85652870.308                  
  20566832.802   108079447.165    20566832.998    84217755.976                  
  21392674.965   112419279.972    21392674.322    87599441.958                  
  20948566.738   110085485.055    20948564.326    85780903.921                  
  24720546.158   129907363.315    24720544.121   101226521.707                  
  24021534.031   126233980.812    24021536.443    98364132.704                  
  23636416.077   124210158.057    23636418.668    96787124.418                  
                 123069320.296                   123069320.296    23634161.024  
                 122337701.210                   122337701.210    23493668.476  
                 115248192.289                   115248192.289    22132201.885  
                 133837724.982                   133837724.982    25702162.208  
  25736004.618   135243586.415                                                  
  23924995.527   125726661.874                                                  
  23439316.322   123174416.563                                                  
  23514175.163   123567794.835                                                  
  25495091.127   133977588.425                                                  
  27703760.279   145584263.911                                                  
 21  9  1 11 14 35.0000000  0 19G 2G 3G 6G14G17G19G22G24G30C23C27C28
                                C33E 1E13E21E26E27E33
  23612581.660   124084974.441    23612579.658    96689595.824                  
  23301679.548   122451121.887    23301682.174    95416450.297                  
  20916984.276   109919457.185    20916987.100    85651515.181                  
  20567004.505   108080349.390    20567004.702    84218459.011                  
  21392800.084   112419937.477    21392799.440    87599954.297                  
  20948477.232   110085014.730    20948474.820    85780537.434                  
  24720926.714   129909363.168    24720924.677   101228080.034                  
  24021265.317   126232568.673    24021267.711    98363032.332                  
  23637067.367   124213580.490    23637069.923    96789791.251                  
                 123072078.207                   123072078.207    23634690.644  
                 122336293.398                   122336293.398    23493398.135  
                 115248887.883                   115248887.883    22132335.456  
                 133835746.534                   133835746.534    25701782.259  
  25735576.584   135241337.057                                                  
  23925295.297   125728237.221                                                  
  23439296.273   123174311.228                                                  
  23513994.883   123566847.431                                                  
  25495510.334   133979791.532                                                  
  27703308.640   145581890.494                                                  
 21  9  1 11 14 36.0000000  0 19G 2G 3G 6G14G17G19G22G24G30C23C27C28
                                C33E 1E13E21E26E27E33
  23612056.024   124082212.206    23612054.023    96687443.433                  
  23301789.496   122451699.786    23301792.158    95416900.605                  
  20916653.431   109917718.618    20916656.255    85650160.458                  
  20567176.280   108081252.103    20567176.477    84219162.422                  
  21392925.203   112420595.043    21392924.559    87600466.688                  
  20948387.762   110084544.587    20948385.367    85780171.087                  
  24721307.360   129911363.476    24721305.341   101229638.718                  
  24020996.692   126231157.062    24020999.104    98361932.380                  
  23637718.622   124217002.957    23637721.195    96792458.105                  
                 123074836.397                   123074836.397    23635220.318  
                 122334885.792                   122334885.792    23493127.813  
                 115249583.643                   115249583.643    22132469.080  
                 133833768.255                   133833768.255    25701402.345  
  25735148.585   135239087.847                                                  
  23925595.122   125729812.774                                                  
  23439276.296   123174206.263                                                  
  23513814.638   123565900.347                                                  
  25495929.649   133981994.910                                                  
  27702857.018   145579517.235                                                  
 21  9  1 11 14 37.0000000  0 19G 2G 3G 6G14G17G19G22G24G30C23C27C28
                                C33E 1E13E21E26E27E33
  23611530.461   124079450.303    23611528.459    96685291.301                  
  23301899.605   122452278.280    23301902.231    95417351.382                  
  20916322.694   109915980.571    20916325.517    85648806.133                  
  20567348.144   108082155.308    20567348.341    84219866.223                  
  21393050.339   112421252.661    21393049.696    87600979.113                  
  20948298.345   110084074.633    20948295.933    85779804.895                  
  24721688.096   129913364.245    24721686.059   101231197.759                  
  24020728.174   126229745.992    24020730.586    98360832.844                  
  23638369.912   124220425.472    23638372.485    96795125.004                  
                 123077594.875                   123077594.875    23635750.063  
                 122333478.390                   122333478.390    23492857.544  
                 115250279.566                   115250279.566    22132602.723  
                 133831790.141                   133831790.141    25701022.468  
  25734720.604   135236838.812                                                  
  23925894.982   125731388.523                                                  
  23439256.407   123174101.685                                                  
  23513634.482   123564953.594                                                  
  25496348.981   133984198.554                                                  
  27702405.432   145577144.164                                                  
 21  9  1 11 14 38.0000000  0 19G 2G 3G 6G14G17G19G22G24G30C23C27C28
                                C33E 1E13E21E26E27E33
  23611004.933   124076688.703    23611002.931    96683139.402                  
  23302009.803   122452857.405    23302012.447    95417802.644                  
  20915992.063   109914243.052    20915994.886    85647452.222                  
  20567520.116   108083059.004    20567520.312    84220570.399                  
  21393175.494   112421910.344    21393174.869    87601491.598                  
  20948208.947   110083604.868    20948206.534    85779438.841                  
  24722068.920   129915365.474    24722066.883   101232757.153                  
  24020459.763   126228335.464    24020462.176    98359733.730                  
  23639021.202   124223848.040    23639023.775    96797791.937                  
                 123080353.638                   123080353.638    23636279.862  
                 122332071.191                   122332071.191    23492587.293  
                 115250975.652                   115250975.652    22132736.401  
                 133829812.191                   133829812.191    25700642.626  
  25734292.659   135234589.939                                                  
  23926194.878   125732964.480                                                  
  23439236.573   123173997.491                                                  
  23513454.380   123564007.167                                                  
  25496768.367   133986402.460                                                  
  27701953.900   145574771.290                                                  
 21  9  1 11 14 39.0000000  0 19G 2G 3G 6G14G17G19G22G24G30C23C27C28
                                C33E 1E13E21E26E27E33
  23610479.476   124073927.419    23610477.475    96680987.753                  
  23302120.126   122453437.144    23302122.753    95418254.391                  
  20915661.522   109912506.040    20915664.345    85646098.706                  
  20567692.177   108083963.184    20567692.373    84221274.957                  
  21393300.667   112422568.086    21393300.023    87602004.120                  
  20948119.584   110083135.286    20948117.171    85779072.935                  
  24722449.816   129917367.164    24722447.797   101234316.914                  
  24020191.460   126226925.462    24020193.854    98358635.026                  
  23639672.492   124227270.651    23639675.083    96800458.907                  
                 123083112.674                   123083112.674    23636809.696  
                 122330664.196                   122330664.196    23492317.095  
                 115251671.903                   115251671.903    22132870.097  
                 133827834.406                   133827834.406    25700262.802  
  25733864.731   135232341.224                                                  
  23926494.791   125734540.634                                                  
  23439216.828   123173893.671                                                  
  23513274.368   123563061.074                                                  
  25497187.807   133988606.642                                                  
  27701502.385   145572398.574                                                  
 21  9  1 11 14 40.0000000  0 19G 2G 3G 6G14G17G19G22G24G30C23C27C28
                                C33E 1E13E21E26E27E33
  23609954.073   124071166.449    23609952.072    96678836.352                  
  23302230.557   122454017.492    23302233.201    95418706.608                  
  20915331.088   109910769.554    20915333.893    85644745.602                  
  20567864.327   108084867.851    20567864.523    84221979.890                  
  21393425.839   112423225.887    21393425.196    87602516.694                  
  20948030.256   110082665.886    20948027.862    85778707.168                  
  24722830.820   129919369.318    24722828.800   101235877.032                  
  24019923.246   126225515.996    24019925.640    98357536.742                  
  23640323.818   124230693.316    23640326.391    96803125.918                  
                 123085872.001                   123085872.001    23637339.602  
                 122329257.407                   122329257.407    23492046.934  
                 115252368.311                   115252368.311    22133003.846  
                 133825856.790                   133825856.790    25699883.014  
  25733436.840   135230092.653                                                  
  23926794.776   125736116.996                                                  
  23439197.136   123173790.243                                                  
  23513094.373   123562115.293                                                  
  25497607.300   133990811.093                                                  
  27701050.924   145570026.052                                                  
 21  9  1 11 14 41.0000000  0 19G 2G 3G 6G14G17G19G22G24G30C23C27C28
                                C33E 1E13E21E26E27E33
  23609428.760   124068405.800    23609426.758    96676685.199                  
  23302341.112   122454598.460    23302343.757    95419159.313                  
  20915000.725   109909033.587    20915003.567    85643392.899                  
  20568036.584   108085773.017    20568036.781    84222685.212                  
  21393551.012   112423883.746    21393550.386    87603029.312                  
  20947940.983   110082196.677    20947938.553    85778341.546                  
  24723211.912   129921371.929    24723209.875   101237437.508                  
  24019655.121   126224107.074    24019657.534    98356438.882                  
  23640975.144   124234116.042    23640977.717    96805792.977                  
                 123088631.610                   123088631.610    23637869.543  
                 122327850.819                   122327850.819    23491776.825  
                 115253064.891                   115253064.891    22133137.596  
                 133823879.337                   133823879.337    25699503.279  
  25733008.984   135227844.243                                                  
  23927094.779   125737693.552                                                  
  23439177.516   123173687.191                                                  
  23512914.468   123561169.854                                                  
  25498026.847   133993015.821                                                  
  27700599.481   145567653.724                                                  
 21  9  1 11 14 42.0000000  0 19G 2G 3G 6G14G17G19G22G24G30C23C27C28
                                C33E 1E13E21E26E27E33
  23608903.482   124065645.472    23608901.481    96674534.292                  
  23302451.775   122455180.036    23302454.420    95419612.488                  
  20914670.488   109907298.145    20914673.311    85642040.607                  
  20568208.913   108086678.664    20568209.127    84223390.913                  
  21393676.220   112424541.673    21393675.577    87603541.984                  
  20947851.727   110081727.643    20947849.315    85777976.070                  
  24723593.076   129923374.995    24723591.057   101238998.339                  
  24019387.122   126222698.691    24019389.534    98355341.441                  
  23641626.488   124237538.806    23641629.043    96808460.062                  
                 123091391.496                   123091391.496    23638399.557  
                 122326444.438                   122326444.438    23491506.735  
                 115253761.628                   115253761.628    22133271.399  
                 133821902.052                   133821902.052    25699123.562  
  25732581.164   135225596.019                                                  
  23927394.836   125739270.313                                                  
  23439158.003   123173584.526                                                  
  23512734.616   123560224.745                                                  
  25498446.447   133995220.792                                                  
  27700148.056   145565281.571                                                  
 21  9  1 11 14 43.0000000  0 19G 2G 3G 6G14G17G19G22G24G30C23C27C28
                                C33E 1E13E21E26E27E33
  23608378.258   124062885.445    23608376.256    96672383.621                  
  23302562.563   122455762.227    23302565.226    95420066.144                  
  20914340.340   109905563.214    20914343.163    85640688.715                  
  20568381.331   108087584.804    20568381.546    84224096.992                  
  21393801.446   112425199.662    21393800.803    87604054.698                  
  20947762.507   110081258.800    20947760.095    85777610.738                  
  24723974.348   129925378.522    24723972.329   101240559.531                  
  24019119.211   126221290.848    24019121.624    98354244.418                  
  23642277.814   124240961.625    23642280.387    96811127.194                  
                 123094151.669                   123094151.669    23638929.623  
                 122325038.257                   122325038.257    23491236.698  
                 115254458.531                   115254458.531    22133405.238  
                 133819924.933                   133819924.933    25698743.881  
  25732153.379   135223347.938                                                  
  23927694.928   125740847.274                                                  
  23439138.526   123173482.243                                                  
  23512554.818   123559279.964                                                  
  25498866.083   133997426.056                                                  
  27699696.702   145562909.601                                                  
 21  9  1 11 14 44.0000000  0 19G 2G 3G 6G14G17G19G22G24G30C23C27C28
                                C33E 1E13E21E26E27E33
  23607853.105   124060125.746    23607851.104    96670233.207                  
  23302673.476   122456345.026    23302676.121    95420520.273                  
  20914010.299   109903828.809    20914013.122    85639337.230                  
  20568553.875   108088491.434    20568554.071    84224803.457                  
  21393926.654   112425857.703    21393926.029    87604567.462                  
  20947673.323   110080790.148    20947670.928    85777245.555                  
  24724355.673   129927382.513    24724353.653   101242121.077                  
  24018851.426   126219883.540    24018853.821    98353147.817                  
  23642929.157   124244384.501    23642931.748    96813794.370                  
                 123096912.124                   123096912.124    23639459.744  
                 122323632.283                   122323632.283    23490966.697  
                 115255155.597                   115255155.597    22133539.095  
                 133817947.980                   133817947.980    25698364.218  
  25731725.595   135221100.015                                                  
  23927995.039   125742424.437                                                  
  23439119.138   123173380.345                                                  
  23512375.091   123558335.515                                                  
  25499285.773   133999631.573                                                  
  27699245.367   145560537.812                                                  
 21  9  1 11 14 45.0000000  0 19G 2G 3G 6G14G17G19G22G24G30C23C27C28
                                C33E 1E13E21E26E27E33
  23607328.024   124057366.355    23607326.023    96668083.032                  
  23302784.496   122456928.451    23302787.141    95420974.887                  
  20913680.348   109902094.922    20913683.189    85637986.149                  
  20568726.507   108089398.551    20568726.704    84225510.306                  
  21394051.880   112426515.806    21394051.237    87605080.265                  
  20947584.174   110080321.690    20947581.762    85776880.524                  
  24724737.123   129929386.961    24724735.104   101243682.985                  
  24018583.712   126218476.765    24018586.125    98352051.629                  
  23643580.519   124247807.418    23643583.092    96816461.578                  
                 123099672.864                   123099672.864    23639989.900  
                 122322226.512                   122322226.512    23490696.732  
                 115255852.828                   115255852.828    22133673.006  
                 133815971.192                   133815971.192    25697984.609  
  25731297.882   135218852.257                                                  
  23928295.203   125744001.800                                                  
  23439099.821   123173278.824                                                  
  23512195.436   123557391.388                                                  
  25499705.534   134001837.363                                                  
  27698794.067   145558166.212                                                  
 21  9  1 11 14 46.0000000  0 19G 2G 3G 6G14G17G19G22G24G30C23C27C28
                                C33E 1E13E21E26E27E33
  23606802.978   124054607.292    23606800.977    96665933.118                  
  23302895.642   122457512.491    23302898.286    95421429.988                  
  20913350.503   109900361.549    20913353.327    85636635.469                  
  20568899.193   108090306.153    20568899.408    84226217.528                  
  21394177.142   112427173.967    21394176.499    87605593.120                  
  20947495.061   110079853.402    20947492.667    85776515.620                  
  24725118.644   129931391.858    24725116.625   101245245.245                  
  24018316.124   126217070.536    24018318.518    98350955.868                  
  23644231.898   124251230.376    23644234.454    96819128.815                  
                 123102433.878                   123102433.878    23640520.145  
                 122320820.944                   122320820.944    23490426.821  
                 115256550.219                   115256550.219    22133806.916  
                 133813994.570                   133813994.570    25697605.017  
  25730870.151   135216604.657                                                  
  23928595.402   125745579.360                                                  
  23439080.576   123173177.683                                                  
  23512015.835   123556447.590                                                  
  25500125.331   134004043.419                                                  
  27698342.802   145555794.796                                                  
 21  9  1 11 14 47.0000000  0 19G 2G 3G 6G14G17G19G22G24G30C23C27C28
                                C33E 1E13E21E26E27E33
  23606278.004   124051848.538    23606276.003    96663783.437                  
  23303006.876   122458097.147    23303009.539    95421885.563                  
  20913020.748   109898628.696    20913023.572    85635285.196                  
  20569072.005   108091214.241    20569072.201    84226925.129                  
  21394302.404   112427832.202    21394301.761    87606106.031                  
  20947405.984   110079385.308    20947403.572    85776150.876                  
  24725500.237   129933397.222    24725498.218   101246807.864                  
  24018048.625   126215664.844    24018051.037    98349860.524                  
  23644883.278   124254653.407    23644885.851    96821796.112                  
                 123105195.185                   123105195.185    23641050.426  
                 122319415.583                   122319415.583    23490156.927  
                 115257247.773                   115257247.773    22133940.880  
                 133812018.117                   133812018.117    25697225.461  
  25730442.492   135214357.210                                                  
  23928895.637   125747157.125                                                  
  23439061.403   123173076.928                                                  
  23511836.305   123555504.118                                                  
  25500545.182   134006249.737                                                  
  27697891.556   145553423.559                                                  
 21  9  1 11 14 48.0000000  0 19G 2G 3G 6G14G17G19G22G24G30C23C27C28
                                C33E 1E13E21E26E27E33
  23605753.102   124049090.063    23605751.100    96661633.953                  
  23303118.254   122458682.417    23303120.899    95422341.617                  
  20912691.101   109896896.359    20912693.924    85633935.316                  
  20569244.905   108092122.837    20569245.102    84227633.124                  
  21394427.666   112428490.481    21394427.023    87606618.973                  
  20947316.961   110078917.401    20947314.548    85775786.269                  
  24725881.937   129935403.047    24725879.918   101248370.844                  
  24017781.233   126214259.660    24017783.645    98348765.562                  
  23645534.657   124258076.488    23645537.248    96824463.462                  
                 123107956.786                   123107956.786    23641580.743  
                 122318010.423                   122318010.423    23489887.087  
                 115257945.487                   115257945.487    22134074.880  
                 133810041.868                   133810041.868    25696845.923  
  25730014.832   135212109.913                                                  
  23929195.926   125748735.095                                                  
  23439042.301   123172976.559                                                  
  23511656.846   123554560.972                                                  
  25500965.086   134008456.340                                                  
  27697440.381   145551052.466                                                  
 21  9  1 11 14 49.0000000  0 19G 2G 3G 6G14G17G19G22G24G30C23C27C28
                                C33E 1E13E21E26E27E33
  23605228.253   124046331.942    23605226.251    96659484.766                  
  23303229.739   122459268.300    23303232.401    95422798.152                  
  20912361.542   109895164.542    20912364.366    85632585.853                  
  20569417.895   108093031.909    20569418.092    84228341.496                  
  21394552.946   112429148.825    21394552.302    87607131.968                  
  20947227.937   110078449.682    20947225.543    85775421.812                  
  24726263.727   129937409.332    24726261.708   101249934.184                  
  24017513.948   126212855.028    24017516.360    98347671.043                  
  23646186.055   124261499.610    23646188.646    96827130.825                  
                 123110718.651                   123110718.651    23642111.113  
                 122316605.469                   122316605.469    23489617.282  
                 115258643.370                   115258643.370    22134208.898  
                 133808065.746                   133808065.746    25696466.421  
  25729587.245   135209862.792                                                  
  23929496.233   125750313.262                                                  
  23439023.288   123172876.567                                                  
  23511477.423   123553618.163                                                  
  25501385.044   134010663.192                                                  
  27696989.206   145548681.587                                                  
 21  9  1 11 14 50.0000000  0 19G 2G 3G 6G14G17G19G22G24G30C23C27C28
                                C33E 1E13E21E26E27E33
  23604703.457   124043574.145    23604701.456    96657335.832                  
  23303341.367   122459854.800    23303343.993    95423255.164                  
  20912032.073   109893433.246    20912034.914    85631236.789                  
  20569590.975   108093941.476    20569591.171    84229050.250                  
  21394678.225   112429807.236    21394677.582    87607645.016                  
  20947138.985   110077982.163    20947136.573    85775057.512                  
  24726645.606   129939416.087    24726643.587   101251497.886                  
  24017246.752   126211450.950    24017249.164    98346576.954                  
  23646837.452   124264922.770    23646840.043    96829798.223                  
                 123113480.796                   123113480.796    23642641.555  
                 122315200.719                   122315200.719    23489347.496  
                 115259341.415                   115259341.415    22134342.933  
                 133806089.793                   133806089.793    25696086.954  
  25729159.657   135207615.852                                                  
  23929796.594   125751891.634                                                  
  23439004.311   123172776.960                                                  
  23511298.072   123552675.680                                                  
  25501805.037   134012870.337                                                  
  27696538.085   145546310.902                                                  
 21  9  1 11 14 51.0000000  0 19G 2G 3G 6G14G17G19G22G24G30C23C27C28
                                C33E 1E13E21E26E27E33
  23604178.716   124040816.664    23604176.732    96655187.149                  
  23303453.084   122460441.904    23303455.728    95423712.645                  
  20911702.711   109891702.468    20911705.553    85629888.133                  
  20569764.161   108094851.528    20569764.358    84229759.379                  
  21394803.541   112430465.697    21394802.880    87608158.102                  
  20947050.033   110077514.823    20947047.639    85774693.350                  
  24727027.556   129941423.294    24727025.537   101253061.946                  
  24016979.682   126210047.403    24016982.076    98345483.281                  
  23647488.885   124268345.989    23647491.458    96832465.664                  
                 123116243.225                   123116243.225    23643172.069  
                 122313796.172                   122313796.172    23489077.781  
                 115260039.612                   115260039.612    22134477.040  
                 133804113.986                   133804113.986    25695707.541  
  25728732.105   135205369.051                                                  
  23930096.972   125753470.200                                                  
  23438985.442   123172677.741                                                  
  23511118.792   123551733.522                                                  
  25502225.084   134015077.726                                                  
  27696086.999   145543940.399                                                  
 21  9  1 11 14 52.0000000  0 19G 2G 3G 6G14G17G19G22G24G30C23C27C28
                                C33E 1E13E21E26E27E33
  23603654.063   124038059.486    23603652.062    96653038.696                  
  23303564.926   122461029.636    23303567.553    95424170.621                  
  20911373.475   109889972.214    20911376.298    85628539.879                  
  20569937.419   108095762.070    20569937.616    84230468.894                  
  21394928.838   112431124.222    21394928.195    87608671.239                  
  20946961.153   110077047.679    20946958.740    85774329.340                  
  24727409.596   129943430.964    24727407.577   101254626.364                  
  24016712.683   126208644.391    24016715.095    98344390.027                  
  23648140.300   124271769.243    23648142.874    96835133.132                  
                 123119005.937                   123119005.937    23643702.618  
                 122312391.829                   122312391.829    23488808.084  
                 115260737.983                   115260737.983    22134611.147  
                 133802138.364                   133802138.364    25695328.146  
  25728304.588   135203122.411                                                  
  23930397.422   125755048.980                                                  
  23438966.626   123172578.903                                                  
  23510939.566   123550791.699                                                  
  25502645.203   134017285.394                                                  
  27695635.931   145541570.081                                                  
 21  9  1 11 14 53.0000000  0 19G 2G 3G 6G14G17G19G22G24G30C23C27C28
                                C33E 1E13E21E26E27E33
  23603129.447   124035302.621    23603127.445    96650890.492                  
  23303676.875   122461617.978    23303679.520    95424629.067                  
  20911044.327   109888242.486    20911047.133    85627192.038                  
  20570110.803   108096673.102    20570110.999    84231178.789                  
  21395054.154   112431782.806    21395053.528    87609184.419                  
  20946872.308   110076580.712    20946869.878    85773965.469                  
  24727791.743   129945439.101    24727789.724   101256191.144                  
  24016445.791   126207241.915    24016448.221    98343297.187                  
  23648791.734   124275192.547    23648794.325    96837800.644                  
                 123121768.930                   123121768.930    23644233.221  
                 122310987.686                   122310987.686    23488538.440  
                 115261436.514                   115261436.514    22134745.308  
                 133800162.912                   133800162.912    25694948.751  
  25727877.108   135200875.938                                                  
  23930697.871   125756627.942                                                  
  23438947.899   123172480.440                                                  
  23510760.393   123549850.199                                                  
  25503065.339   134019493.319                                                  
  27695184.917   145539199.941                                                  
 21  9  1 11 14 54.0000000  0 19G 2G 3G 6G14G17G19G22G24G30C23C27C28
                                C33E 1E13E21E26E27E33
  23602604.884   124032546.074    23602602.900    96648742.535                  
  23303788.968   122462206.933    23303791.595    95425087.993                  
  20910715.251   109886513.265    20910718.075    85625844.598                  
  20570284.239   108097584.626    20570284.436    84231889.066                  
  21395179.505   112432441.440    21395178.862    87609697.645                  
  20946783.463   110076113.923    20946781.069    85773601.738                  
  24728173.961   129947447.690    24728171.942   101257756.278                  
  24016179.024   126205839.991    24016181.437    98342204.781                  
  23649443.185   124278615.907    23649445.758    96840468.195                  
                 123124532.206                   123124532.206    23644763.877  
                 122309583.750                   122309583.750    23488268.815  
                 115262135.211                   115262135.211    22134879.468  
                 133798187.624                   133798187.624    25694569.445  
  25727449.645   135198629.626                                                  
  23930998.375   125758207.113                                                  
  23438929.226   123172382.371                                                  
  23510581.292   123548909.027                                                  
  25503485.565   134021701.524                                                  
  27694733.921   145536829.975                                                  
 21  9  1 11 14 55.0000000  0 19G 2G 3G 6G14G17G19G22G24G30C23C27C28
                                C33E 1E13E21E26E27E33
  23602080.392   124029789.843    23602078.409    96646594.825                  
  23303901.132   122462796.499    23303903.794    95425547.395                  
  20910386.300   109884784.570    20910389.124    85624497.563                  
  20570457.801   108098496.632    20570457.998    84232599.720                  
  21395304.856   112433100.148    21395304.195    87610210.921                  
  20946694.672   110075647.325    20946692.260    85773238.155                  
  24728556.287   129949456.740    24728554.232   101259321.769                  
  24015912.347   126204438.590    24015914.759    98341112.782                  
  23650094.636   124282039.308    23650097.227    96843135.780                  
                 123127295.761                   123127295.761    23645294.605  
                 122308180.021                   122308180.021    23487999.260  
                 115262834.071                   115262834.071    22135013.683  
                 133796212.509                   133796212.509    25694190.140  
  25727022.200   135196383.467                                                  
  23931298.932   125759786.486                                                  
  23438910.642   123172284.671                                                  
  23510402.280   123547968.196                                                  
  25503905.827   134023909.993                                                  
  27694282.978   145534460.214                                                  
 21  9  1 11 14 56.0000000  0 19G 2G 3G 6G14G17G19G22G24G30C23C27C28
                                C33E 1E13E21E26E27E33
  23601555.954   124027033.930    23601553.953    96644447.355                  
  23304013.456   122463386.696    23304016.101    95426007.289                  
  20910057.439   109883056.394    20910060.262    85623150.932                  
  20570631.434   108099409.128    20570631.649    84233310.758                  
  21395430.225   112433758.917    21395429.564    87610724.250                  
  20946605.917   110075180.918    20946603.522    85772874.723                  
  24728938.684   129951466.250    24728936.647   101260887.621                  
  24015645.777   126203037.722    24015648.172    98340021.194                  
  23650746.104   124285462.759    23650748.678    96845803.407                  
                 123130059.601                   123130059.601    23645825.369  
                 122306776.492                   122306776.492    23487729.724  
                 115263533.093                   115263533.093    22135147.915  
                 133794237.553                   133794237.553    25693810.852  
  25726594.809   135194137.476                                                  
  23931599.524   125761366.058                                                  
  23438892.112   123172187.362                                                  
  23510223.304   123547027.670                                                  
  25504326.124   134026118.726                                                  
  27693832.053   145532090.624                                                  
 21  9  1 11 14 57.0000000  0 19G 2G 3G 6G14G17G19G22G24G30C23C27C28
                                C33E 1E13E21E26E27E33
  23601031.588   124024278.333    23601029.604    96642300.137                  
  23304125.888   122463977.489    23304128.515    95426467.649                  
  20909728.685   109881328.738    20909731.508    85621804.702                  
  20570805.175   108100322.120    20570805.371    84234022.180                  
  21395555.576   112434417.750    21395554.933    87611237.624                  
  20946517.197   110074714.696    20946514.802    85772511.433                  
  24729321.153   129953476.215    24729319.115   101262453.828                  
  24015379.296   126201637.415    24015381.727    98338930.044                  
  23651397.573   124288886.274    23651400.146    96848471.079                  
                 123132823.723                   123132823.723    23646356.186  
                 122305373.169                   122305373.169    23487460.223  
                 115264232.278                   115264232.278    22135282.183  
                 133792262.772                   133792262.772    25693431.618  
  25726167.435   135191891.648                                                  
  23931900.135   125762945.833                                                  
  23438873.689   123172090.434                                                  
  23510044.381   123546087.491                                                  
  25504746.475   134028327.723                                                  
  27693381.182   145529721.215                                                  
 21  9  1 11 14 58.0000000  0 19G 2G 3G 6G14G17G19G22G24G30C23C27C28
                                C33E 1E13E21E26E27E33
  23600507.275   124021523.056    23600505.273    96640153.168                  
  23304238.427   122464568.906    23304241.072    95426928.491                  
  20909400.002   109879601.598    20909402.843    85620458.883                  
  20570979.005   108101235.591    20570979.201    84234733.973                  
  21395680.963   112435076.634    21395680.320    87611751.040                  
  20946428.513   110074248.655    20946426.101    85772148.285                  
  24729703.728   129955486.641    24729701.691   101264020.393                  
  24015112.923   126200237.622    24015115.335    98337839.298                  
  23652049.042   124292309.810    23652051.615    96851138.769                  
                 123135588.121                   123135588.121    23646887.057  
                 122303970.047                   122303970.047    23487190.758  
                 115264931.621                   115264931.621    22135416.504  
                 133790288.157                   133790288.157    25693052.419  
  25725740.098   135189645.974                                                  
  23932200.799   125764525.802                                                  
  23438855.302   123171993.891                                                  
  23509865.548   123545147.628                                                  
  25505166.897   134030537.005                                                  
  27692930.329   145527351.988                                                  
 21  9  1 11 14 59.0000000  0 19G 2G 3G 6G14G17G19G22G24G30C23C27C28
                                C33E 1E13E21E26E27E33
  23599983.016   124018768.090    23599981.014    96638006.442                  
  23304351.074   122465160.937    23304353.736    95427389.816                  
  20909071.444   109877874.980    20909074.285    85619113.465                  
  20571152.924   108102149.560    20571153.120    84235446.157                  
  21395806.368   112435735.576    21395805.725    87612264.499                  
  20946339.865   110073782.806    20946337.452    85771785.285                  
  24730086.376   129957497.527    24730084.356   101265587.316                  
  24014846.656   126198838.368    24014849.087    98336748.972                  
  23652700.547   124295733.408    23652703.120    96853806.507                  
                 123138352.804                   123138352.804    23647417.981  
                 122302567.129                   122302567.129    23486921.365  
                 115265631.132                   115265631.132    22135550.826  
                 133788313.707                   133788313.707    25692673.256  
  25725312.796   135187400.460                                                  
  23932501.499   125766105.976                                                  
  23438837.004   123171897.729                                                  
  23509686.733   123544208.094                                                  
  25505587.355   134032746.547                                                  
  27692479.493   145524982.947                                                  
 21  9  1 11 15  0.0000000  0 19G 2G 3G 6G14G17G19G22G24G30C23C27C28
                                C33E 1E13E21E26E27E33
  23599458.828   124016013.441    23599456.844    96635859.964                  
  23304463.863   122465753.581    23304466.508    95427851.617                  
  20908742.976   109876148.879    20908745.799    85617768.453                  
  20571326.932   108103064.016    20571327.147    84236158.718                  
  21395931.755   112436394.582    21395931.112    87612778.011                  
  20946251.252   110073317.141    20946248.840    85771422.430                  
  24730469.148   129959508.863    24730467.093   101267154.595                  
  24014580.497   126197439.651    24014582.892    98335659.063                  
  23653352.033   124299157.055    23653354.624    96856474.282                  
                 123141117.769                   123141117.769    23647948.959  
                 122301164.414                   122301164.414    23486651.972  
                 115266330.806                   115266330.806    22135685.183  
                 133786339.426                   133786339.426    25692294.111  
  25724885.512   135185155.126                                                  
  23932802.217   125767686.358                                                  
  23438818.777   123171801.949                                                  
  23509508.025   123543268.897                                                  
  25506007.867   134034956.348                                                  
  27692028.712   145522614.087                                                  
 21  9  1 11 15  1.0000000  0 19G 2G 3G 6G14G17G19G22G24G30C23C27C28
                                C33E 1E13E21E26E27E33
  23598934.694   124013259.118    23598932.692    96633713.738                  
  23304576.759   122466346.839    23304579.404    95428313.896                  
  20908414.615   109874423.300    20908417.438    85616423.844                  
  20571501.066   108103978.960    20571501.263    84236871.663                  
  21396057.178   112437053.642    21396056.535    87613291.566                  
  20946162.675   110072851.667    20946160.281    85771059.723                  
  24730851.956   129961520.659    24730849.937   101268722.226                  
  24014314.446   126196041.484    24014316.840    98334569.582                  
  23654003.538   124302580.737    23654006.129    96859142.089                  
                 123143883.010                   123143883.010    23648480.008  
                 122299761.903                   122299761.903    23486382.632  
                 115267030.636                   115267030.636    22135819.576  
                 133784365.311                   133784365.311    25691915.002  
  25724458.281   135182909.933                                                  
  23933103.006   125769266.926                                                  
  23438800.622   123171706.550                                                  
  23509329.352   123542330.026                                                  
  25506428.415   134037166.411                                                  
  27691577.983   145520245.415                                                  
 21  9  1 11 15  2.0000000  0 19G 2G 3G 6G14G17G19G22G24G30C23C27C28
                                C33E 1E13E21E26E27E33
  23598410.613   124010505.106    23598408.647    96631567.755                  
  23304689.763   122466940.712    23304692.426    95428776.652                  
  20908086.343   109872698.243    20908089.184    85615079.644                  
  20571675.253   108104894.393    20571675.468    84237584.988                  
  21396182.600   112437712.763    21396181.957    87613805.164                  
  20946074.134   110072386.375    20946071.722    85770697.160                  
  24731234.871   129963532.919    24731232.852   101270290.218                  
  24014048.465   126194643.847    24014050.877    98333480.512                  
  23654655.060   124306004.482    23654657.633    96861809.942                  
                 123146648.540                   123146648.540    23649011.076  
                 122298359.598                   122298359.598    23486113.346  
                 115267730.633                   115267730.633    22135954.022  
                 133782391.367                   133782391.367    25691535.929  
  25724031.068   135180664.907                                                  
  23933403.813   125770847.698                                                  
  23438782.539   123171611.538                                                  
  23509150.751   123541391.484                                                  
  25506849.034   134039376.758                                                  
  27691127.273   145517876.919                                                  
 21  9  1 11 15  3.0000000  0 19G 2G 3G 6G14G17G19G22G24G30C23C27C28
                                C33E 1E13E21E26E27E33
  23597886.622   124007751.405    23597884.620    96629422.016                  
  23304802.892   122467535.208    23304805.537    95429239.895                  
  20907758.178   109870973.700    20907761.001    85613735.844                  
  20571849.548   108105810.320    20571849.744    84238298.695                  
  21396308.041   112438371.943    21396307.398    87614318.813                  
  20945985.611   110071921.274    20945983.217    85770334.739                  
  24731617.894   129965545.639    24731615.857   101271858.574                  
  24013782.592   126193246.738    24013785.022    98332391.859                  
  23655306.583   124309428.267    23655309.156    96864477.824                  
                 123149414.348                   123149414.348    23649542.233  
                 122296957.497                   122296957.497    23485844.077  
                 115268430.792                   115268430.792    22136088.469  
                 133780417.589                   133780417.589    25691156.873  
  25723603.874   135178420.051                                                  
  23933704.656   125772428.665                                                  
  23438764.545   123171516.911                                                  
  23508972.222   123540453.271                                                  
  25507269.706   134041587.369                                                  
  27690676.598   145515508.622                                                  
 21  9  1 11 15  4.0000000  0 19G 2G 3G 6G14G17G19G22G24G30C23C27C28
                                C33E 1E13E21E26E27E33
  23597362.666   124004998.024    23597360.665    96627276.524                  
  23304916.146   122468130.299    23304918.773    95429703.601                  
  20907430.103   109869249.679    20907432.944    85612392.453                  
  20572023.932   108106726.730    20572024.146    84239012.785                  
  21396433.482   112439031.173    21396432.838    87614832.501                  
  20945897.160   110071456.349    20945894.765    85769972.462                  
  24732001.006   129967558.818    24731998.969   101273427.282                  
  24013516.862   126191850.176    24013519.256    98331303.628                  
  23655958.123   124312852.105    23655960.696    96867145.750                  
                 123152180.433                   123152180.433    23650073.443  
                 122295555.593                   122295555.593    23485574.863  
                 115269131.118                   115269131.118    22136222.969  
                 133778443.980                   133778443.980    25690777.889  
  25723176.715   135176175.338                                                  
  23934005.535   125774009.848                                                  
  23438746.604   123171422.660                                                  
  23508793.764   123539515.374                                                  
  25507690.414   134043798.255                                                  
  27690225.959   145513140.493                                                  
 21  9  1 11 15  5.0000000  0 19G 2G 3G 6G14G17G19G22G24G30C23C27C28
                                C33E 1E13E21E26E27E33
  23596838.782   124002244.965    23596836.781    96625131.282                  
  23305029.507   122468726.019    23305032.134    95430167.800                  
  20907102.135   109867526.181    20907104.958    85611049.468                  
  20572198.423   108107643.634    20572198.619    84239727.251                  
  21396558.940   112439690.473    21396558.297    87615346.239                  
  20945808.726   110070991.617    20945806.313    85769610.336                  
  24732384.171   129969572.442    24732382.134   101274996.340                  
  24013251.203   126190454.156    24013253.597    98330215.820                  
  23656609.663   124316275.993    23656612.237    96869813.714                  
                 123154946.805                   123154946.805    23650604.689  
                 122294153.899                   122294153.899    23485305.684  
                 115269831.597                   115269831.597    22136357.487  
                 133776470.540                   133776470.540    25690398.905  
  25722749.592   135173930.805                                                  
  23934306.485   125775591.220                                                  
  23438728.735   123171328.792                                                  
  23508615.342   123538577.818                                                  
  25508111.194   134046009.395                                                  
  27689775.356   145510772.554                                                  
 21  9  1 11 15  6.0000000  0 19G 2G 3G 6G14G17G19G22G24G30C23C27C28
                                C33E 1E13E21E26E27E33
  23596314.934   123999492.236    23596312.968    96622986.297                  
  23305142.975   122469322.355    23305145.620    95430632.477                  
  20906774.256   109865803.199    20906777.079    85609706.882                  
  20572372.985   108108561.019    20572373.182    84240442.099                  
  21396684.416   112440349.831    21396683.773    87615860.023                  
  20945720.328   110070527.050    20945717.915    85769248.333                  
  24732767.444   129971586.536    24732765.425   101276565.762                  
  24012985.633   126189058.667    24012988.064    98329128.429                  
  23657261.222   124319699.913    23657263.795    96872481.702                  
                 123157713.454                   123157713.454    23651136.006  
                 122292752.405                   122292752.405    23485036.541  
                 115270532.245                   115270532.245    22136492.041  
                 133774497.265                   133774497.265    25690019.939  
  25722322.522   135171686.430                                                  
  23934607.435   125777172.785                                                  
  23438710.956   123171235.310                                                  
  23508437.009   123537640.590                                                  
  25508532.027   134048220.824                                                  
  27689324.807   145508404.798                                                  
 21  9  1 11 15  7.0000000  0 19G 2G 3G 6G14G17G19G22G24G30C23C27C28
                                C33E 1E13E21E26E27E33
  23595791.175   123996739.832    23595789.174    96620841.569                  
  23305256.569   122469919.301    23305259.213    95431097.630                  
  20906446.485   109864080.728    20906449.326    85608364.699                  
  20572547.655   108109478.888    20572547.851    84241157.321                  
  21396809.893   112441009.246    21396809.267    87616373.855                  
  20945631.948   110070062.668    20945629.535    85768886.476                  
  24733150.806   129973601.102    24733148.787   101278135.554                  
  24012720.207   126187663.721    24012722.601    98328041.458                  
  23657912.780   124323123.898    23657915.353    96875149.742                  
                 123160480.382                   123160480.382    23651667.360  
                 122291351.118                   122291351.118    23484767.433  
                 115271233.056                   115271233.056    22136626.612  
                 133772524.164                   133772524.164    25689641.044  
  25721895.452   135169442.214                                                  
  23934908.439   125778754.567                                                  
  23438693.247   123171142.208                                                  
  23508258.694   123536703.703                                                  
  25508952.879   134050432.533                                                  
  27688874.257   145506037.229                                                  
 21  9  1 11 15  8.0000000  0 19G 2G 3G 6G14G17G19G22G24G30C23C27C28
                                C33E 1E13E21E26E27E33
  23595267.452   123993987.648    23595265.468    96618697.013                  
  23305370.287   122470516.863    23305372.914    95431563.261                  
  20906118.820   109862358.805    20906121.644    85607022.941                  
  20572722.414   108110397.282    20572722.628    84241872.949                  
  21396935.405   112441668.719    21396934.761    87616887.725                  
  20945543.621   110069598.523    20945541.227    85768524.805                  
  24733534.239   129975616.106    24733532.220   101279705.686                  
  24012454.834   126186269.316    24012457.264    98326954.906                  
  23658564.338   124326547.910    23658566.911    96877817.805                  
                 123163247.595                   123163247.595    23652198.767  
                 122289950.034                   122289950.034    23484498.379  
                 115271934.023                   115271934.023    22136761.220  
                 133770551.227                   133770551.227    25689262.167  
  25721468.418   135167198.156                                                  
  23935209.478   125780336.531                                                  
  23438675.593   123171049.509                                                  
  23508080.486   123535767.100                                                  
  25509373.801   134052644.426                                                  
  27688423.761   145503669.828                                                  
 21  9  1 11 15  9.0000000  0 19G 2G 3G 6G14G17G19G22G24G30C23C27C28
                                C33E 1E13E21E26E27E33
  23594743.800   123991235.857    23594741.817    96616552.758                  
  23305484.113   122471115.047    23305486.757    95432029.378                  
  20905791.245   109860637.384    20905794.069    85605681.574                  
  20572897.262   108111316.137    20572897.477    84242588.942                  
  21397060.899   112442328.251    21397060.255    87617401.649                  
  20945455.312   110069134.519    20945452.918    85768163.242                  
  24733917.780   129977631.573    24733915.743   101281276.180                  
  24012189.604   126184875.447    24012192.017    98325868.774                  
  23659215.914   124329971.974    23659218.505    96880485.907                  
                 123166015.087                   123166015.087    23652730.245  
                 122288549.151                   122288549.151    23484229.343  
                 115272635.157                   115272635.157    22136895.881  
                 133768578.461                   133768578.461    25688883.308  
  25721041.420   135164954.251                                                  
  23935510.553   125781918.694                                                  
  23438658.028   123170957.165                                                  
  23507902.314   123534830.864                                                  
  25509794.778   134054856.648                                                  
  27687973.301   145501302.620                                                  
 21  9  1 11 15 10.0000000  0 19G 2G 3G 6G14G17G19G22G24G30C23C27C28
                                C33E 1E13E21E26E27E33
  23594220.220   123988484.380    23594218.219    96614408.750                  
  23305598.063   122471713.833    23305600.708    95432495.965                  
  20905463.760   109858916.486    20905466.583    85604340.614                  
  20573072.218   108112235.485    20573072.414    84243305.317                  
  21397186.429   112442987.845    21397185.785    87617915.618                  
  20945367.057   110068670.715    20945364.663    85767801.836                  
  24734301.392   129979647.507    24734299.355   101282847.036                  
  24011924.464   126183482.121    24011926.876    98324783.065                  
  23659867.526   124333396.102    23659870.099    96883154.055                  
                 123168782.855                   123168782.855    23653261.759  
                 122287148.472                   122287148.472    23483960.361  
                 115273336.453                   115273336.453    22137030.541  
                 133766605.860                   133766605.860    25688504.485  
  25720614.458   135162710.522                                                  
  23935811.664   125783501.075                                                  
  23438640.516   123170865.220                                                  
  23507724.214   123533894.943                                                  
  25510215.808   134057069.134                                                  
  27687522.859   145498935.609                                                  
 21  9  1 11 15 11.0000000  0 19G 2G 3G 6G14G17G19G22G24G30C23C27C28
                                C33E 1E13E21E26E27E33
  23593696.675   123985733.203    23593694.692    96612264.978                  
  23305712.121   122472313.238    23305714.766    95432963.036                  
  20905136.381   109857196.101    20905139.205    85603000.055                  
  20573247.263   108113155.329    20573247.459    84244022.079                  
  21397311.941   112443647.497    21397311.297    87618429.633                  
  20945278.838   110068207.087    20945276.443    85767440.569                  
  24734685.094   129981663.901    24734683.075   101284418.254                  
  24011659.412   126182089.323    24011661.843    98323697.768                  
  23660519.120   124336820.266    23660521.675    96885822.234                  
                 123171550.911                   123171550.911    23653793.345  
                 122285747.999                   122285747.999    23483691.414  
                 115274037.910                   115274037.910    22137165.256  
                 133764633.429                   133764633.429    25688125.697  
  25720187.513   135160466.957                                                  
  23936112.829   125785083.638                                                  
  23438623.094   123170773.648                                                  
  23507546.185   123532959.347                                                  
  25510636.855   134059281.887                                                  
  27687072.452   145496568.762                                                  
 21  9  1 11 15 12.0000000  0 19G 2G 3G 6G14G17G19G22G24G30C23C27C28
                                C33E 1E13E21E26E27E33
  23593173.220   123982982.369    23593171.219    96610121.468                  
  23305826.304   122472913.263    23305828.931    95433430.585                  
  20904809.092   109855476.238    20904811.934    85601659.902                  
  20573422.379   108114075.651    20573422.576    84244739.215                  
  21397437.488   112444307.226    21397436.845    87618943.707                  
  20945190.654   110067743.644    20945188.242    85767079.445                  
  24735068.902   129983680.742    24735066.865   101285989.816                  
  24011394.486   126180697.074    24011396.899    98322612.899                  
  23661170.714   124340244.468    23661173.305    96888490.446                  
                 123174319.243                   123174319.243    23654324.966  
                 122284347.727                   122284347.727    23483422.503  
                 115274739.529                   115274739.529    22137300.006  
                 133762661.172                   133762661.172    25687746.945  
  25719760.622   135158223.554                                                  
  23936414.029   125786666.409                                                  
  23438605.743   123170682.465                                                  
  23507368.191   123532024.103                                                  
  25511057.993   134061494.901                                                  
  27686622.099   145494202.109                                                  
 21  9  1 11 15 13.0000000  0 19G 2G 3G 6G14G17G19G22G24G30C23C27C28
                                C33E 1E13E21E26E27E33
  23592649.819   123980231.831    23592647.817    96607978.192                  
  23305940.595   122473513.897    23305943.239    95433898.614                  
  20904481.929   109853756.898    20904484.752    85600320.161                  
  20573597.621   108114996.481    20573597.817    84245456.743                  
  21397563.036   112444967.007    21397562.393    87619457.824                  
  20945102.506   110067280.394    20945100.094    85766718.473                  
  24735452.783   129985698.046    24735450.746   101287561.741                  
  24011129.667   126179305.356    24011132.062    98321528.446                  
  23661822.343   124343668.726    23661824.899    96891158.696                  
                 123177087.855                   123177087.855    23654856.641  
                 122282947.661                   122282947.661    23483153.646  
                 115275441.308                   115275441.308    22137434.757  
                 133760689.077                   133760689.077    25687368.211  
  25719333.731   135155980.306                                                  
  23936715.247   125788249.385                                                  
  23438588.481   123170591.668                                                  
  23507190.305   123531089.161                                                  
  25511479.165   134063708.189                                                  
  27686171.782   145491835.637                                                  
 21  9  1 11 15 14.0000000  0 19G 2G 3G 6G14G17G19G22G24G30C23C27C28
                                C33E 1E13E21E26E27E33
  23592126.453   123977481.616    23592124.452    96605835.172                  
  23306055.028   122474115.151    23306057.655    95434367.122                  
  20904154.836   109852038.083    20904157.677    85598980.820                  
  20573772.934   108115917.789    20573773.148    84246174.645                  
  21397688.602   112445626.844    21397687.958    87619971.985                  
  20945014.376   110066817.332    20945011.982    85766357.643                  
  24735836.734   129987715.796    24735834.715   101289134.017                  
  24010864.920   126177914.169    24010867.314    98320444.402                  
  23662473.955   124347093.031    23662476.546    96893826.983                  
                 123179856.745                   123179856.745    23655388.387  
                 122281547.796                   122281547.796    23482884.806  
                 115276143.253                   115276143.253    22137569.561  
                 133758717.157                   133758717.157    25686989.549  
  25718906.894   135153737.231                                                  
  23937016.501   125789832.556                                                  
  23438571.256   123170501.257                                                  
  23507012.437   123530154.554                                                  
  25511900.374   134065921.734                                                  
  27685721.500   145489469.345                                                  
 21  9  1 11 15 15.0000000  0 19G 2G 3G 6G14G17G19G22G24G30C23C27C28
                                C33E 1E13E21E26E27E33
  23591603.176   123974731.724    23591601.175    96603692.394                  
  23306169.533   122474717.015    23306172.195    95434836.107                  
  20903827.869   109850319.784    20903830.674    85597641.891                  
  20573948.336   108116839.585    20573948.533    84246892.929                  
  21397814.185   112446286.746    21397813.542    87620486.192                  
  20944926.300   110066354.449    20944923.905    85765996.958                  
  24736220.793   129989734.016    24736218.756   101290706.649                  
  24010600.280   126176523.534    24010602.692    98319360.792                  
  23663125.585   124350517.379    23663128.158    96896495.309                  
                 123182625.921                   123182625.921    23655920.187  
                 122280148.134                   122280148.134    23482616.021  
                 115276845.360                   115276845.360    22137704.400  
                 133756745.403                   133756745.403    25686610.886  
  25718480.074   135151494.297                                                  
  23937317.826   125791415.925                                                  
  23438554.137   123170411.223                                                  
  23506834.658   123529220.281                                                  
  25512321.654   134068135.558                                                  
  27685271.237   145487103.238                                                  
 21  9  1 11 15 16.0000000  0 19G 2G 3G 6G14G17G19G22G24G30C23C27C28
                                C33E 1E13E21E26E27E33
  23591079.936   123971982.116    23591077.952    96601549.832                  
  23306284.198   122475319.519    23306286.843    95435305.606                  
  20903500.973   109848601.999    20903503.796    85596303.354                  
  20574123.863   108117761.844    20574124.060    84247611.559                  
  21397939.769   112446946.656    21397939.125    87621000.379                  
  20944838.259   110065891.781    20944835.847    85765636.446                  
  24736604.942   129991752.699    24736602.904   101292279.660                  
  24010335.765   126175133.474    24010338.159    98318277.645                  
  23663777.214   124353941.772    23663779.805    96899163.667                  
                 123185395.376                   123185395.376    23656452.023  
                 122278748.676                   122278748.676    23482347.253  
                 115277547.625                   115277547.625    22137839.258  
                 133754773.818                   133754773.818    25686232.260  
  25718053.309   135149251.554                                                  
  23937619.152   125792999.468                                                  
  23438537.072   123170321.646                                                  
  23506656.933   123528286.355                                                  
  25512743.006   134070349.573                                                  
  27684821.027   145484737.227                                                  
 21  9  1 11 15 17.0000000  0 19G 2G 3G 6G14G17G19G22G24G30C23C27C28
                                C33E 1E13E21E26E27E33
  23590556.784   123969232.855    23590554.783    96599407.550                  
  23306398.953   122475922.625    23306401.598    95435775.558                  
  20903174.202   109846884.734    20903177.025    85594965.228                  
  20574299.462   108118684.625    20574299.659    84248330.605                  
  21398065.352   112447606.673    21398064.727    87621514.679                  
  20944750.236   110065429.273    20944747.842    85765276.051                  
  24736989.161   129993771.832    24736987.142   101293853.008                  
  24010071.339   126173743.898    24010073.733    98317194.863                  
  23664428.880   124357366.223    23664431.453    96901832.071                  
                 123188165.110                   123188165.110    23656983.912  
                 122277349.421                   122277349.421    23482078.556  
                 115278250.055                   115278250.055    22137974.169  
                 133752802.398                   133752802.398    25685853.687  
  25717626.543   135147008.934                                                  
  23937920.548   125794583.231                                                  
  23438520.079   123170232.368                                                  
  23506479.279   123527352.734                                                  
  25513164.375   134072563.928                                                  
  27684370.835   145482371.484                                                  
 21  9  1 11 15 18.0000000  0 19G 2G 3G 6G14G17G19G22G24G30C23C27C28
                                C33E 1E13E21E26E27E33
  23590033.687   123966483.922    23590031.685    96597265.527                  
  23306513.833   122476526.335    23306516.478    95436245.984                  
  20902847.503   109845167.993    20902850.344    85593627.503                  
  20574475.133   108119607.888    20574475.347    84249050.035                  
  21398190.954   112448266.750    21398190.328    87622029.028                  
  20944662.267   110064966.954    20944659.855    85764915.802                  
  24737373.488   129995791.419    24737371.451   101295426.714                  
  24009807.002   126172354.880    24009809.415    98316112.509                  
  23665080.545   124360790.707    23665083.118    96904500.500                  
                 123190935.120                   123190935.120    23657515.855  
                 122275950.370                   122275950.370    23481809.877  
                 115278952.645                   115278952.645    22138109.080  
                 133750831.153                   133750831.153    25685475.113  
  25717199.812   135144766.505                                                  
  23938221.963   125796167.202                                                  
  23438503.175   123170143.481                                                  
  23506301.679   123526419.441                                                  
  25513585.798   134074778.551                                                  
  27683920.678   145480005.931                                                  
 21  9  1 11 15 19.0000000  0 19G 2G 3G 6G14G17G19G22G24G30C23C27C28
                                C33E 1E13E21E26E27E33
  23589510.624   123963735.292    23589508.641    96595123.739                  
  23306628.838   122477130.661    23306631.483    95436716.883                  
  20902520.928   109843451.766    20902523.734    85592290.188                  
  20574650.928   108120531.643    20574651.125    84249769.844                  
  21398316.573   112448926.887    21398315.947    87622543.417                  
  20944574.316   110064504.817    20944571.921    85764555.699                  
  24737757.887   129997811.470    24737755.867   101297000.777                  
  24009542.773   126170966.387    24009545.203    98315030.566                  
  23665732.193   124364215.244    23665734.784    96907168.968                  
                 123193705.415                   123193705.415    23658047.887  
                 122274551.523                   122274551.523    23481541.235  
                 115279655.399                   115279655.399    22138244.045  
                 133748860.079                   133748860.079    25685096.594  
  25716773.136   135142524.214                                                  
  23938523.413   125797751.358                                                  
  23438486.342   123170054.972                                                  
  23506124.132   123525486.460                                                  
  25514007.275   134076993.425                                                  
  27683470.557   145477640.548                                                  
 21  9  1 11 15 20.0000000  0 19G 2G 3G 6G14G17G19G22G24G30C23C27C28
                                C33E 1E13E21E26E27E33
  23588987.634   123960986.982    23588985.633    96592982.196                  
  23306743.968   122477735.600    23306746.595    95437188.269                  
  20902194.443   109841736.068    20902197.267    85590953.278                  
  20574826.795   108121455.892    20574826.992    84250490.036                  
  21398442.228   112449587.082    21398441.584    87623057.855                  
  20944486.418   110064042.867    20944484.006    85764195.734                  
  24738142.374   129999831.975    24738140.337   101298575.200                  
  24009278.687   126169578.437    24009281.081    98313949.047                  
  23666383.876   124367639.809    23666386.467    96909837.456                  
                 123196475.983                   123196475.983    23658579.938  
                 122273152.879                   122273152.879    23481272.663  
                 115280358.312                   115280358.312    22138379.027  
                 133746889.171                   133746889.171    25684718.092  
  25716346.477   135140282.104                                                  
  23938824.900   125799335.720                                                  
  23438469.563   123169966.856                                                  
  23505946.657   123524553.822                                                  
  25514428.805   134079208.579                                                  
  27683020.473   145475275.362                                                  
 21  9  1 11 15 21.0000000  0 19G 2G 3G 6G14G17G19G22G24G30C23C27C28
                                C33E 1E13E21E26E27E33
  23588464.715   123958238.985    23588462.714    96590840.898                  
  23306859.205   122478341.165    23306861.832    95437660.133                  
  20901868.048   109840020.883    20901870.871    85589616.772                  
  20575002.787   108122380.633    20575002.984    84251210.614                  
  21398567.865   112450247.333    21398567.222    87623572.336                  
  20944398.538   110063581.102    20944396.144    85763835.917                  
  24738526.934   130001852.939    24738524.914   101300149.972                  
  24009014.654   126168191.024    24009017.066    98312867.946                  
  23667035.559   124371064.425    23667038.132    96912505.992                  
                 123199246.840                   123199246.840    23659112.041  
                 122271754.438                   122271754.438    23481004.092  
                 115281061.388                   115281061.388    22138514.046  
                 133744918.435                   133744918.435    25684339.644  
  25715919.837   135138040.156                                                  
  23939126.439   125800920.284                                                  
  23438452.855   123169879.116                                                  
  23505769.235   123523621.503                                                  
  25514850.407   134081423.999                                                  
  27682570.441   145472910.347                                                  
 21  9  1 11 15 22.0000000  0 19G 2G 3G 6G14G17G19G22G24G30C23C27C28
                                C33E 1E13E21E26E27E33
  23587941.867   123955491.308    23587939.866    96588699.856                  
  23306974.532   122478947.328    23306977.177    95438132.472                  
  20901541.759   109838306.226    20901544.583    85588280.676                  
  20575178.833   108123305.856    20575179.047    84251931.566                  
  21398693.520   112450907.651    21398692.877    87624086.870                  
  20944310.694   110063119.522    20944308.300    85763476.247                  
  24738911.618   130003874.360    24738909.581   101301725.105                  
  24008750.747   126166804.145    24008753.159    98311787.261                  
  23667687.260   124374489.085    23667689.834    96915174.558                  
                 123202017.969                   123202017.969    23659644.217  
                 122270356.199                   122270356.199    23480735.574  
                 115281764.626                   115281764.626    22138649.100  
                 133742947.864                   133742947.864    25683961.214  
  25715493.267   135135798.382                                                  
  23939428.015   125802505.047                                                  
  23438436.237   123169791.772                                                  
  23505591.903   123522689.522                                                  
  25515272.026   134083639.684                                                  
  27682120.446   145470545.536                                                  
 21  9  1 11 15 23.0000000  0 19G 2G 3G 6G14G17G19G22G24G30C23C27C28
                                C33E 1E13E21E26E27E33
  23587419.037   123952743.943    23587417.036    96586559.047                  
  23307090.002   122479554.113    23307092.664    95438605.290                  
  20901215.560   109836592.080    20901218.402    85586944.978                  
  20575355.003   108124231.575    20575355.200    84252652.906                  
  21398819.175   112451568.019    21398818.532    87624601.441                  
  20944222.904   110062658.130    20944220.491    85763116.718                  
  24739296.356   130005896.245    24739294.337   101303300.602                  
  24008486.928   126165417.809    24008489.341    98310707.001                  
  23668338.962   124377913.801    23668341.535    96917843.168                  
                 123204789.384                   123204789.384    23660176.446  
                 122268958.165                   122268958.165    23480467.092  
                 115282468.022                   115282468.022    22138784.172  
                 133740977.465                   133740977.465    25683582.820  
  25715066.680   135133556.756                                                  
  23939729.626   125804089.999                                                  
  23438419.708   123169704.801                                                  
  23505414.625   123521757.867                                                  
  25515693.700   134085855.636                                                  
  27681670.468   145468180.899                                                  
 21  9  1 11 15 24.0000000  0 19G 2G 3G 6G14G17G19G22G24G30C23C27C28
                                C33E 1E13E21E26E27E33
  23586896.297   123949996.891    23586894.296    96584418.492                  
  23307205.596   122480161.520    23307208.241    95439078.594                  
  20900889.487   109834878.461    20900892.292    85585609.689                  
  20575531.263   108125157.781    20575531.460    84253374.624                  
  21398944.866   112452228.449    21398944.222    87625116.061                  
  20944135.149   110062196.917    20944132.737    85762757.336                  
  24739681.201   130007918.579    24739679.182   101304876.444                  
  24008223.217   126164032.024    24008225.647    98309627.169                  
  23668990.663   124381338.566    23668993.236    96920511.812                  
                 123207561.072                   123207561.072    23660708.692  
                 122267560.333                   122267560.333    23480198.663  
                 115283171.581                   115283171.581    22138919.279  
                 133739007.237                   133739007.237    25683204.461  
  25714640.146   135131315.293                                                  
  23940031.273   125805675.167                                                  
  23438403.215   123169618.211                                                  
  23505237.382   123520826.544                                                  
  25516115.444   134088071.860                                                  
  27681220.526   145465816.447                                                  
 21  9  1 11 15 25.0000000  0 19G 2G 3G 6G14G17G19G22G24G30C23C27C28
                                C33E 1E13E21E26E27E33
  23586373.628   123947250.165    23586371.627    96582278.184                  
  23307321.298   122480769.526    23307323.943    95439552.363                  
  20900563.484   109833165.360    20900566.307    85584274.804                  
  20575707.595   108126084.474    20575707.792    84254096.723                  
  21399070.538   112452888.938    21399069.895    87625630.726                  
  20944047.412   110061735.895    20944045.000    85762398.093                  
  24740066.118   130009941.376    24740064.098   101306452.653                  
  24007959.613   126162646.774    24007962.026    98308547.753                  
  23669642.382   124384763.364    23669644.955    96923180.487                  
                 123210333.042                   123210333.042    23661241.046  
                 122266162.703                   122266162.703    23479930.253  
                 115283875.305                   115283875.305    22139054.423  
                 133737037.179                   133737037.179    25682826.120  
  25714213.649   135129073.996                                                  
  23940332.956   125807260.523                                                  
  23438386.811   123169532.012                                                  
  23505060.228   123519895.543                                                  
  25516537.225   134090288.355                                                  
  27680770.620   145463452.179                                                  
 21  9  1 11 15 26.0000000  0 19G 2G 3G 6G14G17G19G22G24G30C23C27C28
                                C33E 1E13E21E26E27E33
  23585850.977   123944503.753    23585848.976    96580138.125                  
  23307437.125   122481378.160    23307439.752    95440026.625                  
  20900237.589   109831452.775    20900240.412    85582940.325                  
  20575884.034   108127011.657    20575884.248    84254819.203                  
  21399196.247   112453549.485    21399195.604    87626145.442                  
  20943959.729   110061275.063    20943957.316    85762039.008                  
  24740451.142   130011964.626    24740449.122   101308029.206                  
  24007696.117   126161262.052    24007698.511    98307468.749                  
  23670294.119   124388188.211    23670296.674    96925849.200                  
                 123213105.294                   123213105.294    23661773.418  
                 122264765.278                   122264765.278    23479661.896  
                 115284579.186                   115284579.186    22139189.602  
                 133735067.294                   133735067.294    25682447.815  
  25713787.186   135126832.864                                                  
  23940634.674   125808846.085                                                  
  23438370.497   123169446.203                                                  
  23504883.128   123518964.874                                                  
  25516959.059   134092505.105                                                  
  27680320.731   145461088.094                                                  
 21  9  1 11 15 27.0000000  0 19G 2G 3G 6G14G17G19G22G24G30C23C27C28
                                C33E 1E13E21E26E27E33
  23585328.415   123941757.655    23585326.414    96577998.308                  
  23307553.042   122481987.402    23307555.704    95440501.359                  
  20899911.801   109829740.712    20899914.624    85581606.250                  
  20576060.562   108127939.327    20576060.758    84255542.068                  
  21399321.938   112454210.091    21399321.294    87626660.200                  
  20943872.063   110060814.410    20943869.669    85761680.058                  
  24740836.237   130013988.336    24740834.218   101309606.125                  
  24007432.727   126159877.872    24007435.122    98306390.163                  
  23670945.838   124391613.109    23670948.429    96928517.949                  
                 123215877.819                   123215877.819    23662305.861  
                 122263368.056                   122263368.056    23479393.575  
                 115285283.234                   115285283.234    22139324.799  
                 133733097.576                   133733097.576    25682069.564  
  25713360.724   135124591.893                                                  
  23940936.446   125810431.835                                                  
  23438354.236   123169360.772                                                  
  23504706.082   123518034.531                                                  
  25517380.946   134094722.125                                                  
  27679870.896   145458724.187                                                  
 21  9  1 11 15 28.0000000  0 19G 2G 3G 6G14G17G19G22G24G30C23C27C28
                                C33E 1E13E21E26E27E33
  23584805.925   123939011.880    23584803.924    96575858.743                  
  23307669.101   122482597.251    23307671.746    95440976.566                  
  20899586.102   109828029.160    20899588.925    85580272.575                  
  20576237.179   108128867.496    20576237.394    84256265.312                  
  21399447.664   112454870.753    21399447.021    87627175.004                  
  20943784.434   110060353.945    20943782.021    85761321.250                  
  24741221.422   130016012.501    24741219.402   101311183.394                  
  24007169.427   126158494.230    24007171.822    98305312.005                  
  23671597.592   124395038.035    23671600.165    96931186.728                  
                 123218650.629                   123218650.629    23662838.340  
                 122261971.034                   122261971.034    23479125.307  
                 115285987.441                   115285987.441    22139460.032  
                 133731128.028                   133731128.028    25681691.348  
  25712934.316   135122351.090                                                  
  23941238.236   125812017.784                                                  
  23438338.065   123169275.726                                                  
  23504529.107   123517104.513                                                  
  25517802.888   134096939.423                                                  
  27679421.097   145456360.468                                                  
 21  9  1 11 15 29.0000000  0 19G 2G 3G 6G14G17G19G22G24G30C23C27C28
                                C33E 1E13E21E26E27E33
  23584283.489   123936266.419    23584281.487    96573719.423                  
  23307785.268   122483207.716    23307787.912    95441452.250                  
  20899260.493   109826318.141    20899263.316    85578939.312                  
  20576413.904   108129796.146    20576414.100    84256988.933                  
  21399573.408   112455531.476    21399572.765    87627689.851                  
  20943696.840   110059893.665    20943694.445    85760962.595                  
  24741606.696   130018037.117    24741604.676   101312761.020                  
  24006906.217   126157111.134    24006908.611    98304234.265                  
  23672249.347   124398463.012    23672251.920    96933855.538                  
                 123221423.716                   123221423.716    23663370.873  
                 122260574.219                   122260574.219    23478857.057  
                 115286691.808                   115286691.808    22139595.300  
                 133729158.653                   133729158.653    25681313.132  
  25712507.943   135120110.445                                                  
  23941540.062   125813603.941                                                  
  23438321.947   123169191.058                                                  
  23504352.204   123516174.827                                                  
  25518224.865   134099156.965                                                  
  27678971.334   145453996.928                                                  
 21  9  1 11 15 30.0000000  0 19G 2G 3G 6G14G17G19G22G24G30C23C27C28
                                C33E 1E13E21E26E27E33
  23583761.106   123933521.278    23583759.104    96571580.352                  
  23307901.559   122483818.806    23307904.204    95441928.427                  
  20898935.009   109824607.637    20898937.814    85577606.448                  
  20576590.718   108130725.286    20576590.914    84257712.938                  
  21399699.135   112456192.258    21399698.492    87628204.746                  
  20943609.299   110059433.567    20943606.887    85760604.074                  
  24741992.059   130020062.186    24741990.040   101314338.996                  
  24006643.113   126155728.565    24006645.543    98303156.941                  
  23672901.102   124401888.053    23672903.675    96936524.399                  
                 123224197.079                   123224197.079    23663903.477  
                 122259177.605                   122259177.605    23478588.843  
                 115287396.337                   115287396.337    22139730.604  
                 133727189.446                   133727189.446    25680934.988  
  25712081.588   135117869.958                                                  
  23941841.941   125815190.292                                                  
  23438305.901   123169106.781                                                  
  23504175.336   123515245.472                                                  
  25518646.895   134101374.789                                                  
  27678521.606   145451633.579                                                  
 21  9  1 11 15 31.0000000  0 19G 2G 3G 6G14G17G19G22G24G30C23C27C28
                                C33E 1E13E21E26E27E33
  23583238.758   123930776.454    23583236.757    96569441.528                  
  23308017.958   122484430.500    23308020.603    95442405.070                  
  20898609.596   109822897.648    20898612.419    85576273.992                  
  20576767.621   108131654.914    20576767.818    84258437.323                  
  21399824.897   112456853.093    21399824.254    87628719.684                  
  20943521.777   110058973.660    20943519.364    85760245.703                  
  24742377.494   130022087.718    24742375.474   101315917.333                  
  24006380.135   126154346.543    24006382.547    98302080.038                  
  23673552.874   124405313.118    23673555.465    96939193.276                  
                 123226970.723                   123226970.723    23664436.117  
                 122257781.194                   122257781.194    23478320.683  
                 115288101.027                   115288101.027    22139865.944  
                 133725220.411                   133725220.411    25680556.844  
  25711655.251   135115629.642                                                  
  23942143.838   125816776.843                                                  
  23438289.944   123169022.888                                                  
  23503998.558   123514316.429                                                  
  25519068.997   134103592.880                                                  
  27678071.915   145449270.415                                                  
 21  9  1 11 15 32.0000000  0 19G 2G 3G 6G14G17G19G22G24G30C23C27C28
                                C33E 1E13E21E26E27E33
  23582716.500   123928031.952    23582714.499    96567302.957                  
  23308134.482   122485042.811    23308137.127    95442882.200                  
  20898284.308   109821188.194    20898287.113    85574941.950                  
  20576944.614   108132585.040    20576944.828    84259162.097                  
  21399950.659   112457513.995    21399950.016    87629234.671                  
  20943434.308   110058513.946    20943431.878    85759887.484                  
  24742763.036   130024113.711    24742761.017   101317496.024                  
  24006117.246   126152965.051    24006119.658    98301003.554                  
  23674204.665   124408738.242    23674207.238    96941862.206                  
                 123229744.647                   123229744.647    23664968.846  
                 122256384.987                   122256384.987    23478052.558  
                 115288805.880                   115288805.880    22140001.302  
                 133723251.544                   133723251.544    25680178.735  
  25711228.986   135113389.496                                                  
  23942445.807   125818363.587                                                  
  23438274.040   123168939.371                                                  
  23503821.816   123513387.732                                                  
  25519491.135   134105811.235                                                  
  27677622.259   145446907.424                                                  
 21  9  1 11 15 33.0000000  0 19G 2G 3G 6G14G17G19G22G24G30C23C27C28
                                C33E 1E13E21E26E27E33
  23582194.296   123925287.770    23582192.295    96565164.634                  
  23308251.113   122485655.753    23308253.758    95443359.812                  
  20897959.092   109819479.251    20897961.915    85573610.308                  
  20577121.696   108133515.656    20577121.892    84259887.255                  
  21400076.439   112458174.956    21400075.796    87629749.708                  
  20943346.839   110058054.415    20943344.445    85759529.410                  
  24743148.667   130026140.159    24743146.648   101319075.074                  
  24005854.464   126151584.115    24005856.876    98299927.499                  
  23674856.438   124412163.397    23674859.029    96944531.161                  
                 123232518.848                   123232518.848    23665501.575  
                 122254988.983                   122254988.983    23477784.451  
                 115289510.889                   115289510.889    22140136.678  
                 133721282.849                   133721282.849    25679800.680  
  25710802.720   135111149.496                                                  
  23942747.776   125819950.540                                                  
  23438258.226   123168856.253                                                  
  23503645.162   123512459.363                                                  
  25519913.326   134108029.851                                                  
  27677172.620   145444544.630                                                  
 21  9  1 11 15 34.0000000  0 19G 2G 3G 6G14G17G19G22G24G30C23C27C28
                                C33E 1E13E21E26E27E33
  23581672.163   123922543.900    23581670.162    96563026.550                  
  23308367.851   122486269.296    23308370.514    95443837.898                  
  20897634.001   109817770.835    20897636.824    85572279.073                  
  20577298.885   108134446.754    20577299.082    84260612.785                  
  21400202.219   112458835.976    21400201.576    87630264.786                  
  20943259.442   110057595.059    20943257.011    85759171.468                  
  24743534.352   130028167.062    24743532.333   101320654.481                  
  24005591.771   126150203.700    24005594.184    98298851.852                  
  23675508.246   124415588.603    23675510.819    96947200.148                  
                 123235293.333                   123235293.333    23666034.394  
                 122253593.180                   122253593.180    23477516.416  
                 115290216.067                   115290216.067    22140272.107  
                 133719314.325                   133719314.325    25679422.643  
  25710376.508   135108909.667                                                  
  23943049.798   125821537.683                                                  
  23438242.483   123168773.507                                                  
  23503468.563   123511531.312                                                  
  25520335.554   134110248.749                                                  
  27676723.036   145442182.012                                                  
 21  9  1 11 15 35.0000000  0 19G 2G 3G 6G14G17G19G22G24G30C23C27C28
                                C33E 1E13E21E26E27E33
  23581150.084   123919800.361    23581148.083    96560888.730                  
  23308484.733   122486883.458    23308487.377    95444316.466                  
  20897308.999   109816062.934    20897311.822    85570948.243                  
  20577476.164   108135378.359    20577476.360    84261338.711                  
  21400328.017   112459497.052    21400327.374    87630779.910                  
  20943172.062   110057135.891    20943169.668    85758813.680                  
  24743920.162   130030194.423    24743918.143   101322234.238                  
  24005329.204   126148823.829    24005331.598    98297776.629                  
  23676160.036   124419013.855    23676162.627    96949869.175                  
                 123238068.088                   123238068.088    23666567.266  
                 122252197.581                   122252197.581    23477248.398  
                 115290921.400                   115290921.400    22140407.555  
                 133717345.973                   133717345.973    25679044.642  
  25709950.296   135106670.008                                                  
  23943351.874   125823125.032                                                  
  23438226.794   123168691.146                                                  
  23503292.017   123510603.598                                                  
  25520757.852   134112467.911                                                  
  27676273.487   145439819.581                                                  
 21  9  1 11 15 36.0000000  0 19G 2G 3G 6G14G17G19G22G24G30C23C27C28
                                C33E 1E13E21E26E27E33
  23580628.058   123917057.135    23580626.057    96558751.152                  
  23308601.721   122487498.243    23308604.384    95444795.519                  
  20896984.104   109814355.557    20896986.928    85569617.820                  
  20577653.532   108136310.434    20577653.746    84262065.001                  
  21400453.833   112460158.195    21400453.208    87631295.086                  
  20943084.718   110056676.905    20943082.306    85758456.028                  
  24744306.044   130032222.238    24744304.025   101323814.356                  
  24005066.726   126147444.503    24005069.120    98296701.828                  
  23676811.863   124422439.146    23676814.418    96952538.235                  
                 123240843.129                   123240843.129    23667100.174  
                 122250802.188                   122250802.188    23476980.434  
                 115291626.895                   115291626.895    22140543.037  
                 133715377.793                   133715377.793    25678666.658  
  25709524.138   135104430.513                                                  
  23943653.985   125824712.577                                                  
  23438211.195   123168609.160                                                  
  23503115.542   123509676.200                                                  
  25521180.204   134114687.331                                                  
  27675823.956   145437457.335                                                  
 21  9  1 11 15 37.0000000  0 19G 2G 3G 6G14G17G19G22G24G30C23C27C28
                                C33E 1E13E21E26E27E33
  23580106.104   123914314.218    23580104.103    96556613.812                  
  23308718.817   122488113.626    23308721.479    95445275.038                  
  20896659.281   109812648.682    20896662.122    85568287.790                  
  20577831.007   108137243.004    20577831.203    84262791.680                  
  21400579.667   112460819.387    21400579.023    87631810.297                  
  20942997.428   110056218.110    20942994.998    85758098.523                  
  24744691.997   130034250.508    24744689.978   101325394.824                  
  24004804.337   126146065.702    24004806.767    98295627.442                  
  23677463.689   124425864.484    23677466.262    96955207.327                  
                 123243618.446                   123243618.446    23667633.153  
                 122249406.995                   122249406.995    23476712.506  
                 115292332.556                   115292332.556    22140678.556  
                 133713409.781                   133713409.781    25678288.728  
  25709097.997   135102191.168                                                  
  23943956.097   125826300.314                                                  
  23438195.684   123168527.574                                                  
  23502939.139   123508749.129                                                  
  25521602.592   134116907.027                                                  
  27675374.478   145435095.286                                                  
 21  9  1 11 15 38.0000000  0 19G 2G 3G 6G14G17G19G22G24G30C23C27C28
                                C33E 1E13E21E26E27E33
  23579584.204   123911571.621    23579582.202    96554476.726                  
  23308836.055   122488729.626    23308838.700    95445755.040                  
  20896334.583   109810942.345    20896337.407    85566958.171                  
  20578008.553   108138176.059    20578008.768    84263518.738                  
  21400705.482   112461480.636    21400704.839    87632325.558                  
  20942910.138   110055759.491    20942907.744    85757741.160                  
  24745078.057   130036279.233    24745076.038   101326975.651                  
  24004542.073   126144687.448    24004544.486    98294553.478                  
  23678115.497   124429289.862    23678118.088    96957876.456                  
                 123246394.039                   123246394.039    23668166.186  
                 122248012.003                   122248012.003    23476444.614  
                 115293038.371                   115293038.371    22140814.093  
                 133711441.941                   133711441.941    25677910.816  
  25708671.893   135099951.996                                                  
  23944258.280   125827888.237                                                  
  23438180.228   123168446.360                                                  
  23502762.772   123507822.395                                                  
  25522025.034   134119126.981                                                  
  27674925.019   145432733.399                                                  
 21  9  1 11 15 39.0000000  0 19G 2G 3G 6G14G17G19G22G24G30C23C27C28
                                C33E 1E13E21E26E27E33
  23579062.374   123908829.353    23579060.373    96552339.891                  
  23308953.401   122489346.250    23308956.046    95446235.526                  
  20896009.975   109809236.515    20896012.798    85565628.958                  
  20578186.207   108139109.613    20578186.404    84264246.180                  
  21400831.334   112462141.952    21400830.709    87632840.871                  
  20942822.901   110055301.075    20942820.507    85757383.950                  
  24745464.207   130038308.422    24745462.187   101328556.835                  
  24004279.899   126143309.742    24004282.311    98293479.938                  
  23678767.341   124432715.288    23678769.914    96960545.616                  
                 123249169.911                   123249169.911    23668699.255  
                 122246617.218                   122246617.218    23476176.757  
                 115293744.352                   115293744.352    22140949.683  
                 133709474.275                   133709474.275    25677532.958  
  25708245.842   135097712.985                                                  
  23944560.499   125829476.379                                                  
  23438164.842   123168365.537                                                  
  23502586.476   123506895.984                                                  
  25522447.547   134121347.203                                                  
  27674475.613   145430371.711                                                  
 21  9  1 11 15 40.0000000  0 19G 2G 3G 6G14G17G19G22G24G30C23C27C28
                                C33E 1E13E21E26E27E33
  23578540.599   123906087.398    23578538.598    96550203.310                  
  23309070.837   122489963.479    23309073.499    95446716.479                  
  20895685.455   109807531.230    20895688.296    85564300.165                  
  20578363.932   108140043.656    20578364.147    84264974.008                  
  21400957.186   112462803.333    21400956.542    87633356.230                  
  20942735.701   110054842.837    20942733.306    85757026.882                  
  24745850.446   130040338.071    24745848.408   101330138.380                  
  24004017.832   126141932.558    24004020.244    98292406.808                  
  23679419.185   124436140.749    23679421.758    96963214.809                  
                 123251946.062                   123251946.062    23669232.377  
                 122245222.636                   122245222.636    23475908.936  
                 115294450.490                   115294450.490    22141085.273  
                 133707506.778                   133707506.778    25677155.118  
  25707819.808   135095474.148                                                  
  23944862.735   125831064.719                                                  
  23438149.547   123168285.100                                                  
  23502410.252   123505969.907                                                  
  25522870.078   134123567.697                                                  
  27674026.243   145428010.204                                                  
 21  9  1 11 15 41.0000000  0 19G 2G 3G 6G14G17G19G22G24G30C23C27C28
                                C33E 1E13E21E26E27E33
  23578018.877   123903345.758    23578016.876    96548066.964                  
  23309188.415   122490581.327    23309191.059    95447197.926                  
  20895361.061   109805826.442    20895363.884    85562971.758                  
  20578541.783   108140978.187    20578541.979    84265702.212                  
  21401083.055   112463464.766    21401082.412    87633871.633                  
  20942648.535   110054384.784    20942646.141    85756669.960                  
  24746236.738   130042368.167    24746234.719   101331720.270                  
  24003755.854   126140555.926    24003758.284    98291334.106                  
  23680071.047   124439566.263    23680073.620    96965884.038                  
                 123254722.493                   123254722.493    23669765.553  
                 122243828.255                   122243828.255    23475641.151  
                 115295156.790                   115295156.790    22141220.917  
                 133705539.452                   133705539.452    25676777.313  
  25707393.793   135093235.457                                                  
  23945165.026   125832653.242                                                  
  23438134.304   123168205.043                                                  
  23502234.099   123505044.147                                                  
  25523292.680   134125788.449                                                  
  27673576.873   145425648.874                                                  
 21  9  1 11 15 42.0000000  0 19G 2G 3G 6G14G17G19G22G24G30C23C27C28
                                C33E 1E13E21E26E27E33
  23577497.227   123900604.434    23577495.225    96545930.868                  
  23309306.100   122491199.797    23309308.763    95447679.847                  
  20895036.738   109804122.191    20895039.579    85561643.770                  
  20578719.705   108141913.208    20578719.901    84266430.802                  
  21401208.942   112464126.250    21401208.299    87634387.075                  
  20942561.424   110053926.911    20942558.994    85756313.175                  
  24746623.156   130044398.726    24746621.119   101333302.526                  
  24003494.002   126139179.817    24003496.414    98290261.817                  
  23680722.891   124442991.820    23680725.482    96968553.304                  
                 123257499.200                   123257499.200    23670298.800  
                 122242434.074                   122242434.074    23475373.420  
                 115295863.254                   115295863.254    22141356.578  
                 133703572.301                   133703572.301    25676399.544  
  25706967.813   135090996.943                                                  
  23945467.352   125834241.973                                                  
  23438119.134   123168125.367                                                  
  23502058.000   123504118.719                                                  
  25523715.318   134128009.469                                                  
  27673127.574   145423287.735                                                  
 21  9  1 11 15 43.0000000  0 19G 2G 3G 6G14G17G19G22G24G30C23C27C28
                                C33E 1E13E21E26E27E33
  23576975.612   123897863.431    23576973.629    96543795.019                  
  23309423.928   122491818.875    23309426.555    95448162.247                  
  20894712.541   109802418.453    20894715.364    85560316.180                  
  20578897.716   108142848.719    20578897.948    84267159.769                  
  21401334.812   112464787.801    21401334.186    87634902.571                  
  20942474.313   110053469.231    20942471.900    85755956.539                  
  24747009.645   130046429.737    24747007.626   101334885.132                  
  24003232.238   126137804.262    24003234.668    98289189.954                  
  23681374.753   124446417.410    23681377.344    96971222.595                  
                 123260276.183                   123260276.183    23670832.101  
                 122241040.100                   122241040.100    23475105.724  
                 115296569.874                   115296569.874    22141492.276  
                 133701605.321                   133701605.321    25676021.793  
  25706541.887   135088758.592                                                  
  23945769.713   125835830.897                                                  
  23438104.052   123168046.069                                                  
  23501881.954   123503193.622                                                  
  25524138.028   134130230.749                                                  
  27672678.293   145420926.778                                                  
 21  9  1 11 15 44.0000000  0 19G 2G 3G 6G14G17G19G22G24G30C23C27C28
                                C33E 1E13E21E26E27E33
  23576454.105   123895122.700    23576452.103    96541659.364                  
  23309541.846   122492438.575    23309544.473    95448645.130                  
  20894388.414   109800715.220    20894391.255    85558988.985                  
  20579075.834   108143784.723    20579076.049    84267889.125                  
  21401460.717   112465449.407    21401460.073    87635418.106                  
  20942387.255   110053011.727    20942384.860    85755600.042                  
  24747396.223   130048461.206    24747394.204   101336468.093                  
  24002970.582   126136429.214    24002972.995    98288118.477                  
  23682026.633   124449843.050    23682029.224    96973891.934                  
                 123263053.465                   123263053.465    23671365.438  
                 122239646.327                   122239646.327    23474838.064  
                 115297276.652                   115297276.652    22141628.027  
                 133699638.542                   133699638.542    25675644.095  
  25706115.961   135086520.386                                                  
  23946072.129   125837420.027                                                  
  23438089.042   123167967.182                                                  
  23501705.980   123502268.843                                                  
  25524560.755   134132452.312                                                  
  27672229.066   145418565.964                                                  
 21  9  1 11 15 45.0000000  0 19G 2G 3G 6G14G17G19G22G24G30C23C27C28
                                C33E 1E13E21E26E27E33
  23575932.615   123892382.327    23575930.614    96539524.013                  
  23309659.889   122493058.882    23309662.516    95449128.489                  
  20894064.413   109799012.524    20894067.237    85557662.207                  
  20579254.060   108144721.214    20579254.256    84268618.858                  
  21401586.640   112466111.075    21401585.996    87635933.692                  
  20942300.232   110052554.413    20942297.820    85755243.694                  
  24747782.873   130050493.132    24747780.854   101338051.410                  
  24002709.033   126135054.739    24002711.446    98287047.457                  
  23682678.513   124453268.734    23682681.104    96976561.293                  
                 123265831.003                   123265831.003    23671898.846  
                 122238252.757                   122238252.757    23474570.439  
                 115297983.598                   115297983.598    22141763.778  
                 133697671.903                   133697671.903    25675266.415  
  25705690.089   135084282.358                                                  
  23946374.562   125839009.348                                                  
  23438074.104   123167888.665                                                  
  23501530.060   123501344.403                                                  
  25524983.554   134134674.138                                                  
  27671779.856   145416205.379                                                  
 21  9  1 11 15 46.0000000  0 19G 2G 3G 6G14G17G19G22G24G30C23C27C28
                                C33E 1E13E21E26E27E33
  23575411.197   123889642.280    23575409.214    96537388.906                  
  23309778.039   122493679.808    23309780.683    95449612.325                  
  20893740.501   109797310.353    20893743.325    85556335.840                  
  20579432.357   108145658.198    20579432.554    84269348.976                  
  21401712.563   112466772.796    21401711.919    87636449.317                  
  20942213.246   110052097.288    20942210.834    85754887.493                  
  24748169.612   130052525.511    24748167.593   101339635.081                  
  24002447.574   126133680.801    24002450.004    98285976.856                  
  23683330.429   124456694.468    23683333.002    96979230.699                  
                 123268608.824                   123268608.824    23672432.272  
                 122236859.391                   122236859.391    23474302.869  
                 115298690.698                   115298690.698    22141899.564  
                 133695705.438                   133695705.438    25674888.772  
  25705264.234   135082044.501                                                  
  23946677.013   125840598.862                                                  
  23438059.237   123167810.524                                                  
  23501354.193   123500420.281                                                  
  25525406.425   134136896.231                                                  
  27671330.701   145413844.979                                                  
 21  9  1 11 15 47.0000000  0 19G 2G 3G 6G14G17G19G22G24G30C23C27C28
                                C33E 1E13E21E26E27E33
  23574889.868   123886902.550    23574887.867    96535254.054                  
  23309896.314   122494301.345    23309898.959    95450096.642                  
  20893416.679   109795608.695    20893419.520    85555009.876                  
  20579610.743   108146595.669    20579610.940    84270079.473                  
  21401838.486   112467434.591    21401837.860    87636965.001                  
  20942126.295   110051640.350    20942123.883    85754531.438                  
  24748556.459   130054558.353    24748554.440   101341219.114                  
  24002186.239   126132307.406    24002188.634    98284906.680                  
  23683982.326   124460120.240    23683984.899    96981900.124                  
                 123271386.923                   123271386.923    23672965.806  
                 122235466.228                   122235466.228    23474035.316  
                 115299397.964                   115299397.964    22142035.405  
                 133693739.145                   133693739.145    25674511.181  
  25704838.416   135079806.805                                                  
  23946979.535   125842188.594                                                  
  23438044.441   123167732.784                                                  
  23501178.415   123499496.496                                                  
  25525829.313   134139118.589                                                  
  27670881.563   145411484.753                                                  
 21  9  1 11 15 48.0000000  0 19G 2G 3G 6G14G17G19G22G24G30C23C27C28
                                C33E 1E13E21E26E27E33
  23574368.557   123884163.145    23574366.556    96533119.453                  
  23310014.696   122494923.495    23310017.359    95450581.434                  
  20893092.964   109793907.558    20893095.805    85553684.314                  
  20579789.237   108147533.634    20579789.434    84270810.352                  
  21401964.445   112468096.429    21401963.801    87637480.719                  
  20942039.380   110051183.595    20942036.968    85754175.524                  
  24748943.377   130056591.632    24748941.358   101342803.492                  
  24001924.976   126130934.554    24001927.406    98283836.921                  
  23684634.242   124463546.050    23684636.815    96984569.589                  
                 123274165.293                   123274165.293    23673499.339  
                 122234073.266                   122234073.266    23473767.816  
                 115300105.390                   115300105.390    22142171.245  
                 133691773.023                   133691773.023    25674133.609  
  25704412.615   135077569.276                                                  
  23947282.094   125843778.516                                                  
  23438029.717   123167655.421                                                  
  23501002.673   123498573.040                                                  
  25526252.255   134141341.208                                                  
  27670432.461   145409124.722                                                  
 21  9  1 11 15 49.0000000  0 19G 2G 3G 6G14G17G19G22G24G30C23C27C28
                                C33E 1E13E21E26E27E33
  23573847.336   123881424.052    23573845.335    96530985.095                  
  23310133.221   122495546.261    23310135.866    95451066.704                  
  20892769.356   109792206.945    20892772.179    85552359.161                  
  20579967.820   108148472.082    20579968.017    84271541.613                  
  21402090.403   112468758.341    21402089.760    87637996.492                  
  20941952.501   110050727.021    20941950.071    85753819.750                  
  24749330.402   130058625.384    24749328.383   101344388.231                  
  24001663.838   126129562.238    24001666.269    98282767.586                  
  23685286.157   124466971.898    23685288.713    96987239.081                  
                 123276943.945                   123276943.945    23674032.961  
                 122232680.504                   122232680.504    23473500.353  
                 115300812.976                   115300812.976    22142307.121  
                 133689807.073                   133689807.073    25673756.054  
  25703986.867   135075331.909                                                  
  23947584.688   125845368.632                                                  
  23438015.064   123167578.438                                                  
  23500827.021   123497649.906                                                  
  25526675.268   134143564.093                                                  
  27669983.394   145406764.880                                                  
 21  9  1 11 15 50.0000000  0 19G 2G 3G 6G14G17G19G22G24G30C23C27C28
                                C33E 1E13E21E26E27E33
  23573326.168   123878685.278    23573324.167    96528850.986                  
  23310251.836   122496169.650    23310254.481    95451552.461                  
  20892445.837   109790506.849    20892448.660    85551034.411                  
  20580146.493   108149411.023    20580146.707    84272273.253                  
  21402216.362   112469420.300    21402215.719    87638512.309                  
  20941865.640   110050270.632    20941863.246    85753464.125                  
  24749717.499   130060659.584    24749715.462   101345973.321                  
  24001402.808   126128190.457    24001405.220    98281698.668                  
  23685938.073   124470397.793    23685940.664    96989908.610                  
                 123279722.876                   123279722.876    23674566.620  
                 122231287.949                   122231287.949    23473232.925  
                 115301520.722                   115301520.722    22142443.033  
                 133687841.297                   133687841.297    25673378.553  
  25703561.138   135073094.703                                                  
  23947887.318   125846958.936                                                  
  23438000.501   123167501.840                                                  
  23500651.422   123496727.099                                                  
  25527098.318   134145787.249                                                  
  27669534.363   145404405.211                                                  
 21  9  1 11 15 51.0000000  0 19G 2G 3G 6G14G17G19G22G24G30C23C27C28
                                C33E 1E13E21E26E27E33
  23572805.036   123875946.825    23572803.052    96526717.126                  
  23310370.576   122496793.640    23310373.220    95452038.687                  
  20892122.426   109788807.281    20892125.231    85549710.070                  
  20580325.254   108150350.458    20580325.469    84273005.282                  
  21402342.339   112470082.323    21402341.695    87639028.169                  
  20941778.832   110049814.437    20941776.420    85753108.648                  
  24750104.685   130062694.234    24750102.648   101347558.762                  
  24001141.866   126126819.216    24001144.279    98280630.169                  
  23686590.024   124473823.726    23686592.580    96992578.173                  
                 123282502.087                   123282502.087    23675100.332  
                 122229895.597                   122229895.597    23472965.533  
                 115302228.625                   115302228.625    22142578.980  
                 133685875.664                   133685875.664    25673001.088  
  25703135.444   135070857.656                                                  
  23948189.983   125848549.445                                                  
  23437985.991   123167425.633                                                  
  23500475.877   123495804.617                                                  
  25527521.420   134148010.672                                                  
  27669085.386   145402045.729                                                  
 21  9  1 11 15 52.0000000  0 19G 2G 3G 6G14G17G19G22G24G30C23C27C28
                                C33E 1E13E21E26E27E33
  23572283.993   123873208.685    23572281.992    96524583.512                  
  23310489.440   122497418.254    23310492.085    95452525.398                  
  20891799.104   109787108.229    20891801.927    85548386.136                  
  20580504.123   108151290.382    20580504.320    84273737.690                  
  21402468.315   112470744.411    21402467.672    87639544.081                  
  20941692.060   110049358.426    20941689.666    85752753.313                  
  24750491.942   130064729.348    24750489.923   101349144.567                  
  24000881.014   126125448.508    24000883.445    98279562.083                  
  23687241.958   124477249.698    23687244.549    96995247.759                  
                 123285281.570                   123285281.570    23675634.115  
                 122228503.449                   122228503.449    23472698.195  
                 115302936.696                   115302936.696    22142714.964  
                 133683910.231                   133683910.231    25672623.641  
  25702709.786   135068620.785                                                  
  23948492.684   125850140.151                                                  
  23437971.553   123167349.804                                                  
  23500300.403   123494882.466                                                  
  25527944.577   134150234.359                                                  
  27668636.427   145399686.439                                                  
 21  9  1 11 15 53.0000000  0 19G 2G 3G 6G14G17G19G22G24G30C23C27C28
                                C33E 1E13E21E26E27E33
  23571763.004   123870470.862    23571761.020    96522450.144                  
  23310608.412   122498043.480    23310611.057    95453012.591                  
  20891475.889   109785409.700    20891478.694    85547062.606                  
  20580683.081   108152230.790    20580683.278    84274470.472                  
  21402594.328   112471406.543    21402593.684    87640060.028                  
  20941605.324   110048902.595    20941602.894    85752398.122                  
  24750879.307   130066764.913    24750877.288   101350730.719                  
  24000620.305   126124078.344    24000622.700    98278494.422                  
  23687893.891   124480675.725    23687896.482    96997917.386                  
                 123288061.333                   123288061.333    23676167.934  
                 122227111.499                   122227111.499    23472430.874  
                 115303644.922                   115303644.922    22142850.983  
                 133681944.967                   133681944.967    25672246.211  
  25702284.146   135066384.066                                                  
  23948795.421   125851731.048                                                  
  23437957.204   123167274.356                                                  
  23500124.983   123493960.644                                                  
  25528367.787   134152458.313                                                  
  27668187.486   145397327.327                                                  
 21  9  1 11 15 54.0000000  0 19G 2G 3G 6G14G17G19G22G24G30C23C27C28
                                C33E 1E13E21E26E27E33
  23571242.086   123867733.368    23571240.085    96520317.032                  
  23310727.527   122498669.321    23310730.154    95453500.257                  
  20891152.763   109783711.685    20891155.586    85545739.477                  
  20580862.111   108153171.692    20580862.326    84275203.644                  
  21402720.340   112472068.745    21402719.697    87640576.032                  
  20941518.624   110048446.957    20941516.193    85752043.077                  
  24751266.743   130068800.930    24751264.724   101352317.222                  
  24000359.668   126122708.725    24000362.080    98277427.187                  
  23688545.860   124484101.785    23688548.433    97000587.047                  
                 123290841.366                   123290841.366    23676701.825  
                 122225719.752                   122225719.752    23472163.625  
                 115304353.310                   115304353.310    22142987.019  
                 133679979.884                   133679979.884    25671868.853  
  25701858.542   135064147.526                                                  
  23949098.194   125853322.152                                                  
  23437942.927   123167199.305                                                  
  23499949.616   123493039.151                                                  
  25528791.032   134154682.531                                                  
  27667738.598   145394968.403                                                  
 21  9  1 11 15 55.0000000  0 19G 2G 3G 6G14G17G19G22G24G30C23C27C28
                                C33E 1E13E21E26E27E33
  23570721.204   123864996.176    23570719.220    96518184.157                  
  23310846.714   122499295.785    23310849.376    95453988.411                  
  20890829.745   109782014.194    20890832.568    85544416.758                  
  20581041.266   108154113.087    20581041.463    84275937.198                  
  21402846.352   112472731.009    21402845.727    87641092.082                  
  20941431.941   110047991.504    20941429.546    85751688.179                  
  24751654.268   130070837.405    24751652.231   101353904.090                  
  24000099.137   126121339.641    24000101.532    98276360.368                  
  23689197.812   124487527.894    23689200.403    97003256.738                  
                 123293621.685                   123293621.685    23677235.734  
                 122224328.212                   122224328.212    23471896.376  
                 115305061.855                   115305061.855    22143123.074  
                 133678014.969                   133678014.969    25671491.495  
  25701432.973   135061911.145                                                  
  23949401.002   125854913.448                                                  
  23437928.721   123167124.629                                                  
  23499774.321   123492117.984                                                  
  25529214.332   134156907.025                                                  
  27667289.746   145392609.653                                                  
 21  9  1 11 15 56.0000000  0 19G 2G 3G 6G14G17G19G22G24G30C23C27C28
                                C33E 1E13E21E26E27E33
  23570200.393   123862259.307    23570198.392    96516051.532                  
  23310966.061   122499922.856    23310968.705    95454477.040                  
  20890506.816   109780317.226    20890509.639    85543094.445                  
  20581220.492   108155054.968    20581220.707    84276671.132                  
  21402972.400   112473393.332    21402971.757    87641608.175                  
  20941345.294   110047536.239    20941342.900    85751333.429                  
  24752041.883   130072874.343    24752039.864   101355491.312                  
  23999838.714   126119971.096    23999841.127    98275293.972                  
  23689849.799   124490954.050    23689852.372    97005926.473                  
                 123296402.273                   123296402.273    23677769.714  
                 122222936.867                   122222936.867    23471629.198  
                 115305770.567                   115305770.567    22143259.183  
                 133676050.231                   133676050.231    25671114.208  
  25701007.440   135059674.931                                                  
  23949703.865   125856504.940                                                  
  23437914.587   123167050.337                                                  
  23499599.097   123491197.151                                                  
  25529637.702   134159131.771                                                  
  27666840.912   145390251.093                                                  
 21  9  1 11 15 57.0000000  0 19G 2G 3G 6G14G17G19G22G24G30C23C27C28
                                C33E 1E13E21E26E27E33
  23569679.654   123859522.761    23569677.653    96513919.156                  
  23311085.497   122500550.540    23311088.142    95454966.140                  
  20890183.994   109778620.780    20890186.817    85541772.539                  
  20581399.826   108155997.343    20581400.040    84277405.452                  
  21403098.448   112474055.716    21403097.805    87642124.317                  
  20941258.701   110047081.156    20941256.306    85750978.817                  
  24752429.587   130074911.731    24752427.568   101357078.887                  
  23999578.380   126118603.098    23999580.793    98274227.996                  
  23690501.786   124494380.230    23690504.359    97008596.219                  
                 123299183.144                   123299183.144    23678303.765  
                 122221545.731                   122221545.731    23471362.038  
                 115306479.435                   115306479.435    22143395.327  
                 133674085.659                   133674085.659    25670736.922  
  25700581.943   135057438.878                                                  
  23950006.745   125858096.629                                                  
  23437900.524   123166976.433                                                  
  23499423.945   123490276.638                                                  
  25530061.109   134161356.793                                                  
  27666392.132   145387892.715                                                  
 21  9  1 11 15 58.0000000  0 19G 2G 3G 6G14G17G19G22G24G30C23C27C28
                                C33E 1E13E21E26E27E33
  23569158.969   123856786.532    23569156.967    96511787.027                  
  23311205.059   122501178.847    23311207.704    95455455.729                  
  20889861.262   109776924.854    20889864.103    85540451.038                  
  20581579.249   108156940.208    20581579.463    84278140.147                  
  21403224.497   112474718.156    21403223.853    87642640.508                  
  20941172.143   110046626.261    20941169.749    85750624.355                  
  24752817.381   130076949.579    24752815.362   101358666.821                  
  23999318.172   126117235.636    23999320.584    98273162.446                  
  23691153.773   124497806.469    23691156.364    97011266.015                  
                 123301964.288                   123301964.288    23678837.852  
                 122220154.792                   122220154.792    23471094.914  
                 115307188.460                   115307188.460    22143531.489  
                 133672121.264                   133672121.264    25670359.671  
  25700156.463   135055202.996                                                  
  23950309.678   125859688.515                                                  
  23437886.515   123166902.914                                                  
  23499248.829   123489356.457                                                  
  25530484.569   134163582.079                                                  
  27665943.405   145385534.530                                                  
 21  9  1 11 15 59.0000000  0 19G 2G 3G 6G14G17G19G22G24G30C23C27C28
                                C33E 1E13E21E26E27E33
  23568638.337   123854050.628    23568636.336    96509655.156                  
  23311324.746   122501807.770    23311327.373    95455945.801                  
  20889538.636   109775229.441    20889541.460    85539129.937                  
  20581758.761   108157883.553    20581758.957    84278875.227                  
  21403350.580   112475380.658    21403349.937    87643156.739                  
  20941085.621   110046171.551    20941083.191    85750270.035                  
  24753205.264   130078987.888    24753203.245   101360255.109                  
  23999058.052   126115868.711    23999060.465    98272097.308                  
  23691805.778   124501232.742    23691808.369    97013935.841                  
                 123304745.711                   123304745.711    23679371.993  
                 122218764.057                   122218764.057    23470827.844  
                 115307897.651                   115307897.651    22143667.668  
                 133670157.044                   133670157.044    25669982.474  
  25699731.020   135052967.278                                                  
  23950612.647   125861280.603                                                  
  23437872.595   123166829.781                                                  
  23499073.784   123488436.598                                                  
  25530908.083   134165807.626                                                  
  27665494.678   145383176.542                                                  
 21  9  1 11 16  0.0000000  0 19G 2G 3G 6G14G17G19G22G24G30C23C27C28
                                C33E 1E13E21E26E27E33
  23568117.777   123851315.027    23568115.775    96507523.523                  
  23311444.540   122502437.285    23311447.184    95456436.333                  
  20889216.118   109773534.563    20889218.942    85537809.255                  
  20581938.362   108158827.395    20581938.577    84279610.688                  
  21403476.664   112476043.215    21403476.021    87643673.019                  
  20940999.117   110045717.011    20940996.723    85749915.848                  
  24753593.218   130081026.637    24753591.199   101361843.747                  
  23998798.040   126114502.320    23998800.435    98271032.585                  
  23692457.783   124504659.057    23692460.356    97016605.696                  
                 123307527.410                   123307527.410    23679906.206  
                 122217373.526                   122217373.526    23470560.791  
                 115308606.999                   115308606.999    22143803.884  
                 133668192.996                   133668192.996    25669605.295  
  25699305.594   135050731.712                                                  
  23950915.634   125862872.878                                                  
  23437858.764   123166757.019                                                  
  23498898.792   123487517.065                                                  
  25531331.632   134168033.435                                                  
  27665046.004   145380818.698                                                  
