     2.11           OBSERVATION DATA    M (MIXED)           RINEX VERSION / TYPE
CONVBIN 2.4.3                           20210831 165329 UTC PGM / RUN BY / DATE 
log: logs/21_08_31_08_18_10_txlu_SW.rtcm                    COMMENT             
format: RTCM 3, station ID: 492                             COMMENT             
0492                                                        MARKER NAME         
                                                            MARKER NUMBER       
                                                            OBSERVER / AGENCY   
                    SWFT                                    REC # / TYPE / VERS 
                    NULL                                    ANT # / TYPE        
 -1103367.0434 -5261870.5964  3420150.1499                  APPROX POSITION XYZ 
        0.0000        0.0000        0.0000                  ANTENNA: DELTA H/E/N
     1     1                                                WAVELENGTH FACT L1/2
     5    C1    L1    P2    L2    C2                        # / TYPES OF OBSERV 
  2021     8    31     8    18   15.0000000     GPS         TIME OF FIRST OBS   
  2021     8    31     8    48   13.0000000     GPS         TIME OF LAST OBS    
                                                            END OF HEADER       
 21  8 31  8 18 15.0000000  0 18G 1G 7G 8G 9G13G14G17G19G21G30E 1E 4
                                E 5E 9E24E26E31E33
  22257129.388   116961956.833    22257132.694    91139174.335                  
  20598506.878   108245894.220    20598506.503    84347452.255                  
  24002167.727   126132200.055    24002170.175    98284820.625                  
  24529387.585   128902756.433    24529390.355   100443694.883                  
  22982881.025   120775864.126    22982880.525    94111065.025                  
  21276774.588   111810215.266    21276774.838    87124847.720                  
  21330127.738   112090582.777    21330127.666    87343311.911                  
  23859389.999   125381947.324    23859388.587    97700220.777                  
  22865375.634   120158360.750    22865374.777    93629892.266                  
  20442615.324   107426630.856    20442617.343    83709053.644                  
  25705116.976   135081269.821                                                  
  26698568.680   140301928.265                                                  
  27429871.132   144144937.437                                                  
  23726521.555   124683700.519                                                  
  26819063.433   140935167.923                                                  
  25542168.426   134224972.656                                                  
  24140136.008   126857252.324                                                  
  25046217.804   131618784.952                                                  
 21  8 31  8 18 16.0000000  0 18G 1G 7G 8G 9G13G14G17G19G21G30E 1E 4
                                E 5E 9E24E26E31E33
  22256766.218   116960048.423    22256769.542    91137687.263                  
  20598709.656   108246959.833    20598709.280    84348282.603                  
  24002827.987   126135669.726    24002830.435    98287524.265                  
  24530066.054   128906321.864    24530068.842   100446473.137                  
  22982519.946   120773966.706    22982519.463    94109586.520                  
  21276583.639   111809211.890    21276583.907    87124065.871                  
  21329707.155   112088372.632    21329707.083    87341589.718                  
  23858709.868   125378373.107    23858708.420    97697435.673                  
  22865456.938   120158788.008    22865456.099    93630225.195                  
  20442439.403   107425706.402    20442441.422    83708333.292                  
  25705347.486   135082481.109                                                  
  26699095.405   140304696.204                                                  
  27429658.240   144143818.552                                                  
  23726742.952   124684863.984                                                  
  26818766.772   140933608.938                                                  
  25542281.877   134225568.839                                                  
  24140061.905   126856862.917                                                  
  25045874.021   131616978.391                                                  
 21  8 31  8 18 17.0000000  0 18G 1G 7G 8G 9G13G14G17G19G21G30E 1E 4
                                E 5E 9E24E26E31E33
  22256403.156   116958140.515    22256406.479    91136200.581                  
  20598912.540   108248025.950    20598912.147    84349113.343                  
  24003488.266   126139139.500    24003490.714    98290227.985                  
  24530744.523   128909887.240    24530747.328   100449251.351                  
  22982158.973   120772069.837    22982158.509    94108108.438                  
  21276392.745   111808208.711    21276392.995    87123284.173                  
  21329286.679   112086162.952    21329286.607    87339867.891                  
  23858029.737   125374799.057    23858028.308    97694650.704                  
  22865538.367   120159215.827    22865537.492    93630558.563                  
  20442263.554   107424782.397    20442265.573    83707613.288                  
  25705577.979   135083692.446                                                  
  26699622.148   140307464.199                                                  
  27429445.403   144142700.066                                                  
  23726964.438   124686027.848                                                  
  26818470.128   140932049.954                                                  
  25542395.416   134226165.495                                                  
  24139987.820   126856473.554                                                  
  25045530.329   131615172.203                                                  
 21  8 31  8 18 18.0000000  0 18G 1G 7G 8G 9G13G14G17G19G21G30E 1E 4
                                E 5E 9E24E26E31E33
  22256040.200   116956233.082    22256043.524    91134714.259                  
  20599115.497   108249092.581    20599115.122    84349944.491                  
  24004148.544   126142609.453    24004151.028    98292931.874                  
  24531422.974   128913452.515    24531425.779   100452029.461                  
  22981798.126   120770173.500    22981797.644    94106630.761                  
  21276201.886   111807205.693    21276202.136    87122502.582                  
  21328866.274   112083953.735    21328866.185    87338146.421                  
  23857349.642   125371225.160    23857348.212    97691865.833                  
  22865619.886   120159644.233    22865619.028    93630892.386                  
  20442087.812   107423858.868    20442089.831    83706893.659                  
  25705808.507   135084903.836                                                  
  26700148.874   140310232.126                                                  
  27429232.636   144141581.907                                                  
  23727185.979   124687192.093                                                  
  26818173.467   140930491.104                                                  
  25542509.045   134226762.652                                                  
  24139913.735   126856084.264                                                  
  25045186.672   131613366.358                                                  
 21  8 31  8 18 19.0000000  0 18G 1G 7G 8G 9G13G14G17G19G21G30E 1E 4
                                E 5E 9E24E26E31E33
  22255677.316   116954326.181    22255680.640    91133228.355                  
  20599318.560   108250159.711    20599318.185    84350776.019                  
  24004808.858   126146079.430    24004811.324    98295635.754                  
  24532101.425   128917017.794    24532104.213   100454807.602                  
  22981437.387   120768277.743    22981436.886    94105153.546                  
  21276011.062   111806202.892    21276011.312    87121721.179                  
  21328445.959   112081744.999    21328445.888    87336425.333                  
  23856669.601   125367651.472    23856668.171    97689081.140                  
  22865701.494   120160073.212    22865700.654    93631226.657                  
  20441912.160   107422935.761    20441914.179    83706174.355                  
  25706039.017   135086115.250                                                  
  26700675.635   140313000.182                                                  
  27429019.941   144140464.231                                                  
  23727407.608   124688356.746                                                  
  26817876.805   140928932.117                                                  
  25542622.764   134227360.247                                                  
  24139839.668   126855695.016                                                  
  25044843.104   131611560.868                                                  
 21  8 31  8 18 20.0000000  0 18G 1G 7G 8G 9G13G14G17G19G21G30E 1E 4
                                E 5E 9E24E26E31E33
  22255314.539   116952419.773    22255317.863    91131742.848                  
  20599521.713   108251227.339    20599521.338    84351607.937                  
  24005469.208   126149549.503    24005471.656    98298339.707                  
  24532779.858   128920583.016    24532782.664   100457585.695                  
  22981076.718   120766382.536    22981076.236    94103676.761                  
  21275820.257   111805200.276    21275820.525    87120939.922                  
  21328025.733   112079536.729    21328025.662    87334704.601                  
  23855989.577   125364077.985    23855988.165    97686296.601                  
  22865783.245   120160502.736    22865782.387    93631561.348                  
  20441736.579   107422013.108    20441738.598    83705455.405                  
  25706269.563   135087326.702                                                  
  26701202.395   140315768.321                                                  
  27428807.335   144139346.990                                                  
  23727629.291   124689521.790                                                  
  26817580.143   140927373.180                                                  
  25542736.554   134227958.317                                                  
  24139765.601   126855305.826                                                  
  25044499.608   131609755.777                                                  
 21  8 31  8 18 21.0000000  0 18G 1G 7G 8G 9G13G14G17G19G21G30E 1E 4
                                E 5E 9E24E26E31E33
  22254951.851   116950513.875    22254955.175    91130257.731                  
  20599724.973   108252295.482    20599724.598    84352440.253                  
  24006129.540   126153019.685    24006132.023    98301043.743                  
  24533458.291   128924148.192    24533461.097   100460363.754                  
  22980716.175   120764487.886    22980715.692    94102200.415                  
  21275629.505   111804197.868    21275629.755    87120158.825                  
  21327605.615   112077328.927    21327605.525    87332984.233                  
  23855309.607   125360504.661    23855308.178    97683512.195                  
  22865865.085   120160932.841    22865864.245    93631896.495                  
  20441561.087   107421090.911    20441563.106    83704736.812                  
  25706500.092   135088538.192                                                  
  26701729.156   140318536.512                                                  
  27428594.819   144138230.165                                                  
  23727851.081   124690687.238                                                  
  26817283.482   140925814.219                                                  
  25542850.469   134228556.862                                                  
  24139691.534   126854916.677                                                  
  25044156.183   131607951.039                                                  
 21  8 31  8 18 22.0000000  0 22G 1G 7G 8G 9G13G14G17G19G21G30C20C23
                                C27C28E 1E 4E 5E 9E24E26E31E33
  22254589.271   116948608.482    22254592.595    91128773.011                  
  20599928.341   108253364.120    20599927.966    84353272.961                  
  24006789.925   126156489.964    24006792.373    98303747.858                  
  24534136.725   128927713.309    24534139.512   100463141.765                  
  22980355.757   120762593.793    22980355.256    94100724.501                  
  21275438.771   111803195.622    21275439.039    87119377.856                  
  21327185.568   112075121.585    21327185.478    87331264.231                  
  23854629.655   125356931.509    23854628.226    97680727.923                  
  22865947.032   120161363.524    22865946.174    93632232.095                  
  20441385.685   107420169.157    20441387.704    83704018.562                  
                 136710390.700                   136710390.700    26253789.436  
                 126013567.649                   126013567.649    24199572.506  
                 120102207.833                   120102207.833    23064366.575  
                 114971830.617                   114971830.617    22079130.029  
  25706730.638   135089749.720                                                  
  26702255.935   140321304.745                                                  
  27428382.374   144137113.754                                                  
  23728072.943   124691853.062                                                  
  26816986.820   140924255.296                                                  
  25542964.455   134229155.871                                                  
  24139617.502   126854527.578                                                  
  25043812.812   131606146.673                                                  
 21  8 31  8 18 23.0000000  0 22G 1G 7G 8G 9G13G14G17G19G21G30C20C23
                                C27C28E 1E 4E 5E 9E24E26E31E33
  22254226.780   116946703.578    22254230.104    91127288.676                  
  20600131.798   108254433.265    20600131.422    84354106.066                  
  24007450.328   126159960.348    24007452.776    98306452.059                  
  24534815.122   128931278.374    24534817.928   100465919.742                  
  22979995.428   120760700.246    22979994.945    94099249.012                  
  21275248.109   111802193.570    21275248.359    87118597.038                  
  21326765.628   112072914.706    21326765.520    87329544.590                  
  23853949.739   125353358.551    23853948.327    97677943.804                  
  22866029.104   120161794.765    22866028.265    93632568.133                  
  20441210.354   107419247.849    20441212.373    83703300.664                  
                 136712567.001                   136712567.001    26254207.374  
                 126015338.034                   126015338.034    24199912.482  
                 120099450.140                   120099450.140    23063837.009  
                 114971923.009                   114971923.009    22079147.755  
  25706961.202   135090961.292                                                  
  26702782.714   140324073.039                                                  
  27428170.001   144135997.763                                                  
  23728294.859   124693019.306                                                  
  26816690.159   140922696.379                                                  
  25543078.513   134229755.352                                                  
  24139543.453   126854138.531                                                  
  25043469.512   131604342.671                                                  
 21  8 31  8 18 24.0000000  0 22G 1G 7G 8G 9G13G14G17G19G21G30C20C23
                                C27C28E 1E 4E 5E 9E24E26E31E33
  22253864.396   116944799.183    22253867.702    91125804.738                  
  20600335.344   108255502.907    20600334.968    84354939.560                  
  24008110.714   126163430.817    24008113.180    98309156.325                  
  24535493.520   128934843.368    24535496.325   100468697.664                  
  22979635.206   120758807.263    22979634.724    94097773.960                  
  21275057.464   111801191.714    21275057.714    87117816.376                  
  21326345.741   112070708.301    21326345.652    87327825.317                  
  23853269.858   125349785.757    23853268.447    97675159.816                  
  22866111.284   120162226.574    22866110.426    93632904.609                  
  20441035.148   107418327.004    20441037.167    83702583.125                  
                 136714743.387                   136714743.387    26254625.349  
                 126017108.632                   126017108.632    24200252.494  
                 120096692.761                   120096692.761    23063307.460  
                 114972015.956                   114972015.956    22079165.606  
  25707191.766   135092172.905                                                  
  26703309.529   140326841.374                                                  
  27427957.717   144134882.191                                                  
  23728516.863   124694185.934                                                  
  26816393.515   140921137.456                                                  
  25543192.696   134230355.312                                                  
  24139469.440   126853749.544                                                  
  25043126.302   131602539.033                                                  
 21  8 31  8 18 25.0000000  0 22G 1G 7G 8G 9G13G14G17G19G21G30C20C23
                                C27C28E 1E 4E 5E 9E24E26E31E33
  22253502.102   116942895.301    22253505.408    91124321.196                  
  20600538.979   108256573.051    20600538.604    84355773.438                  
  24008771.135   126166901.387    24008773.619    98311860.665                  
  24536171.899   128938408.318    24536174.705   100471475.552                  
  22979275.074   120756914.825    22979274.591    94096299.340                  
  21274866.837   111800190.040    21274867.105    87117035.855                  
  21325925.980   112068502.358    21325925.873    87326106.401                  
  23852590.013   125346213.157    23852588.584    97672375.972                  
  22866193.553   120162658.954    22866192.695    93633241.532                  
  20440859.978   107417406.594    20440861.997    83701865.925                  
                 136716919.863                   136716919.863    26255043.305  
                 126018879.444                   126018879.444    24200592.559  
                 120093935.699                   120093935.699    23062778.001  
                 114972109.464                   114972109.464    22079183.564  
  25707422.312   135093384.548                                                  
  26703836.325   140329609.759                                                  
  27427745.505   144133767.024                                                  
  23728738.940   124695352.938                                                  
  26816096.854   140919578.539                                                  
  25543306.969   134230955.735                                                  
  24139395.426   126853360.600                                                  
  25042783.145   131600735.753                                                  
 21  8 31  8 18 26.0000000  0 22G 1G 7G 8G 9G13G14G17G19G21G30C20C23
                                C27C28E 1E 4E 5E 9E24E26E31E33
  22253139.897   116940991.915    22253143.203    91122838.036                  
  20600742.722   108257643.699    20600742.346    84356607.711                  
  24009431.592   126170372.059    24009434.058    98314565.087                  
  24536850.279   128941973.215    24536853.084   100474253.394                  
  22978915.067   120755022.942    22978914.584    94094825.144                  
  21274676.264   111799188.563    21274676.514    87116255.481                  
  21325506.272   112066296.894    21325506.201    87324387.860                  
  23851910.204   125342640.731    23851908.775    97669592.263                  
  22866275.947   120163091.914    22866275.072    93633578.901                  
  20440684.915   107416486.641    20440686.934    83701149.081                  
                 136719096.423                   136719096.423    26255461.279  
                 126020650.466                   126020650.466    24200932.678  
                 120091178.946                   120091178.946    23062248.595  
                 114972203.525                   114972203.525    22079201.612  
  25707652.894   135094596.234                                                  
  26704363.140   140332378.188                                                  
  27427533.381   144132652.280                                                  
  23728961.087   124696520.352                                                  
  26815800.192   140918019.628                                                  
  25543421.295   134231556.634                                                  
  24139321.413   126852971.710                                                  
  25042440.060   131598932.851                                                  
 21  8 31  8 18 27.0000000  0 22G 1G 7G 8G 9G13G14G17G19G21G30C20C23
                                C27C28E 1E 4E 5E 9E24E26E31E33
  22252777.781   116939089.040    22252781.105    91121355.274                  
  20600946.553   108258714.849    20600946.178    84357442.371                  
  24010092.067   126173842.824    24010094.515    98317269.577                  
  24537528.658   128945538.071    24537531.464   100477031.199                  
  22978555.167   120753131.620    22978554.684    94093351.386                  
  21274485.727   111798187.267    21274485.977    87115475.251                  
  21325086.672   112064091.897    21325086.601    87322669.683                  
  23851230.413   125339068.491    23851229.001    97666808.700                  
  22866358.448   120163525.423    22866357.573    93633916.703                  
  20440509.942   107415567.138    20440511.961    83700432.582                  
                 136721273.070                   136721273.070    26255879.307  
                 126022421.700                   126022421.700    24201272.815  
                 120088422.512                   120088422.512    23061719.261  
                 114972298.141                   114972298.141    22079219.803  
  25707883.476   135095807.956                                                  
  26704889.954   140335146.661                                                  
  27427321.312   144131537.938                                                  
  23729183.306   124697688.148                                                  
  26815503.566   140916460.735                                                  
  25543535.746   134232158.005                                                  
  24139247.435   126852582.875                                                  
  25042097.046   131597130.304                                                  
 21  8 31  8 18 28.0000000  0 22G 1G 7G 8G 9G13G14G17G19G21G30C20C23
                                C27C28E 1E 4E 5E 9E24E26E31E33
  22252415.772   116937186.663    22252419.096    91119872.907                  
  20601150.475   108259786.500    20601150.100    84358277.427                  
  24010752.542   126177313.702    24010755.025    98319974.157                  
  24538207.002   128949102.847    24538209.808   100479808.949                  
  22978195.356   120751240.852    22978194.874    94091878.063                  
  21274295.225   111797186.159    21274295.475    87114695.172                  
  21324667.179   112061887.363    21324667.072    87320951.864                  
  23850550.675   125335496.434    23850549.264    97664025.281                  
  22866441.039   120163959.531    22866440.199    93634254.969                  
  20440335.058   107414648.086    20440337.077    83699716.441                  
                 136723449.802                   136723449.802    26256297.317  
                 126024193.144                   126024193.144    24201613.006  
                 120085666.387                   120085666.387    23061189.963  
                 114972393.309                   114972393.309    22079238.065  
  25708114.075   135097019.722                                                  
  26705416.805   140337915.175                                                  
  27427109.367   144130424.016                                                  
  23729405.597   124698856.355                                                  
  26815206.905   140914901.833                                                  
  25543650.268   134232759.843                                                  
  24139173.439   126852194.090                                                  
  25041754.104   131595328.116                                                  
 21  8 31  8 18 29.0000000  0 22G 1G 7G 8G 9G13G14G17G19G21G30C20C23
                                C27C28E 1E 4E 5E 9E24E26E31E33
  22252053.853   116935284.800    22252057.177    91118390.933                  
  20601354.503   108260858.660    20601354.128    84359112.876                  
  24011413.052   126180784.696    24011415.518    98322678.824                  
  24538885.364   128952667.583    24538888.151   100482586.663                  
  22977835.653   120749350.645    22977835.188    94090405.172                  
  21274104.759   111796185.251    21274105.027    87113915.239                  
  21324247.757   112059683.305    21324247.686    87319234.414                  
  23849870.973   125331924.574    23849869.562    97661242.011                  
  22866523.755   120164394.196    22866522.897    93634593.669                  
  20440160.263   107413729.480    20440162.282    83699000.642                  
                 136725626.621                   136725626.621    26256715.345  
                 126025964.800                   126025964.800    24201953.232  
                 120082910.578                   120082910.578    23060660.736  
                 114972489.039                   114972489.039    22079256.452  
  25708344.657   135098231.526                                                  
  26705943.637   140340683.757                                                  
  27426897.459   144129310.516                                                  
  23729627.977   124700024.949                                                  
  26814910.261   140913342.945                                                  
  25543764.880   134233362.159                                                  
  24139099.479   126851805.360                                                  
  25041411.215   131593526.312                                                  
 21  8 31  8 18 30.0000000  0 22G 1G 7G 8G 9G13G14G17G19G21G30C20C23
                                C27C28E 1E 4E 5E 9E24E26E31E33
  22251692.041   116933383.413    22251695.365    91116909.335                  
  20601558.639   108261931.324    20601558.246    84359948.716                  
  24012073.581   126184255.765    24012076.047    98325383.554                  
  24539563.708   128956232.263    24539566.477   100485364.336                  
  22977476.074   120747460.977    22977475.574    94088932.703                  
  21273914.311   111795184.522    21273914.579    87113135.452                  
  21323828.443   112057479.716    21323828.335    87317517.336                  
  23849191.325   125328352.878    23849189.878    97658458.875                  
  22866606.578   120164829.424    22866605.720    93634932.808                  
  20439985.540   107412811.324    20439987.559    83698285.195                  
                 136727803.527                   136727803.527    26257133.391  
                 126027736.668                   126027736.668    24202293.494  
                 120080155.086                   120080155.086    23060131.581  
                 114972585.321                   114972585.321    22079274.947  
  25708575.275   135099443.374                                                  
  26706470.487   140343452.374                                                  
  27426685.639   144128197.415                                                  
  23729850.446   124701193.922                                                  
  26814613.618   140911784.057                                                  
  25543879.582   134233964.942                                                  
  24139025.502   126851416.669                                                  
  25041068.416   131591724.857                                                  
 21  8 31  8 18 31.0000000  0 22G 1G 7G 8G 9G13G14G17G19G21G30C20C23
                                C27C28E 1E 4E 5E 9E24E26E31E33
  22251330.319   116931482.548    22251333.642    91115428.141                  
  20601762.846   108263004.484    20601762.453    84360784.942                  
  24012734.127   126187726.921    24012736.575    98328088.351                  
  24540242.016   128959796.890    24540244.821   100488141.972                  
  22977116.585   120745571.876    22977116.103    94087460.679                  
  21273723.917   111794183.987    21273724.185    87112355.816                  
  21323409.182   112055276.591    21323409.092    87315800.613                  
  23848511.677   125324781.384    23848510.265    97655675.891                  
  22866689.526   120165265.231    22866688.668    93635272.397                  
  20439810.906   107411893.616    20439812.925    83697570.100                  
                 136729980.515                   136729980.515    26257551.455  
                 126029508.751                   126029508.751    24202633.827  
                 120077399.906                   120077399.906    23059602.479  
                 114972682.155                   114972682.155    22079293.548  
  25708805.875   135100655.245                                                  
  26706997.337   140346221.032                                                  
  27426473.891   144127084.734                                                  
  23730072.951   124702363.306                                                  
  26814316.956   140910225.176                                                  
  25543994.372   134234568.200                                                  
  24138951.560   126851028.037                                                  
  25040725.688   131589923.766                                                  
 21  8 31  8 18 32.0000000  0 22G 1G 7G 8G 9G13G14G17G19G21G30C20C23
                                C27C28E 1E 4E 5E 9E24E26E31E33
  22250968.703   116929582.196    22250971.991    91113947.348                  
  20601967.161   108264078.149    20601966.785    84361621.566                  
  24013394.673   126191198.188    24013397.139    98330793.235                  
  24540920.342   128963361.458    24540923.147   100490919.555                  
  22976757.203   120743683.327    22976756.721    94085989.087                  
  21273533.558   111793183.639    21273533.826    87111576.325                  
  21322990.046   112053073.929    21322989.939    87314084.254                  
  23847832.082   125321210.055    23847830.653    97652893.039                  
  22866772.563   120165701.604    22866771.705    93635612.431                  
  20439636.361   107410976.360    20439638.380    83696855.356                  
                 136732157.595                   136732157.595    26257969.554  
                 126031281.044                   126031281.044    24202974.160  
                 120074645.039                   120074645.039    23059073.449  
                 114972779.551                   114972779.551    22079312.239  
  25709036.492   135101867.152                                                  
  26707524.206   140348989.731                                                  
  27426262.233   144125972.457                                                  
  23730295.564   124703533.074                                                  
  26814020.312   140908666.297                                                  
  25544109.252   134235171.910                                                  
  24138877.600   126850639.436                                                  
  25040383.014   131588123.033                                                  
 21  8 31  8 18 33.0000000  0 22G 1G 7G 8G 9G13G14G17G19G21G30C20C23
                                C27C28E 1E 4E 5E 9E24E26E31E33
  22250607.159   116927682.340    22250610.483    91112466.941                  
  20602171.564   108265152.324    20602171.171    84362458.586                  
  24014055.255   126194669.573    24014057.721    98333498.210                  
  24541598.632   128966925.977    24541601.438   100493697.102                  
  22976397.947   120741795.344    22976397.464    94084517.926                  
  21273343.235   111792183.485    21273343.503    87110796.979                  
  21322570.982   112050871.743    21322570.874    87312368.267                  
  23847152.523   125317638.919    23847151.076    97650110.336                  
  22866855.708   120166138.546    22866854.832    93635952.905                  
  20439461.906   107410059.565    20439463.925    83696140.968                  
                 136734334.754                   136734334.754    26258387.654  
                 126033053.546                   126033053.546    24203314.565  
                 120071890.487                   120071890.487    23058544.436  
                 114972877.500                   114972877.500    22079331.055  
  25709267.146   135103079.117                                                  
  26708051.074   140351758.477                                                  
  27426050.663   144124860.607                                                  
  23730518.248   124704703.232                                                  
  26813723.687   140907107.430                                                  
  25544224.239   134235776.098                                                  
  24138803.676   126850250.907                                                  
  25040040.429   131586322.675                                                  
 21  8 31  8 18 34.0000000  0 22G 1G 7G 8G 9G13G14G17G19G21G30C20C23
                                C27C28E 1E 4E 5E 9E24E26E31E33
  22250245.740   116925782.989    22250249.046    91110986.927                  
  20602376.075   108266226.999    20602375.682    84363295.997                  
  24014715.855   126198141.046    24014718.321    98336203.254                  
  24542276.940   128970490.431    24542279.728   100496474.599                  
  22976038.779   120739907.913    22976038.279    94083047.198                  
  21273152.966   111791183.522    21273153.216    87110017.790                  
  21322152.007   112048670.027    21322151.917    87310652.646                  
  23846472.982   125314067.953    23846471.553    97647327.766                  
  22866938.959   120166576.064    22866938.102    93636293.823                  
  20439287.522   107409143.205    20439289.541    83695426.923                  
                 136736512.003                   136736512.003    26258805.753  
                 126034826.263                   126034826.263    24203654.988  
                 120069136.249                   120069136.249    23058015.513  
                 114972976.003                   114972976.003    22079349.961  
  25709497.781   135104291.121                                                  
  26708577.978   140354527.284                                                  
  27425839.166   144123749.167                                                  
  23730740.985   124705873.798                                                  
  26813427.043   140905548.572                                                  
  25544339.298   134236380.770                                                  
  24138729.734   126849862.421                                                  
  25039697.897   131584522.684                                                  
 21  8 31  8 18 35.0000000  0 22G 1G 7G 8G 9G13G14G17G19G21G30C20C23
                                C27C28E 1E 4E 5E 9E24E26E31E33
  22249884.393   116923884.148    22249887.699    91109507.313                  
  20602580.676   108267302.175    20602580.283    84364133.794                  
  24015376.473   126201612.610    24015378.939    98338908.367                  
  24542955.213   128974054.847    24542958.018   100499252.066                  
  22975679.701   120738021.030    22975679.219    94081576.902                  
  21272962.696   111790183.738    21272962.964    87109238.739                  
  21321733.121   112046468.774    21321733.014    87308937.379                  
  23845793.477   125310497.167    23845792.065    97644545.337                  
  22867022.318   120167014.142    22867021.461    93636635.183                  
  20439113.227   107408227.305    20439115.247    83694713.230                  
                 136738689.337                   136738689.337    26259223.906  
                 126036599.186                   126036599.186    24203995.464  
                 120066382.327                   120066382.327    23057486.662  
                 114973075.062                   114973075.062    22079368.991  
  25709728.417   135105503.142                                                  
  26709104.864   140357296.118                                                  
  27425627.739   144122638.141                                                  
  23730963.794   124707044.743                                                  
  26813130.399   140903989.713                                                  
  25544454.446   134236985.906                                                  
  24138655.827   126849473.988                                                  
  25039355.438   131582723.046                                                  
 21  8 31  8 18 36.0000000  0 22G 1G 7G 8G 9G13G14G17G19G21G30C20C23
                                C27C28E 1E 4E 5E 9E24E26E31E33
  22249523.153   116921985.813    22249526.459    91108028.090                  
  20602785.365   108268377.858    20602784.972    84364971.989                  
  24016037.127   126205084.274    24016039.575    98341613.559                  
  24543633.503   128977619.198    24543636.273   100502029.480                  
  22975320.766   120736134.702    22975320.266    94080107.039                  
  21272772.481   111789184.148    21272772.749    87108459.835                  
  21321314.325   112044267.993    21321314.235    87307222.485                  
  23845114.025   125306926.559    23845112.596    97641763.043                  
  22867105.785   120167452.786    22867104.945    93636976.988                  
  20438939.022   107407311.851    20438941.042    83693999.891                  
                 136740866.755                   136740866.755    26259642.059  
                 126038372.328                   126038372.328    24204335.977  
                 120063628.723                   120063628.723    23056957.864  
                 114973174.680                   114973174.680    22079388.111  
  25709959.052   135106715.222                                                  
  26709631.768   140360065.011                                                  
  27425416.402   144121527.531                                                  
  23731186.692   124708216.078                                                  
  26812833.756   140902430.867                                                  
  25544569.701   134237591.512                                                  
  24138581.921   126849085.605                                                  
  25039013.031   131580923.789                                                  
 21  8 31  8 18 37.0000000  0 22G 1G 7G 8G 9G13G14G17G19G21G30C20C23
                                C27C28E 1E 4E 5E 9E24E26E31E33
  22249162.002   116920087.982    22249165.326    91106549.259                  
  20602990.162   108269454.038    20602989.787    84365810.571                  
  24016697.780   126208556.052    24016700.246    98344318.839                  
  24544311.757   128981183.488    24544314.563   100504806.848                  
  22974961.903   120734248.937    22974961.420    94078637.610                  
  21272582.301   111788184.745    21272582.569    87107681.082                  
  21320895.618   112042067.667    21320895.528    87305507.950                  
  23844434.573   125303356.134    23844433.162    97638980.896                  
  22867189.376   120167892.014    22867188.518    93637319.242                  
  20438764.907   107406396.851    20438766.926    83693286.907                  
                 136743044.263                   136743044.263    26260060.212  
                 126040145.679                   126040145.679    24204676.524  
                 120060875.429                   120060875.429    23056429.119  
                 114973274.847                   114973274.847    22079407.356  
  25710189.723   135107927.331                                                  
  26710158.671   140362833.945                                                  
  27425205.137   144120417.335                                                  
  23731409.679   124709387.821                                                  
  26812537.112   140900872.026                                                  
  25544685.028   134238197.587                                                  
  24138508.015   126848697.269                                                  
  25038670.715   131579124.884                                                  
 21  8 31  8 18 38.0000000  0 22G 1G 7G 8G 9G13G14G17G19G21G30C20C23
                                C27C28E 1E 4E 5E 9E24E26E31E33
  22248800.958   116918190.641    22248804.264    91105070.814                  
  20603195.048   108270530.722    20603194.655    84366649.543                  
  24017358.434   126212027.918    24017360.917    98347024.187                  
  24544989.994   128984747.727    24544992.799   100507584.180                  
  22974603.164   120732363.730    22974602.682    94077168.617                  
  21272392.156   111787185.536    21272392.424    87106902.476                  
  21320477.000   112039867.823    21320476.893    87303793.786                  
  23843755.193   125299785.890    23843753.764    97636198.888                  
  22867273.056   120168331.806    22867272.199    93637661.936                  
  20438590.862   107405482.304    20438592.899    83692574.271                  
                 136745221.847                   136745221.847    26260478.401  
                 126041919.243                   126041919.243    24205017.126  
                 120058122.453                   120058122.453    23055900.446  
                 114973375.575                   114973375.575    22079426.708  
  25710420.377   135109139.487                                                  
  26710685.593   140365602.934                                                  
  27424993.961   144119307.550                                                  
  23731632.721   124710559.954                                                  
  26812240.486   140899313.189                                                  
  25544800.444   134238804.144                                                  
  24138434.144   126848309.003                                                  
  25038328.487   131577326.349                                                  
 21  8 31  8 18 39.0000000  0 22G 1G 7G 8G 9G13G14G17G19G21G30C20C23
                                C27C28E 1E 4E 5E 9E24E26E31E33
  22248440.004   116916293.816    22248443.328    91103592.768                  
  20603400.024   108271607.914    20603399.649    84367488.914                  
  24018019.141   126215499.864    24018021.607    98349729.601                  
  24545668.248   128988311.905    24545671.036   100510361.462                  
  22974244.515   120730479.075    22974244.033    94075700.054                  
  21272202.066   111786186.512    21272202.316    87106124.015                  
  21320058.454   112037668.413    21320058.383    87302079.962                  
  23843075.849   125296215.840    23843074.401    97633417.030                  
  22867356.862   120168772.173    22867356.004    93638005.082                  
  20438416.925   107404568.200    20438418.944    83691861.979                  
                 136747399.523                   136747399.523    26260896.607  
                 126043693.015                   126043693.015    24205357.763  
                 120055369.788                   120055369.788    23055371.827  
                 114973476.855                   114973476.855    22079446.168  
  25710651.066   135110351.678                                                  
  26711212.515   140368371.962                                                  
  27424782.856   144118198.188                                                  
  23731855.851   124711732.471                                                  
  26811943.843   140897754.357                                                  
  25544915.967   134239411.161                                                  
  24138360.256   126847920.767                                                  
  25037986.295   131575528.180                                                  
 21  8 31  8 18 40.0000000  0 22G 1G 7G 8G 9G13G14G17G19G21G30C20C23
                                C27C28E 1E 4E 5E 9E24E26E31E33
  22248079.139   116914397.496    22248082.463    91102115.117                  
  20603605.107   108272685.605    20603604.714    84368328.673                  
  24018679.848   126218971.903    24018682.314    98352435.086                  
  24546346.485   128991876.042    24546349.273   100513138.712                  
  22973886.009   120728594.977    22973885.509    94074231.926                  
  21272011.975   111785187.675    21272012.243    87105345.703                  
  21319640.015   112035469.481    21319639.926    87300366.504                  
  23842396.504   125292645.958    23842395.075    97630635.304                  
  22867440.757   120169213.097    22867439.900    93638348.659                  
  20438243.060   107403654.551    20438245.079    83691150.047                  
                 136749577.284                   136749577.284    26261314.814  
                 126045467.003                   126045467.003    24205698.436  
                 120052617.442                   120052617.442    23054843.261  
                 114973578.691                   114973578.691    22079465.698  
  25710881.737   135111563.902                                                  
  26711739.455   140371141.031                                                  
  27424571.823   144117089.231                                                  
  23732079.053   124712905.382                                                  
  26811647.217   140896195.528                                                  
  25545031.562   134240018.647                                                  
  24138286.403   126847532.586                                                  
  25037644.175   131573730.367                                                  
 21  8 31  8 18 41.0000000  0 22G 1G 7G 8G 9G13G14G17G19G21G30C20C23
                                C27C28E 1E 4E 5E 9E24E26E31E33
  22247718.382   116912501.672    22247721.687    91100637.851                  
  20603810.279   108273763.804    20603809.904    84369168.827                  
  24019340.573   126222444.066    24019343.039    98355140.668                  
  24547024.704   128995440.121    24547027.491   100515915.913                  
  22973527.556   120726711.437    22973527.074    94072764.235                  
  21271821.938   111784189.027    21271822.206    87104567.536                  
  21319221.666   112033271.015    21319221.576    87298653.418                  
  23841717.213   125289076.266    23841715.802    97627853.730                  
  22867524.777   120169654.597    22867523.920    93638692.687                  
  20438069.283   107402741.359    20438071.303    83690438.469                  
                 136751755.130                   136751755.130    26261733.056  
                 126047241.203                   126047241.203    24206039.145  
                 120049865.405                   120049865.405    23054314.767  
                 114973681.086                   114973681.086    22079485.372  
  25711112.426   135112776.172                                                  
  26712266.412   140373910.153                                                  
  27424360.879   144115980.690                                                  
  23732302.327   124714078.695                                                  
  26811350.573   140894636.711                                                  
  25545147.264   134240626.606                                                  
  24138212.533   126847144.464                                                  
  25037302.144   131571932.932                                                  
 21  8 31  8 18 42.0000000  0 22G 1G 7G 8G 9G13G14G17G19G21G30C20C23
                                C27C28E 1E 4E 5E 9E24E26E31E33
  22247357.713   116910606.368    22247361.019    91099160.988                  
  20604015.540   108274842.507    20604015.165    84370009.375                  
  24020001.316   126225916.328    24020003.799    98357846.324                  
  24547702.923   128999004.152    24547705.728   100518693.078                  
  22973169.247   120724828.445    22973168.764    94071296.969                  
  21271631.937   111783190.575    21271632.205    87103789.519                  
  21318803.405   112031073.020    21318803.298    87296940.692                  
  23841037.958   125285506.747    23841036.546    97625072.285                  
  22867608.905   120170096.677    22867608.047    93639037.163                  
  20437895.596   107401828.616    20437897.616    83689727.241                  
                 136753933.059                   136753933.059    26262151.299  
                 126049015.613                   126049015.613    24206379.907  
                 120047113.691                   120047113.691    23053786.327  
                 114973784.032                   114973784.032    22079505.135  
  25711343.115   135113988.481                                                  
  26712793.352   140376679.324                                                  
  27424150.007   144114872.569                                                  
  23732525.671   124715252.404                                                  
  26811053.947   140893077.902                                                  
  25545263.037   134241235.044                                                  
  24138138.680   126846756.389                                                  
  25036960.184   131570135.864                                                  
 21  8 31  8 18 43.0000000  0 22G 1G 7G 8G 9G13G14G17G19G21G30C20C23
                                C27C28E 1E 4E 5E 9E24E26E31E33
  22246997.134   116908711.565    22247000.458    91097684.523                  
  20604220.927   108275921.703    20604220.534    84370850.310                  
  24020662.094   126229388.679    24020664.560    98360552.054                  
  24548381.124   129002568.122    24548383.911   100521470.200                  
  22972811.026   120722946.008    22972810.544    94069830.132                  
  21271441.989   111782192.302    21271442.239    87103011.644                  
  21318385.217   112028875.488    21318385.145    87295228.332                  
  23840358.739   125281937.419    23840357.327    97622290.992                  
  22867693.139   120170539.321    22867692.282    93639382.083                  
  20437721.999   107400916.317    20437724.018    83689016.359                  
                 136756111.070                   136756111.070    26262569.559  
                 126050790.234                   126050790.234    24206720.705  
                 120044362.290                   120044362.290    23053257.940  
                 114973887.534                   114973887.534    22079525.024  
  25711573.822   135115200.825                                                  
  26713320.345   140379448.537                                                  
  27423939.224   144113764.856                                                  
  23732749.106   124716426.488                                                  
  26810757.322   140891519.091                                                  
  25545378.900   134241843.939                                                  
  24138064.845   126846368.367                                                  
  25036618.261   131568339.151                                                  
 21  8 31  8 18 44.0000000  0 22G 1G 7G 8G 9G13G14G17G19G21G30C20C23
                                C27C28E 1E 4E 5E 9E24E26E31E33
  22246636.680   116906817.261    22246639.986    91096208.445                  
  20604426.385   108277001.410    20604425.992    84371691.633                  
  24021322.873   126232861.138    24021325.339    98363257.864                  
  24549059.307   129006132.036    24549062.094   100524247.274                  
  22972452.913   120721064.141    22972452.449    94068363.742                  
  21271252.059   111781194.225    21271252.327    87102233.927                  
  21317967.135   112026678.443    21317967.046    87293516.349                  
  23839679.555   125278368.261    23839678.125    97619509.828                  
  22867777.481   120170982.534    22867776.623    93639727.441                  
  20437548.473   107400004.475    20437550.492    83688305.835                  
                 136758289.172                   136758289.172    26262987.837  
                 126052565.071                   126052565.071    24207061.539  
                 120041611.198                   120041611.198    23052729.624  
                 114973991.595                   114973991.595    22079545.001  
  25711804.511   135116413.204                                                  
  26713847.302   140382217.784                                                  
  27423728.495   144112657.565                                                  
  23732972.594   124717600.978                                                  
  26810460.678   140889960.292                                                  
  25545494.852   134242453.309                                                  
  24137991.028   126845980.398                                                  
  25036276.444   131566542.811                                                  
 21  8 31  8 18 45.0000000  0 22G 1G 7G 8G 9G13G14G17G19G21G30C20C23
                                C27C28E 1E 4E 5E 9E24E26E31E33
  22246276.298   116904923.474    22246279.604    91094732.762                  
  20604631.932   108278081.618    20604631.557    84372533.356                  
  24021983.687   126236333.685    24021986.135    98365963.747                  
  24549737.472   129009695.894    24549740.277   100527024.308                  
  22972094.925   120719182.816    22972094.443    94066897.772                  
  21271062.165   111780196.340    21271062.415    87101456.351                  
  21317549.143   112024481.876    21317549.054    87291804.734                  
  23839000.407   125274799.297    23838998.977    97616728.819                  
  22867861.912   120171426.314    22867861.072    93640073.246                  
  20437375.036   107399093.086    20437377.055    83687595.661                  
                 136760467.354                   136760467.354    26263406.133  
                 126054340.115                   126054340.115    24207402.426  
                 120038860.429                   120038860.429    23052201.362  
                 114974096.208                   114974096.208    22079565.104  
  25712035.236   135117625.630                                                  
  26714374.278   140384987.091                                                  
  27423517.872   144111550.688                                                  
  23733196.153   124718775.861                                                  
  26810164.052   140888401.501                                                  
  25545610.911   134243063.152                                                  
  24137917.193   126845592.481                                                  
  25035934.681   131564746.841                                                  
 21  8 31  8 18 46.0000000  0 22G 1G 7G 8G 9G13G14G17G19G21G30C20C23
                                C27C28E 1E 4E 5E 9E24E26E31E33
  22245916.023   116903030.189    22245919.328    91093257.476                  
  20604837.587   108279162.329    20604837.194    84373375.468                  
  24022644.502   126239806.329    24022646.985    98368669.699                  
  24550415.655   129013259.700    24550418.460   100529801.297                  
  22971737.027   120717302.046    22971736.544    94065432.242                  
  21270872.307   111779198.642    21270872.557    87100678.922                  
  21317131.240   112022285.779    21317131.169    87290093.491                  
  23838321.277   125271230.520    23838319.865    97613947.952                  
  22867946.486   120171870.663    22867945.629    93640419.492                  
  20437201.707   107398182.148    20437203.726    83686885.837                  
                 136762645.621                   136762645.621    26263824.465  
                 126056115.376                   126056115.376    24207743.331  
                 120036109.974                   120036109.974    23051673.172  
                 114974201.376                   114974201.376    22079585.278  
  25712265.961   135118838.094                                                  
  26714901.289   140387756.441                                                  
  27423307.322   144110444.222                                                  
  23733419.819   124719951.134                                                  
  26809867.426   140886842.716                                                  
  25545727.060   134243673.467                                                  
  24137843.394   126845204.609                                                  
  25035592.972   131562951.231                                                  
 21  8 31  8 18 47.0000000  0 22G 1G 7G 8G 9G13G14G17G19G21G30C20C23
                                C27C28E 1E 4E 5E 9E24E26E31E33
  22245555.819   116901137.408    22245559.142    91091782.582                  
  20605043.349   108280243.556    20605042.956    84374217.980                  
  24023305.334   126243279.090    24023307.818    98371375.749                  
  24551093.820   129016823.435    24551096.625   100532578.234                  
  22971379.217   120715421.839    22971378.735    94063967.146                  
  21270682.484   111778201.126    21270682.734    87099901.637                  
  21316713.427   112020090.104    21316713.319    87288382.578                  
  23837642.200   125267661.911    23837640.789    97611167.218                  
  22868031.132   120172315.593    22868030.292    93640766.193                  
  20437028.449   107397271.647    20437030.468    83686176.358                  
                 136764823.975                   136764823.975    26264242.778  
                 126057890.844                   126057890.844    24208084.308  
                 120033359.832                   120033359.832    23051145.035  
                 114974307.103                   114974307.103    22079605.595  
  25712496.704   135120050.605                                                  
  26715428.282   140390525.836                                                  
  27423096.842   144109338.173                                                  
  23733643.540   124721126.797                                                  
  26809570.801   140885283.925                                                  
  25545843.280   134244284.270                                                  
  24137769.595   126844816.792                                                  
  25035251.352   131561155.974                                                  
 21  8 31  8 18 48.0000000  0 22G 1G 7G 8G 9G13G14G17G19G21G30C20C23
                                C27C28E 1E 4E 5E 9E24E26E31E33
  22245195.740   116899245.137    22245199.064    91090308.091                  
  20605249.182   108281325.273    20605248.807    84375060.879                  
  24023966.202   126246751.933    24023968.685    98374081.858                  
  24551771.967   129020387.126    24551774.755   100535355.133                  
  22971021.533   120713542.187    22971021.068    94062502.484                  
  21270492.697   111777203.804    21270492.965    87099124.507                  
  21316295.702   112017894.937    21316295.595    87286672.059                  
  23836963.160   125264093.505    23836961.712    97608386.641                  
  22868115.920   120172761.086    22868115.063    93641113.323                  
  20436855.262   107396361.613    20436857.281    83685467.238                  
                 136767002.411                   136767002.411    26264661.146  
                 126059666.524                   126059666.524    24208425.302  
                 120030610.005                   120030610.005    23050616.952  
                 114974413.379                   114974413.379    22079626.001  
  25712727.446   135121263.152                                                  
  26715955.275   140393295.280                                                  
  27422886.453   144108232.543                                                  
  23733867.331   124722302.850                                                  
  26809274.175   140883725.143                                                  
  25545959.607   134244895.524                                                  
  24137695.796   126844429.023                                                  
  25034909.803   131559361.095                                                  
 21  8 31  8 18 49.0000000  0 22G 1G 7G 8G 9G13G14G17G19G21G30C20C23
                                C27C28E 1E 4E 5E 9E24E26E31E33
  22244835.769   116897353.375    22244839.057    91088833.988                  
  20605455.122   108282407.497    20605454.747    84375904.171                  
  24024627.105   126250224.882    24024629.553    98376788.055                  
  24552450.097   129023950.758    24552452.902   100538131.992                  
  22970663.956   120711663.092    22970663.474    94061038.250                  
  21270302.964   111776206.673    21270303.214    87098347.520                  
  21315878.032   112015700.216    21315877.960    87284961.887                  
  23836284.137   125260525.259    23836282.725    97605606.195                  
  22868200.798   120173207.146    22868199.958    93641460.902                  
  20436682.183   107395452.031    20436684.202    83684758.473                  
                 136769180.934                   136769180.934    26265079.495  
                 126061442.417                   126061442.417    24208766.333  
                 120027860.497                   120027860.497    23050088.940  
                 114974520.216                   114974520.216    22079646.515  
  25712958.189   135122475.730                                                  
  26716482.304   140396064.766                                                  
  27422676.134   144107127.327                                                  
  23734091.194   124723479.309                                                  
  26808977.567   140882166.382                                                  
  25546076.006   134245507.254                                                  
  24137622.015   126844041.311                                                  
  25034568.326   131557566.598                                                  
 21  8 31  8 18 50.0000000  0 22G 1G 7G 8G 9G13G14G17G19G21G30C20C23
                                C27C28E 1E 4E 5E 9E24E26E31E33
  22244475.869   116895462.120    22244479.157    91087360.280                  
  20605661.152   108283490.229    20605660.777    84376747.860                  
  24025287.991   126253697.937    24025290.457    98379494.329                  
  24553128.226   129027514.343    24553131.014   100540908.812                  
  22970306.486   120709784.561    22970306.004    94059574.462                  
  21270113.248   111775209.732    21270113.499    87097570.683                  
  21315460.504   112013505.979    21315460.397    87283252.094                  
  23835605.167   125256957.199    23835603.738    97602825.886                  
  22868285.801   120173653.763    22868284.944    93641808.922                  
  20436509.175   107394542.898    20436511.194    83684050.058                  
                 136771359.538                   136771359.538    26265497.881  
                 126063218.524                   126063218.524    24209107.417  
                 120025111.301                   120025111.301    23049560.999  
                 114974627.606                   114974627.606    22079667.136  
  25713188.932   135123688.359                                                  
  26717009.315   140398834.298                                                  
  27422465.905   144106022.519                                                  
  23734315.165   124724656.155                                                  
  26808680.923   140880607.621                                                  
  25546192.494   134246119.462                                                  
  24137548.252   126843653.644                                                  
  25034226.903   131555772.441                                                  
 21  8 31  8 18 51.0000000  0 22G 1G 7G 8G 9G13G14G17G19G21G30C20C23
                                C27C28E 1E 4E 5E 9E24E26E31E33
  22244116.058   116893571.367    22244119.364    91085886.968                  
  20605867.271   108284573.461    20605866.896    84377591.934                  
  24025948.895   126257171.065    24025951.379    98382200.665                  
  24553806.338   129031077.870    24553809.143   100543685.586                  
  22969949.124   120707906.570    22969948.641    94058111.090                  
  21269923.569   111774212.976    21269923.819    87096793.992                  
  21315043.048   112011312.218    21315042.959    87281542.672                  
  23834926.216   125253389.323    23834924.787    97600045.728                  
  22868370.894   120174100.970    22868370.036    93642157.391                  
  20436336.256   107393634.219    20436338.275    83683341.997                  
                 136773538.273                   136773538.273    26265916.284  
                 126064994.827                   126064994.827    24209448.536  
                 120022362.445                   120022362.445    23049033.095  
                 114974735.571                   114974735.571    22079687.882  
  25713419.692   135124901.020                                                  
  26717536.362   140401603.883                                                  
  27422255.748   144104918.133                                                  
  23734539.189   124725833.391                                                  
  26808384.298   140879048.868                                                  
  25546309.108   134246732.128                                                  
  24137474.506   126843266.039                                                  
  25033885.569   131553978.668                                                  
 21  8 31  8 18 52.0000000  0 22G 1G 7G 8G 9G13G14G17G19G21G30C20C23
                                C27C28E 1E 4E 5E 9E24E26E31E33
  22243756.355   116891681.112    22243759.660    91084414.043                  
  20606073.516   108285657.196    20606073.140    84378436.402                  
  24026609.834   126260644.293    24026612.300    98384907.074                  
  24554484.431   129034641.335    24554487.237   100546462.312                  
  22969591.868   120706029.145    22969591.368    94056648.161                  
  21269733.925   111773216.417    21269734.175    87096017.450                  
  21314625.664   112009118.917    21314625.574    87279833.606                  
  23834247.300   125249821.641    23834245.889    97597265.711                  
  22868456.093   120174548.746    22868455.235    93642506.308                  
  20436163.427   107392725.987    20436165.446    83682634.281                  
                 136775717.046                   136775717.046    26266334.687  
                 126066771.359                   126066771.359    24209789.727  
                 120019613.883                   120019613.883    23048505.280  
                 114974844.069                   114974844.069    22079708.717  
  25713650.488   135126113.722                                                  
  26718063.391   140404373.513                                                  
  27422045.661   144103814.159                                                  
  23734763.266   124727011.020                                                  
  26808087.672   140877490.118                                                  
  25546425.774   134247345.278                                                  
  24137400.743   126842878.478                                                  
  25033544.288   131552185.251                                                  
 21  8 31  8 18 53.0000000  0 22G 1G 7G 8G 9G13G14G17G19G21G30C20C23
                                C27C28E 1E 4E 5E 9E24E26E31E33
  22243396.758   116889791.378    22243400.064    91082941.524                  
  20606279.831   108286741.431    20606279.456    84379281.262                  
  24027270.792   126264117.615    24027273.258    98387613.554                  
  24555162.543   129038204.759    24555165.348   100549239.003                  
  22969234.702   120704152.281    22969234.220    94055185.672                  
  21269544.317   111772220.034    21269544.585    87095241.050                  
  21314208.386   112006926.063    21314208.297    87278124.886                  
  23833568.438   125246254.136    23833567.009    97594485.843                  
  22868541.418   120174997.089    22868540.560    93642855.668                  
  20435990.687   107391818.212    20435992.706    83681926.926                  
                 136777895.903                   136777895.903    26266753.126  
                 126068548.100                   126068548.100    24210130.919  
                 120016865.637                   120016865.637    23047977.500  
                 114974953.125                   114974953.125    22079729.660  
  25713881.267   135127326.465                                                  
  26718590.438   140407143.177                                                  
  27421835.665   144102710.601                                                  
  23734987.433   124728189.043                                                  
  26807791.064   140875931.369                                                  
  25546542.549   134247958.892                                                  
  24137326.997   126842490.966                                                  
  25033203.079   131550392.203                                                  
 21  8 31  8 18 54.0000000  0 22G 1G 7G 8G 9G13G14G17G19G21G30C20C23
                                C27C28E 1E 4E 5E 9E24E26E31E33
  22243037.234   116887902.144    22243040.539    91081469.395                  
  20606486.254   108287826.176    20606485.879    84380126.516                  
  24027931.767   126267591.016    24027934.215    98390320.104                  
  24555840.619   129041768.113    24555843.424   100552015.645                  
  22968877.643   120702275.953    22968877.161    94053723.598                  
  21269354.762   111771223.847    21269355.012    87094464.801                  
  21313791.180   112004733.687    21313791.109    87276416.543                  
  23832889.594   125242686.818    23832888.165    97591706.108                  
  22868626.832   120175446.001    22868625.974    93643205.469                  
  20435818.019   107390910.890    20435820.038    83681219.922                  
                 136780074.845                   136780074.845    26267171.565  
                 126070325.054                   126070325.054    24210472.163  
                 120014117.706                   120014117.706    23047449.774  
                 114975062.739                   114975062.739    22079750.691  
  25714112.045   135128539.243                                                  
  26719117.521   140409912.894                                                  
  27421625.739   144101607.456                                                  
  23735211.671   124729367.468                                                  
  26807494.456   140874372.645                                                  
  25546659.394   134248572.963                                                  
  24137253.288   126842103.510                                                  
  25032861.942   131548599.528                                                  
 21  8 31  8 18 55.0000000  0 22G 1G 7G 8G 9G13G14G17G19G21G30C20C23
                                C27C28E 1E 4E 5E 9E24E26E31E33
  22242677.816   116886013.422    22242681.140    91079997.665                  
  20606692.785   108288911.420    20606692.391    84380972.161                  
  24028592.742   126271064.516    24028595.226    98393026.726                  
  24556518.694   129045331.422    24556521.500   100554792.250                  
  22968520.692   120700400.192    22968520.227    94052261.964                  
  21269165.225   111770227.851    21269165.475    87093688.700                  
  21313374.081   112002541.786    21313373.992    87274708.566                  
  23832210.804   125239119.679    23832209.356    97588926.524                  
  22868712.388   120175895.488    22868711.513    93643555.719                  
  20435645.440   107390004.013    20435647.477    83680513.262                  
                 136782253.868                   136782253.868    26267590.022  
                 126072102.220                   126072102.220    24210813.444  
                 120011370.088                   120011370.088    23046922.138  
                 114975172.903                   114975172.903    22079771.866  
  25714342.842   135129752.074                                                  
  26719644.585   140412682.656                                                  
  27421415.903   144100504.723                                                  
  23735435.999   124730546.274                                                  
  26807197.848   140872813.902                                                  
  25546776.347   134249187.522                                                  
  24137179.542   126841716.099                                                  
  25032520.876   131546807.214                                                  
 21  8 31  8 18 56.0000000  0 22G 1G 7G 8G 9G13G14G17G19G21G30C20C23
                                C27C28E 1E 4E 5E 9E24E26E31E33
  22242318.524   116884125.198    22242321.812    91078526.320                  
  20606899.386   108289997.172    20606898.993    84381818.203                  
  24029253.735   126274538.108    24029256.219    98395733.421                  
  24557196.752   129048894.652    24557199.558   100557568.793                  
  22968163.865   120698524.992    22968163.383    94050800.773                  
  21268975.724   111769232.046    21268975.974    87092912.746                  
  21312957.054   112000350.351    21312956.983    87273000.957                  
  23831532.013   125235552.722    23831530.601    97586147.077                  
  22868798.017   120176345.556    22868797.159    93643906.421                  
  20435472.968   107389097.591    20435474.987    83679806.962                  
                 136784432.975                   136784432.975    26268008.496  
                 126073879.598                   126073879.598    24211154.778  
                 120008622.794                   120008622.794    23046394.537  
                 114975283.625                   114975283.625    22079793.113  
  25714573.638   135130964.928                                                  
  26720171.668   140415452.449                                                  
  27421206.139   144099402.418                                                  
  23735660.398   124731725.464                                                  
  26806901.222   140871255.175                                                  
  25546893.389   134249802.547                                                  
  24137105.833   126841328.746                                                  
  25032179.881   131545015.260                                                  
 21  8 31  8 18 57.0000000  0 22G 1G 7G 8G 9G13G14G17G19G21G30C20C23
                                C27C28E 1E 4E 5E 9E24E26E31E33
  22241959.303   116882237.500    22241962.608    91077055.386                  
  20607106.095   108291083.429    20607105.720    84382664.637                  
  24029914.764   126278011.799    24029917.248    98398440.196                  
  24557874.828   129052457.847    24557877.616   100560345.308                  
  22967807.128   120696650.355    22967806.646    94049340.015                  
  21268786.259   111768236.429    21268786.527    87092136.942                  
  21312540.134   111998159.407    21312540.063    87271293.726                  
  23830853.276   125231985.952    23830851.864    97583367.776                  
  22868883.788   120176796.178    22868882.913    93644257.558                  
  20435300.568   107388191.624    20435302.587    83679101.011                  
                 136786612.167                   136786612.167    26268426.989  
                 126075657.186                   126075657.186    24211496.148  
                 120005875.813                   120005875.813    23045867.026  
                 114975394.903                   114975394.903    22079814.502  
  25714804.434   135132177.833                                                  
  26720698.732   140418222.307                                                  
  27420996.464   144098300.515                                                  
  23735884.851   124732905.065                                                  
  26806604.596   140869696.449                                                  
  25547010.502   134250418.042                                                  
  24137032.141   126840941.445                                                  
  25031838.940   131543223.683                                                  
 21  8 31  8 18 58.0000000  0 22G 1G 7G 8G 9G13G14G17G19G21G30C20C23
                                C27C28E 1E 4E 5E 9E24E26E31E33
  22241600.171   116880350.297    22241603.477    91075584.841                  
  20607312.893   108292170.175    20607312.518    84383511.450                  
  24030575.792   126281485.591    24030578.276    98401147.044                  
  24558552.868   129056020.978    24558555.656   100563121.769                  
  22967450.498   120694776.275    22967450.016    94047879.691                  
  21268596.847   111767240.997    21268597.097    87091361.281                  
  21312123.303   111995968.920    21312123.214    87269586.855                  
  23830174.593   125228419.374    23830173.163    97580588.624                  
  22868969.649   120177247.379    22868968.773    93644609.141                  
  20435128.239   107387286.109    20435130.276    83678395.417                  
                 136788791.440                   136788791.440    26268845.499  
                 126077434.989                   126077434.989    24211837.553  
                 120003129.144                   120003129.144    23045339.532  
                 114975506.730                   114975506.730    22079835.962  
  25715035.266   135133390.766                                                  
  26721225.833   140420992.195                                                  
  27420786.842   144097199.032                                                  
  23736109.411   124734085.051                                                  
  26806307.989   140868137.732                                                  
  25547127.723   134251034.012                                                  
  24136958.449   126840554.192                                                  
  25031498.107   131541432.478                                                  
 21  8 31  8 18 59.0000000  0 22G 1G 7G 8G 9G13G14G17G19G21G30C20C23
                                C27C28E 1E 4E 5E 9E24E26E31E33
  22241241.147   116878463.597    22241244.452    91074114.685                  
  20607519.799   108293257.441    20607519.423    84384358.673                  
  24031236.857   126284959.488    24031239.341    98403853.976                  
  24559230.873   129059584.050    24559233.678   100565898.191                  
  22967093.975   120692902.741    22967093.493    94046419.797                  
  21268407.454   111766245.749    21268407.722    87090585.761                  
  21311706.562   111993778.906    21311706.455    87267880.351                  
  23829495.927   125224852.980    23829494.498    97577809.616                  
  22869055.599   120177699.152    22869054.741    93644961.172                  
  20434956.017   107386381.046    20434958.036    83677690.171                  
                 136790970.800                   136790970.800    26269264.028  
                 126079213.001                   126079213.001    24212178.995  
                 120000382.797                   120000382.797    23044812.146  
                 114975619.118                   114975619.118    22079857.548  
  25715266.080   135134603.741                                                  
  26721752.933   140423762.150                                                  
  27420577.328   144096097.965                                                  
  23736334.043   124735265.430                                                  
  26806011.381   140866579.032                                                  
  25547245.016   134251650.454                                                  
  24136884.757   126840166.986                                                  
  25031157.309   131539641.625                                                  
 21  8 31  8 19  0.0000000  0 22G 1G 7G 8G 9G13G14G17G19G21G30C20C23
                                C27C28E 1E 4E 5E 9E24E26E31E33
  22240882.212   116876577.415    22240885.517    91072644.931                  
  20607726.793   108294345.203    20607726.418    84385206.272                  
  24031897.957   126288433.499    24031900.423    98406561.000                  
  24559908.895   129063147.066    24559911.700   100568674.567                  
  22966737.560   120691029.762    22966737.077    94044960.337                  
  21268218.096   111765250.692    21268218.364    87089810.394                  
  21311289.892   111991589.359    21311289.821    87266174.210                  
  23828817.297   125221286.745    23828815.868    97575030.734                  
  22869141.674   120178151.480    22869140.816    93645313.637                  
  20434783.885   107385476.435    20434785.904    83676985.282                  
                 136793150.242                   136793150.242    26269682.556  
                 126080991.226                   126080991.226    24212520.507  
                 119997636.762                   119997636.762    23044284.795  
                 114975732.062                   114975732.062    22079879.241  
  25715496.895   135135816.757                                                  
  26722280.034   140426532.125                                                  
  27420367.885   144094997.315                                                  
  23736558.728   124736446.202                                                  
  26805714.755   140865020.329                                                  
  25547362.415   134252267.361                                                  
  24136811.101   126839779.832                                                  
  25030816.582   131537851.133                                                  
 21  8 31  8 19  1.0000000  0 22G 1G 7G 8G 9G13G14G17G19G21G30C20C23
                                C27C28E 1E 4E 5E 9E24E26E31E33
  22240523.384   116874691.733    22240526.672    91071175.565                  
  20607933.878   108295433.464    20607933.502    84386054.272                  
  24032559.057   126291907.616    24032561.523    98409268.102                  
  24560586.917   129066710.014    24560589.723   100571450.891                  
  22966381.252   120689157.343    22966380.787    94043501.305                  
  21268028.773   111764255.835    21268029.041    87089035.179                  
  21310873.347   111989400.290    21310873.240    87264468.442                  
  23828138.703   125217720.721    23828137.274    97572252.016                  
  22869227.856   120178604.383    22869226.998    93645666.546                  
  20434611.824   107384572.273    20434613.843    83676280.737                  
                 136795329.765                   136795329.765    26270101.102  
                 126082769.665                   126082769.665    24212862.020  
                 119994891.046                   119994891.046    23043757.498  
                 114975845.558                   114975845.558    22079901.041  
  25715727.745   135137029.820                                                  
  26722807.152   140429302.160                                                  
  27420158.496   144093897.079                                                  
  23736783.502   124737627.359                                                  
  26805418.165   140863461.630                                                  
  25547479.904   134252884.742                                                  
  24136737.427   126839392.737                                                  
  25030475.945   131536061.029                                                  
 21  8 31  8 19  2.0000000  0 22G 1G 7G 8G 9G13G14G17G19G21G30C20C23
                                C27C28E 1E 4E 5E 9E24E26E31E33
  22240164.645   116872806.558    22240167.969    91069706.603                  
  20608141.069   108296522.226    20608140.676    84386902.661                  
  24033220.176   126295381.824    24033222.642    98411975.273                  
  24561264.921   129070272.913    24561267.727   100574227.176                  
  22966025.068   120687285.479    22966024.568    94042042.712                  
  21267839.505   111763261.163    21267839.755    87088260.114                  
  21310456.856   111987211.699    21310456.767    87262763.046                  
  23827460.145   125214154.871    23827458.716    97569473.429                  
  22869314.164   120179057.866    22869313.306    93646019.910                  
  20434439.853   107383668.562    20434441.872    83675576.550                  
                 136797509.370                   136797509.370    26270519.684  
                 126084548.311                   126084548.311    24213203.604  
                 119992145.647                   119992145.647    23043230.273  
                 114975959.610                   114975959.610    22079922.949  
  25715958.577   135138242.918                                                  
  26723334.306   140432072.223                                                  
  27419949.214   144092797.262                                                  
  23737008.348   124738808.912                                                  
  26805121.539   140861902.939                                                  
  25547597.464   134253502.590                                                  
  24136663.789   126839005.692                                                  
  25030135.361   131534271.276                                                  
 21  8 31  8 19  3.0000000  0 22G 1G 7G 8G 9G13G14G17G19G21G30C20C23
                                C27C28E 1E 4E 5E 9E24E26E31E33
  22239805.996   116870921.894    22239809.320    91068238.035                  
  20608348.332   108297611.500    20608347.956    84387751.441                  
  24033881.294   126298856.105    24033883.777    98414682.507                  
  24561942.908   129073835.759    24561945.695   100577003.419                  
  22965668.957   120685414.184    22965668.474    94040584.555                  
  21267650.254   111762266.672    21267650.522    87087485.184                  
  21310040.472   111985023.572    21310040.383    87261058.015                  
  23826781.623   125210589.208    23826780.193    97566694.993                  
  22869400.560   120179511.908    22869399.703    93646373.706                  
  20434267.953   107382765.310    20434270.007    83674872.714                  
                 136799689.061                   136799689.061    26270938.266  
                 126086327.176                   126086327.176    24213545.206  
                 119989400.563                   119989400.563    23042703.119  
                 114976074.219                   114976074.219    22079944.946  
  25716189.444   135139456.051                                                  
  26723861.442   140434842.348                                                  
  27419740.004   144091697.839                                                  
  23737233.266   124739990.860                                                  
  26804824.931   140860344.251                                                  
  25547715.132   134254120.905                                                  
  24136590.133   126838618.694                                                  
  25029794.867   131532481.891                                                  
 21  8 31  8 19  4.0000000  0 22G 1G 7G 8G 9G13G14G17G19G21G30C20C23
                                C27C28E 1E 4E 5E 9E24E26E31E33
  22239447.454   116869037.738    22239450.760    91066769.859                  
  20608555.720   108298701.280    20608555.344    84388600.621                  
  24034542.465   126302330.495    24034544.931    98417389.824                  
  24562620.876   129077398.540    24562623.682   100579779.610                  
  22965312.952   120683543.450    22965312.487    94039126.845                  
  21267461.039   111761272.364    21267461.307    87086710.398                  
  21309624.178   111982835.911    21309624.088    87259353.344                  
  23826103.136   125207023.724    23826101.706    97563916.696                  
  22869487.064   120179966.515    22869486.224    93646727.948                  
  20434096.178   107381862.509    20434098.197    83674169.233                  
                 136801868.835                   136801868.835    26271356.865  
                 126088106.249                   126088106.249    24213886.862  
                 119986655.798                   119986655.798    23042176.018  
                 114976189.379                   114976189.379    22079967.067  
  25716420.294   135140669.226                                                  
  26724388.579   140437612.509                                                  
  27419530.882   144090598.853                                                  
  23737458.237   124741173.197                                                  
  26804528.323   140858785.574                                                  
  25547832.889   134254739.704                                                  
  24136516.494   126838231.746                                                  
  25029454.426   131530692.887                                                  
 21  8 31  8 19  5.0000000  0 22G 1G 7G 8G 9G13G14G17G19G21G30C20C23
                                C27C28E 1E 4E 5E 9E24E26E31E33
  22239089.019   116867154.086    22239092.325    91065302.079                  
  20608763.197   108299791.563    20608762.822    84389450.191                  
  24035203.637   126305804.982    24035206.103    98420097.214                  
  24563298.845   129080961.269    24563301.633   100582555.762                  
  22964957.073   120681673.285    22964956.608    94037669.573                  
  21267271.877   111760278.255    21267272.145    87085935.770                  
  21309207.955   111980648.726    21309207.883    87257649.046                  
  23825424.685   125203458.425    23825423.237    97561138.538                  
  22869573.675   120180421.704    22869572.835    93647082.641                  
  20433924.456   107380960.152    20433926.476    83673466.102                  
                 136804048.692                   136804048.692    26271775.483  
                 126089885.535                   126089885.535    24214228.554  
                 119983911.347                   119983911.347    23041648.971  
                 114976305.096                   114976305.096    22079989.279  
  25716651.162   135141882.441                                                  
  26724915.733   140440382.731                                                  
  27419321.815   144089500.280                                                  
  23737683.297   124742355.923                                                  
  26804231.715   140857226.898                                                  
  25547950.717   134255358.960                                                  
  24136442.874   126837844.857                                                  
  25029114.039   131528904.244                                                  
 21  8 31  8 19  6.0000000  0 22G 1G 7G 8G 9G13G14G17G19G21G30C20C23
                                C27C28E 1E 4E 5E 9E24E26E31E33
  22238730.656   116865270.953    22238733.980    91063834.703                  
  20608970.763   108300882.336    20608970.388    84390300.144                  
  24035864.827   126309279.539    24035867.293    98422804.661                  
  24563976.796   129084523.939    24563979.601   100585331.866                  
  22964601.300   120679803.663    22964600.818    94036212.722                  
  21267082.734   111759284.337    21267083.002    87085161.286                  
  21308791.839   111978462.016    21308791.767    87255945.114                  
  23824746.252   125199893.307    23824744.822    97558360.527                  
  22869660.412   120180877.450    22869659.554    93647437.770                  
  20433752.842   107380058.246    20433754.861    83672763.316                  
                 136806228.628                   136806228.628    26272194.118  
                 126091665.030                   126091665.030    24214570.281  
                 119981167.216                   119981167.216    23041121.978  
                 114976421.367                   114976421.367    22080011.615  
  25716882.048   135143095.700                                                  
  26725442.904   140443152.979                                                  
  27419112.854   144088402.133                                                  
  23737908.447   124743539.034                                                  
  26803935.125   140855668.216                                                  
  25548068.652   134255978.681                                                  
  24136369.254   126837457.997                                                  
  25028773.760   131527115.958                                                  
 21  8 31  8 19  7.0000000  0 22G 1G 7G 8G 9G13G14G17G19G21G30C20C23
                                C27C28E 1E 4E 5E 9E24E26E31E33
  22238372.418   116863388.329    22238375.724    91062367.722                  
  20609178.437   108301973.633    20609178.062    84391150.508                  
  24036526.034   126312754.199    24036528.500    98425512.190                  
  24564654.747   129088086.547    24564657.534   100588107.929                  
  22964245.635   120677934.607    22964245.153    94034756.313                  
  21266893.644   111758290.606    21266893.894    87084386.948                  
  21308375.812   111976275.784    21308375.740    87254241.559                  
  23824067.872   125196328.378    23824066.442    97555582.660                  
  22869747.255   120181333.786    22869746.397    93647793.357                  
  20433581.300   107379156.810    20433583.319    83672060.894                  
                 136808408.651                   136808408.651    26272612.772  
                 126093444.743                   126093444.743    24214912.062  
                 119978423.399                   119978423.399    23040595.056  
                 114976538.195                   114976538.195    22080034.041  
  25717112.915   135144309.001                                                  
  26725970.059   140445923.289                                                  
  27418903.966   144087304.418                                                  
  23738133.668   124744722.556                                                  
  26803638.499   140854109.525                                                  
  25548186.677   134256598.879                                                  
  24136295.651   126837071.192                                                  
  25028433.516   131525328.055                                                  
 21  8 31  8 19  8.0000000  0 22G 1G 7G 8G 9G13G14G17G19G21G30C20C23
                                C27C28E 1E 4E 5E 9E24E26E31E33
  22238014.251   116861506.191    22238017.557    91060901.122                  
  20609386.200   108303065.421    20609385.825    84392001.250                  
  24037187.260   126316228.952    24037189.725    98428219.788                  
  24565332.679   129091649.126    24565335.485   100590883.960                  
  22963890.077   120676066.120    22963889.595    94033300.352                  
  21266704.571   111757297.064    21266704.839    87083612.761                  
  21307959.875   111974089.981    21307959.785    87252538.331                  
  23823389.528   125192763.634    23823388.099    97552804.933                  
  22869834.206   120181790.668    22869833.348    93648149.366                  
  20433409.846   107378255.820    20433411.866    83671358.828                  
                 136810588.753                   136810588.753    26273031.443  
                 126095224.663                   126095224.663    24215253.878  
                 119975679.902                   119975679.902    23040068.206  
                 114976655.579                   114976655.579    22080056.591  
  25717343.819   135145522.328                                                  
  26726497.248   140448693.608                                                  
  27418695.148   144086207.040                                                  
  23738358.960   124745906.477                                                  
  26803341.927   140852550.934                                                  
  25548304.774   134257219.577                                                  
  24136222.066   126836684.485                                                  
  25028093.361   131523540.503                                                  
 21  8 31  8 19  9.0000000  0 22G 1G 7G 8G 9G13G14G17G19G21G30C20C23
                                C27C28E 1E 4E 5E 9E24E26E31E33
  22237656.192   116859624.579    22237659.498    91059434.933                  
  20609594.053   108304157.714    20609593.677    84392852.387                  
  24037848.503   126319703.835    24037850.986    98430927.489                  
  24566010.594   129095211.622    24566013.400   100593659.929                  
  22963534.627   120674198.171    22963534.144    94031844.809                  
  21266515.535   111756303.706    21266515.803    87082838.719                  
  21307544.027   111971904.680    21307543.937    87250835.504                  
  23822711.220   125189199.074    23822709.773    97550027.358                  
  22869921.246   120182248.134    22869920.388    93648505.833                  
  20433238.482   107377355.281    20433240.502    83670657.110                  
                 136812768.942                   136812768.942    26273450.114  
                 126097004.798                   126097004.798    24215595.748  
                 119972936.719                   119972936.719    23039541.392  
                 114976773.515                   114976773.515    22080079.231  
  25717574.722   135146735.708                                                  
  26727024.420   140451463.991                                                  
  27418486.402   144085110.134                                                  
  23738584.324   124747090.770                                                  
  26803045.302   140850992.260                                                  
  25548422.977   134257840.723                                                  
  24136148.482   126836297.792                                                  
  25027753.278   131521753.327                                                  
 21  8 31  8 19 10.0000000  0 22G 1G 7G 8G 9G13G14G17G19G21G30C20C23
                                C27C28E 1E 4E 5E 9E24E26E31E33
  22237298.240   116857743.474    22237301.545    91057969.137                  
  20609801.995   108305250.511    20609801.619    84393703.917                  
  24038509.782   126323178.824    24038512.248    98433635.270                  
  24566688.492   129098774.063    24566691.297   100596435.859                  
  22963179.266   120672330.785    22963178.783    94030389.703                  
  21266326.552   111755310.542    21266326.802    87082064.825                  
  21307128.268   111969719.845    21307128.179    87249133.035                  
  23822032.948   125185634.699    23822031.500    97547249.921                  
  22870008.393   120182706.169    22870007.553    93648862.746                  
  20433067.208   107376455.192    20433069.227    83669955.742                  
                 136814949.207                   136814949.207    26273868.821  
                 126098785.145                   126098785.145    24215937.618  
                 119970193.856                   119970193.856    23039014.666  
                 114976892.007                   114976892.007    22080101.996  
  25717805.626   135147949.117                                                  
  26727551.628   140454234.413                                                  
  27418277.746   144084013.633                                                  
  23738809.760   124748275.457                                                  
  26802748.694   140849433.616                                                  
  25548541.288   134258462.333                                                  
  24136074.897   126835911.155                                                  
  25027413.266   131519966.524                                                  
 21  8 31  8 19 11.0000000  0 22G 1G 7G 8G 9G13G14G17G19G21G30C20C23
                                C27C28E 1E 4E 5E 9E24E26E31E33
  22236940.377   116855862.939    22236943.682    91056503.782                  
  20610010.044   108306343.875    20610009.668    84394555.905                  
  24039171.061   126326654.003    24039173.544    98436343.216                  
  24567366.442   129102336.686    24567369.248   100599211.934                  
  22962824.012   120670464.056    22962823.547    94028935.120                  
  21266137.605   111754317.586    21266137.855    87081291.079                  
  21306712.635   111967535.395    21306712.563    87247430.802                  
  23821354.675   125182070.718    23821353.246    97544472.848                  
  22870095.683   120183164.818    22870094.843    93649220.125                  
  20432896.023   107375555.493    20432898.060    83669254.618                  
                 136817129.983                   136817129.983    26274287.528  
                 126100565.742                   126100565.742    24216279.578  
                 119967451.417                   119967451.417    23038487.977  
                 114977011.135                   114977011.135    22080124.869  
  25718036.547   135149162.584                                                  
  26728078.836   140457004.970                                                  
  27418069.178   144082917.667                                                  
  23739035.267   124749460.742                                                  
  26802452.104   140847875.157                                                  
  25548659.652   134259084.480                                                  
  24136001.348   126835524.612                                                  
  25027073.272   131518180.261                                                  
 21  8 31  8 19 12.0000000  0 22G 1G 7G 8G 9G13G14G17G19G21G30C20C23
                                C27C28E 1E 4E 5E 9E24E26E31E33
  22236582.603   116853982.852    22236585.927    91055038.782                  
  20610218.200   108307437.673    20610217.807    84395408.215                  
  24039832.357   126330129.182    24039834.841    98439051.148                  
  24568044.339   129105899.016    24568047.145   100601987.773                  
  22962468.883   120668597.776    22962468.400    94027480.883                  
  21265948.676   111753324.798    21265948.944    87080517.480                  
  21306297.037   111965351.499    21306296.983    87245729.067                  
  23820676.474   125178506.716    23820675.045    97541695.703                  
  22870183.063   120183623.988    22870182.223    93649577.923                  
  20432724.927   107374656.314    20432726.964    83668553.961                  
                 136819310.422                   136819310.422    26274706.235  
                 126102346.520                   126102346.520    24216621.555  
                 119964709.191                   119964709.191    23037961.359  
                 114977130.747                   114977130.747    22080147.813  
  25718267.469   135150376.085                                                  
  26728606.043   140459775.488                                                  
  27417860.683   144081822.000                                                  
  23739260.846   124750646.206                                                  
  26802155.496   140846316.519                                                  
  25548778.142   134259707.035                                                  
  24135927.799   126835138.078                                                  
  25026733.421   131516394.194                                                  
 21  8 31  8 19 13.0000000  0 22G 1G 7G 8G 9G13G14G17G19G21G30C20C23
                                C27C28E 1E 4E 5E 9E24E26E31E33
  22236224.919   116852103.265    22236228.242    91053574.173                  
  20610426.428   108308531.985    20610426.034    84396260.926                  
  24040493.672   126333604.458    24040496.156    98441759.153                  
  24568722.201   129109461.292    24568725.006   100604763.570                  
  22962113.843   120666732.065    22962113.360    94026027.078                  
  21265759.800   111752332.203    21265760.068    87079744.027                  
  21305881.564   111963168.090    21305881.475    87244027.708                  
  23819998.291   125174942.899    23819996.862    97538918.707                  
  22870270.531   120184083.734    22870269.692    93649936.169                  
  20432553.902   107373757.589    20432555.921    83667853.656                  
                 136821490.943                   136821490.943    26275124.978  
                 126104127.507                   126104127.507    24216963.586  
                 119961967.284                   119961967.284    23037434.812  
                 114977250.907                   114977250.907    22080170.899  
  25718498.372   135151589.614                                                  
  26729133.269   140462546.050                                                  
  27417652.258   144080726.758                                                  
  23739486.496   124751832.082                                                  
  26801858.906   140844757.907                                                  
  25548896.703   134260330.066                                                  
  24135854.233   126834751.602                                                  
  25026393.606   131514608.491                                                  
 21  8 31  8 19 14.0000000  0 22G 1G 7G 8G 9G13G14G17G19G21G30C20C23
                                C27C28E 1E 4E 5E 9E24E26E31E33
  22235867.360   116850224.199    22235870.665    91052109.962                  
  20610634.762   108309626.789    20610634.387    84397114.022                  
  24041155.022   126337079.825    24041157.506    98444467.226                  
  24569400.080   129113023.507    24569402.885   100607539.324                  
  22961758.928   120664866.915    22961758.446    94024573.714                  
  21265570.943   111751339.796    21265571.193    87078970.723                  
  21305466.163   111960985.145    21305466.074    87242326.712                  
  23819320.162   125171379.281    23819318.715    97536141.860                  
  22870358.143   120184544.055    22870357.286    93650294.860                  
  20432382.967   107372859.307    20432385.004    83667153.699                  
                 136823671.542                   136823671.542    26275543.738  
                 126105908.706                   126105908.706    24217305.635  
                 119959225.695                   119959225.695    23036908.320  
                 114977371.626                   114977371.626    22080194.076  
  25718729.312   135152803.190                                                  
  26729660.494   140465316.648                                                  
  27417443.923   144079631.921                                                  
  23739712.235   124753018.335                                                  
  26801562.298   140843199.284                                                  
  25549015.335   134260953.571                                                  
  24135780.702   126834365.173                                                  
  25026053.862   131512823.152                                                  
 21  8 31  8 19 15.0000000  0 22G 1G 7G 8G 9G13G14G17G19G21G30C20C23
                                C27C28E 1E 4E 5E 9E24E26E31E33
  22235509.872   116848345.636    22235513.178    91050646.148                  
  20610843.205   108310722.110    20610842.794    84397967.515                  
  24041816.373   126340555.269    24041818.857    98447175.366                  
  24570077.924   129116585.652    24570080.711   100610315.024                  
  22961404.103   120663002.305    22961403.603    94023120.774                  
  21265382.121   111750347.580    21265382.389    87078197.570                  
  21305050.834   111958802.679    21305050.762    87240626.086                  
  23818642.068   125167815.836    23818640.621    97533365.153                  
  22870445.844   120185004.925    22870444.987    93650653.977                  
  20432212.104   107371961.495    20432214.141    83666454.105                  
                 136825852.228                   136825852.228    26275962.517  
                 126107690.117                   126107690.117    24217647.738  
                 119956484.422                   119956484.422    23036381.880  
                 114977492.898                   114977492.898    22080217.359  
  25718960.269   135154016.808                                                  
  26730187.738   140468087.313                                                  
  27417235.660   144078537.504                                                  
  23739938.046   124754204.991                                                  
  26801265.726   140841640.684                                                  
  25549134.075   134261577.538                                                  
  24135707.188   126833978.794                                                  
  25025714.172   131511038.189                                                  
 21  8 31  8 19 16.0000000  0 22G 1G 7G 8G 9G13G14G17G19G21G30C20C23
                                C27C28E 1E 4E 5E 9E24E26E31E33
  22235152.492   116846467.601    22235155.797    91049182.742                  
  20611051.718   108311817.942    20611051.343    84398821.410                  
  24042477.741   126344030.762    24042480.225    98449883.532                  
  24570755.767   129120147.720    24570758.555   100613090.634                  
  22961049.385   120661138.261    22961048.885    94021668.270                  
  21265193.352   111749355.531    21265193.620    87077424.531                  
  21304635.629   111956620.696    21304635.540    87238925.844                  
  23817963.992   125164252.527    23817962.563    97530588.523                  
  22870533.653   120185466.414    22870532.795    93651013.591                  
  20432041.347   107371064.153    20432043.384    83665754.884                  
                 136828032.993                   136828032.993    26276381.313  
                 126109471.741                   126109471.741    24217989.876  
                 119953743.469                   119953743.469    23035855.495  
                 114977614.728                   114977614.728    22080240.767  
  25719191.226   135155230.378                                                  
  26730714.981   140470857.952                                                  
  27417027.486   144077443.603                                                  
  23740163.946   124755392.064                                                  
  26800969.118   140840082.101                                                  
  25549252.904   134262201.986                                                  
  24135633.657   126833592.398                                                  
  25025374.607   131509253.516                                                  
 21  8 31  8 19 17.0000000  0 22G 1G 7G 8G 9G13G14G17G19G21G30C20C23
                                C27C28E 1E 4E 5E 9E24E26E31E33
  22234795.200   116844590.061    22234798.524    91047719.726                  
  20611260.339   108312914.270    20611259.964    84399675.691                  
  24043139.145   126347506.372    24043141.593    98452591.797                  
  24571433.593   129123709.762    24571436.398   100615866.253                  
  22960694.757   120659274.784    22960694.274    94020216.207                  
  21265004.602   111748363.696    21265004.852    87076651.673                  
  21304220.478   111954439.169    21304220.406    87237225.953                  
  23817285.952   125160689.470    23817284.523    97527812.114                  
  22870621.586   120185928.449    22870620.729    93651373.618                  
  20431870.662   107370167.250    20431872.699    83665055.997                  
                 136830213.836                   136830213.836    26276800.127  
                 126111253.574                   126111253.574    24218332.067  
                 119951002.828                   119951002.828    23035329.198  
                 114977737.101                   114977737.101    22080264.265  
  25719422.183   135156444.078                                                  
  26731242.224   140473628.676                                                  
  27416819.383   144076350.010                                                  
  23740389.900   124756579.500                                                  
  26800672.528   140838523.504                                                  
  25549371.822   134262826.900                                                  
  24135560.162   126833206.122                                                  
  25025035.060   131507469.269                                                  
 21  8 31  8 19 18.0000000  0 22G 1G 7G 8G 9G13G14G17G19G21G30C20C23
                                C27C28E 1E 4E 5E 9E24E26E31E33
  22234438.016   116842713.027    22234441.322    91046257.109                  
  20611469.067   108314011.105    20611468.674    84400530.372                  
  24043800.531   126350982.095    24043802.997    98455300.157                  
  24572111.418   129127271.742    24572114.224   100618641.825                  
  22960340.253   120657411.846    22960339.788    94018764.574                  
  21264815.905   111747372.043    21264816.155    87075878.961                  
  21303805.434   111952258.110    21303805.363    87235526.429                  
  23816607.966   125157126.562    23816606.518    97525035.827                  
  22870709.591   120186391.047    22870708.734    93651734.086                  
  20431700.085   107369270.794    20431702.104    83664357.461                  
                 136832394.758                   136832394.758    26277218.941  
                 126113035.616                   126113035.616    24218674.277  
                 119948262.503                   119948262.503    23034802.938  
                 114977860.036                   114977860.036    22080287.852  
  25719653.140   135157657.798                                                  
  26731769.486   140476399.461                                                  
  27416611.352   144075256.831                                                  
  23740615.943   124757767.321                                                  
  26800375.938   140836964.896                                                  
  25549490.812   134263452.278                                                  
  24135486.667   126832819.896                                                  
  25024695.602   131505685.450                                                  
 21  8 31  8 19 19.0000000  0 22G 1G 7G 8G 9G13G14G17G19G21G30C20C23
                                C27C28E 1E 4E 5E 9E24E26E31E33
  22234080.922   116840836.520    22234084.246    91044794.894                  
  20611677.885   108315108.439    20611677.474    84401385.438                  
  24044461.953   126354457.902    24044464.419    98458008.578                  
  24572789.244   129130833.661    24572792.014   100621417.348                  
  22959985.857   120655549.475    22959985.374    94017313.376                  
  21264627.226   111746380.581    21264627.476    87075106.395                  
  21303390.480   111950077.525    21303390.408    87233827.278                  
  23815929.997   125153563.863    23815928.568    97522259.703                  
  22870797.739   120186854.215    22870796.881    93652094.996                  
  20431529.561   107368374.798    20431531.598    83663659.285                  
                 136834575.761                   136834575.761    26277637.773  
                 126114817.874                   126114817.874    24219016.540  
                 119945522.495                   119945522.495    23034276.766  
                 114977983.523                   114977983.523    22080311.582  
  25719884.115   135158871.574                                                  
  26732296.765   140479170.293                                                  
  27416403.392   144074164.081                                                  
  23740842.040   124758955.534                                                  
  26800079.347   140835406.301                                                  
  25549609.927   134264078.122                                                  
  24135413.172   126832433.713                                                  
  25024356.215   131503901.954                                                  
 21  8 31  8 19 20.0000000  0 22G 1G 7G 8G 9G13G14G17G19G21G30C20C23
                                C27C28E 1E 4E 5E 9E24E26E31E33
  22233723.917   116838960.504    22233727.240    91043333.068                  
  20611886.773   108316206.275    20611886.398    84402240.894                  
  24045123.393   126357933.794    24045125.859    98460717.065                  
  24573467.016   129134395.523    24573469.821   100624192.825                  
  22959631.568   120653687.653    22959631.085    94015862.601                  
  21264438.601   111745389.304    21264438.869    87074333.972                  
  21302975.615   111947897.403    21302975.543    87232128.480                  
  23815252.082   125150001.349    23815250.635    97519483.715                  
  22870885.976   120187317.948    22870885.119    93652456.351                  
  20431359.144   107367479.249    20431361.181    83662961.457                  
                 136836756.848                   136836756.848    26278056.641  
                 126116600.341                   126116600.341    24219358.839  
                 119942782.807                   119942782.807    23033750.613  
                 114978107.563                   114978107.563    22080335.402  
  25720115.108   135160085.379                                                  
  26732824.044   140481941.161                                                  
  27416195.540   144073071.736                                                  
  23741068.226   124760144.142                                                  
  26799782.757   140833847.716                                                  
  25549729.096   134264704.442                                                  
  24135339.694   126832047.593                                                  
  25024016.901   131502118.813                                                  
 21  8 31  8 19 21.0000000  0 22G 1G 7G 8G 9G13G14G17G19G21G30C20C23
                                C27C28E 1E 4E 5E 9E24E26E31E33
  22233367.019   116837084.989    22233370.342    91041871.630                  
  20612095.787   108317304.609    20612095.394    84403096.742                  
  24045784.868   126361409.768    24045787.316    98463425.617                  
  24574144.824   129137957.325    24574147.611   100626968.257                  
  22959277.386   120651826.388    22959276.885    94014412.269                  
  21264249.993   111744398.214    21264250.261    87073561.696                  
  21302560.839   111945717.750    21302560.767    87230430.054                  
  23814574.185   125146439.008    23814572.738    97516707.867                  
  22870974.339   120187782.257    22870973.481    93652818.153                  
  20431188.816   107366584.154    20431190.853    83662263.980                  
                 136838938.014                   136838938.014    26278475.509  
                 126118383.020                   126118383.020    24219701.192  
                 119940043.436                   119940043.436    23033224.567  
                 114978232.161                   114978232.161    22080359.328  
  25720346.083   135161299.223                                                  
  26733351.323   140484712.058                                                  
  27415987.759   144071979.801                                                  
  23741294.483   124761333.130                                                  
  26799486.167   140832289.134                                                  
  25549848.371   134265331.237                                                  
  24135266.217   126831661.519                                                  
  25023677.639   131500336.056                                                  
 21  8 31  8 19 22.0000000  0 22G 1G 7G 8G 9G13G14G17G19G21G30C20C23
                                C27C28E 1E 4E 5E 9E24E26E31E33
  22233010.228   116835210.003    22233013.534    91040410.606                  
  20612304.909   108318403.452    20612304.498    84403952.989                  
  24046446.344   126364885.852    24046448.792    98466134.258                  
  24574822.596   129141519.067    24574825.401   100629743.645                  
  22958923.293   120649965.686    22958922.793    94012962.379                  
  21264061.439   111743407.321    21264061.707    87072789.574                  
  21302146.152   111943538.570    21302146.081    87228731.996                  
  23813896.324   125142876.863    23813894.876    97513932.175                  
  22871062.808   120188247.130    22871061.933    93653180.391                  
  20431018.578   107365689.511    20431020.597    83661566.860                  
                 136841119.262                   136841119.262    26278894.394  
                 126120165.914                   126120165.914    24220043.580  
                 119937304.385                   119937304.385    23032698.556  
                 114978357.311                   114978357.311    22080383.362  
  25720577.076   135162513.116                                                  
  26733878.620   140487482.996                                                  
  27415780.032   144070888.300                                                  
  23741520.813   124762522.524                                                  
  26799189.577   140830730.545                                                  
  25549967.736   134265958.508                                                  
  24135192.775   126831275.501                                                  
  25023338.467   131498553.651                                                  
 21  8 31  8 19 23.0000000  0 22G 1G 7G 8G 9G13G14G17G19G21G30C20C23
                                C27C28E 1E 4E 5E 9E24E26E31E33
  22232653.527   116833335.516    22232656.832    91038949.969                  
  20612514.083   108319502.793    20612513.708    84404809.621                  
  24047107.819   126368362.023    24047110.303    98468842.969                  
  24575500.368   129145080.733    24575503.155   100632518.972                  
  22958569.326   120648105.542    22958568.843    94011512.918                  
  21263872.903   111742416.605    21263873.153    87072017.594                  
  21301731.555   111941359.848    21301731.484    87227034.292                  
  23813218.498   125139314.898    23813217.069    97511156.624                  
  22871151.367   120188712.574    22871150.492    93653543.082                  
  20430848.411   107364795.317    20430850.448    83660870.090                  
                 136843300.594                   136843300.594    26279313.298  
                 126121949.015                   126121949.015    24220386.004  
                 119934565.651                   119934565.651    23032172.600  
                 114978483.020                   114978483.020    22080407.503  
  25720808.086   135163727.038                                                  
  26734405.917   140490253.990                                                  
  27415572.411   144069797.202                                                  
  23741747.213   124763712.302                                                  
  26798893.005   140829171.989                                                  
  25550087.209   134266586.231                                                  
  24135119.315   126830889.527                                                  
  25022999.367   131496771.625                                                  
 21  8 31  8 19 24.0000000  0 22G 1G 7G 8G 9G13G14G17G19G21G30C20C23
                                C27C28E 1E 4E 5E 9E24E26E31E33
  22232296.914   116831461.542    22232300.220    91037489.734                  
  20612723.383   108320602.648    20612723.008    84405666.655                  
  24047769.349   126371838.305    24047771.797    98471551.761                  
  24576178.104   129148642.353    24576180.892   100635294.267                  
  22958215.465   120646245.956    22958214.965    94010063.894                  
  21263684.421   111741426.082    21263684.689    87071245.763                  
  21301317.065   111939181.598    21301316.976    87225336.962                  
  23812540.726   125135753.117    23812539.279    97508381.215                  
  22871240.033   120189178.582    22871239.175    93653906.207                  
  20430678.334   107363901.578    20430680.389    83660173.675                  
                 136845482.004                   136845482.004    26279732.219  
                 126123732.331                   126123732.331    24220728.482  
                 119931827.234                   119931827.234    23031646.714  
                 114978609.279                   114978609.279    22080431.734  
  25721039.097   135164941.023                                                  
  26734933.214   140493025.025                                                  
  27415364.881   144068706.526                                                  
  23741973.703   124764902.473                                                  
  26798596.397   140827613.431                                                  
  25550206.735   134267214.428                                                  
  24135045.874   126830503.609                                                  
  25022660.320   131494989.972                                                  
 21  8 31  8 19 25.0000000  0 22G 1G 7G 8G 9G13G14G17G19G21G30C20C23
                                C27C28E 1E 4E 5E 9E24E26E31E33
  22231940.427   116829588.081    22231943.715    91036029.899                  
  20612932.772   108321702.995    20612932.379    84406524.074                  
  24048430.860   126375314.655    24048433.344    98474260.614                  
  24576855.858   129152203.907    24576858.646   100638069.504                  
  22957861.694   120644386.933    22957861.194    94008615.310                  
  21263495.956   111740435.743    21263496.224    87070474.071                  
  21300902.647   111937003.818    21300902.558    87223639.992                  
  23811862.972   125132191.518    23811861.525    97505605.950                  
  22871328.842   120189645.168    22871327.985    93654269.786                  
  20430508.364   107363008.297    20430510.383    83659477.614                  
                 136847663.496                   136847663.496    26280151.141  
                 126125515.862                   126125515.862    24221070.978  
                 119929089.137                   119929089.137    23031120.900  
                 114978736.092                   114978736.092    22080456.107  
  25721270.108   135166155.027                                                  
  26735460.547   140495796.101                                                  
  27415157.403   144067616.258                                                  
  23742200.264   124766093.031                                                  
  26798299.825   140826054.863                                                  
  25550326.368   134267843.102                                                  
  24134972.468   126830117.738                                                  
  25022321.345   131493208.677                                                  
 21  8 31  8 19 26.0000000  0 22G 1G 7G 8G 9G13G14G17G19G21G30C20C23
                                C27C28E 1E 4E 5E 9E24E26E31E33
  22231583.994   116827715.128    22231587.300    91034570.460                  
  20613142.269   108322803.851    20613141.876    84407381.888                  
  24049092.425   126378791.117    24049094.873    98476969.548                  
  24577533.577   129155765.406    24577536.382   100640844.703                  
  22957508.049   120642528.465    22957507.548    94007167.157                  
  21263307.545   111739445.599    21263307.795    87069702.536                  
  21300488.318   111934826.524    21300488.229    87221943.407                  
  23811185.253   125128630.116    23811183.824    97502830.836                  
  22871417.741   120190112.339    22871416.883    93654633.821                  
  20430338.465   107362115.464    20430340.484    83658781.907                  
                 136849845.066                   136849845.066    26280570.098  
                 126127299.603                   126127299.603    24221413.527  
                 119926351.359                   119926351.359    23030595.140  
                 114978863.464                   114978863.464    22080480.552  
  25721501.136   135167369.079                                                  
  26735987.880   140498567.218                                                  
  27414950.015   144066526.419                                                  
  23742426.897   124767283.989                                                  
  26798003.235   140824496.304                                                  
  25550446.108   134268472.248                                                  
  24134899.044   126829731.929                                                  
  25021982.459   131491427.754                                                  
 21  8 31  8 19 27.0000000  0 22G 1G 7G 8G 9G13G14G17G19G21G30C20C23
                                C27C28E 1E 4E 5E 9E24E26E31E33
  22231227.686   116825842.686    22231230.974    91033111.419                  
  20613351.837   108323905.211    20613351.462    84408240.093                  
  24049753.972   126382267.646    24049756.437    98479678.531                  
  24578211.295   129159326.841    24578214.101   100643619.851                  
  22957154.492   120640670.563    22957153.992    94005719.446                  
  21263119.152   111738455.633    21263119.420    87068931.137                  
  21300074.078   111932649.689    21300073.971    87220247.176                  
  23810507.589   125125068.890    23810506.141    97500055.860                  
  22871506.746   120190580.066    22871505.889    93654998.284                  
  20430168.638   107361223.087    20430170.657    83658086.550                  
                 136852026.717                   136852026.717    26280989.055  
                 126129083.555                   126129083.555    24221756.112  
                 119923613.899                   119923613.899    23030069.434  
                 114978991.392                   114978991.392    22080505.122  
  25721732.165   135168583.163                                                  
  26736515.194   140501338.376                                                  
  27414742.699   144065436.982                                                  
  23742653.601   124768475.319                                                  
  26797706.663   140822937.742                                                  
  25550565.902   134269101.863                                                  
  24134825.620   126829346.157                                                  
  25021643.626   131489647.187                                                  
 21  8 31  8 19 28.0000000  0 22G 1G 7G 8G 9G13G14G17G19G21G30C20C23
                                C27C28E 1E 4E 5E 9E24E26E31E33
  22230871.467   116823970.755    22230874.755    91031652.768                  
  20613561.512   108325007.073    20613561.137    84409098.689                  
  24050415.554   126385744.292    24050418.020    98482387.609                  
  24578888.996   129162888.222    24578891.801   100646394.954                  
  22956801.061   120638813.215    22956800.560    94004272.160                  
  21262930.812   111737465.864    21262931.063    87068159.891                  
  21299659.928   111930473.323    21299659.839    87218551.309                  
  23809829.942   125121507.861    23809828.476    97497281.027                  
  22871595.859   120191048.360    22871595.001    93655363.191                  
  20429998.918   107360331.164    20430000.937    83657391.546                  
                 136854208.453                   136854208.453    26281408.048  
                 126130867.723                   126130867.723    24222098.732  
                 119920876.755                   119920876.755    23029543.798  
                 114979119.872                   114979119.872    22080529.799  
  25721963.194   135169797.294                                                  
  26737042.563   140504109.581                                                  
  27414535.454   144064347.973                                                  
  23742880.377   124769667.046                                                  
  26797410.073   140821379.227                                                  
  25550685.803   134269731.945                                                  
  24134752.232   126828960.444                                                  
  25021304.865   131487867.004                                                  
 21  8 31  8 19 29.0000000  0 22G 1G 7G 8G 9G13G14G17G19G21G30C20C23
                                C27C28E 1E 4E 5E 9E24E26E31E33
  22230515.337   116822099.316    22230518.643    91030194.507                  
  20613771.294   108326109.445    20613770.901    84409957.676                  
  24051077.155   126389221.042    24051079.639    98485096.766                  
  24579566.696   129166449.539    24579569.502   100649170.003                  
  22956447.719   120636956.426    22956447.218    94002825.313                  
  21262742.509   111736476.280    21262742.759    87067388.786                  
  21299245.867   111928297.429    21299245.778    87216855.805                  
  23809152.348   125117947.016    23809150.883    97494506.343                  
  22871685.079   120191517.226    22871684.221    93655728.543                  
  20429829.287   107359439.699    20429831.306    83656696.898                  
                 136856390.265                   136856390.265    26281827.041  
                 126132652.101                   126132652.101    24222441.425  
                 119918139.929                   119918139.929    23029018.217  
                 114979248.907                   114979248.907    22080554.583  
  25722194.258   135171011.466                                                  
  26737569.896   140506880.824                                                  
  27414328.316   144063259.368                                                  
  23743107.242   124770859.174                                                  
  26797113.501   140819820.683                                                  
  25550805.794   134270362.496                                                  
  24134678.844   126828574.782                                                  
  25020966.176   131486087.187                                                  
 21  8 31  8 19 30.0000000  0 22G 1G 7G 8G 9G13G14G17G19G21G30C20C23
                                C27C28E 1E 4E 5E 9E24E26E31E33
  22230159.315   116820228.417    22230162.620    91028736.664                  
  20613981.166   108327212.320    20613980.773    84410817.058                  
  24051738.773   126392697.876    24051741.239    98487805.985                  
  24580244.397   129170010.801    24580247.184   100651945.015                  
  22956094.484   120635100.187    22956094.001    94001378.894                  
  21262554.223   111735486.884    21262554.473    87066617.828                  
  21298831.895   111926121.999    21298831.824    87215160.667                  
  23808474.755   125114386.347    23808473.308    97491731.800                  
  22871774.406   120191986.656    22871773.549    93656094.333                  
  20429659.728   107358548.686    20429661.747    83656002.602                  
                 136858572.161                   136858572.161    26282246.034  
                 126134436.690                   126134436.690    24222784.135  
                 119915403.425                   119915403.425    23028492.707  
                 114979378.495                   114979378.495    22080579.457  
  25722425.322   135172225.671                                                  
  26738097.264   140509652.120                                                  
  27414121.232   144062171.187                                                  
  23743334.161   124772051.696                                                  
  26796816.928   140818262.156                                                  
  25550925.873   134270993.523                                                  
  24134605.456   126828189.175                                                  
  25020627.558   131484307.747                                                  
 21  8 31  8 19 31.0000000  0 22G 1G 7G 8G 9G13G14G17G19G21G30C20C23
                                C27C28E 1E 4E 5E 9E24E26E31E33
  22229803.399   116818358.012    22229806.705    91027279.207                  
  20614191.127   108328315.693    20614190.734    84411676.827                  
  24052400.427   126396174.822    24052402.893    98490515.294                  
  24580922.062   129173571.992    24580924.867   100654719.968                  
  22955741.356   120633244.516    22955740.856    93999932.918                  
  21262365.973   111734497.676    21262366.241    87065847.016                  
  21298418.013   111923947.051    21298417.942    87213465.902                  
  23807797.215   125110825.867    23807795.786    97488957.402                  
  22871863.841   120192456.661    22871862.983    93656460.566                  
  20429490.240   107357658.128    20429492.277    83655308.661                  
                 136860754.138                   136860754.138    26282665.062  
                 126136221.492                   126136221.492    24223126.880  
                 119912667.238                   119912667.238    23027967.232  
                 114979508.638                   114979508.638    22080604.456  
  25722656.387   135173439.922                                                  
  26738624.633   140512423.466                                                  
  27413914.237   144061083.422                                                  
  23743561.151   124773244.590                                                  
  26796520.338   140816703.624                                                  
  25551046.043   134271625.016                                                  
  24134532.104   126827803.615                                                  
  25020289.011   131482528.673                                                  
 21  8 31  8 19 32.0000000  0 22G 1G 7G 8G 9G13G14G17G19G21G30C20C23
                                C27C28E 1E 4E 5E 9E24E26E31E33
  22229447.574   116816488.122    22229450.879    91025822.148                  
  20614401.195   108329419.574    20614400.802    84412536.996                  
  24053062.082   126399651.858    24053064.565    98493224.671                  
  24581599.727   129177133.132    24581602.514   100657494.883                  
  22955388.336   120631389.413    22955387.853    93998487.383                  
  21262177.776   111733508.667    21262178.044    87065076.360                  
  21298004.220   111921772.569    21298004.149    87211771.501                  
  23807119.711   125107265.583    23807118.282    97486183.153                  
  22871953.382   120192927.226    22871952.525    93656827.247                  
  20429320.860   107356768.025    20429322.897    83654615.071                  
                 136862936.191                   136862936.191    26283084.109  
                 126138006.503                   126138006.503    24223469.680  
                 119909931.371                   119909931.371    23027441.847  
                 114979639.336                   114979639.336    22080629.561  
  25722887.433   135174654.211                                                  
  26739152.001   140515194.841                                                  
  27413707.314   144059996.071                                                  
  23743788.249   124774437.899                                                  
  26796223.766   140815145.118                                                  
  25551166.301   134272256.988                                                  
  24134458.733   126827418.104                                                  
  25019950.536   131480749.954                                                  
 21  8 31  8 19 33.0000000  0 22G 1G 7G 8G 9G13G14G17G19G21G30C20C23
                                C27C28E 1E 4E 5E 9E24E26E31E33
  22229091.837   116814618.741    22229095.143    91024365.487                  
  20614611.335   108330523.956    20614610.960    84413397.554                  
  24053723.754   126403128.960    24053726.220    98495934.103                  
  24582277.374   129180694.215    24582280.179   100660269.753                  
  22955035.440   120629534.856    22955034.940    93997042.270                  
  21261989.615   111732519.840    21261989.865    87064305.843                  
  21297590.516   111919598.553    21297590.445    87210077.465                  
  23806442.261   125103705.483    23806440.796    97483409.052                  
  22872043.031   120193398.378    22872042.174    93657194.376                  
  20429151.587   107355878.367    20429153.606    83653921.832                  
                 136865118.325                   136865118.325    26283503.155  
                 126139791.730                   126139791.730    24223812.515  
                 119907195.823                   119907195.823    23026916.516  
                 114979770.590                   114979770.590    22080654.757  
  25723118.515   135175868.542                                                  
  26739679.387   140517966.257                                                  
  27413500.498   144058909.145                                                  
  23744015.400   124775631.582                                                  
  26795927.176   140813586.603                                                  
  25551286.667   134272889.423                                                  
  24134385.381   126827032.653                                                  
  25019612.115   131478971.616                                                  
 21  8 31  8 19 34.0000000  0 22G 1G 7G 8G 9G13G14G17G19G21G30C20C23
                                C27C28E 1E 4E 5E 9E24E26E31E33
  22228736.208   116812749.876    22228739.496    91022909.231                  
  20614821.600   108331628.841    20614821.224    84414258.503                  
  24054385.444   126406606.167    24054387.927    98498643.612                  
  24582955.021   129184255.230    24582957.826   100663044.570                  
  22954682.634   120627680.860    22954682.134    93995597.602                  
  21261801.472   111731531.204    21261801.740    87063535.477                  
  21297176.902   111917424.999    21297176.813    87208383.786                  
  23805764.828   125100145.563    23805763.381    97480635.085                  
  22872132.805   120193870.090    22872131.948    93657561.946                  
  20428982.367   107354989.177    20428984.404    83653228.956                  
                 136867300.538                   136867300.538    26283922.237  
                 126141577.171                   126141577.171    24224155.386  
                 119904460.593                   119904460.593    23026391.238  
                 114979902.400                   114979902.400    22080680.077  
  25723349.615   135177082.910                                                  
  26740206.774   140520737.715                                                  
  27413293.736   144057822.616                                                  
  23744242.622   124776825.656                                                  
  26795630.622   140812028.091                                                  
  25551407.086   134273522.328                                                  
  24134312.047   126826647.251                                                  
  25019273.783   131477193.628                                                  
 21  8 31  8 19 35.0000000  0 22G 1G 7G 8G 9G13G14G17G19G21G30C20C23
                                C27C28E 1E 4E 5E 9E24E26E31E33
  22228380.686   116810881.527    22228383.974    91021453.375                  
  20615031.954   108332734.235    20615031.561    84415119.852                  
  24055047.151   126410083.473    24055049.617    98501353.200                  
  24583632.632   129187816.191    24583635.437   100665819.343                  
  22954329.936   120625827.415    22954329.435    93994153.355                  
  21261613.383   111730542.749    21261613.633    87062765.258                  
  21296763.377   111915251.908    21296763.306    87206690.466                  
  23805087.432   125096585.837    23805085.984    97477861.273                  
  22872222.687   120194342.378    22872221.829    93657929.960                  
  20428813.237   107354100.438    20428815.274    83652536.435                  
                 136869482.835                   136869482.835    26284341.319  
                 126143362.825                   126143362.825    24224498.292  
                 119901725.683                   119901725.683    23025866.032  
                 114980034.761                   114980034.761    22080705.505  
  25723580.716   135178297.320                                                  
  26740734.178   140523509.219                                                  
  27413087.063   144056736.521                                                  
  23744469.916   124778020.129                                                  
  26795334.032   140810469.596                                                  
  25551527.613   134274155.714                                                  
  24134238.712   126826261.893                                                  
  25018935.522   131475416.030                                                  
 21  8 31  8 19 36.0000000  0 22G 1G 7G 8G 9G13G14G17G19G21G30C20C23
                                C27C28E 1E 4E 5E 9E24E26E31E33
  22228025.235   116809013.683    22228028.541    91019997.914                  
  20615242.397   108333840.182    20615242.022    84415981.629                  
  24055708.877   126413560.850    24055711.343    98504062.844                  
  24584310.261   129191377.086    24584313.066   100668594.066                  
  22953977.344   120623974.523    22953976.844    93992709.547                  
  21261425.312   111729554.483    21261425.580    87061995.180                  
  21296349.942   111913079.286    21296349.852    87204997.516                  
  23804410.088   125093026.289    23804408.623    97475087.601                  
  22872312.657   120194815.238    22872311.799    93658298.423                  
  20428644.196   107353212.151    20428646.233    83651844.261                  
                 136871665.211                   136871665.211    26284760.419  
                 126145148.688                   126145148.688    24224841.252  
                 119898991.089                   119898991.089    23025340.879  
                 114980167.678                   114980167.678    22080731.022  
  25723811.816   135179511.768                                                  
  26741261.582   140526280.765                                                  
  27412880.461   144055650.837                                                  
  23744697.299   124779214.993                                                  
  26795037.460   140808911.082                                                  
  25551648.247   134274789.557                                                  
  24134165.396   126825876.589                                                  
  25018597.315   131473638.790                                                  
 21  8 31  8 19 37.0000000  0 22G 1G 7G 8G 9G13G14G17G19G21G30C20C23
                                C27C28E 1E 4E 5E 9E24E26E31E33
  22227669.874   116807146.347    22227673.180    91018542.847                  
  20615452.948   108334946.528    20615452.537    84416843.714                  
  24056370.621   126417038.339    24056373.087    98506772.573                  
  24584987.854   129194937.942    24584990.660   100671368.761                  
  22953624.860   120622122.199    22953624.359    93991266.175                  
  21261237.294   111728566.413    21261237.562    87061225.253                  
  21295936.595   111910907.137    21295936.524    87203304.935                  
  23803732.763   125089466.932    23803731.298    97472314.079                  
  22872402.753   120195288.673    22872401.895    93658667.331                  
  20428475.262   107352324.316    20428477.281    83651152.446                  
                 136873847.665                   136873847.665    26285179.537  
                 126146934.761                   126146934.761    24225184.266  
                 119896256.816                   119896256.816    23024815.798  
                 114980301.151                   114980301.151    22080756.664  
  25724042.916   135180726.266                                                  
  26741789.004   140529052.351                                                  
  27412673.949   144054565.563                                                  
  23744924.736   124780410.238                                                  
  26794740.905   140807352.614                                                  
  25551768.934   134275423.874                                                  
  24134092.079   126825491.348                                                  
  25018259.198   131471861.926                                                  
 21  8 31  8 19 38.0000000  0 22G 1G 7G 8G 9G13G14G17G19G21G30C20C23
                                C27C28E 1E 4E 5E 9E24E26E31E33
  22227314.638   116805279.527    22227317.943    91017088.180                  
  20615663.588   108336053.425    20615663.177    84417706.231                  
  24057032.382   126420515.922    24057034.866    98509482.382                  
  24585665.465   129198498.713    24585668.253   100674143.386                  
  22953272.483   120620270.445    22953271.982    93989823.250                  
  21261049.312   111727578.531    21261049.562    87060455.477                  
  21295523.339   111908735.466    21295523.267    87201612.724                  
  23803055.456   125085907.781    23803054.026    97469540.714                  
  22872492.955   120195762.669    22872492.098    93659036.680                  
  20428306.400   107351436.933    20428308.419    83650460.976                  
                 136876030.201                   136876030.201    26285598.673  
                 126148721.051                   126148721.051    24225527.298  
                 119893522.862                   119893522.862    23024290.752  
                 114980435.179                   114980435.179    22080782.395  
  25724274.034   135181940.793                                                  
  26742316.426   140531823.982                                                  
  27412467.508   144053480.712                                                  
  23745152.263   124781605.882                                                  
  26794444.315   140805794.125                                                  
  25551889.746   134276058.665                                                  
  24134018.780   126825106.137                                                  
  25017921.134   131470085.435                                                  
 21  8 31  8 19 39.0000000  0 22G 1G 7G 8G 9G13G14G17G19G21G30C20C23
                                C27C28E 1E 4E 5E 9E24E26E31E33
  22226959.509   116803413.218    22226962.797    91015633.913                  
  20615874.300   108337160.833    20615873.924    84418569.145                  
  24057694.161   126423993.595    24057696.645    98512192.253                  
  24586343.041   129202059.447    24586345.846   100676917.981                  
  22952920.195   120618419.245    22952919.712    93988380.759                  
  21260861.365   111726590.831    21260861.615    87059685.841                  
  21295110.189   111906564.271    21295110.099    87199920.883                  
  23802378.220   125082348.800    23802376.754    97466767.480                  
  22872583.266   120196237.243    22872582.408    93659406.476                  
  20428137.627   107350550.019    20428139.664    83649769.870                  
                 136878212.812                   136878212.812    26286017.827  
                 126150507.551                   126150507.551    24225870.383  
                 119890789.231                   119890789.231    23023765.796  
                 114980569.762                   114980569.762    22080808.234  
  25724505.152   135183155.364                                                  
  26742843.866   140534595.659                                                  
  27412261.138   144052396.272                                                  
  23745379.860   124782801.907                                                  
  26794147.761   140804235.645                                                  
  25552010.612   134276693.921                                                  
  24133945.499   126824720.997                                                  
  25017583.159   131468309.298                                                  
 21  8 31  8 19 40.0000000  0 22G 1G 7G 8G 9G13G14G17G19G21G30C20C23
                                C27C28E 1E 4E 5E 9E24E26E31E33
  22226604.433   116801547.431    22226607.739    91014180.056                  
  20616085.136   108338268.734    20616084.743    84419432.446                  
  24058355.958   126427471.371    24058358.442    98514902.211                  
  24587020.616   129205620.097    24587023.422   100679692.516                  
  22952568.032   120616568.606    22952567.532    93986938.702                  
  21260673.437   111725603.324    21260673.705    87058916.355                  
  21294697.093   111904393.548    21294697.021    87198229.411                  
  23801701.002   125078790.012    23801699.536    97463994.399                  
  22872673.683   120196712.380    22872672.825    93659776.715                  
  20427968.943   107349663.555    20427970.962    83649079.121                  
                 136880395.507                   136880395.507    26286436.981  
                 126152294.267                   126152294.267    24226213.504  
                 119888055.914                   119888055.914    23023240.894  
                 114980704.898                   114980704.898    22080834.180  
  25724736.305   135184369.973                                                  
  26743371.306   140537367.372                                                  
  27412054.858   144051312.255                                                  
  23745607.547   124783998.329                                                  
  26793851.189   140802677.163                                                  
  25552131.604   134277329.657                                                  
  24133872.201   126824335.898                                                  
  25017245.238   131466533.540                                                  
 21  8 31  8 19 41.0000000  0 22G 1G 7G 8G 9G13G14G17G19G21G30C20C23
                                C27C28E 1E 4E 5E 9E24E26E31E33
  22226249.501   116799682.140    22226252.807    91012726.582                  
  20616296.062   108339377.152    20616295.651    84420296.148                  
  24059017.773   126430949.241    24059020.239    98517612.238                  
  24587698.174   129209180.699    24587700.979   100682467.011                  
  22952215.977   120614718.524    22952215.476    93985497.078                  
  21260485.562   111724616.003    21260485.812    87058147.016                  
  21294284.122   111902223.297    21294284.032    87196538.304                  
  23801023.819   125075231.421    23801022.354    97461221.473                  
  22872764.207   120197188.095    22872763.332    93660147.402                  
  20427800.331   107348777.542    20427802.368    83648388.724                  
                 136882578.281                   136882578.281    26286856.152  
                 126154081.191                   126154081.191    24226556.661  
                 119885322.917                   119885322.917    23022716.063  
                 114980840.586                   114980840.586    22080860.233  
  25724967.441   135185584.618                                                  
  26743898.746   140540139.129                                                  
  27411848.668   144050228.657                                                  
  23745835.288   124785195.137                                                  
  26793554.617   140801118.707                                                  
  25552252.666   134277965.854                                                  
  24133798.938   126823950.857                                                  
  25016907.406   131464758.158                                                  
 21  8 31  8 19 42.0000000  0 22G 1G 7G 8G 9G13G14G17G19G21G30C20C23
                                C27C28E 1E 4E 5E 9E24E26E31E33
  22225894.640   116797817.369    22225897.946    91011273.511                  
  20616507.077   108340486.059    20616506.684    84421160.230                  
  24059679.624   126434427.176    24059682.072    98520322.316                  
  24588375.714   129212741.238    24588378.519   100685241.457                  
  22951864.046   120612868.997    22951863.546    93984055.886                  
  21260297.723   111723628.875    21260297.973    87057377.821                  
  21293871.222   111900053.513    21293871.133    87194847.565                  
  23800346.673   125071672.997    23800345.225    97458448.675                  
  22872854.839   120197664.376    22872853.981    93660518.530                  
  20427631.826   107347891.984    20427633.845    83647698.681                  
                 136884761.134                   136884761.134    26287275.359  
                 126155868.328                   126155868.328    24226899.853  
                 119882590.243                   119882590.243    23022191.285  
                 114980976.833                   114980976.833    22080886.393  
  25725198.577   135186799.309                                                  
  26744426.204   140542910.927                                                  
  27411642.513   144049145.470                                                  
  23746063.100   124786392.340                                                  
  26793258.062   140799560.239                                                  
  25552373.818   134278602.512                                                  
  24133725.675   126823565.854                                                  
  25016569.628   131462983.127                                                  
 21  8 31  8 19 43.0000000  0 22G 1G 7G 8G 9G13G14G17G19G21G30C20C23
                                C27C28E 1E 4E 5E 9E24E26E31E33
  22225539.886   116795953.105    22225543.174    91009820.840                  
  20616718.200   108341595.480    20616717.807    84422024.716                  
  24060341.457   126437905.225    24060343.923    98523032.485                  
  24589053.253   129216301.719    24589056.059   100688015.855                  
  22951512.187   120611020.030    22951511.687    93982615.137                  
  21260109.901   111722641.929    21260110.151    87056608.774                  
  21293458.412   111897884.207    21293458.341    87193157.200                  
  23799669.562   125068114.770    23799668.114    97455676.031                  
  22872945.578   120198141.227    22872944.720    93660890.102                  
  20427463.375   107347006.884    20427465.412    83647008.988                  
                 136886944.068                   136886944.068    26287694.585  
                 126157655.677                   126157655.677    24227243.099  
                 119879857.888                   119879857.888    23021666.543  
                 114981113.632                   114981113.632    22080912.678  
  25725429.748   135188014.039                                                  
  26744953.662   140545682.762                                                  
  27411436.483   144048062.691                                                  
  23746291.002   124787589.938                                                  
  26792961.508   140798001.782                                                  
  25552495.060   134279239.663                                                  
  24133652.412   126823180.919                                                  
  25016231.921   131461208.482                                                  
 21  8 31  8 19 44.0000000  0 22G 1G 7G 8G 9G13G14G17G19G21G30C20C23
                                C27C28E 1E 4E 5E 9E24E26E31E33
  22225185.222   116794089.354    22225188.528    91008368.567                  
  20616929.394   108342705.397    20616929.019    84422889.586                  
  24061003.326   126441383.339    24061005.792    98525742.703                  
  24589730.775   129219862.120    24589733.581   100690790.196                  
  22951160.436   120609171.633    22951159.935    93981174.828                  
  21259922.134   111721655.168    21259922.384    87055839.867                  
  21293045.691   111895715.374    21293045.620    87191467.200                  
  23798992.504   125064556.731    23798991.039    97452903.530                  
  22873036.424   120198618.647    22873035.566    93661262.120                  
  20427295.049   107346122.230    20427297.086    83646319.649                  
                 136889127.074                   136889127.074    26288113.792  
                 126159443.238                   126159443.238    24227586.381  
                 119877125.851                   119877125.851    23021141.909  
                 114981250.989                   114981250.989    22080939.053  
  25725660.902   135189228.810                                                  
  26745481.137   140548454.648                                                  
  27411230.525   144046980.340                                                  
  23746518.957   124788787.906                                                  
  26792664.918   140796443.332                                                  
  25552616.408   134279877.266                                                  
  24133579.184   126822796.019                                                  
  25015894.286   131459434.191                                                  
 21  8 31  8 19 45.0000000  0 22G 1G 7G 8G 9G13G14G17G19G21G30C20C23
                                C27C28E 1E 4E 5E 9E24E26E31E33
  22224830.665   116792226.117    22224833.953    91006916.694                  
  20617140.713   108343815.828    20617140.320    84423754.855                  
  24061665.212   126444861.570    24061667.678    98528453.011                  
  24590408.297   129223422.472    24590411.103   100693564.496                  
  22950808.827   120607323.790    22950808.327    93979734.950                  
  21259734.402   111720668.600    21259734.634    87055071.118                  
  21292633.078   111893547.016    21292633.006    87189777.570                  
  23798315.465   125060998.874    23798314.000    97450131.179                  
  22873127.377   120199096.637    22873126.520    93661634.577                  
  20427126.776   107345238.040    20427128.813    83645630.667                  
                 136891310.165                   136891310.165    26288533.035  
                 126161231.015                   126161231.015    24227929.698  
                 119874394.136                   119874394.136    23020617.292  
                 114981388.893                   114981388.893    22080965.535  
  25725892.074   135190443.618                                                  
  26746008.613   140551226.566                                                  
  27411024.620   144045898.400                                                  
  23746747.001   124789986.276                                                  
  26792368.364   140794884.882                                                  
  25552737.828   134280515.344                                                  
  24133505.939   126822411.175                                                  
  25015556.722   131457660.282                                                  
 21  8 31  8 19 46.0000000  0 22G 1G 7G 8G 9G13G14G17G19G21G30C20C23
                                C27C28E 1E 4E 5E 9E24E26E31E33
  22224476.197   116790363.397    22224479.503    91005465.226                  
  20617352.121   108344926.766    20617351.728    84424620.521                  
  24062327.116   126448339.886    24062329.582    98531163.392                  
  24591085.801   129226982.773    24591088.607   100696338.755                  
  22950457.272   120605476.505    22950456.771    93978295.505                  
  21259546.705   111719682.227    21259546.938    87054302.513                  
  21292220.536   111891379.134    21292220.464    87188088.309                  
  23797638.461   125057441.207    23797636.996    97447358.973                  
  22873218.456   120199575.198    22873217.598    93662007.485                  
  20426958.629   107344354.307    20426960.648    83644942.047                  
                 136893493.332                   136893493.332    26288952.278  
                 126163019.001                   126163019.001    24228273.052  
                 119871662.738                   119871662.738    23020092.765  
                 114981527.358                   114981527.358    22080992.142  
  25726123.263   135191658.468                                                  
  26746536.107   140553998.517                                                  
  27410818.822   144044816.868                                                  
  23746975.117   124791185.036                                                  
  26792071.792   140793326.440                                                  
  25552859.320   134281153.895                                                  
  24133432.712   126822026.399                                                  
  25015219.212   131455886.745                                                  
 21  8 31  8 19 47.0000000  0 22G 1G 7G 8G 9G13G14G17G19G21G30C20C23
                                C27C28E 1E 4E 5E 9E24E26E31E33
  22224121.819   116788501.176    22224125.124    91004014.145                  
  20617563.619   108346038.203    20617563.226    84425486.573                  
  24062989.039   126451818.293    24062991.505    98533873.836                  
  24591763.305   129230543.011    24591766.075   100699112.968                  
  22950105.860   120603629.780    22950105.359    93976856.501                  
  21259359.027   111718696.032    21259359.277    87053534.052                  
  21291808.101   111889211.706    21291807.993    87186399.407                  
  23796961.493   125053883.731    23796960.046    97444586.914                  
  22873309.623   120200054.341    22873308.766    93662380.840                  
  20426790.535   107343471.032    20426792.554    83644253.776                  
                 136895676.583                   136895676.583    26289371.557  
                 126164807.199                   126164807.199    24228616.476  
                 119868931.660                   119868931.660    23019568.273  
                 114981666.376                   114981666.376    22081018.820  
  25726354.435   135192873.362                                                  
  26747063.600   140556770.526                                                  
  27410613.096   144043735.773                                                  
  23747203.305   124792384.196                                                  
  26791775.237   140791768.010                                                  
  25552980.918   134281792.918                                                  
  24133359.520   126821641.657                                                  
  25014881.791   131454113.569                                                  
 21  8 31  8 19 48.0000000  0 22G 1G 7G 8G 9G13G14G17G19G21G30C20C23
                                C27C28E 1E 4E 5E 9E24E26E31E33
  22223767.565   116786639.476    22223770.853    91002563.468                  
  20617775.206   108347150.145    20617774.813    84426353.024                  
  24063650.979   126455296.794    24063653.445    98536584.352                  
  24592440.773   129234103.186    24592443.561   100701887.129                  
  22949754.555   120601783.613    22949754.054    93975417.929                  
  21259171.402   111717710.034    21259171.652    87052765.741                  
  21291395.737   111887044.757    21291395.666    87184710.875                  
  23796284.561   125050326.440    23796283.096    97441814.999                  
  22873400.916   120200534.044    22873400.059    93662754.633                  
  20426622.548   107342588.207    20426624.567    83643565.862                  
                 136897859.906                   136897859.906    26289790.835  
                 126166595.612                   126166595.612    24228959.919  
                 119866200.902                   119866200.902    23019043.853  
                 114981805.949                   114981805.949    22081045.642  
  25726585.642   135194088.294                                                  
  26747591.094   140559542.570                                                  
  27410407.442   144042655.077                                                  
  23747431.582   124793583.734                                                  
  26791478.683   140790209.578                                                  
  25553102.624   134282432.402                                                  
  24133286.293   126821256.972                                                  
  25014544.442   131452340.769                                                  
 21  8 31  8 19 49.0000000  0 22G 1G 7G 8G 9G13G14G17G19G21G30C20C23
                                C27C28E 1E 4E 5E 9E24E26E31E33
  22223413.383   116784778.288    22223416.671    91001113.195                  
  20617986.901   108348262.591    20617986.525    84427219.863                  
  24064312.919   126458775.407    24064315.403    98539294.957                  
  24593118.242   129237663.285    24593121.011   100704661.230                  
  22949403.339   120599938.007    22949402.839    93973979.796                  
  21258983.795   111716724.226    21258984.063    87051997.577                  
  21290983.481   111884878.280    21290983.374    87183022.711                  
  23795607.665   125046769.340    23795606.217    97439043.230                  
  22873492.298   120201014.319    22873491.441    93663128.878                  
  20426454.633   107341705.835    20426456.652    83642878.300                  
                 136900043.311                   136900043.311    26290210.132  
                 126168384.238                   126168384.238    24229303.397  
                 119863470.469                   119863470.469    23018519.522  
                 114981946.074                   114981946.074    22081072.535  
  25726816.831   135195303.270                                                  
  26748118.623   140562314.656                                                  
  27410201.876   144041574.804                                                  
  23747659.912   124794783.656                                                  
  26791182.129   140788651.145                                                  
  25553224.402   134283072.367                                                  
  24133213.120   126820872.339                                                  
  25014207.164   131450568.345                                                  
 21  8 31  8 19 50.0000000  0 22G 1G 7G 8G 9G13G14G17G19G21G30C20C23
                                C27C28E 1E 4E 5E 9E24E26E31E33
  22223059.326   116782917.613    22223062.596    90999663.316                  
  20618198.684   108349375.537    20618198.309    84428087.093                  
  24064974.895   126462254.099    24064977.361    98542005.628                  
  24593795.674   129241223.329    24593798.480   100707435.289                  
  22949052.248   120598092.960    22949051.748    93972542.093                  
  21258796.242   111715738.595    21258796.492    87051229.551                  
  21290571.296   111882712.267    21290571.207    87181334.911                  
  23794930.822   125043212.442    23794929.357    97436271.622                  
  22873583.806   120201495.161    22873582.948    93663503.560                  
  20426286.807   107340823.913    20426288.844    83642191.091                  
                 136902226.798                   136902226.798    26290629.464  
                 126170173.075                   126170173.075    24229646.947  
                 119860740.351                   119860740.351    23017995.227  
                 114982086.758                   114982086.758    22081099.553  
  25727048.039   135196518.270                                                  
  26748646.135   140565086.770                                                  
  27409996.383   144040494.942                                                  
  23747888.314   124795983.969                                                  
  26790885.556   140787092.739                                                  
  25553346.268   134283712.793                                                  
  24133139.928   126820487.741                                                  
  25013869.940   131448796.278                                                  
 21  8 31  8 19 51.0000000  0 22G 1G 7G 8G 9G13G14G17G19G21G30C20C23
                                C27C28E 1E 4E 5E 9E24E26E31E33
  22222705.341   116781057.448    22222708.647    90998213.840                  
  20618410.575   108350488.984    20618410.182    84428954.714                  
  24065636.906   126465732.878    24065639.354    98544716.368                  
  24594473.143   129244783.314    24594475.912   100710209.306                  
  22948701.265   120596248.478    22948700.765    93971104.836                  
  21258608.725   111714753.157    21258608.975    87050461.680                  
  21290159.201   111880546.744    21290159.111    87179647.488                  
  23794253.979   125039655.712    23794252.532    97433500.146                  
  22873675.420   120201976.578    22873674.562    93663878.692                  
  20426119.088   107339942.458    20426121.108    83641504.242                  
                 136904410.348                   136904410.348    26291048.779  
                 126171962.117                   126171962.117    24229990.497  
                 119858010.558                   119858010.558    23017471.004  
                 114982228.009                   114982228.009    22081126.678  
  25727279.264   135197733.317                                                  
  26749173.664   140567858.941                                                  
  27409790.978   144039415.508                                                  
  23748116.823   124797184.680                                                  
  26790589.020   140785534.321                                                  
  25553468.224   134284353.688                                                  
  24133066.754   126820103.223                                                  
  25013532.805   131447024.579                                                  
 21  8 31  8 19 52.0000000  0 22G 1G 7G 8G 9G13G14G17G19G21G30C20C23
                                C27C28E 1E 4E 5E 9E24E26E31E33
  22222351.463   116779197.800    22222354.769    90996764.761                  
  20618622.537   108351602.933    20618622.162    84429822.726                  
  24066298.900   126469211.758    24066301.366    98547427.179                  
  24595150.557   129248343.228    24595153.363   100712983.263                  
  22948350.353   120594404.547    22948349.853    93969668.007                  
  21258421.243   111713767.908    21258421.475    87049693.952                  
  21289747.195   111878381.684    21289747.123    87177960.431                  
  23793577.208   125036099.181    23793575.742    97430728.825                  
  22873767.142   120202458.564    22873766.284    93664254.261                  
  20425951.423   107339061.457    20425953.460    83640817.746                  
                 136906593.989                   136906593.989    26291468.147  
                 126173751.379                   126173751.379    24230334.118  
                 119855281.083                   119855281.083    23016946.816  
                 114982369.801                   114982369.801    22081153.928  
  25727510.489   135198948.407                                                  
  26749701.193   140570631.150                                                  
  27409585.645   144038336.485                                                  
  23748345.385   124798385.782                                                  
  26790292.466   140783975.911                                                  
  25553590.288   134284995.056                                                  
  24132993.599   126819718.734                                                  
  25013195.742   131445253.255                                                  
 21  8 31  8 19 53.0000000  0 22G 1G 7G 8G 9G13G14G17G19G21G30C20C23
                                C27C28E 1E 4E 5E 9E24E26E31E33
  22221997.674   116777338.672    22222000.980    90995316.094                  
  20618834.625   108352717.392    20618834.232    84430691.136                  
  24066960.947   126472690.737    24066963.395    98550138.074                  
  24595827.972   129251903.075    24595830.777   100715757.172                  
  22947999.584   120592561.179    22947999.084    93968231.617                  
  21258233.779   111712782.843    21258234.047    87048926.372                  
  21289335.296   111876217.097    21289335.224    87176273.737                  
  23792900.454   125032542.841    23792899.007    97427957.649                  
  22873858.953   120202941.128    22873858.095    93664630.289                  
  20425783.866   107338180.914    20425785.885    83640131.609                  
                 136908777.708                   136908777.708    26291887.497  
                 126175540.857                   126175540.857    24230677.758  
                 119852551.927                   119852551.927    23016422.718  
                 114982512.145                   114982512.145    22081181.232  
  25727741.714   135200163.539                                                  
  26750228.740   140573403.399                                                  
  27409380.402   144037257.878                                                  
  23748574.020   124799587.269                                                  
  26789995.894   140782417.499                                                  
  25553712.422   134285636.890                                                  
  24132920.443   126819334.303                                                  
  25012858.714   131443482.297                                                  
 21  8 31  8 19 54.0000000  0 22G 1G 7G 8G 9G13G14G17G19G21G30C20C23
                                C27C28E 1E 4E 5E 9E24E26E31E33
  22221643.993   116775480.060    22221647.281    90993867.820                  
  20619046.802   108353832.356    20619046.408    84431559.942                  
  24067622.977   126476169.784    24067625.443    98552849.019                  
  24596505.387   129255462.875    24596508.174   100718531.039                  
  22947648.905   120590718.372    22947648.404    93966795.661                  
  21258046.386   111711797.968    21258046.619    87048158.937                  
  21288923.486   111874052.974    21288923.397    87174587.409                  
  23792223.736   125028986.677    23792222.289    97425186.614                  
  22873950.907   120203424.258    22873950.031    93665006.750                  
  20425616.379   107337300.821    20425618.416    83639445.824                  
                 136910961.505                   136910961.505    26292306.865  
                 126177330.544                   126177330.544    24231021.468  
                 119849823.091                   119849823.091    23015898.673  
                 114982655.042                   114982655.042    22081208.697  
  25727972.957   135201378.711                                                  
  26750756.287   140576175.684                                                  
  27409175.212   144036179.689                                                  
  23748802.725   124800789.146                                                  
  26789699.339   140780859.110                                                  
  25553834.647   134286279.199                                                  
  24132847.305   126818949.929                                                  
  25012521.794   131441711.716                                                  
 21  8 31  8 19 55.0000000  0 22G 1G 7G 8G 9G13G14G17G19G21G30C20C23
                                C27C28E 1E 4E 5E 9E24E26E31E33
  22221290.400   116773621.946    22221293.706    90992419.942                  
  20619259.068   108354947.825    20619258.675    84432429.134                  
  24068285.042   126479648.942    24068287.508    98555560.050                  
  24597182.783   129259022.598    24597185.589   100721304.848                  
  22947298.332   120588876.122    22947297.832    93965360.144                  
  21257858.994   111710813.288    21257859.244    87047391.651                  
  21288511.766   111871889.331    21288511.659    87172901.452                  
  23791547.054   125025430.706    23791545.607    97422415.726                  
  22874042.932   120203907.949    22874042.075    93665383.657                  
  20425449.000   107336421.184    20425451.019    83638760.391                  
                 136913145.378                   136913145.378    26292726.251  
                 126179120.443                   126179120.443    24231365.179  
                 119847094.574                   119847094.574    23015374.700  
                 114982798.496                   114982798.496    22081236.233  
  25728204.200   135202593.925                                                  
  26751283.835   140578948.016                                                  
  27408970.111   144035101.910                                                  
  23749031.502   124801991.410                                                  
  26789402.803   140779300.710                                                  
  25553956.960   134286921.976                                                  
  24132774.167   126818565.601                                                  
  25012184.945   131439941.513                                                  
 21  8 31  8 19 56.0000000  0 22G 1G 7G 8G 9G13G14G17G19G21G30C20C23
                                C27C28E 1E 4E 5E 9E24E26E31E33
  22220936.915   116771764.352    22220940.221    90990972.469                  
  20619471.423   108356063.796    20619471.048    84433298.726                  
  24068947.125   126483128.183    24068949.573    98558271.144                  
  24597860.162   129262582.266    24597862.968   100724078.617                  
  22946947.885   120587034.439    22946947.385    93963925.066                  
  21257671.637   111709828.786    21257671.905    87046624.507                  
  21288100.118   111869726.159    21288100.028    87171215.868                  
  23790870.426   125021874.921    23790868.961    97419644.988                  
  22874135.101   120204392.218    22874134.243    93665761.007                  
  20425281.692   107335542.000    20425283.712    83638075.312                  
                 136915329.333                   136915329.333    26293145.655  
                 126180910.551                   126180910.551    24231708.961  
                 119844366.378                   119844366.378    23014850.780  
                 114982942.504                   114982942.504    22081263.894  
  25728435.461   135203809.171                                                  
  26751811.400   140581720.374                                                  
  27408765.118   144034024.553                                                  
  23749260.369   124803194.058                                                  
  26789106.249   140777742.321                                                  
  25554079.363   134287565.227                                                  
  24132701.047   126818181.320                                                  
  25011848.132   131438171.659                                                  
 21  8 31  8 19 57.0000000  0 22G 1G 7G 8G 9G13G14G17G19G21G30C20C23
                                C27C28E 1E 4E 5E 9E24E26E31E33
  22220583.520   116769907.266    22220586.825    90989525.382                  
  20619683.886   108357180.268    20619683.493    84434168.702                  
  24069609.208   126486607.520    24069611.674    98560982.316                  
  24598537.541   129266141.878    24598540.329   100726852.341                  
  22946597.527   120585193.316    22946597.027    93962490.427                  
  21257484.334   111708844.484    21257484.602    87045857.519                  
  21287688.558   111867563.461    21287688.487    87169530.649                  
  23790193.797   125018319.323    23790192.332    97416874.395                  
  22874227.359   120204877.054    22874226.501    93666138.806                  
  20425114.474   107334663.283    20425116.493    83637390.597                  
                 136917513.363                   136917513.363    26293565.077  
                 126182700.875                   126182700.875    24232052.761  
                 119841638.504                   119841638.504    23014326.914  
                 114983087.067                   114983087.067    22081291.662  
  25728666.722   135205024.470                                                  
  26752338.983   140584492.794                                                  
  27408560.178   144032947.617                                                  
  23749489.307   124804397.106                                                  
  26788809.694   140776183.941                                                  
  25554201.855   134288208.954                                                  
  24132627.927   126817797.098                                                  
  25011511.426   131436402.192                                                  
 21  8 31  8 19 58.0000000  0 22G 1G 7G 8G 9G13G14G17G19G21G30C20C23
                                C27C28E 1E 4E 5E 9E24E26E31E33
  22220230.231   116768050.702    22220233.519    90988078.715                  
  20619896.438   108358297.257    20619896.045    84435039.083                  
  24070271.327   126490086.931    24070273.775    98563693.547                  
  24599214.902   129269701.417    24599217.672   100729626.008                  
  22946247.276   120583352.762    22946246.776    93961056.227                  
  21257297.067   111707860.364    21257297.317    87045090.676                  
  21287277.124   111865401.240    21287277.017    87167845.801                  
  23789517.240   125014763.919    23789515.775    97414103.950                  
  22874319.741   120205362.464    22874318.866    93666517.043                  
  20424947.345   107333785.005    20424949.382    83636706.227                  
                 136919697.469                   136919697.469    26293984.516  
                 126184491.414                   126184491.414    24232396.615  
                 119838910.954                   119838910.954    23013803.119  
                 114983232.179                   114983232.179    22081319.520  
  25728897.983   135206239.790                                                  
  26752866.565   140587265.238                                                  
  27408355.327   144031871.082                                                  
  23749718.298   124805600.543                                                  
  26788513.140   140774625.561                                                  
  25554324.437   134288853.133                                                  
  24132554.825   126817412.926                                                  
  25011174.773   131434633.087                                                  
 21  8 31  8 19 59.0000000  0 22G 1G 7G 8G 9G13G14G17G19G21G30C20C23
                                C27C28E 1E 4E 5E 9E24E26E31E33
  22219877.032   116766194.652    22219880.338    90986632.442                  
  20620109.079   108359414.745    20620108.704    84435909.851                  
  24070933.445   126493566.441    24070935.911    98566404.852                  
  24599892.245   129273260.909    24599895.033   100732399.638                  
  22945897.133   120581512.755    22945896.632    93959622.457                  
  21257109.835   111706876.435    21257110.085    87044323.974                  
  21286865.743   111863239.487    21286865.654    87166161.321                  
  23788840.701   125011208.697    23788839.236    97411333.640                  
  22874412.214   120205848.453    22874411.338    93666895.735                  
  20424780.305   107332907.200    20424782.343    83636022.219                  
                 136921881.656                   136921881.656    26294403.974  
                 126186282.159                   126186282.159    24232740.522  
                 119836183.720                   119836183.720    23013279.378  
                 114983377.853                   114983377.853    22081347.503  
  25729129.262   135207455.165                                                  
  26753394.148   140590037.734                                                  
  27408150.548   144030794.985                                                  
  23749947.379   124806804.366                                                  
  26788216.603   140773067.190                                                  
  25554447.125   134289497.779                                                  
  24132481.723   126817028.798                                                  
  25010838.192   131432864.360                                                  
 21  8 31  8 20  0.0000000  0 22G 1G 7G 8G 9G13G14G17G19G21G30C20C23
                                C27C28E 1E 4E 5E 9E24E26E31E33
  22219523.940   116764339.112    22219527.246    90985186.570                  
  20620321.846   108360532.735    20620321.435    84436781.016                  
  24071595.600   126497046.043    24071598.066    98569116.230                  
  24600569.589   129276820.316    24600572.358   100735173.199                  
  22945547.097   120579673.307    22945546.596    93958189.122                  
  21256922.639   111705892.690    21256922.872    87043557.422                  
  21286454.452   111861078.210    21286454.381    87164477.206                  
  23788164.198   125007653.656    23788162.733    97408563.483                  
  22874504.793   120206334.994    22874503.935    93667274.860                  
  20424613.337   107332029.841    20424615.374    83635338.562                  
                 136924065.922                   136924065.922    26294823.431  
                 126188073.120                   126188073.120    24233084.465  
                 119833456.808                   119833456.808    23012755.708  
                 114983524.079                   114983524.079    22081375.575  
  25729360.558   135208670.578                                                  
  26753921.731   140592810.265                                                  
  27407945.841   144029719.292                                                  
  23750176.531   124808008.578                                                  
  26787920.031   140771508.825                                                  
  25554569.885   134290142.914                                                  
  24132408.620   126816644.735                                                  
  25010501.701   131431095.997                                                  
 21  8 31  8 20  1.0000000  0 22G 1G 7G 8G 9G13G14G17G19G21G30C20C23
                                C27C28E 1E 4E 5E 9E24E26E31E33
  22219170.938   116762484.106    22219174.243    90983741.108                  
  20620534.684   108361651.229    20620534.273    84437652.570                  
  24072257.754   126500525.738    24072260.220    98571827.680                  
  24601246.896   129280379.675    24601249.701   100737946.726                  
  22945197.185   120577834.432    22945196.685    93956756.230                  
  21256735.479   111704909.139    21256735.712    87042791.018                  
  21286043.286   111858917.403    21286043.179    87162793.460                  
  23787487.748   125004098.816    23787486.283    97405793.480                  
  22874597.498   120206822.118    22874596.640    93667654.437                  
  20424446.476   107331152.943    20424448.513    83634655.265                  
                 136926250.263                   136926250.263    26295242.924  
                 126189864.295                   126189864.295    24233428.444  
                 119830730.220                   119830730.220    23012232.092  
                 114983670.854                   114983670.854    22081403.755  
  25729591.837   135209886.035                                                  
  26754449.332   140595582.835                                                  
  27407741.241   144028644.019                                                  
  23750405.755   124809213.187                                                  
  26787623.495   140769950.466                                                  
  25554692.735   134290788.508                                                  
  24132335.554   126816260.718                                                  
  25010165.263   131429328.012                                                  
 21  8 31  8 20  2.0000000  0 22G 1G 7G 8G 9G13G14G17G19G21G30C20C23
                                C27C28E 1E 4E 5E 9E24E26E31E33
  22218818.042   116760629.585    22218821.348    90982296.027                  
  20620747.629   108362770.222    20620747.218    84438524.508                  
  24072919.945   126504005.513    24072922.393    98574539.191                  
  24601924.203   129283938.962    24601927.009   100740720.196                  
  22944847.363   120575996.109    22944846.863    93955323.770                  
  21256548.337   111703925.773    21256548.605    87042024.757                  
  21285632.173   111856757.059    21285632.084    87161110.073                  
  23786811.299   125000544.160    23786809.833    97403023.618                  
  22874690.291   120207309.808    22874689.434    93668034.456                  
  20424279.705   107330276.485    20424281.724    83633972.313                  
                 136928434.683                   136928434.683    26295662.418  
                 126191655.683                   126191655.683    24233772.440  
                 119828003.949                   119828003.949    23011708.548  
                 114983818.191                   114983818.191    22081432.059  
  25729823.134   135211101.522                                                  
  26754976.969   140598355.443                                                  
  27407536.694   144027569.157                                                  
  23750635.068   124810418.168                                                  
  26787326.958   140768392.106                                                  
  25554815.674   134291434.573                                                  
  24132262.488   126815876.743                                                  
  25009828.878   131427560.385                                                  
 21  8 31  8 20  3.0000000  0 22G 1G 7G 8G 9G13G14G17G19G21G30C20C23
                                C27C28E 1E 4E 5E 9E24E26E31E33
  22218465.236   116758775.589    22218468.542    90980851.357                  
  20620960.663   108363889.735    20620960.252    84439396.860                  
  24073582.135   126507485.387    24073584.601    98577250.786                  
  24602601.493   129287498.195    24602604.298   100743493.625                  
  22944497.649   120574158.355    22944497.148    93953891.754                  
  21256361.248   111702942.592    21256361.498    87041258.644                  
  21285221.168   111854597.199    21285221.078    87159427.066                  
  23786134.902   124996989.689    23786133.455    97400253.898                  
  22874783.228   120207798.071    22874782.335    93668414.921                  
  20424113.005   107329400.505    20424115.042    83633289.731                  
                 136930619.178                   136930619.178    26296081.929  
                 126193447.281                   126193447.281    24234116.508  
                 119825278.000                   119825278.000    23011185.039  
                 114983966.077                   114983966.077    22081460.453  
  25730054.466   135212317.056                                                  
  26755504.587   140601128.097                                                  
  27407332.236   144026494.718                                                  
  23750864.435   124811623.558                                                  
  26787030.404   140766833.750                                                  
  25554938.702   134292081.109                                                  
  24132189.421   126815492.823                                                  
  25009492.601   131425793.134                                                  
 21  8 31  8 20  4.0000000  0 22G 1G 7G 8G 9G13G14G17G19G21G30C20C23
                                C27C28E 1E 4E 5E 9E24E26E31E33
  22218112.520   116756922.118    22218115.826    90979407.089                  
  20621173.787   108365009.747    20621173.394    84440269.590                  
  24074244.361   126510965.347    24074246.827    98579962.443                  
  24603278.800   129291057.370    24603281.588   100746267.012                  
  22944148.041   120572321.152    22944147.541    93952460.167                  
  21256174.195   111701959.602    21256174.446    87040492.675                  
  21284810.234   111852437.809    21284810.162    87157744.426                  
  23785458.560   124993435.414    23785457.095    97397484.336                  
  22874876.236   120208286.895    22874875.361    93668795.820                  
  20423946.394   107328524.977    20423948.413    83632607.499                  
                 136932803.755                   136932803.755    26296501.440  
                 126195239.093                   126195239.093    24234460.594  
                 119822552.371                   119822552.371    23010661.620  
                 114984114.519                   114984114.519    22081488.954  
  25730285.780   135213532.627                                                  
  26756032.206   140603900.784                                                  
  27407127.868   144025420.692                                                  
  23751093.891   124812829.319                                                  
  26786733.868   140765275.411                                                  
  25555061.820   134292728.114                                                  
  24132116.373   126815108.956                                                  
  25009156.360   131424026.253                                                  
 21  8 31  8 20  5.0000000  0 22G 1G 7G 8G 9G13G14G17G19G21G30C20C23
                                C27C28E 1E 4E 5E 9E24E26E31E33
  22217759.928   116755069.149    22217763.216    90977963.219                  
  20621387.000   108366130.257    20621386.625    84441142.719                  
  24074906.587   126514445.406    24074909.053    98582674.175                  
  24603956.054   129294616.481    24603958.860   100749040.340                  
  22943798.541   120570484.522    22943798.041    93951029.032                  
  21255987.178   111700976.799    21255987.428    87039726.860                  
  21284399.425   111850278.894    21284399.336    87156062.157                  
  23784782.235   124989881.331    23784780.788    97394714.923                  
  22874969.352   120208776.305    22874968.494    93669177.181                  
  20423779.872   107327649.901    20423781.892    83631925.624                  
                 136934988.408                   136934988.408    26296920.986  
                 126197031.118                   126197031.118    24234804.734  
                 119819827.065                   119819827.065    23010138.254  
                 114984263.516                   114984263.516    22081517.580  
  25730517.095   135214748.246                                                  
  26756559.842   140606673.530                                                  
  27406923.554   144024347.077                                                  
  23751323.419   124814035.483                                                  
  26786437.313   140763717.063                                                  
  25555185.044   134293375.597                                                  
  24132043.342   126814725.145                                                  
  25008820.226   131422259.750                                                  
 21  8 31  8 20  6.0000000  0 22G 1G 7G 8G 9G13G14G17G19G21G30C20C23
                                C27C28E 1E 4E 5E 9E24E26E31E33
  22217407.426   116753216.699    22217410.696    90976519.754                  
  20621600.339   108367251.287    20621599.945    84442016.246                  
  24075568.849   126517925.536    24075571.297    98585385.962                  
  24604633.344   129298175.526    24604636.131   100751813.625                  
  22943449.148   120568648.441    22943448.648    93949598.316                  
  21255800.179   111699994.188    21255800.447    87038961.188                  
  21283988.688   111848120.452    21283988.598    87154380.254                  
  23784105.946   124986327.435    23784104.499    97391945.653                  
  22875062.592   120209266.279    22875061.735    93669558.976                  
  20423613.440   107326775.294    20423615.477    83631244.113                  
                 136937173.133                   136937173.133    26297340.533  
                 126198823.355                   126198823.355    24235148.927  
                 119817102.082                   119817102.082    23009614.942  
                 114984413.066                   114984413.066    22081546.296  
  25730748.427   135215963.915                                                  
  26757087.479   140609446.284                                                  
  27406719.347   144023273.905                                                  
  23751553.018   124815242.044                                                  
  26786140.777   140762158.704                                                  
  25555308.341   134294023.540                                                  
  24131970.311   126814341.383                                                  
  25008484.127   131420493.620                                                  
 21  8 31  8 20  7.0000000  0 22G 1G 7G 8G 9G13G14G17G19G21G30C20C23
                                C27C28E 1E 4E 5E 9E24E26E31E33
  22217054.995   116751364.757    22217058.301    90975076.684                  
  20621813.766   108368372.809    20621813.355    84442890.160                  
  24076231.075   126521405.785    24076233.541    98588097.863                  
  24605310.580   129301734.508    24605313.385   100754586.855                  
  22943099.844   120566812.899    22943099.362    93948168.015                  
  21255613.233   111699011.761    21255613.483    87038195.661                  
  21283578.040   111845962.470    21283577.968    87152698.699                  
  23783429.693   124982773.736    23783428.246    97389176.530                  
  22875155.940   120209756.816    22875155.083    93669941.215                  
  20423447.098   107325901.140    20423449.117    83630562.958                  
                 136939357.878                   136939357.878    26297760.116  
                 126200615.807                   126200615.807    24235493.138  
                 119814377.401                   119814377.401    23009091.701  
                 114984563.168                   114984563.168    22081575.119  
  25730979.760   135217179.607                                                  
  26757615.115   140612219.130                                                  
  27406515.193   144022201.135                                                  
  23751782.689   124816449.009                                                  
  26785844.240   140760600.350                                                  
  25555431.726   134294671.942                                                  
  24131897.298   126813957.663                                                  
  25008148.118   131418727.851                                                  
 21  8 31  8 20  8.0000000  0 22G 1G 7G 8G 9G13G14G17G19G21G30C20C23
                                C27C28E 1E 4E 5E 9E24E26E31E33
  22216702.672   116749513.349    22216705.977    90973634.027                  
  20622027.265   108369494.825    20622026.872    84443764.460                  
  24076893.354   126524886.106    24076895.820    98590809.801                  
  24605987.816   129305293.427    24605990.621   100757360.039                  
  22942750.684   120564977.956    22942750.183    93946738.192                  
  21255426.323   111698029.525    21255426.573    87037430.282                  
  21283167.481   111843804.929    21283167.374    87151017.500                  
  23782753.476   124979220.198    23782752.028    97386407.546                  
  22875249.395   120210247.948    22875248.538    93670323.918                  
  20423280.844   107325027.437    20423282.863    83629882.148                  
                 136941542.760                   136941542.760    26298179.698  
                 126202408.469                   126202408.469    24235837.402  
                 119811653.063                   119811653.063    23008568.514  
                 114984713.828                   114984713.828    22081604.067  
  25731211.128   135218395.331                                                  
  26758142.788   140614991.960                                                  
  27406311.111   144021128.747                                                  
  23752012.449   124817656.320                                                  
  26785547.704   140759042.085                                                  
  25555555.201   134295320.851                                                  
  24131824.303   126813574.016                                                  
  25007812.163   131416962.460                                                  
 21  8 31  8 20  9.0000000  0 22G 1G 7G 8G 9G13G14G17G19G21G30C20C23
                                C27C28E 1E 4E 5E 9E24E26E31E33
  22216350.455   116747662.425    22216353.761    90972191.750                  
  20622240.872   108370617.351    20622240.478    84444639.156                  
  24077555.652   126528366.511    24077558.118    98593521.808                  
  24606665.034   129308852.270    24606667.839   100760133.164                  
  22942401.595   120563143.571    22942401.094    93945308.796                  
  21255239.449   111697047.479    21255239.699    87036665.052                  
  21282756.994   111841647.907    21282756.922    87149336.703                  
  23782077.312   124975666.874    23782075.865    97383638.718                  
  22875342.975   120210739.633    22875342.100    93670707.047                  
  20423114.662   107324154.204    20423116.699    83629201.702                  
                 136943727.718                   136943727.718    26298599.299  
                 126204201.343                   126204201.343    24236181.703  
                 119808929.040                   119808929.040    23008045.398  
                 114984865.044                   114984865.044    22081633.104  
  25731442.460   135219611.108                                                  
  26758670.442   140617764.847                                                  
  27406107.136   144020056.825                                                  
  23752242.262   124818864.051                                                  
  26785251.168   140757483.758                                                  
  25555678.783   134295970.198                                                  
  24131751.308   126813190.411                                                  
  25007476.297   131415197.431                                                  
 21  8 31  8 20 10.0000000  0 22G 1G 7G 8G 9G13G14G17G19G21G30C20C23
                                C27C28E 1E 4E 5E 9E24E26E31E33
  22215998.346   116745812.035    22216001.634    90970749.886                  
  20622454.585   108371740.385    20622454.192    84445514.250                  
  24078217.985   126531847.011    24078220.433    98596233.883                  
  24607342.252   129312411.052    24607345.057   100762906.238                  
  22942052.648   120561309.735    22942052.148    93943879.835                  
  21255052.593   111696065.613    21255052.861    87035899.956                  
  21282346.614   111839491.348    21282346.542    87147656.271                  
  23781401.166   124972113.727    23781399.719    97380870.034                  
  22875436.645   120211231.875    22875435.787    93671090.614                  
  20422948.588   107323281.402    20422950.607    83628521.601                  
                 136945912.754                   136945912.754    26299018.917  
                 126205994.429                   126205994.429    24236526.057  
                 119806205.339                   119806205.339    23007522.336  
                 114985016.809                   114985016.809    22081662.248  
  25731673.846   135220826.927                                                  
  26759198.096   140620537.777                                                  
  27405903.233   144018985.300                                                  
  23752472.147   124820072.146                                                  
  26784954.613   140755925.445                                                  
  25555802.437   134296620.023                                                  
  24131678.296   126812806.852                                                  
  25007140.502   131413432.777                                                  
 21  8 31  8 20 11.0000000  0 22G 1G 7G 8G 9G13G14G17G19G21G30C20C23
                                C27C28E 1E 4E 5E 9E24E26E31E33
  22215646.327   116743962.161    22215649.614    90969308.426                  
  20622668.388   108372863.921    20622667.995    84446389.730                  
  24078880.318   126535327.627    24078882.784    98598946.054                  
  24608019.452   129315969.778    24608022.258   100765679.273                  
  22941703.773   120559476.464    22941703.273    93942451.317                  
  21254865.808   111695083.943    21254866.040    87035135.019                  
  21281936.341   111837335.268    21281936.252    87145976.208                  
  23780725.056   124968560.776    23780723.608    97378101.503                  
  22875530.421   120211724.710    22875529.564    93671474.641                  
  20422782.584   107322409.082    20422784.604    83627841.871                  
                 136948097.866                   136948097.866    26299438.535  
                 126207787.730                   126207787.730    24236870.446  
                 119803481.966                   119803481.966    23006999.363  
                 114985169.130                   114985169.130    22081691.500  
  25731905.196   135222042.786                                                  
  26759725.787   140623310.755                                                  
  27405699.419   144017914.194                                                  
  23752702.121   124821280.640                                                  
  26784658.077   140754367.133                                                  
  25555926.180   134297270.323                                                  
  24131605.318   126812423.349                                                  
  25006804.761   131411668.504                                                  
 21  8 31  8 20 12.0000000  0 22G 1G 7G 8G 9G13G14G17G19G21G30C20C23
                                C27C28E 1E 4E 5E 9E24E26E31E33
  22215294.396   116742112.805    22215297.702    90967867.371                  
  20622882.280   108373987.973    20622881.905    84447265.613                  
  24079542.687   126538808.344    24079545.135    98601658.296                  
  24608696.653   129319528.442    24608699.458   100768452.259                  
  22941355.024   120557643.749    22941354.523    93941023.227                  
  21254679.023   111694102.458    21254679.273    87034370.228                  
  21281526.140   111835179.660    21281526.068    87144296.512                  
  23780048.999   124965008.004    23780047.534    97375333.110                  
  22875624.323   120212218.087    22875623.447    93671859.089                  
  20422616.653   107321537.207    20422618.708    83627162.488                  
                 136950283.059                   136950283.059    26299858.171  
                 126209581.243                   126209581.243    24237214.854  
                 119800758.905                   119800758.905    23006476.426  
                 114985322.009                   114985322.009    22081720.858  
  25732136.582   135223258.681                                                  
  26760253.477   140626083.765                                                  
  27405495.676   144016843.519                                                  
  23752932.167   124822489.512                                                  
  26784361.558   140752808.821                                                  
  25556050.012   134297921.087                                                  
  24131532.359   126812039.890                                                  
  25006469.091   131409904.590                                                  
 21  8 31  8 20 13.0000000  0 22G 1G 7G 8G 9G13G14G17G19G21G30C20C23
                                C27C28E 1E 4E 5E 9E24E26E31E33
  22214942.573   116740263.970    22214945.879    90966426.719                  
  20623096.280   108375112.515    20623095.886    84448141.879                  
  24080205.056   126542289.140    24080207.522    98604370.604                  
  24609373.835   129323087.048    24609376.640   100771225.196                  
  22941006.381   120555811.605    22941005.881    93939595.583                  
  21254492.291   111693121.161    21254492.542    87033605.583                  
  21281116.028   111833024.519    21281115.938    87142617.183                  
  23779372.960   124961455.423    23779371.495    97372564.862                  
  22875718.296   120212712.055    22875717.439    93672244.001                  
  20422450.846   107320665.793    20422452.883    83626483.460                  
                 136952468.325                   136952468.325    26300277.843  
                 126211374.963                   126211374.963    24237559.315  
                 119798036.175                   119798036.175    23005953.543  
                 114985475.438                   114985475.438    22081750.324  
  25732367.968   135224474.616                                                  
  26760781.185   140628856.815                                                  
  27405292.023   144015773.247                                                  
  23753162.284   124823698.801                                                  
  26784065.022   140751250.523                                                  
  25556173.934   134298572.320                                                  
  24131459.400   126811656.492                                                  
  25006133.493   131408141.051                                                  
 21  8 31  8 20 14.0000000  0 22G 1G 7G 8G 9G13G14G17G19G21G30C20C23
                                C27C28E 1E 4E 5E 9E24E26E31E33
  22214590.857   116738415.649    22214594.163    90964986.468                  
  20623310.368   108376237.562    20623309.975    84449018.544                  
  24080867.461   126545770.038    24080869.927    98607082.995                  
  24610050.999   129326645.577    24610053.805   100773998.078                  
  22940657.846   120553980.019    22940657.346    93938168.371                  
  21254305.596   111692140.046    21254305.846    87032841.075                  
  21280706.005   111830869.860    21280705.916    87140938.227                  
  23778696.957   124957903.035    23778695.492    97369796.770                  
  22875812.412   120213206.586    22875811.555    93672629.347                  
  20422285.093   107319794.820    20422287.148    83625804.786                  
                 136954653.664                   136954653.664    26300697.515  
                 126213168.902                   126213168.902    24237903.848  
                 119795313.762                   119795313.762    23005430.731  
                 114985629.419                   114985629.419    22081779.880  
  25732599.354   135225690.593                                                  
  26761308.875   140631629.899                                                  
  27405088.423   144014703.394                                                  
  23753392.455   124824908.454                                                  
  26783768.485   140749692.231                                                  
  25556297.963   134299224.029                                                  
  24131386.441   126811273.136                                                  
  25005798.002   131406377.890                                                  
 21  8 31  8 20 15.0000000  0 22G 1G 7G 8G 9G13G14G17G19G21G30C20C23
                                C27C28E 1E 4E 5E 9E24E26E31E33
  22214239.248   116736567.824    22214242.518    90963546.605                  
  20623524.564   108377363.120    20623524.153    84449895.597                  
  24081529.865   126549251.019    24081532.313    98609795.445                  
  24610728.164   129330204.051    24610730.951   100776770.915                  
  22940309.400   120552149.003    22940308.900    93936741.605                  
  21254118.918   111691159.124    21254119.186    87032076.723                  
  21280296.072   111828715.663    21280296.000    87139259.638                  
  23778021.008   124954350.824    23778019.543    97367028.813                  
  22875906.636   120213701.694    22875905.760    93673015.153                  
  20422119.465   107318924.316    20422121.484    83625126.469                  
                 136956839.081                   136956839.081    26301117.205  
                 126214963.055                   126214963.055    24238248.380  
                 119792591.672                   119792591.672    23004907.973  
                 114985783.958                   114985783.958    22081809.560  
  25732830.758   135226906.614                                                  
  26761836.583   140634403.023                                                  
  27404884.913   144013633.957                                                  
  23753622.733   124826118.497                                                  
  26783471.967   140748133.942                                                  
  25556422.063   134299876.195                                                  
  24131313.499   126810889.841                                                  
  25005462.547   131404615.082                                                  
 21  8 31  8 20 16.0000000  0 22G 1G 7G 8G 9G13G14G17G19G21G30C20C23
                                C27C28E 1E 4E 5E 9E24E26E31E33
  22213887.693   116734720.621    22213890.999    90962107.278                  
  20623738.832   108378489.147    20623738.439    84450773.007                  
  24082192.288   126552732.070    24082194.736    98612507.953                  
  24611405.293   129333762.419    24611408.098   100779543.657                  
  22939961.079   120550318.535    22939960.579    93935315.261                  
  21253932.294   111690178.370    21253932.562    87031312.487                  
  21279886.246   111826561.878    21279886.157    87137581.329                  
  23777345.076   124950798.847    23777343.611    97364261.058                  
  22876000.966   120214197.370    22876000.109    93673401.394                  
  20421953.873   107318054.272    20421955.928    83624448.520                  
                 136959024.577                   136959024.577    26301536.895  
                 126216757.417                   126216757.417    24238592.984  
                 119789869.902                   119789869.902    23004385.304  
                 114985939.050                   114985939.050    22081839.366  
  25733062.162   135228122.608                                                  
  26762364.309   140637176.206                                                  
  27404681.492   144012564.961                                                  
  23753853.083   124827328.943                                                  
  26783175.413   140746575.583                                                  
  25556546.253   134300528.667                                                  
  24131240.576   126810506.476                                                  
  25005127.163   131402852.746                                                  
 21  8 31  8 20 17.0000000  0 22G 1G 7G 8G 9G13G14G17G19G21G30C20C23
                                C27C28E 1E 4E 5E 9E24E26E31E33
  22213536.281   116732873.846    22213539.569    90960668.231                  
  20623953.224   108379615.714    20623952.813    84451650.847                  
  24082854.728   126556213.212    24082857.176    98615220.526                  
  24612082.439   129337320.763    24612085.227   100782316.386                  
  22939612.865   120548488.645    22939612.365    93933889.376                  
  21253745.706   111689197.824    21253745.956    87030548.426                  
  21279476.491   111824408.633    21279476.402    87135903.473                  
  23776669.181   124947247.023    23776667.715    97361493.407                  
  22876095.386   120214693.617    22876094.529    93673788.073                  
  20421788.406   107317184.684    20421790.443    83623770.914                  
                 136961210.148                   136961210.148    26301956.620  
                 126218551.992                   126218551.992    24238937.606  
                 119787148.458                   119787148.458    23003862.689  
                 114986094.694                   114986094.694    22081869.243  
  25733293.584   135229338.711                                                  
  26762892.017   140639949.415                                                  
  27404478.143   144011496.367                                                  
  23754083.486   124828539.769                                                  
  26782878.876   140745017.311                                                  
  25556670.532   134301181.781                                                  
  24131167.652   126810123.281                                                  
  25004791.851   131401090.704                                                  
 21  8 31  8 20 18.0000000  0 22G 1G 7G 8G 9G13G14G17G19G21G30C20C23
                                C27C28E 1E 4E 5E 9E24E26E31E33
  22213184.940   116731027.591    22213188.246    90959229.591                  
  20624167.688   108380742.774    20624167.295    84452529.078                  
  24083517.187   126559694.448    24083519.635    98617933.185                  
  24612759.532   129340879.031    24612762.338   100785089.067                  
  22939264.741   120546659.301    22939264.259    93932463.911                  
  21253559.153   111688217.466    21253559.403    87029784.508                  
  21279066.844   111822255.857    21279066.737    87134225.985                  
  23775993.321   124943695.387    23775991.873    97358725.898                  
  22876189.913   120215190.437    22876189.056    93674175.208                  
  20421623.028   107316315.547    20421625.047    83623093.665                  
                 136963395.792                   136963395.792    26302376.363  
                 126220346.782                   126220346.782    24239282.282  
                 119784427.336                   119784427.336    23003340.091  
                 114986250.894                   114986250.894    22081899.245  
  25733525.005   135230554.864                                                  
  26763419.760   140642722.680                                                  
  27404274.882   144010428.208                                                  
  23754313.979   124829750.989                                                  
  26782582.358   140743459.011                                                  
  25556794.918   134301835.394                                                  
  24131094.747   126809740.142                                                  
  25004456.628   131399329.017                                                  
 21  8 31  8 20 19.0000000  0 22G 1G 7G 8G 9G13G14G17G19G21G30C20C23
                                C27C28E 1E 4E 5E 9E24E26E31E33
  22212833.707   116729181.835    22212836.994    90957791.339                  
  20624382.260   108381870.348    20624381.866    84453407.707                  
  24084179.663   126563175.769    24084182.129    98620645.898                  
  24613436.661   129344437.247    24613439.449   100787861.698                  
  22938916.742   120544830.535    22938916.242    93931038.898                  
  21253372.636   111687237.292    21253372.886    87029020.739                  
  21278657.268   111820103.547    21278657.179    87132548.863                  
  23775317.514   124940143.938    23775316.067    97355958.536                  
  22876284.583   120215687.823    22876283.726    93674562.782                  
  20421457.721   107315446.874    20421459.741    83622416.777                  
                 136965581.515                   136965581.515    26302796.107  
                 126222141.782                   126222141.782    24239626.975  
                 119781706.531                   119781706.531    23002817.601  
                 114986407.649                   114986407.649    22081929.336  
  25733756.445   135231771.046                                                  
  26763947.504   140645495.957                                                  
  27404071.676   144009360.441                                                  
  23754544.543   124830962.591                                                  
  26782285.821   140741900.739                                                  
  25556919.376   134302489.451                                                  
  24131021.841   126809357.047                                                  
  25004121.459   131397567.720                                                  
 21  8 31  8 20 20.0000000  0 22G 1G 7G 8G 9G13G14G17G19G21G30C20C23
                                C27C28E 1E 4E 5E 9E24E26E31E33
  22212482.562   116727336.595    22212485.868    90956353.492                  
  20624596.920   108382998.426    20624596.545    84454286.726                  
  24084842.139   126566657.169    24084844.605    98623358.675                  
  24614113.736   129347995.391    24614116.542   100790634.276                  
  22938568.832   120543002.327    22938568.367    93929614.320                  
  21253186.137   111686257.310    21253186.405    87028257.114                  
  21278247.782   111817951.722    21278247.692    87130872.117                  
  23774641.726   124936592.687    23774640.278    97353191.324                  
  22876379.343   120216185.784    22876378.485    93674950.806                  
  20421292.504   107314578.656    20421294.524    83621740.243                  
                 136967767.313                   136967767.313    26303215.868  
                 126223936.993                   126223936.993    24239971.740  
                 119778986.055                   119778986.055    23002295.164  
                 114986564.956                   114986564.956    22081959.535  
  25733987.885   135232987.269                                                  
  26764475.248   140648269.280                                                  
  27403868.577   144008293.106                                                  
  23754775.160   124832174.586                                                  
  26781989.303   140740342.488                                                  
  25557043.923   134303143.965                                                  
  24130948.954   126808974.013                                                  
  25003786.361   131395806.778                                                  
 21  8 31  8 20 21.0000000  0 22G 1G 7G 8G 9G13G14G17G19G21G30C20C23
                                C27C28E 1E 4E 5E 9E24E26E31E33
  22212131.543   116725491.875    22212134.813    90954916.047                  
  20624811.688   108384127.009    20624811.295    84455166.142                  
  24085504.633   126570138.660    24085507.117    98626071.527                  
  24614790.811   129351553.466    24614793.617   100793406.804                  
  22938221.065   120541174.688    22938220.565    93928190.188                  
  21252999.692   111685277.524    21252999.960    87027493.644                  
  21277838.402   111815800.372    21277838.295    87129195.738                  
  23773965.973   124933041.625    23773964.525    97350424.266                  
  22876474.192   120216684.321    22876473.334    93675339.273                  
  20421127.359   107313710.898    20421129.396    83621064.066                  
                 136969953.186                   136969953.186    26303635.647  
                 126225732.417                   126225732.417    24240316.523  
                 119776265.899                   119776265.899    23001772.799  
                 114986722.819                   114986722.819    22081989.859  
  25734219.324   135234203.542                                                  
  26765002.974   140651042.648                                                  
  27403665.549   144007226.184                                                  
  23755005.885   124833386.976                                                  
  26781692.784   140738784.232                                                  
  25557168.560   134303798.969                                                  
  24130876.084   126808591.024                                                  
  25003451.335   131394046.223                                                  
 21  8 31  8 20 22.0000000  0 22G 1G 7G 8G 9G13G14G17G19G21G30C20C23
                                C27C28E 1E 4E 5E 9E24E26E31E33
  22211780.578   116723647.676    22211783.884    90953479.008                  
  20625026.545   108385256.091    20625026.152    84456045.946                  
  24086167.181   126573620.251    24086169.647    98628784.453                  
  24615467.904   129355111.476    24615470.674   100796179.282                  
  22937873.388   120539347.607    22937872.887    93926766.488                  
  21252813.282   111684297.917    21252813.532    87026730.317                  
  21277429.094   111813649.492    21277429.005    87127519.727                  
  23773290.274   124929490.758    23773288.826    97347657.356                  
  22876569.183   120217183.420    22876568.326    93675728.184                  
  20420962.321   107312843.593    20420964.358    83620388.246                  
                 136972139.136                   136972139.136    26304055.426  
                 126227528.059                   126227528.059    24240661.359  
                 119773546.062                   119773546.062    23001250.488  
                 114986881.235                   114986881.235    22082020.272  
  25734450.782   135235419.851                                                  
  26765530.753   140653816.054                                                  
  27403462.592   144006159.668                                                  
  23755236.664   124834599.749                                                  
  26781396.248   140737225.987                                                  
  25557293.303   134304454.434                                                  
  24130803.196   126808208.090                                                  
  25003116.380   131392286.032                                                  
 21  8 31  8 20 23.0000000  0 22G 1G 7G 8G 9G13G14G17G19G21G30C20C23
                                C27C28E 1E 4E 5E 9E24E26E31E33
  22211429.737   116721803.992    22211433.043    90952042.370                  
  20625241.492   108386385.686    20625241.098    84456926.152                  
  24086829.728   126577101.930    24086832.176    98631497.450                  
  24616144.944   129358669.430    24616147.731   100798951.716                  
  22937525.799   120537521.088    22937525.299    93925343.228                  
  21252626.908   111683318.495    21252627.159    87025967.133                  
  21277019.876   111811499.087    21277019.804    87125844.087                  
  23772614.592   124925940.078    23772613.145    97344890.593                  
  22876664.264   120217683.090    22876663.407    93676117.539                  
  20420797.372   107311976.754    20420799.409    83619712.784                  
                 136974325.161                   136974325.161    26304475.223  
                 126229323.905                   126229323.905    24241006.232  
                 119770826.551                   119770826.551    23000728.212  
                 114987040.208                   114987040.208    22082050.828  
  25734682.239   135236636.200                                                  
  26766058.515   140656589.504                                                  
  27403259.725   144005093.574                                                  
  23755467.513   124835812.911                                                  
  26781099.711   140735667.745                                                  
  25557418.118   134305110.371                                                  
  24130730.344   126807825.206                                                  
  25002781.497   131390526.220                                                  
 21  8 31  8 20 24.0000000  0 22G 1G 7G 8G 9G13G14G17G19G21G30C20C23
                                C27C28E 1E 4E 5E 9E24E26E31E33
  22211079.004   116719960.824    22211082.292    90950606.140                  
  20625456.545   108387515.777    20625456.152    84457806.743                  
  24087492.276   126580583.692    24087494.742    98634210.513                  
  24616822.001   129362227.314    24616824.789   100801724.086                  
  22937178.336   120535695.128    22937177.836    93923920.403                  
  21252440.552   111682339.269    21252440.820    87025204.098                  
  21276610.765   111809349.149    21276610.675    87124168.813                  
  23771938.964   124922389.578    23771937.499    97342123.974                  
  22876759.453   120218183.328    22876758.595    93676507.333                  
  20420632.494   107311110.364    20420634.531    83619037.675                  
                 136976511.261                   136976511.261    26304895.038  
                 126231119.971                   126231119.971    24241351.157  
                 119768107.363                   119768107.363    23000206.025  
                 114987199.732                   114987199.732    22082081.455  
  25734913.714   135237852.591                                                  
  26766586.294   140659362.983                                                  
  27403056.948   144004027.914                                                  
  23755698.435   124837026.452                                                  
  26780803.193   140734109.503                                                  
  25557543.023   134305766.778                                                  
  24130657.492   126807442.375                                                  
  25002446.685   131388766.766                                                  
 21  8 31  8 20 25.0000000  0 22G 1G 7G 8G 9G13G14G17G19G21G30C20C23
                                C27C28E 1E 4E 5E 9E24E26E31E33
  22210728.360   116718118.172    22210731.666    90949170.305                  
  20625671.706   108388646.385    20625671.295    84458687.734                  
  24088154.841   126584065.538    24088157.307    98636923.637                  
  24617499.023   129365785.133    24617501.828   100804496.415                  
  22936830.980   120533869.731    22936830.480    93922498.012                  
  21252254.268   111681360.226    21252254.518    87024441.207                  
  21276201.743   111807199.692    21276201.635    87122493.913                  
  23771263.355   124918839.282    23771261.907    97339357.503                  
  22876854.766   120218684.130    22876853.908    93676897.566                  
  20420467.724   107310244.434    20420469.761    83618362.925                  
                 136978697.437                   136978697.437    26305314.889  
                 126232916.250                   126232916.250    24241696.101  
                 119765388.495                   119765388.495    22999683.893  
                 114987359.807                   114987359.807    22082112.208  
  25735145.208   135239069.022                                                  
  26767114.074   140662136.501                                                  
  27402854.224   144002962.657                                                  
  23755929.446   124838240.387                                                  
  26780506.674   140732551.278                                                  
  25557668.017   134306423.648                                                  
  24130584.658   126807059.597                                                  
  25002111.944   131387007.696                                                  
 21  8 31  8 20 26.0000000  0 22G 1G 7G 8G 9G13G14G17G19G21G30C20C23
                                C27C28E 1E 4E 5E 9E24E26E31E33
  22210377.824   116716276.043    22210381.094    90947734.880                  
  20625886.939   108389777.480    20625886.545    84459569.106                  
  24088817.443   126587547.475    24088819.909    98639636.835                  
  24618176.044   129369342.890    24618178.832   100807268.696                  
  22936483.714   120532044.897    22936483.213    93921076.065                  
  21252068.001   111680381.379    21252068.233    87023678.469                  
  21275792.792   111805050.707    21275792.703    87120819.380                  
  23770587.798   124915289.172    23770586.333    97336591.188                  
  22876950.169   120219185.504    22876949.293    93677288.249                  
  20420303.043   107309378.969    20420305.062    83617688.534                  
                 136980883.686                   136980883.686    26305734.721  
                 126234712.738                   126234712.738    24242041.098  
                 119762669.952                   119762669.952    22999161.831  
                 114987520.441                   114987520.441    22082143.032  
  25735376.683   135240285.489                                                  
  26767641.853   140664910.065                                                  
  27402651.589   144001897.816                                                  
  23756160.528   124839454.714                                                  
  26780210.155   140730993.042                                                  
  25557793.100   134307080.985                                                  
  24130511.824   126806676.868                                                  
  25001777.258   131385248.996                                                  
 21  8 31  8 20 27.0000000  0 22G 1G 7G 8G 9G13G14G17G19G21G30C20C23
                                C27C28E 1E 4E 5E 9E24E26E31E33
  22210027.359   116714434.427    22210030.664    90946299.854                  
  20626102.278   108390909.086    20626101.885    84460450.879                  
  24089480.044   126591029.492    24089482.492    98642350.093                  
  24618853.048   129372900.572    24618855.835   100810040.910                  
  22936136.572   120530220.624    22936136.072    93919654.552                  
  21251881.752   111679402.711    21251882.020    87022915.870                  
  21275383.967   111802902.207    21275383.860    87119145.224                  
  23769912.278   124911739.249    23769910.812    97333825.017                  
  22877045.679   120219687.450    22877044.821    93677679.376                  
  20420138.416   107308513.961    20420140.453    83617014.504                  
                 136983070.016                   136983070.016    26306154.572  
                 126236509.439                   126236509.439    24242386.131  
                 119759951.730                   119759951.730    22998639.823  
                 114987681.625                   114987681.625    22082173.999  
  25735608.176   135241502.009                                                  
  26768169.668   140667683.659                                                  
  27402449.043   144000833.392                                                  
  23756391.681   124840669.418                                                  
  26779913.637   140729434.815                                                  
  25557918.272   134307738.806                                                  
  24130439.007   126806294.193                                                  
  25001442.660   131383490.663                                                  
 21  8 31  8 20 28.0000000  0 22G 1G 7G 8G 9G13G14G17G19G21G30C20C23
                                C27C28E 1E 4E 5E 9E24E26E31E33
  22209677.019   116712593.325    22209680.324    90944865.232                  
  20626317.707   108392041.202    20626317.314    84461333.043                  
  24090142.663   126594511.585    24090145.129    98645063.414                  
  24619530.034   129376458.194    24619532.839   100812813.086                  
  22935789.538   120528396.914    22935789.037    93918233.481                  
  21251695.557   111678424.234    21251695.825    87022153.418                  
  21274975.195   111800754.167    21274975.106    87117471.427                  
  23769236.775   124908189.521    23769235.328    97331058.992                  
  22877141.296   120220189.968    22877140.438    93678070.949                  
  20419973.896   107307649.402    20419975.933    83616340.820                  
                 136985256.413                   136985256.413    26306574.458  
                 126238306.355                   126238306.355    24242731.218  
                 119757233.833                   119757233.833    22998117.887  
                 114987843.367                   114987843.367    22082205.055  
  25735839.687   135242718.546                                                  
  26768697.483   140670457.293                                                  
  27402246.552   143999769.384                                                  
  23756622.907   124841884.517                                                  
  26779617.118   140727876.591                                                  
  25558043.552   134308397.082                                                  
  24130366.173   126805911.567                                                  
  25001108.134   131381732.699                                                  
 21  8 31  8 20 29.0000000  0 22G 1G 7G 8G 9G13G14G17G19G21G30C20C23
                                C27C28E 1E 4E 5E 9E24E26E31E33
  22209326.768   116710752.748    22209330.056    90943431.016                  
  20626533.243   108393173.808    20626532.832    84462215.593                  
  24090805.300   126597993.777    24090807.766    98647776.808                  
  24620207.019   129380015.749    24620209.825   100815585.207                  
  22935442.593   120526573.765    22935442.093    93916812.843                  
  21251509.398   111677445.939    21251509.648    87021391.110                  
  21274566.513   111798606.603    21274566.441    87115798.000                  
  23768561.326   124904639.977    23768559.861    97328293.113                  
  22877237.038   120220693.056    22877236.180    93678462.965                  
  20419809.483   107306785.304    20419811.502    83615667.501                  
                 136987442.892                   136987442.892    26306994.344  
                 126240103.480                   126240103.480    24243076.340  
                 119754516.258                   119754516.258    22997596.004  
                 114988005.661                   114988005.661    22082236.219  
  25736071.180   135243935.130                                                  
  26769225.281   140673230.963                                                  
  27402044.167   143998705.790                                                  
  23756854.203   124843100.001                                                  
  26779320.600   140726318.372                                                  
  25558168.903   134309055.828                                                  
  24130293.375   126805528.979                                                  
  25000773.680   131379975.097                                                  
 21  8 31  8 20 30.0000000  0 22G 1G 7G 8G 9G13G14G17G19G21G30C20C23
                                C27C28E 1E 4E 5E 9E24E26E31E33
  22208976.624   116708912.684    22208979.894    90941997.200                  
  20626748.869   108394306.925    20626748.476    84463098.543                  
  24091467.955   126601476.052    24091470.421    98650490.269                  
  24620884.005   129383573.257    24620886.775   100818357.289                  
  22935095.773   120524751.179    22935095.273    93915392.649                  
  21251323.274   111676467.837    21251323.524    87020628.958                  
  21274157.937   111796459.511    21274157.866    87114124.946                  
  23767885.895   124901090.617    23767884.447    97325527.379                  
  22877332.888   120221196.716    22877332.012    93678855.425                  
  20419645.123   107305921.660    20419647.161    83614994.532                  
                 136989629.440                   136989629.440    26307414.266  
                 126241900.820                   126241900.820    24243421.498  
                 119751799.004                   119751799.004    22997074.175  
                 114988168.508                   114988168.508    22082267.508  
  25736302.691   135245151.767                                                  
  26769753.096   140676004.663                                                  
  27401841.854   143997642.622                                                  
  23757085.571   124844315.866                                                  
  26779024.081   140724760.159                                                  
  25558294.362   134309715.046                                                  
  24130220.594   126805146.462                                                  
  25000439.297   131378217.887                                                  
 21  8 31  8 20 31.0000000  0 22G 1G 7G 8G 9G13G14G17G19G21G30C20C23
                                C27C28E 1E 4E 5E 9E24E26E31E33
  22208626.552   116707073.134    22208629.858    90940563.784                  
  20626964.584   108395440.564    20626964.208    84463981.894                  
  24092130.645   126604958.429    24092133.093    98653203.808                  
  24621560.937   129387130.675    24621563.743   100821129.304                  
  22934749.060   120522929.159    22934748.560    93913972.895                  
  21251137.186   111675489.926    21251137.436    87019866.945                  
  21273749.452   111794312.894    21273749.362    87112452.253                  
  23767210.517   124897541.461    23767209.052    97322761.805                  
  22877428.844   120221700.954    22877427.987    93679248.340                  
  20419480.871   107305058.480    20419482.909    83614321.922                  
                 136991816.067                   136991816.067    26307834.153  
                 126243698.375                   126243698.375    24243766.692  
                 119749082.078                   119749082.078    22996552.418  
                 114988331.907                   114988331.907    22082298.886  
  25736534.220   135246368.436                                                  
  26770280.911   140678778.418                                                  
  27401639.612   143996579.868                                                  
  23757317.029   124845532.130                                                  
  26778727.563   140723201.953                                                  
  25558419.874   134310374.733                                                  
  24130147.796   126804763.983                                                  
  25000104.985   131376461.039                                                  
 21  8 31  8 20 32.0000000  0 22G 1G 7G 8G 9G13G14G17G19G21G30C20C23
                                C27C28E 1E 4E 5E 9E24E26E31E33
  22208276.605   116705234.112    22208279.893    90939130.780                  
  20627180.406   108396574.684    20627180.012    84464865.624                  
  24092793.318   126608440.880    24092795.784    98655917.406                  
  24622237.887   129390688.027    24622240.675   100823901.270                  
  22934402.437   120521107.706    22934401.937    93912553.579                  
  21250951.116   111674512.195    21250951.384    87019105.083                  
  21273341.055   111792166.753    21273340.984    87110779.938                  
  23766535.175   124893992.492    23766533.728    97319996.374                  
  22877524.908   120222205.749    22877524.033    93679641.692                  
  20419316.709   107304195.758    20419318.728    83613649.671                  
                 136994002.769                   136994002.769    26308254.093  
                 126245496.140                   126245496.140    24244111.939  
                 119746365.472                   119746365.472    22996030.714  
                 114988495.862                   114988495.862    22082330.353  
  25736765.767   135247585.141                                                  
  26770808.762   140681552.199                                                  
  27401437.460   143995517.530                                                  
  23757548.540   124846748.770                                                  
  26778431.044   140721643.749                                                  
  25558545.493   134311034.887                                                  
  24130075.033   126804381.563                                                  
  24999770.727   131374704.575                                                  
 21  8 31  8 20 33.0000000  0 22G 1G 7G 8G 9G13G14G17G19G21G30C20C23
                                C27C28E 1E 4E 5E 9E24E26E31E33
  22207926.748   116703395.592    22207930.036    90937698.168                  
  20627396.317   108397709.321    20627395.924    84465749.759                  
  24093456.027   126611923.422    24093458.493    98658631.075                  
  24622914.820   129394245.327    24622917.625   100826673.187                  
  22934055.939   120519286.816    22934055.438    93911134.704                  
  21250765.099   111673534.659    21250765.367    87018343.363                  
  21272932.766   111790021.090    21272932.659    87109107.993                  
  23765859.851   124890443.725    23765858.404    97317231.102                  
  22877621.061   120222711.129    22877620.204    93680035.492                  
  20419152.617   107303333.503    20419154.637    83612977.786                  
                 136996189.542                   136996189.542    26308674.033  
                 126247294.117                   126247294.117    24244457.240  
                 119743649.189                   119743649.189    22995509.099  
                 114988660.372                   114988660.372    22082361.963  
  25736997.296   135248801.898                                                  
  26771336.595   140684326.028                                                  
  27401235.379   143994455.617                                                  
  23757780.140   124847965.803                                                  
  26778134.525   140720085.551                                                  
  25558671.219   134311695.517                                                  
  24130002.288   126803999.193                                                  
  24999436.559   131372948.472                                                  
 21  8 31  8 20 34.0000000  0 22G 1G 7G 8G 9G13G14G17G19G21G30C20C23
                                C27C28E 1E 4E 5E 9E24E26E31E33
  22207576.980   116701557.589    22207580.285    90936265.962                  
  20627612.318   108398844.456    20627611.943    84466634.282                  
  24094118.735   126615406.052    24094121.219    98661344.812                  
  24623591.734   129397802.550    24623594.539   100829445.052                  
  22933709.548   120517466.499    22933709.047    93909716.274                  
  21250579.118   111672557.309    21250579.386    87017581.793                  
  21272524.548   111787875.885    21272524.441    87107436.406                  
  23765184.599   124886895.141    23765183.134    97314465.973                  
  22877717.340   120223217.063    22877716.482    93680429.722                  
  20418988.616   107302471.700    20418990.653    83612306.251                  
                 136998376.395                   136998376.395    26309094.026  
                 126249092.309                   126249092.309    24244802.559  
                 119740933.231                   119740933.231    22994987.520  
                 114988825.435                   114988825.435    22082393.645  
  25737228.843   135250018.691                                                  
  26771864.464   140687099.874                                                  
  27401033.388   143993394.110                                                  
  23758011.794   124849183.215                                                  
  26777838.007   140718527.353                                                  
  25558797.017   134312356.610                                                  
  24129929.526   126803616.864                                                  
  24999102.444   131371192.739                                                  
 21  8 31  8 20 35.0000000  0 22G 1G 7G 8G 9G13G14G17G19G21G30C20C23
                                C27C28E 1E 4E 5E 9E24E26E31E33
  22207227.318   116699720.122    22207230.624    90934834.165                  
  20627828.444   108399980.108    20627828.033    84467519.204                  
  24094781.497   126618888.781    24094783.963    98664058.625                  
  24624268.648   129401359.718    24624271.436   100832216.871                  
  22933363.264   120515646.736    22933362.764    93908298.273                  
  21250393.173   111671580.141    21250393.423    87016820.363                  
  21272116.402   111785731.173    21272116.312    87105765.200                  
  23764509.364   124883346.759    23764507.899    97311701.000                  
  22877813.725   120223723.575    22877812.867    93680824.411                  
  20418824.721   107301610.351    20418826.740    83611635.066                  
                 137000563.316                   137000563.316    26309513.984  
                 126250890.716                   126250890.716    24245147.914  
                 119738217.594                   119738217.594    22994465.995  
                 114988991.050                   114988991.050    22082425.452  
  25737460.408   135251235.527                                                  
  26772392.297   140689873.773                                                  
  27400831.468   143992333.019                                                  
  23758243.538   124850401.032                                                  
  26777541.506   140716969.161                                                  
  25558922.922   134313018.172                                                  
  24129856.781   126803234.593                                                  
  24998768.418   131369437.387                                                  
 21  8 31  8 20 36.0000000  0 22G 1G 7G 8G 9G13G14G17G19G21G30C20C23
                                C27C28E 1E 4E 5E 9E24E26E31E33
  22206877.765   116697883.158    22206881.053    90933402.766                  
  20628044.641   108401116.265    20628044.248    84468404.519                  
  24095444.241   126622371.599    24095446.725    98666772.511                  
  24624945.545   129404916.815    24624948.332   100834988.633                  
  22933017.052   120513827.513    22933016.551    93906880.699                  
  21250207.264   111670603.169    21250207.514    87016059.087                  
  21271708.380   111783586.925    21271708.273    87104094.359                  
  23763834.165   124879798.556    23763832.700    97308936.167                  
  22877910.218   120224230.651    22877909.360    93681219.535                  
  20418660.898   107300749.469    20418662.917    83610964.251                  
                 137002750.318                   137002750.318    26309933.977  
                 126252689.327                   126252689.327    24245493.322  
                 119735502.281                   119735502.281    22993944.559  
                 114989157.223                   114989157.223    22082457.366  
  25737691.954   135252452.396                                                  
  26772920.166   140692647.710                                                  
  27400629.637   143991272.363                                                  
  23758475.352   124851619.224                                                  
  26777244.988   140715410.980                                                  
  25559048.899   134313680.204                                                  
  24129784.036   126802852.375                                                  
  24998434.464   131367682.396                                                  
 21  8 31  8 20 37.0000000  0 22G 1G 7G 8G 9G13G14G17G19G21G30C20C23
                                C27C28E 1E 4E 5E 9E24E26E31E33
  22206528.300   116696046.715    22206531.606    90931971.774                  
  20628260.945   108402252.909    20628260.534    84469290.220                  
  24096107.021   126625854.507    24096109.505    98669486.464                  
  24625622.423   129408473.845    24625625.229   100837760.344                  
  22932671.000   120512008.874    22932670.500    93905463.577                  
  21250021.373   111669626.379    21250021.641    87015297.949                  
  21271300.413   111781443.146    21271300.341    87102423.880                  
  23763159.002   124876250.550    23763157.537    97306171.489                  
  22878006.818   120224738.308    22878005.960    93681615.114                  
  20418497.164   107299889.039    20418499.183    83610293.786                  
                 137004937.389                   137004937.389    26310353.989  
                 126254488.159                   126254488.159    24245838.784  
                 119732787.292                   119732787.292    22993423.177  
                 114989323.946                   114989323.946    22082489.387  
  25737923.537   135253669.312                                                  
  26773448.035   140695421.685                                                  
  27400427.878   143990212.103                                                  
  23758707.239   124852837.809                                                  
  26776948.451   140713852.797                                                  
  25559174.965   134314342.706                                                  
  24129711.327   126802470.198                                                  
  24998100.563   131365927.781                                                  
 21  8 31  8 20 38.0000000  0 22G 1G 7G 8G 9G13G14G17G19G21G30C20C23
                                C27C28E 1E 4E 5E 9E24E26E31E33
  22206178.943   116694210.792    22206182.213    90930541.183                  
  20628477.321   108403390.069    20628476.946    84470176.316                  
  24096769.819   126629337.507    24096772.285    98672200.492                  
  24626299.284   129412030.807    24626302.072   100840532.003                  
  22932325.020   120510190.801    22932324.520    93904046.900                  
  21249835.535   111668649.777    21249835.803    87014536.965                  
  21270892.552   111779299.842    21270892.481    87100753.773                  
  23762483.857   124872702.731    23762482.392    97303406.953                  
  22878103.543   120225246.525    22878102.685    93682011.125                  
  20418333.519   107299029.069    20418335.539    83609623.680                  
                 137007124.534                   137007124.534    26310774.000  
                 126256287.203                   126256287.203    24246184.263  
                 119730072.629                   119730072.629    22992901.866  
                 114989491.221                   114989491.221    22082521.498  
  25738155.119   135254886.266                                                  
  26773975.921   140698195.681                                                  
  27400226.209   143989152.268                                                  
  23758939.197   124854056.776                                                  
  26776651.968   140712294.623                                                  
  25559301.120   134315005.671                                                  
  24129638.600   126802088.089                                                  
  24997766.734   131364173.547                                                  
 21  8 31  8 20 39.0000000  0 22G 1G 7G 8G 9G13G14G17G19G21G30C20C23
                                C27C28E 1E 4E 5E 9E24E26E31E33
  22205829.657   116692375.383    22205832.963    90929110.996                  
  20628693.823   108404527.723    20628693.412    84471062.797                  
  24097432.617   126632820.589    24097435.101    98674914.581                  
  24626976.145   129415587.699    24626978.932   100843303.605                  
  22931979.165   120508373.280    22931978.665    93902630.652                  
  21249649.733   111667673.366    21249649.983    87013776.121                  
  21270484.799   111777157.020    21270484.727    87099084.044                  
  23761808.783   124869155.100    23761807.318    97300642.567                  
  22878200.357   120225755.308    22878199.499    93682407.582                  
  20418169.964   107298169.558    20418171.983    83608953.933                  
                 137009311.757                   137009311.757    26311194.047  
                 126258086.456                   126258086.456    24246529.779  
                 119727358.285                   119727358.285    22992380.608  
                 114989659.055                   114989659.055    22082553.734  
  25738386.702   135256103.261                                                  
  26774503.808   140700969.715                                                  
  27400024.592   143988092.865                                                  
  23759171.244   124855276.133                                                  
  26776355.432   140710736.454                                                  
  25559427.383   134315669.112                                                  
  24129565.891   126801706.024                                                  
  24997432.994   131362419.680                                                  
 21  8 31  8 20 40.0000000  0 22G 1G 7G 8G 9G13G14G17G19G21G30C20C23
                                C27C28E 1E 4E 5E 9E24E26E31E33
  22205480.496   116690540.496    22205483.802    90927681.211                  
  20628910.395   108405665.890    20628910.020    84471949.681                  
  24098095.468   126636303.761    24098097.916    98677628.742                  
  24627652.988   129419144.533    24627655.775   100846075.163                  
  22931633.400   120506556.343    22931632.917    93901214.857                  
  21249463.966   111666697.145    21249464.216    87013015.429                  
  21270077.117   111775014.662    21270077.046    87097414.671                  
  23761133.727   124865607.660    23761132.262    97297878.328                  
  22878297.279   120226264.676    22878296.421    93682804.489                  
  20418006.480   107297310.501    20418008.500    83608284.535                  
                 137011499.049                   137011499.049    26311614.077  
                 126259885.925                   126259885.925    24246875.366  
                 119724644.270                   119724644.270    22991859.405  
                 114989827.441                   114989827.441    22082586.077  
  25738618.302   135257320.297                                                  
  26775031.677   140703743.804                                                  
  27399823.083   143987033.866                                                  
  23759403.362   124856495.872                                                  
  26776058.931   140709178.288                                                  
  25559553.699   134316333.019                                                  
  24129493.200   126801324.009                                                  
  24997099.326   131360666.188                                                  
 21  8 31  8 20 41.0000000  0 22G 1G 7G 8G 9G13G14G17G19G21G30C20C23
                                C27C28E 1E 4E 5E 9E24E26E31E33
  22205131.443   116688706.140    22205134.713    90926251.843                  
  20629127.075   108406804.570    20629126.700    84472836.964                  
  24098758.302   126639787.019    24098760.768    98680342.969                  
  24628329.795   129422701.289    24628332.600   100848846.664                  
  22931287.759   120504739.957    22931287.259    93899799.489                  
  21249278.236   111665721.110    21249278.486    87012254.882                  
  21269669.543   111772872.778    21269669.435    87095745.676                  
  23760458.707   124862060.423    23760457.242    97295114.247                  
  22878394.325   120226774.598    22878393.468    93683201.831                  
  20417843.104   107296451.913    20417845.123    83607615.509                  
                 137013686.421                   137013686.421    26312034.142  
                 126261685.606                   126261685.606    24247220.953  
                 119721930.574                   119721930.574    22991338.255  
                 114989996.380                   114989996.380    22082618.527  
  25738849.903   135258537.374                                                  
  26775559.581   140706517.941                                                  
  27399621.646   143985975.282                                                  
  23759635.535   124857716.013                                                  
  26775762.448   140707620.134                                                  
  25559680.140   134316997.396                                                  
  24129420.527   126800942.046                                                  
  24996765.694   131358913.067                                                  
 21  8 31  8 20 42.0000000  0 22G 1G 7G 8G 9G13G14G17G19G21G30C20C23
                                C27C28E 1E 4E 5E 9E24E26E31E33
  22204782.461   116686872.288    22204785.767    90924822.870                  
  20629343.862   108407943.738    20629343.487    84473724.629                  
  24099421.153   126643270.368    24099423.619    98683057.262                  
  24629006.620   129426257.988    24629009.425   100851618.118                  
  22930942.226   120502924.141    22930941.725    93898384.567                  
  21249092.541   111664745.259    21249092.773    87011494.481                  
  21269262.040   111770731.376    21269261.968    87094077.046                  
  23759783.722   124858513.358    23759782.257    97292350.301                  
  22878491.461   120227285.086    22878490.604    93683599.614                  
  20417679.799   107295593.778    20417681.818    83606946.827                  
                 137015873.864                   137015873.864    26312454.224  
                 126263485.499                   126263485.499    24247566.629  
                 119719217.208                   119719217.208    22990817.176  
                 114990165.874                   114990165.874    22082651.066  
  25739081.503   135259754.492                                                  
  26776087.504   140709292.086                                                  
  27399420.280   143984917.134                                                  
  23759867.796   124858936.523                                                  
  26775465.912   140706061.969                                                  
  25559806.653   134317662.251                                                  
  24129347.835   126800560.145                                                  
  24996432.168   131357160.330                                                  
 21  8 31  8 20 43.0000000  0 22G 1G 7G 8G 9G13G14G17G19G21G30C20C23
                                C27C28E 1E 4E 5E 9E24E26E31E33
  22204433.604   116685038.960    22204436.874    90923394.305                  
  20629560.738   108409083.419    20629560.345    84474612.692                  
  24100084.040   126646753.831    24100086.506    98685771.649                  
  24629683.445   129429814.624    24629686.214   100854389.520                  
  22930596.782   120501108.883    22930596.299    93896970.078                  
  21248906.882   111663769.593    21248907.114    87010734.222                  
  21268854.644   111768590.441    21268854.536    87092408.790                  
  23759108.774   124854966.496    23759107.326    97289586.515                  
  22878588.723   120227796.161    22878587.865    93683997.855                  
  20417516.583   107294736.100    20417518.620    83606278.511                  
                 137018061.378                   137018061.378    26312874.307  
                 126265285.605                   126265285.605    24247912.305  
                 119716504.161                   119716504.161    22990296.187  
                 114990335.917                   114990335.917    22082683.713  
  25739313.122   135260971.645                                                  
  26776615.408   140712066.278                                                  
  27399219.003   143983859.386                                                  
  23760100.111   124860157.433                                                  
  26775169.411   140704503.812                                                  
  25559933.255   134318327.570                                                  
  24129275.180   126800178.280                                                  
  24996098.696   131355407.950                                                  
 21  8 31  8 20 44.0000000  0 22G 1G 7G 8G 9G13G14G17G19G21G30C20C23
                                C27C28E 1E 4E 5E 9E24E26E31E33
  22204084.819   116683206.147    22204088.124    90921966.137                  
  20629777.704   108410223.605    20629777.329    84475501.149                  
  24100746.945   126650237.388    24100749.393    98688486.107                  
  24630360.216   129433371.187    24630363.022   100857160.866                  
  22930251.463   120499294.196    22930250.963    93895556.039                  
  21248721.240   111662794.120    21248721.508    87009974.114                  
  21268447.319   111766449.978    21268447.212    87090740.894                  
  23758433.861   124851419.837    23758432.395    97286822.884                  
  22878686.073   120228307.806    22878685.215    93684396.539                  
  20417353.457   107293878.883    20417355.494    83605610.548                  
                 137020248.967                   137020248.967    26313294.426  
                 126267085.922                   126267085.922    24248258.035  
                 119713791.437                   119713791.437    22989775.216  
                 114990506.519                   114990506.519    22082716.485  
  25739544.740   135262188.843                                                  
  26777143.313   140714840.512                                                  
  27399017.780   143982802.057                                                  
  23760332.516   124861378.727                                                  
  26774872.928   140702945.672                                                  
  25560059.964   134318993.355                                                  
  24129202.525   126799796.464                                                  
  24995765.296   131353655.947                                                  
 21  8 31  8 20 45.0000000  0 22G 1G 7G 8G 9G13G14G17G19G21G30C20C23
                                C27C28E 1E 4E 5E 9E24E26E31E33
  22203736.140   116681373.857    22203739.446    90920538.378                  
  20629994.777   108411364.292    20629994.384    84476389.996                  
  24101409.832   126653720.989    24101412.298    98691200.601                  
  24631037.005   129436927.683    24631039.793   100859932.164                  
  22929906.233   120497480.070    22929905.769    93894142.434                  
  21248535.653   111661818.833    21248535.903    87009214.150                  
  21268040.084   111764309.984    21268039.995    87089073.367                  
  23757759.001   124847873.362    23757757.536    97284059.399                  
  22878783.548   120228820.017    22878782.673    93684795.664                  
  20417190.420   107293022.124    20417192.457    83604942.941                  
                 137022436.632                   137022436.632    26313714.527  
                 126268886.458                   126268886.458    24248603.818  
                 119711079.038                   119711079.038    22989254.334  
                 114990677.671                   114990677.671    22082749.364  
  25739776.376   135263406.087                                                  
  26777671.235   140717614.780                                                  
  27398816.664   143981745.151                                                  
  23760564.992   124862600.405                                                  
  26774576.392   140701387.530                                                  
  25560186.745   134319659.610                                                  
  24129129.887   126799414.707                                                  
  24995431.985   131351904.322                                                  
 21  8 31  8 20 46.0000000  0 22G 1G 7G 8G 9G13G14G17G19G21G30C20C23
                                C27C28E 1E 4E 5E 9E24E26E31E33
  22203387.551   116679542.083    22203390.857    90919111.024                  
  20630211.939   108412505.484    20630211.546    84477279.235                  
  24102072.773   126657204.713    24102075.239    98693915.196                  
  24631713.759   129440484.114    24631716.564   100862703.407                  
  22929561.147   120495666.505    22929560.647    93892729.266                  
  21248350.101   111660843.731    21248350.369    87008454.332                  
  21267632.956   111762170.472    21267632.867    87087406.214                  
  23757084.160   124844327.078    23757082.694    97281296.059                  
  22878881.113   120229332.794    22878880.256    93685195.231                  
  20417027.472   107292165.820    20417029.492    83604275.691                  
                 137024624.367                   137024624.367    26314134.663  
                 126270687.200                   126270687.200    24248949.620  
                 119708366.965                   119708366.965    22988733.505  
                 114990849.377                   114990849.377    22082782.314  
  25740008.012   135264623.370                                                  
  26778199.176   140720389.087                                                  
  27398615.620   143980688.664                                                  
  23760797.557   124863822.468                                                  
  26774279.891   140699829.388                                                  
  25560313.597   134320326.331                                                  
  24129057.232   126799033.000                                                  
  24995098.746   131350153.069                                                  
 21  8 31  8 20 47.0000000  0 22G 1G 7G 8G 9G13G14G17G19G21G30C20C23
                                C27C28E 1E 4E 5E 9E24E26E31E33
  22203039.105   116677710.835    22203042.375    90917684.078                  
  20630429.208   108413647.190    20630428.797    84478168.876                  
  24102735.714   126660688.485    24102738.180    98696629.816                  
  24632390.512   129444040.472    24632393.318   100865474.597                  
  22929216.132   120493853.509    22929215.631    93891316.542                  
  21248164.584   111659868.816    21248164.835    87007694.656                  
  21267225.900   111760031.432    21267225.829    87085739.432                  
  23756409.354   124840780.974    23756407.907    97278532.860                  
  22878978.821   120229846.141    22878977.946    93685595.241                  
  20416864.614   107291309.976    20416866.633    83603608.800                  
                 137026812.180                   137026812.180    26314554.800  
                 126272488.155                   126272488.155    24249295.475  
                 119705655.218                   119705655.218    22988212.748  
                 114991021.640                   114991021.640    22082815.408  
  25740239.684   135265840.691                                                  
  26778727.116   140723163.438                                                  
  27398414.665   143979632.598                                                  
  23761030.176   124865044.927                                                  
  26773983.408   140698271.257                                                  
  25560440.574   134320993.519                                                  
  24128984.612   126798651.354                                                  
  24994765.542   131348402.187                                                  
 21  8 31  8 20 48.0000000  0 22G 1G 7G 8G 9G13G14G17G19G21G30C20C23
                                C27C28E 1E 4E 5E 9E24E26E31E33
  22202690.713   116675880.097    22202694.001    90916257.526                  
  20630646.531   108414789.398    20630646.156    84479058.905                  
  24103398.655   126664172.335    24103401.139    98699344.507                  
  24633067.266   129447596.765    24633070.053   100868245.734                  
  22928871.242   120492041.079    22928870.741    93889904.257                  
  21247979.104   111658894.098    21247979.336    87006935.133                  
  21266818.969   111757892.871    21266818.862    87084073.023                  
  23755734.602   124837235.086    23755733.136    97275769.831                  
  22879076.600   120230360.059    22879075.743    93685995.700                  
  20416701.845   107290454.602    20416703.882    83602942.275                  
                 137029000.063                   137029000.063    26314974.954  
                 126274289.328                   126274289.328    24249641.383  
                 119702943.794                   119702943.794    22987692.045  
                 114991194.457                   114991194.457    22082848.608  
  25740471.338   135267058.061                                                  
  26779255.074   140725937.815                                                  
  27398213.781   143978576.950                                                  
  23761262.884   124866267.759                                                  
  26773686.908   140696713.133                                                  
  25560567.623   134321661.182                                                  
  24128911.992   126798269.753                                                  
  24994432.446   131346651.682                                                  
 21  8 31  8 20 49.0000000  0 22G 1G 7G 8G 9G13G14G17G19G21G30C20C23
                                C27C28E 1E 4E 5E 9E24E26E31E33
  22202342.446   116674049.879    22202345.734    90914831.382                  
  20630863.997   108415932.113    20630863.622    84479949.335                  
  24104061.631   126667656.283    24104064.097    98702059.269                  
  24633743.984   129451152.988    24633746.771   100871016.817                  
  22928526.459   120490229.215    22928525.959    93888492.417                  
  21247793.659   111657919.567    21247793.892    87006175.761                  
  21266412.073   111755754.782    21266412.002    87082406.978                  
  23755059.885   124833689.380    23755058.402    97273006.946                  
  22879174.523   120230874.547    22879173.647    93686396.597                  
  20416539.166   107289599.683    20416541.185    83602276.106                  
                 137031188.019                   137031188.019    26315395.144  
                 126276090.709                   126276090.709    24249987.328  
                 119700232.692                   119700232.692    22987171.395  
                 114991367.824                   114991367.824    22082881.880  
  25740702.992   135268275.470                                                  
  26779783.014   140728712.231                                                  
  27398012.987   143977521.714                                                  
  23761495.664   124867491.004                                                  
  26773390.407   140695155.017                                                  
  25560694.761   134322329.312                                                  
  24128839.408   126797888.207                                                  
  24994099.403   131344901.542                                                  
 21  8 31  8 20 50.0000000  0 22G 1G 7G 8G 9G13G14G17G19G21G30C20C23
                                C27C28E 1E 4E 5E 9E24E26E31E33
  22201994.268   116672220.177    22201997.538    90913405.640                  
  20631081.535   108417075.316    20631081.160    84480840.140                  
  24104724.643   126671140.312    24104727.092    98704774.097                  
  24634420.701   129454709.141    24634423.507   100873787.843                  
  22928181.783   120488417.910    22928181.283    93887081.013                  
  21247608.232   111656945.216    21247608.483    87005416.528                  
  21266005.321   111753617.165    21266005.214    87080741.305                  
  23754385.187   124830143.871    23754383.721    97270244.211                  
  22879272.516   120231389.616    22879271.659    93686797.950                  
  20416376.558   107288745.219    20416378.595    83601610.290                  
                 137033376.047                   137033376.047    26315815.334  
                 126277892.310                   126277892.310    24250333.308  
                 119697521.917                   119697521.917    22986650.817  
                 114991541.747                   114991541.747    22082915.278  
  25740934.664   135269492.911                                                  
  26780310.972   140731486.684                                                  
  27397812.246   143976466.894                                                  
  23761728.497   124868714.604                                                  
  26773093.906   140693596.889                                                  
  25560822.006   134322997.917                                                  
  24128766.806   126797506.711                                                  
  24993766.432   131343151.789                                                  
 21  8 31  8 20 51.0000000  0 22G 1G 7G 8G 9G13G14G17G19G21G30C20C23
                                C27C28E 1E 4E 5E 9E24E26E31E33
  22201646.179   116670391.000    22201649.467    90911980.308                  
  20631299.180   108418219.035    20631298.804    84481731.352                  
  24105387.638   126674624.421    24105390.104    98707488.992                  
  24635097.401   129458265.234    24635100.207   100876558.825                  
  22927837.197   120486607.167    22927836.697    93885670.042                  
  21247422.859   111655971.050    21247423.127    87004657.437                  
  21265598.622   111751480.024    21265598.532    87079076.000                  
  23753710.542   124826598.561    23753709.059    97267481.632                  
  22879370.635   120231905.243    22879369.777    93687199.734                  
  20416214.039   107287891.212    20416216.076    83600944.827                  
                 137035564.174                   137035564.174    26316235.542  
                 126279694.128                   126279694.128    24250679.323  
                 119694811.472                   119694811.472    22986130.328  
                 114991716.216                   114991716.216    22082948.800  
  25741166.336   135270710.399                                                  
  26780838.966   140734261.173                                                  
  27397611.595   143975412.500                                                  
  23761961.420   124869938.607                                                  
  26772797.406   140692038.782                                                  
  25560949.323   134323666.980                                                  
  24128694.204   126797125.262                                                  
  24993433.532   131341402.403                                                  
