     2.11           OBSERVATION DATA    M (MIXED)           RINEX VERSION / TYPE
CONVBIN 2.4.3                           20210901 190546 UTC PGM / RUN BY / DATE 
log: logs/21_09_01_06_11_31_idpo_SW.rtcm                    COMMENT             
format: RTCM 3, station ID: 4007                            COMMENT             
4007                                                        MARKER NAME         
                                                            MARKER NUMBER       
                                                            OBSERVER / AGENCY   
                    SWFT                                    REC # / TYPE / VERS 
                    NULL                                    ANT # / TYPE        
 -1812304.5688 -4390074.7104  4242907.3971                  APPROX POSITION XYZ 
        0.0000        0.0000        0.0000                  ANTENNA: DELTA H/E/N
     1     1                                                WAVELENGTH FACT L1/2
     5    C1    L1    P2    L2    C2                        # / TYPES OF OBSERV 
  2021     9     1     6    11   36.0000000     GPS         TIME OF FIRST OBS   
  2021     9     1     6    41   34.0000000     GPS         TIME OF LAST OBS    
                                                            END OF HEADER       
 21  9  1  6 11 36.0000000  0  9G 4G 7G 8G 9G14G20G27G30E21
  23269974.808   122284533.779    23269976.363    95286648.730                  
  20636538.842   108445759.570    20636538.038    84503193.055                  
  21499775.545   112982042.663    21499777.886    88037945.434                  
  20981548.523   110258751.657    20981550.399    85915902.813                  
  23577715.854   123901730.203    23577716.873    96546804.137                  
  23805173.453   125097027.125    23805173.024    97478202.874                  
  22448961.248   117970062.813    22448962.767    91924719.063                  
  22103712.819   116155758.185    22103714.802    90510971.367                  
  26153783.805   137439031.788                                                  
 21  9  1  6 11 37.0000000  0  9G 4G 7G 8G 9G14G20G27G30E21
  23270637.892   122288018.339    23270639.464    95289363.972                  
  20636405.861   108445060.775    20636405.056    84502648.539                  
  21499660.683   112981439.161    21499663.042    88037475.169                  
  20981942.856   110260823.950    20981944.733    85917517.587                  
  23577103.036   123898509.793    23577104.037    96544294.726                  
  23805308.418   125097736.387    23805308.007    97478755.544                  
  22449218.776   117971416.216    22449220.295    91925773.665                  
  22103290.056   116153536.593    22103292.039    90509240.257                  
  26153375.069   137436883.751                                                  
 21  9  1  6 11 38.0000000  0  9G 4G 7G 8G 9G14G20G27G30E21
  23271301.047   122291503.143    23271302.602    95292079.407                  
  20636272.933   108444362.235    20636272.147    84502104.223                  
  21499545.982   112980836.334    21499548.323    88037005.438                  
  20982337.297   110262896.753    20982339.174    85919132.758                  
  23576490.236   123895289.597    23576491.254    96541785.485                  
  23805443.508   125098446.206    23805443.061    97479308.648                  
  22449476.466   117972770.290    22449477.984    91926828.788                  
  22102867.346   116151315.151    22102869.312    90507509.261                  
  26152966.315   137434735.902                                                  
 21  9  1  6 11 39.0000000  0  9G 4G 7G 8G 9G14G20G27G30E21
  23271964.220   122294988.191    23271965.775    95294795.024                  
  20636140.059   108443663.957    20636139.255    84501560.110                  
  21499431.388   112980234.183    21499433.746    88036536.227                  
  20982731.863   110264970.105    20982733.722    85920748.355                  
  23575877.507   123892069.629    23575878.526    96539276.417                  
  23805578.687   125099156.581    23805578.240    97479862.188                  
  22449734.262   117974125.055    22449735.781    91927884.444                  
  22102444.637   116149093.870    22102446.620    90505778.395                  
  26152557.632   137432588.247                                                  
 21  9  1  6 11 40.0000000  0  9G 4G 7G 8G 9G14G20G27G30E21
  23272627.447   122298473.468    23272629.001    95297510.828                  
  20636007.238   108442965.945    20636006.434    84501016.202                  
  21499316.937   112979632.724    21499319.277    88036067.555                  
  20983126.501   110267043.980    20983128.377    85922364.364                  
  23575264.814   123888849.882    23575265.815    96536767.523                  
  23805713.955   125099867.515    23805713.544    97480416.163                  
  22449992.183   117975480.488    22449993.702    91928940.628                  
  22102021.981   116146872.766    22102023.964    90504047.664                  
  26152149.004   137430440.770                                                  
 21  9  1  6 11 41.0000000  0  9G 4G 7G 8G 9G14G20G27G30E21
  23273290.727   122301959.000    23273292.282    95300226.825                  
  20635874.454   108442268.192    20635873.667    84500472.501                  
  21499202.628   112979031.954    21499204.951    88035599.425                  
  20983521.245   110269118.397    20983523.121    85923980.788                  
  23574652.157   123885630.352    23574653.175    96534258.796                  
  23805849.367   125100579.019    23805848.920    97480970.582                  
  22450250.248   117976836.608    22450251.767    91929997.348                  
  22101599.342   116144651.823    22101601.326    90502317.059                  
  26151740.375   137428293.488                                                  
 21  9  1  6 11 42.0000000  0 14G 4G 7G 8G 9G14G20G27G30C23C24C25C32
                                C34E21
  23273954.043   122305444.767    23273955.598    95302943.004                  
  20635741.723   108441570.694    20635740.918    84499928.996                  
  21499088.427   112978431.859    21499090.786    88035131.821                  
  20983916.097   110271193.351    20983917.973    85925597.636                  
  23574039.535   123882411.039    23574040.554    96531750.247                  
  23805984.867   125101291.069    23805984.421    97481525.426                  
  22450508.437   117978193.398    22450509.956    91931054.586                  
  22101176.740   116142431.056    22101178.723    90500586.589                  
                 120164443.599                   120164443.599    23076308.747  
                 134472440.544                   134472440.544    25824012.594  
                 115458684.277                   115458684.277    22172622.186  
                 124559416.829                   124559416.829    23920329.389  
                 127752106.899                   127752106.899    24533449.285  
  26151331.800   137426146.399                                                  
 21  9  1  6 11 43.0000000  0 14G 4G 7G 8G 9G14G20G27G30C23C24C25C32
                                C34E21
  23274617.395   122308930.777    23274618.967    95305659.376                  
  20635609.063   108440873.461    20635608.241    84499385.699                  
  21498974.352   112977832.460    21498976.692    88034664.757                  
  20984311.038   110273268.828    20984312.914    85927214.890                  
  23573426.967   123879191.940    23573427.986    96529241.856                  
  23806120.458   125102003.682    23806120.047    97482080.707                  
  22450766.752   117979550.867    22450768.289    91932112.355                  
  22100754.173   116140210.438    22100756.157    90498856.238                  
                 120162899.429                   120162899.429    23076012.193  
                 134474975.327                   134474975.327    25824499.382  
                 115459480.585                   115459480.585    22172775.092  
                 124558969.931                   124558969.931    23920243.564  
                 127750189.965                   127750189.965    24533081.166  
  26150923.260   137423999.492                                                  
 21  9  1  6 11 44.0000000  0 14G 4G 7G 8G 9G14G20G27G30C23C24C25C32
                                C34E21
  23275280.818   122312417.028    23275282.373    95308375.933                  
  20635476.421   108440176.485    20635475.617    84498842.597                  
  21498860.419   112977233.765    21498862.777    88034198.241                  
  20984706.104   110275344.845    20984707.981    85928832.566                  
  23572814.435   123875973.070    23572815.453    96526733.644                  
  23806256.173   125102716.856    23806255.744    97482636.427                  
  22451025.192   117980909.012    22451026.728    91933170.650                  
  22100331.642   116137989.997    22100333.626    90497126.024                  
                 120161355.464                   120161355.464    23075715.692  
                 134477510.136                   134477510.136    25824986.152  
                 115460277.108                   115460277.108    22172928.068  
                 124558523.594                   124558523.594    23920157.846  
                 127748273.421                   127748273.421    24532713.100  
  26150514.756   137421852.779                                                  
 21  9  1  6 11 45.0000000  0 14G 4G 7G 8G 9G14G20G27G30C23C24C25C32
                                C34E21
  23275944.277   122315903.516    23275945.831    95311092.680                  
  20635343.833   108439479.777    20635343.047    84498299.712                  
  21498746.647   112976635.768    21498748.988    88033732.270                  
  20985101.260   110277421.384    20985103.118    85930450.648                  
  23572201.938   123872754.418    23572202.957    96524225.600                  
  23806391.995   125103430.587    23806391.566    97483192.583                  
  22451283.774   117982267.829    22451285.293    91934229.466                  
  22099909.147   116135769.726    22099911.113    90495395.944                  
                 120159811.696                   120159811.696    23075419.245  
                 134480044.969                   134480044.969    25825472.940  
                 115461073.861                   115461073.861    22173081.081  
                 124558077.830                   124558077.830    23920072.236  
                 127746357.269                   127746357.269    24532345.141  
  26150106.288   137419706.250                                                  
 21  9  1  6 11 46.0000000  0 14G 4G 7G 8G 9G14G20G27G30C23C24C25C32
                                C34E21
  23276607.772   122319390.246    23276609.344    95313809.609                  
  20635211.298   108438783.318    20635210.494    84497757.012                  
  21498632.964   112976038.441    21498635.323    88033266.820                  
  20985496.505   110279498.460    20985498.381    85932069.149                  
  23571589.495   123869535.979    23571590.514    96521717.731                  
  23806527.925   125104144.882    23806527.478    97483749.172                  
  22451542.482   117983627.324    22451544.001    91935288.812                  
  22099486.652   116133549.613    22099488.636    90493665.989                  
                 120158268.126                   120158268.126    23075122.798  
                 134482579.821                   134482579.821    25825959.746  
                 115461870.829                   115461870.829    22173234.111  
                 124557632.629                   124557632.629    23919986.732  
                 127744441.507                   127744441.507    24531977.235  
  26149697.838   137417559.906                                                  
 21  9  1  6 11 47.0000000  0 14G 4G 7G 8G 9G14G20G27G30C23C24C25C32
                                C34E21
  23277271.320   122322877.210    23277272.874    95316526.726                  
  20635078.818   108438087.123    20635078.013    84497214.525                  
  21498519.424   112975441.794    21498521.783    88032801.898                  
  20985891.857   110281576.067    20985893.733    85933688.063                  
  23570977.088   123866317.758    23570978.107    96519210.024                  
  23806663.944   125104859.722    23806663.515    97484306.192                  
  22451801.297   117984987.491    22451802.816    91936348.685                  
  22099064.228   116131329.668    22099066.194    90491936.161                  
                 120156724.753                   120156724.753    23074826.422  
                 134485114.700                   134485114.700    25826446.534  
                 115462668.020                   115462668.020    22173387.213  
                 124557187.993                   124557187.993    23919901.354  
                 127742526.138                   127742526.138    24531609.402  
  26149289.442   137415413.754                                                  
 21  9  1  6 11 48.0000000  0 14G 4G 7G 8G 9G14G20G27G30C23C24C25C32
                                C34E21
  23277934.922   122326364.429    23277936.476    95319244.035                  
  20634946.408   108437391.192    20634945.604    84496672.243                  
  21498406.027   112974845.849    21498408.386    88032337.527                  
  20986287.316   110283654.208    20986289.193    85935307.394                  
  23570364.717   123863099.763    23570365.735    96516702.497                  
  23806800.088   125105575.129    23806799.659    97484863.652                  
  22452060.255   117986348.347    22452061.792    91937409.094                  
  22098641.805   116129109.889    22098643.806    90490206.462                  
                 120155181.581                   120155181.581    23074530.064  
                 134487649.594                   134487649.594    25826933.340  
                 115463465.430                   115463465.430    22173540.368  
                 124556743.927                   124556743.927    23919816.083  
                 127740611.161                   127740611.161    24531241.657  
  26148881.081   137413267.788                                                  
 21  9  1  6 11 49.0000000  0 14G 4G 7G 8G 9G14G20G27G30C23C24C25C32
                                C34E21
  23278598.559   122329851.880    23278600.114    95321961.527                  
  20634814.016   108436695.510    20634813.212    84496130.151                  
  21498292.738   112974250.590    21498295.096    88031873.687                  
  20986682.883   110285732.871    20986684.759    85936927.132                  
  23569752.399   123859881.984    23569753.418    96514195.137                  
  23806936.321   125106291.093    23806935.893    97485421.547                  
  22452319.356   117987709.867    22452320.875    91938470.016                  
  22098219.435   116126890.281    22098221.418    90488476.899                  
                 120153638.610                   120153638.610    23074233.760  
                 134490184.517                   134490184.517    25827420.145  
                 115464263.064                   115464263.064    22173693.524  
                 124556300.425                   124556300.425    23919730.902  
                 127738696.570                   127738696.570    24530873.984  
  26148472.756   137411122.014                                                  
 21  9  1  6 11 50.0000000  0 14G 4G 7G 8G 9G14G20G27G30C23C24C25C32
                                C34E21
  23279262.233   122333339.572    23279263.805    95324679.212                  
  20634681.678   108436000.093    20634680.874    84495588.270                  
  21498179.591   112973656.033    21498181.968    88031410.398                  
  20987078.539   110287812.078    20987080.415    85938547.293                  
  23569140.117   123856664.426    23569141.136    96511687.949                  
  23807072.680   125107007.621    23807072.251    97485979.880                  
  22452578.582   117989072.067    22452580.100    91939531.474                  
  22097797.082   116124670.829    22097799.066    90486747.454                  
                 120152095.837                   120152095.837    23073937.474  
                 134492719.459                   134492719.459    25827906.951  
                 115465060.913                   115465060.913    22173846.733  
                 124555857.493                   124555857.493    23919645.845  
                 127736782.370                   127736782.370    24530506.382  
  26148064.467   137408976.422                                                  
 21  9  1  6 11 51.0000000  0 14G 4G 7G 8G 9G14G20G27G30C23C24C25C32
                                C34E21
  23279925.978   122336827.495    23279927.532    95327397.074                  
  20634549.394   108435304.937    20634548.608    84495046.585                  
  21498066.605   112973062.153    21498068.946    88030947.637                  
  20987474.302   110289891.821    20987476.178    85940167.872                  
  23568527.889   123853447.082    23568528.907    96509180.926                  
  23807209.146   125107724.701    23807208.699    97486538.641                  
  22452837.915   117990434.948    22452839.434    91940593.461                  
  22097374.766   116122451.544    22097376.767    90485018.140                  
                 120150553.261                   120150553.261    23073641.241  
                 134495254.426                   134495254.426    25828393.757  
                 115465858.988                   115465858.988    22173999.995  
                 124555415.122                   124555415.122    23919560.896  
                 127734868.568                   127734868.568    24530138.835  
  26147656.195   137406831.026                                                  
 21  9  1  6 11 52.0000000  0 14G 4G 7G 8G 9G14G20G27G30C23C24C25C32
                                C34E21
  23280589.758   122340315.677    23280591.313    95330115.133                  
  20634417.163   108434610.042    20634416.359    84494505.109                  
  21497953.727   112972468.960    21497956.068    88030485.411                  
  20987870.154   110291972.081    20987872.048    85941788.856                  
  23567915.678   123850229.964    23567916.696    96506674.083                  
  23807345.701   125108442.343    23807345.254    97487097.843                  
  22453097.409   117991798.501    22453098.928    91941655.965                  
  22096952.485   116120232.426    22096954.469    90483288.960                  
                 120149010.906                   120149010.906    23073345.062  
                 134497789.427                   134497789.427    25828880.581  
                 115466657.274                   115466657.274    22174153.312  
                 124554973.324                   124554973.324    23919476.036  
                 127732955.149                   127732955.149    24529771.394  
  26147247.977   137404685.815                                                  
 21  9  1  6 11 53.0000000  0 14G 4G 7G 8G 9G14G20G27G30C23C24C25C32
                                C34E21
  23281253.575   122343804.085    23281255.147    95332833.375                  
  20634284.986   108433915.402    20634284.182    84493963.836                  
  21497840.955   112971876.442    21497843.314    88030023.706                  
  20988266.114   110294052.895    20988268.008    85943410.265                  
  23567303.521   123847013.066    23567304.539    96504167.407                  
  23807482.363   125109160.544    23807481.934    97487657.480                  
  22453356.992   117993162.717    22453358.529    91942718.991                  
  22096530.240   116118013.475    22096532.224    90481559.910                  
                 120147468.726                   120147468.726    23073048.901  
                 134500324.437                   134500324.437    25829367.404  
                 115467455.788                   115467455.788    22174306.664  
                 124554532.090                   124554532.090    23919391.319  
                 127731042.120                   127731042.120    24529404.025  
  26146839.795   137402540.804                                                  
 21  9  1  6 11 54.0000000  0 14G 4G 7G 8G 9G14G20G27G30C23C24C25C32
                                C34E21
  23281917.445   122347292.742    23281918.999    95335551.810                  
  20634152.845   108433221.012    20634152.041    84493422.750                  
  21497728.345   112971284.614    21497730.703    88029562.539                  
  20988662.199   110296134.229    20988664.057    85945032.086                  
  23566691.418   123843796.380    23566692.436    96501660.898                  
  23807619.133   125109879.293    23807618.722    97488217.546                  
  22453616.736   117994527.638    22453618.255    91943782.565                  
  22096107.995   116115794.683    22096109.996    90479830.976                  
                 120145926.749                   120145926.749    23072752.776  
                 134502859.470                   134502859.470    25829854.246  
                 115468254.524                   115468254.524    22174460.033  
                 124554091.417                   124554091.417    23919306.673  
                 127729129.487                   127729129.487    24529036.727  
  26146431.667   137400395.954                                                  
 21  9  1  6 11 55.0000000  0 14G 4G 7G 8G 9G14G20G27G30C23C24C25C32
                                C34E21
  23282581.368   122350781.628    23282582.923    95338270.422                  
  20634020.757   108432526.894    20634019.935    84492881.879                  
  21497615.859   112970693.493    21497618.200    88029101.925                  
  20989058.355   110298216.103    20989060.231    85946654.321                  
  23566079.332   123840579.922    23566080.368    96499154.569                  
  23807756.027   125110598.614    23807755.598    97488778.052                  
  22453876.605   117995893.219    22453878.124    91944846.657                  
  22095685.822   116113576.067    22095687.805    90478102.187                  
                 120144384.973                   120144384.973    23072456.704  
                 134505394.523                   134505394.523    25830341.052  
                 115469053.484                   115469053.484    22174613.475  
                 124553651.317                   124553651.317    23919222.188  
                 127727217.246                   127727217.246    24528669.501  
  26146023.538   137398251.315                                                  
 21  9  1  6 11 56.0000000  0 14G 4G 7G 8G 9G14G20G27G30C23C24C25C32
                                C34E21
  23283245.327   122354270.758    23283246.882    95340989.222                  
  20633888.723   108431833.035    20633887.919    84492341.210                  
  21497503.499   112970103.047    21497505.840    88028641.840                  
  20989454.618   110300298.487    20989456.495    85948276.960                  
  23565467.318   123837363.685    23565468.319    96496648.410                  
  23807893.011   125111318.493    23807892.582    97489338.996                  
  22454136.582   117997259.466    22454138.101    91945911.262                  
  22095263.666   116111357.606    22095265.631    90476373.516                  
                 120142843.392                   120142843.392    23072160.632  
                 134507929.603                   134507929.603    25830827.893  
                 115469852.662                   115469852.662    22174766.952  
                 124553211.781                   124553211.781    23919137.757  
                 127725305.395                   127725305.395    24528302.346  
  26145615.463   137396106.852                                                  
 21  9  1  6 11 57.0000000  0 14G 4G 7G 8G 9G14G20G27G30C23C24C25C32
                                C34E21
  23283909.322   122357760.128    23283910.877    95343708.212                  
  20633756.724   108431139.449    20633755.920    84491800.753                  
  21497391.263   112969513.278    21497393.622    88028182.278                  
  20989851.007   110302381.426    20989852.865    85949900.032                  
  23564855.322   123834147.655    23564856.340    96494142.418                  
  23808030.102   125112038.930    23808029.673    97489900.375                  
  22454396.701   117998626.393    22454398.220    91946976.403                  
  22094841.546   116109139.316    22094843.512    90474644.980                  
                 120141302.011                   120141302.011    23071864.631  
                 134510464.700                   134510464.700    25831314.735  
                 115470652.063                   115470652.063    22174920.464  
                 124552772.812                   124552772.812    23919053.451  
                 127723393.937                   127723393.937    24527935.262  
  26145207.424   137393962.589                                                  
 21  9  1  6 11 58.0000000  0 14G 4G 7G 8G 9G14G20G27G30C23C24C25C32
                                C34E21
  23284573.389   122361249.739    23284574.943    95346427.387                  
  20633624.797   108430446.109    20633623.975    84491260.488                  
  21497279.153   112968924.211    21497281.512    88027723.267                  
  20990247.467   110304464.888    20990249.343    85951523.503                  
  23564243.379   123830931.855    23564244.398    96491636.597                  
  23808167.301   125112759.918    23808166.872    97490462.184                  
  22454656.946   117999993.999    22454658.482    91948042.070                  
  22094419.444   116106921.196    22094421.427    90472916.570                  
                 120139760.828                   120139760.828    23071568.685  
                 134512999.823                   134512999.823    25831801.576  
                 115471451.683                   115471451.683    22175074.013  
                 124552334.414                   124552334.414    23918969.288  
                 127721482.868                   127721482.868    24527568.268  
  26144799.421   137391818.508                                                  
 21  9  1  6 11 59.0000000  0 14G 4G 7G 8G 9G14G20G27G30C23C24C25C32
                                C34E21
  23285237.473   122364739.587    23285239.046    95349146.749                  
  20633492.906   108429753.040    20633492.102    84490720.434                  
  21497167.204   112968335.848    21497169.562    88027264.800                  
  20990644.034   110306548.883    20990645.928    85953147.398                  
  23563631.472   123827716.277    23563632.473    96489130.950                  
  23808304.624   125113481.460    23808304.177    97491024.425                  
  22454917.315   118001362.282    22454918.834    91949108.265                  
  22093997.378   116104703.234    22093999.361    90471188.293                  
                 120138219.843                   120138219.843    23071272.738  
                 134515534.964                   134515534.964    25832288.436  
                 115472251.524                   115472251.524    22175227.615  
                 124551896.579                   124551896.579    23918885.196  
                 127719572.191                   127719572.191    24527201.346  
  26144391.435   137389674.612                                                  
 21  9  1  6 12  0.0000000  0 14G 4G 7G 8G 9G14G20G27G30C23C24C25C32
                                C34E21
  23285901.611   122368229.676    23285903.184    95351866.297                  
  20633361.068   108429060.225    20633360.264    84490180.583                  
  21497055.379   112967748.184    21497057.738    88026806.882                  
  20991040.709   110308633.404    20991042.585    85954771.700                  
  23563019.601   123824500.926    23563020.620    96486625.482                  
  23808442.019   125114203.558    23808441.608    97491587.101                  
  22455177.828   118002731.246    22455179.364    91950174.988                  
  22093575.347   116102485.442    22093577.313    90469460.141                  
                 120136679.061                   120136679.061    23070976.863  
                 134518070.134                   134518070.134    25832775.277  
                 115473051.585                   115473051.585    22175381.289  
                 124551459.308                   124551459.308    23918801.212  
                 127717661.908                   127717661.908    24526834.477  
  26143983.521   137387530.915                                                  
 21  9  1  6 12  1.0000000  0 14G 4G 7G 8G 9G14G20G27G30C23C24C25C32
                                C34E21
  23286565.803   122371720.012    23286567.357    95354586.039                  
  20633229.284   108428367.675    20633228.480    84489640.933                  
  21496943.680   112967161.194    21496946.039    88026349.487                  
  20991437.472   110310718.464    20991439.367    85956396.423                  
  23562407.784   123821285.765    23562408.802    96484120.164                  
  23808579.539   125114926.221    23808579.128    97492150.215                  
  22455438.465   118004100.880    22455439.984    91951242.234                  
  22093153.334   116100267.821    22093155.318    90467732.125                  
                 120135138.477                   120135138.477    23070681.005  
                 134520605.324                   134520605.324    25833262.137  
                 115473851.871                   115473851.871    22175534.962  
                 124551022.604                   124551022.604    23918717.353  
                 127715752.016                   127715752.016    24526467.715  
  26143575.625   137385387.395                                                  
 21  9  1  6 12  2.0000000  0 14G 4G 7G 8G 9G14G20G27G30C23C24C25C32
                                C34E21
  23287230.048   122375210.574    23287231.603    95357305.957                  
  20633097.536   108427675.380    20633096.732    84489101.480                  
  21496832.106   112966574.883    21496834.465    88025892.621                  
  20991834.361   110312804.050    20991836.238    85958021.554                  
  23561796.002   123818070.848    23561797.021    96481615.031                  
  23808717.166   125115649.437    23808716.737    97492713.762                  
  22455699.228   118005471.191    22455700.747    91952310.012                  
  22092731.375   116098050.352    22092733.359    90466004.229                  
                 120133598.091                   120133598.091    23070385.184  
                 134523140.534                   134523140.534    25833748.996  
                 115474652.375                   115474652.375    22175688.672  
                 124550586.474                   124550586.474    23918633.601  
                 127713842.515                   127713842.515    24526101.025  
  26143167.765   137383244.073                                                  
 21  9  1  6 12  3.0000000  0 14G 4G 7G 8G 9G14G20G27G30C23C24C25C32
                                C34E21
  23287894.329   122378701.388    23287895.884    95360026.070                  
  20632965.859   108426983.352    20632965.037    84488562.233                  
  21496720.657   112965989.261    21496723.016    88025436.292                  
  20992231.322   110314890.164    20992233.198    85959647.098                  
  23561184.256   123814856.139    23561185.275    96479110.066                  
  23808854.901   125116373.221    23808854.454    97493277.746                  
  22455960.116   118006842.180    22455961.634    91953378.312                  
  22092309.434   116095833.062    22092311.417    90464276.469                  
                 120132057.903                   120132057.903    23070089.398  
                 134525675.771                   134525675.771    25834235.855  
                 115475453.102                   115475453.102    22175842.452  
                 124550150.901                   124550150.901    23918549.956  
                 127711933.406                   127711933.406    24525734.388  
  26142759.922   137381100.934                                                  
 21  9  1  6 12  4.0000000  0 14G 4G 7G 8G 9G14G20G27G30C23C24C25C32
                                C34E21
  23288558.646   122382192.425    23288560.200    95362746.363                  
  20632834.200   108426291.573    20632833.396    84488023.187                  
  21496609.369   112965404.331    21496611.727    88024980.503                  
  20992628.407   110316976.815    20992630.283    85961273.060                  
  23560572.582   123811641.657    23560573.582    96476605.274                  
  23808992.742   125117097.555    23808992.296    97493842.161                  
  22456221.128   118008213.829    22456222.665    91954447.132                  
  22091887.546   116093615.934    22091889.512    90462548.836                  
                 120130517.915                   120130517.915    23069793.665  
                 134528211.022                   134528211.022    25834722.733  
                 115476254.048                   115476254.048    22175996.251  
                 124549715.901                   124549715.901    23918466.418  
                 127710024.686                   127710024.686    24525367.841  
  26142352.133   137378957.980                                                  
 21  9  1  6 12  5.0000000  0 14G 4G 7G 8G 9G14G20G27G30C23C24C25C32
                                C34E21
  23289223.016   122385683.711    23289224.588    95365466.839                  
  20632702.613   108425600.067    20632701.826    84487484.352                  
  21496498.188   112964820.094    21496500.546    88024525.254                  
  20993025.582   110319064.000    20993027.458    85962899.433                  
  23559960.925   123808427.394    23559961.944    96474100.651                  
  23809130.673   125117822.449    23809130.244    97494407.016                  
  22456482.284   118009586.165    22456483.803    91955516.485                  
  22091465.659   116091398.973    22091467.642    90460821.336                  
                 120128978.125                   120128978.125    23069497.969  
                 134530746.299                   134530746.299    25835209.628  
                 115477055.212                   115477055.212    22176150.121  
                 124549281.466                   124549281.466    23918382.988  
                 127708116.362                   127708116.362    24525001.365  
  26141944.380   137376815.219                                                  
 21  9  1  6 12  6.0000000  0 14G 4G 7G 8G 9G14G20G27G30C23C24C25C32
                                C34E21
  23289887.422   122389175.238    23289888.976    95368187.512                  
  20632571.079   108424908.811    20632570.275    84486945.710                  
  21496387.132   112964236.547    21496389.472    88024070.544                  
  20993422.864   110321151.714    20993424.740    85964526.227                  
  23559349.304   123805213.348    23559350.323    96471596.202                  
  23809268.711   125118547.885    23809268.300    97494972.289                  
  22456743.565   118010959.173    22456745.084    91956586.359                  
  22091043.825   116089182.173    22091045.808    90459093.960                  
                 120127438.535                   120127438.535    23069202.308  
                 134533281.603                   134533281.603    25835696.487  
                 115477856.602                   115477856.602    22176304.027  
                 124548847.597                   124548847.597    23918299.664  
                 127706208.431                   127706208.431    24524634.961  
  26141536.662   137374672.649                                                  
 21  9  1  6 12  7.0000000  0 14G 4G 7G 8G 9G14G20G27G30C23C24C25C32
                                C34E21
  23290551.899   122392667.000    23290553.454    95370908.363                  
  20632439.581   108424217.816    20632438.777    84486407.273                  
  21496276.219   112963653.681    21496278.577    88023616.360                  
  20993820.235   110323239.952    20993822.111    85966153.422                  
  23558737.737   123801999.517    23558738.755    96469091.918                  
  23809406.875   125119273.880    23809406.446    97495537.997                  
  22457004.953   118012332.867    22457006.472    91957656.770                  
  22090622.008   116086965.550    22090623.974    90457366.723                  
                 120125899.143                   120125899.143    23068906.683  
                 134535816.927                   134535816.927    25836183.382  
                 115478658.208                   115478658.208    22176457.969  
                 124548414.293                   124548414.293    23918216.466  
                 127704300.892                   127704300.892    24524268.646  
  26141128.981   137372530.247                                                  
 21  9  1  6 12  8.0000000  0 14G 4G 7G 8G 9G14G20G27G30C23C24C25C32
                                C34E21
  23291216.395   122396158.996    23291217.967    95373629.399                  
  20632308.136   108423527.091    20632307.332    84485869.048                  
  21496165.448   112963071.542    21496167.807    88023162.750                  
  20994217.714   110325328.740    20994219.608    85967781.050                  
  23558126.205   123798785.935    23558127.224    96466587.828                  
  23809545.145   125120000.487    23809544.716    97496104.187                  
  22457266.484   118013707.231    22457268.021    91958727.707                  
  22090200.228   116084749.078    22090202.194    90455639.601                  
                 120124359.949                   120124359.949    23068611.093  
                 134538352.271                   134538352.271    25836670.260  
                 115479460.035                   115479460.035    22176611.946  
                 124547981.558                   124547981.558    23918133.357  
                 127702393.743                   127702393.743    24523902.403  
  26140721.335   137370388.070                                                  
 21  9  1  6 12  9.0000000  0 14G 4G 7G 8G 9G14G20G27G30C23C24C25C32
                                C34E21
  23291880.944   122399651.239    23291882.498    95376350.630                  
  20632176.763   108422836.621    20632175.959    84485331.015                  
  21496054.803   112962490.078    21496057.144    88022709.656                  
  20994615.300   110327418.046    20994617.176    85969409.082                  
  23557514.727   123795572.547    23557515.746    96464083.887                  
  23809683.523   125120727.605    23809683.076    97496670.774                  
  22457528.158   118015082.272    22457529.677    91959799.168                  
  22089778.483   116082532.781    22089780.467    90453912.617                  
                 120122820.956                   120122820.956    23068315.540  
                 134540887.636                   134540887.636    25837157.137  
                 115480262.086                   115480262.086    22176765.977  
                 124547549.390                   124547549.390    23918050.356  
                 127700486.989                   127700486.989    24523536.213  
  26140313.724   137368246.058                                                  
 21  9  1  6 12 10.0000000  0 14G 4G 7G 8G 9G14G20G27G30C23C24C25C32
                                C34E21
  23292545.546   122403143.723    23292547.101    95379072.043                  
  20632045.426   108422146.415    20632044.622    84484793.194                  
  21495944.266   112961909.277    21495946.624    88022257.087                  
  20995012.993   110329507.899    20995014.869    85971037.536                  
  23556903.285   123792359.387    23556904.304    96461580.129                  
  23809821.972   125121455.296    23809821.561    97497237.801                  
  22457789.939   118016457.989    22457791.458    91960871.153                  
  22089356.757   116080316.656    22089358.740    90452185.765                  
                 120121282.163                   120121282.163    23068020.040  
                 134543423.026                   134543423.026    25837644.032  
                 115481064.354                   115481064.354    22176920.044  
                 124547117.790                   124547117.790    23917967.479  
                 127698580.625                   127698580.625    24523170.112  
  26139906.168   137366104.242                                                  
 21  9  1  6 12 11.0000000  0 14G 4G 7G 8G 9G14G20G27G30C23C24C25C32
                                C34E21
  23293210.185   122406636.441    23293211.739    95381793.640                  
  20631914.124   108421456.462    20631913.320    84484255.570                  
  21495833.889   112961329.163    21495836.247    88021805.050                  
  20995410.775   110331598.259    20995412.651    85972666.390                  
  23556291.878   123789146.445    23556292.897    96459076.540                  
  23809960.564   125122183.535    23809960.135    97497805.263                  
  22458051.863   118017834.371    22458053.382    91961943.661                  
  22088935.083   116078100.686    22088937.067    90450459.040                  
                 120119743.565                   120119743.565    23067724.558  
                 134545958.437                   134545958.437    25838130.945  
                 115481866.847                   115481866.847    22177074.146  
                 124546686.753                   124546686.753    23917884.692  
                 127696674.653                   127696674.653    24522804.101  
  26139498.629   137363962.608                                                  
 21  9  1  6 12 12.0000000  0 14G 4G 7G 8G 9G14G20G27G30C23C24C25C32
                                C34E21
  23293874.876   122410129.398    23293876.431    95384515.426                  
  20631782.876   108420766.773    20631782.072    84483718.148                  
  21495723.619   112960749.739    21495725.960    88021353.550                  
  20995808.664   110333689.156    20995810.541    85974295.661                  
  23555680.526   123785933.732    23555681.544    96456573.125                  
  23810099.264   125122912.337    23810098.817    97498373.156                  
  22458313.895   118019211.437    22458315.414    91963016.695                  
  22088513.428   116075884.893    22088515.394    90448732.446                  
                 120118205.171                   120118205.171    23067429.147  
                 134548493.872                   134548493.872    25838617.840  
                 115482669.558                   115482669.558    22177228.302  
                 124546256.284                   124546256.284    23917802.048  
                 127694769.074                   127694769.074    24522438.161  
  26139091.108   137361821.168                                                  
 21  9  1  6 12 13.0000000  0 14G 4G 7G 8G 9G14G20G27G30C23C24C25C32
                                C34E21
  23294539.622   122413622.594    23294541.177    95387237.395                  
  20631651.682   108420077.344    20631650.878    84483180.934                  
  21495613.474   112960171.004    21495615.833    88020902.586                  
  20996206.643   110335780.593    20996208.519    85975925.348                  
  23555069.208   123782721.229    23555070.227    96454069.878                  
  23810238.034   125123641.683    23810237.623    97498941.480                  
  22458576.087   118020589.173    22458577.606    91964090.257                  
  22088091.808   116073669.261    22088093.774    90447005.981                  
                 120116666.971                   120116666.971    23067133.736  
                 134551029.329                   134551029.329    25839104.753  
                 115483472.492                   115483472.492    22177382.494  
                 124545826.387                   124545826.387    23917719.475  
                 127692863.890                   127692863.890    24522072.275  
  26138683.641   137359679.924                                                  
 21  9  1  6 12 14.0000000  0 14G 4G 7G 8G 9G14G20G27G30C23C24C25C32
                                C34E21
  23295204.385   122417116.023    23295205.958    95389959.547                  
  20631520.541   108419388.180    20631519.737    84482643.918                  
  21495503.473   112959592.941    21495505.831    88020452.152                  
  20996604.747   110337872.556    20996606.623    85977555.448                  
  23554457.927   123779508.950    23554458.946    96451566.802                  
  23810376.948   125124371.598    23810376.519    97499510.242                  
  22458838.386   118021967.589    22458839.905    91965164.348                  
  22087670.225   116071453.788    22087672.208    90445279.636                  
                 120115128.975                   120115128.975    23066838.379  
                 134553564.804                   134553564.804    25839591.666  
                 115484275.645                   115484275.645    22177536.740  
                 124545397.052                   124545397.052    23917637.027  
                 127690959.096                   127690959.096    24521706.478  
  26138276.227   137357538.860                                                  
 21  9  1  6 12 15.0000000  0 14G 4G 7G 8G 9G14G20G27G30C23C24C25C32
                                C34E21
  23295869.220   122420609.672    23295870.775    95392681.855                  
  20631389.436   108418699.263    20631388.632    84482107.101                  
  21495393.614   112959015.615    21495395.973    88020002.294                  
  20997002.923   110339965.041    20997004.799    85979185.958                  
  23553846.681   123776296.883    23553847.700    96449063.892                  
  23810515.933   125125102.058    23810515.522    97500079.434                  
  22459100.829   118023346.633    22459102.347    91966238.909                  
  22087248.659   116069238.497    22087250.642    90443553.442                  
                 120113591.177                   120113591.177    23066543.058  
                 134556100.306                   134556100.306    25840078.579  
                 115485079.019                   115485079.019    22177691.021  
                 124544968.281                   124544968.281    23917554.687  
                 127689054.698                   127689054.698    24521340.753  
  26137868.813   137355397.971                                                  
 21  9  1  6 12 16.0000000  0 14G 4G 7G 8G 9G14G20G27G30C23C24C25C32
                                C34E21
  23296534.073   122424103.576    23296535.645    95395404.371                  
  20631258.403   108418010.612    20631257.598    84481570.493                  
  21495283.880   112958438.946    21495286.239    88019552.941                  
  20997401.223   110342058.065    20997403.082    85980816.886                  
  23553235.507   123773085.055    23553236.526    96446561.165                  
  23810655.062   125125833.082    23810654.615    97500649.059                  
  22459363.378   118024726.387    22459364.897    91967314.042                  
  22086827.146   116067023.373    22086829.112    90441827.367                  
                 120112053.574                   120112053.574    23066247.772  
                 134558635.827                   134558635.827    25840565.492  
                 115485882.613                   115485882.613    22177845.338  
                 124544540.082                   124544540.082    23917472.454  
                 127687150.695                   127687150.695    24520975.117  
  26137461.453   137353257.285                                                  
 21  9  1  6 12 17.0000000  0 14G 4G 7G 8G 9G14G20G27G30C23C24C25C32
                                C34E21
  23297198.997   122427597.723    23297200.552    95398127.083                  
  20631127.405   108417322.232    20631126.601    84481034.081                  
  21495174.272   112957862.978    21495176.648    88019104.128                  
  20997799.595   110344151.624    20997801.471    85982448.226                  
  23552624.333   123769873.434    23552625.352    96444058.598                  
  23810794.261   125126564.663    23810793.833    97501219.122                  
  22459626.053   118026106.825    22459627.572    91968389.704                  
  22086405.634   116064808.401    22086407.617    90440101.417                  
                 120110516.171                   120110516.171    23065952.540  
                 134561171.372                   134561171.372    25841052.423  
                 115486686.429                   115486686.429    22177999.708  
                 124544112.448                   124544112.448    23917390.345  
                 127685247.081                   127685247.081    24520609.553  
  26137054.146   137351116.781                                                  
 21  9  1  6 12 18.0000000  0 14G 4G 7G 8G 9G14G20G27G30C23C24C25C32
                                C34E21
  23297863.957   122431092.114    23297865.512    95400849.985                  
  20630996.461   108416634.107    20630995.656    84480497.882                  
  21495064.824   112957287.706    21495067.165    88018655.867                  
  20998198.092   110346245.711    20998199.986    85984079.980                  
  23552013.248   123766662.035    23552014.267    96441556.211                  
  23810933.586   125127296.797    23810933.157    97501789.613                  
  22459888.888   118027487.946    22459890.407    91969465.902                  
  22085984.175   116062593.603    22085986.158    90438375.598                  
                 120108978.972                   120108978.972    23065657.344  
                 134563706.937                   134563706.937    25841539.354  
                 115487490.466                   115487490.466    22178154.096  
                 124543685.384                   124543685.384    23917308.327  
                 127683343.861                   127683343.861    24520244.060  
  26136646.840   137348976.465                                                  
 21  9  1  6 12 19.0000000  0 14G 4G 7G 8G 9G14G20G27G30C23C24C25C32
                                C34E21
  23298528.953   122434586.737    23298530.525    95403573.066                  
  20630865.552   108415946.240    20630864.766    84479961.882                  
  21494955.483   112956713.129    21494957.824    88018208.149                  
  20998596.679   110348340.332    20998598.555    85985712.152                  
  23551402.163   123763450.868    23551403.182    96439054.003                  
  23811073.018   125128029.484    23811072.571    97502360.539                  
  22460151.813   118028869.731    22460153.332    91970542.618                  
  22085562.734   116060378.968    22085564.718    90436649.909                  
                 120107441.970                   120107441.970    23065362.183  
                 134566242.526                   134566242.526    25842026.303  
                 115488294.723                   115488294.723    22178308.556  
                 124543258.883                   124543258.883    23917226.415  
                 127681441.035                   127681441.035    24519878.638  
  26136239.605   137346836.342                                                  
 21  9  1  6 12 20.0000000  0 14G 4G 7G 8G 9G14G20G27G30C23C24C25C32
                                C34E21
  23299194.020   122438081.600    23299195.575    95406296.336                  
  20630734.715   108415258.634    20630733.929    84479426.085                  
  21494846.268   112956139.242    21494848.627    88017760.960                  
  20998995.372   110350435.469    20998997.266    85987344.727                  
  23550791.132   123760239.915    23550792.168    96436551.960                  
  23811212.539   125128762.738    23811212.128    97502931.906                  
  22460414.899   118030252.188    22460416.418    91971619.854                  
  22085141.347   116058164.493    22085143.312    90434924.344                  
                 120105905.163                   120105905.163    23065067.041  
                 134568778.141                   134568778.141    25842513.233  
                 115489099.199                   115489099.199    22178463.034  
                 124542832.950                   124542832.950    23917144.628  
                 127679538.602                   127679538.602    24519513.306  
  26135832.388   137344696.402                                                  
 21  9  1  6 12 21.0000000  0 14G 4G 7G 8G 9G14G20G27G30C23C24C25C32
                                C34E21
  23299859.123   122441576.699    23299860.678    95409019.789                  
  20630603.914   108414571.289    20630603.128    84478890.492                  
  21494737.177   112955566.047    21494739.536    88017314.312                  
  20999394.173   110352531.153    20999396.067    85988977.727                  
  23550180.154   123757029.180    23550181.173    96434050.090                  
  23811352.186   125129496.538    23811351.757    97503503.700                  
  22460678.092   118031635.320    22460679.628    91972697.624                  
  22084719.977   116055950.190    22084721.961    90433198.913                  
                 120104368.557                   120104368.557    23064771.952  
                 134571313.773                   134571313.773    25843000.182  
                 115489903.896                   115489903.896    22178617.583  
                 124542407.581                   124542407.581    23917062.931  
                 127677636.562                   127677636.562    24519148.045  
  26135425.206   137342556.649                                                  
 21  9  1  6 12 22.0000000  0 14G 4G 7G 8G 9G14G20G27G30C23C24C25C32
                                C34E21
  23300524.262   122445072.038    23300525.816    95411743.430                  
  20630473.166   108413884.203    20630472.362    84478355.102                  
  21494628.248   112954993.539    21494630.607    88016868.207                  
  20999793.081   110354627.364    20999794.940    85990611.136                  
  23549569.213   123753818.664    23549570.231    96431548.390                  
  23811491.940   125130230.899    23811491.493    97504075.927                  
  22460941.445   118033019.135    22460942.964    91973775.922                  
  22084298.644   116053736.052    22084300.627    90431473.613                  
                 120102832.152                   120102832.152    23064476.898  
                 134573849.425                   134573849.425    25843487.113  
                 115490708.813                   115490708.813    22178772.168  
                 124541982.782                   124541982.782    23916981.359  
                 127675734.914                   127675734.914    24518782.838  
  26135018.061   137340417.090                                                  
 21  9  1  6 12 23.0000000  0 14G 4G 7G 8G 9G14G20G27G30C23C24C25C32
                                C34E21
  23301189.436   122448567.614    23301191.008    95414467.253                  
  20630342.454   108413197.383    20630341.668    84477819.913                  
  21494519.443   112954421.724    21494521.784    88016422.632                  
  21000192.061   110356724.110    21000193.937    85992244.964                  
  23548958.324   123750608.384    23548959.343    96429046.875                  
  23811631.782   125130965.817    23811631.354    97504648.590                  
  22461204.888   118034403.617    22461206.425    91974854.739                  
  22083877.346   116051522.078    22083879.311    90429748.439                  
                 120101295.941                   120101295.941    23064181.899  
                 134576385.107                   134576385.107    25843974.062  
                 115491513.949                   115491513.949    22178926.789  
                 124541558.552                   124541558.552    23916899.876  
                 127673833.659                   127673833.659    24518417.720  
  26134610.933   137338277.716                                                  
 21  9  1  6 12 24.0000000  0 14G 4G 7G 8G 9G14G20G27G30C23C24C25C32
                                C34E21
  23301854.682   122452063.429    23301856.236    95417191.267                  
  20630211.814   108412510.819    20630211.028    84477284.931                  
  21494410.746   112953850.589    21494413.105    88015977.594                  
  21000591.165   110358821.378    21000593.042    85993879.203                  
  23548347.472   123747398.320    23548348.472    96426545.527                  
  23811771.733   125131701.289    23811771.322    97505221.683                  
  22461468.474   118035788.773    22461469.993    91975934.081                  
  22083456.066   116049308.281    22083458.031    90428023.399                  
                 120099759.934                   120099759.934    23063886.917  
                 134578920.806                   134578920.806    25844461.028  
                 115492319.309                   115492319.309    22179081.445  
                 124541134.884                   124541134.884    23916818.519  
                 127671932.799                   127671932.799    24518052.674  
  26134203.876   137336138.535                                                  
 21  9  1  6 12 25.0000000  0 14G 4G 7G 8G 9G14G20G27G30C23C24C25C32
                                C34E21
  23302519.946   122455559.478    23302521.518    95419915.456                  
  20630081.227   108411824.516    20630080.423    84476750.152                  
  21494302.192   112953280.141    21494304.533    88015533.089                  
  21000990.359   110360919.180    21000992.236    85995513.847                  
  23547736.655   123744188.468    23547737.673    96424044.341                  
  23811911.808   125132437.316    23811911.379    97505795.211                  
  22461732.185   118037174.602    22461733.722    91977013.950                  
  22083034.821   116047094.641    22083036.805    90426298.485                  
                 120098224.125                   120098224.125    23063591.989  
                 134581456.522                   134581456.522    25844947.977  
                 115493124.890                   115493124.890    22179236.137  
                 124540711.786                   124540711.786    23916737.286  
                 127670032.335                   127670032.335    24517687.717  
  26133796.838   137333999.539                                                  
 21  9  1  6 12 26.0000000  0 14G 4G 7G 8G 9G14G20G27G30C23C24C25C32
                                C34E21
  23303185.263   122459055.761    23303186.835    95422639.835                  
  20629950.676   108411138.472    20629949.872    84476215.571                  
  21494193.780   112952710.386    21494196.121    88015089.124                  
  21001389.661   110363017.507    21001391.537    85997148.910                  
  23547125.874   123740978.844    23547126.892    96421543.336                  
  23812051.955   125133173.907    23812051.544    97506369.175                  
  22461996.039   118038561.117    22461997.558    91978094.347                  
  22082613.595   116044881.163    22082615.596    90424573.700                  
                 120096688.516                   120096688.516    23063297.078  
                 134583992.270                   134583992.270    25845434.944  
                 115493930.688                   115493930.688    22179390.883  
                 124540289.255                   124540289.255    23916656.143  
                 127668132.266                   127668132.266    24517322.832  
  26133389.835   137331860.731                                                  
 21  9  1  6 12 27.0000000  0 14G 4G 7G 8G 9G14G20G27G30C23C24C25C32
                                C34E21
  23303850.634   122462552.289    23303852.206    95425364.402                  
  20629820.178   108410452.700    20629819.374    84475681.204                  
  21494085.476   112952141.317    21494087.835    88014645.696                  
  21001789.051   110365116.359    21001790.945    85998784.384                  
  23546515.164   123737769.441    23546516.183    96419042.504                  
  23812192.244   125133911.052    23812191.816    97506943.574                  
  22462260.000   118039948.286    22462261.519    91979175.258                  
  22082192.440   116042667.876    22082194.423    90422849.058                  
                 120095153.102                   120095153.102    23063002.222  
                 134586528.036                   134586528.036    25845921.928  
                 115494736.708                   115494736.708    22179545.682  
                 124539867.290                   124539867.290    23916575.107  
                 127666232.587                   127666232.587    24516958.018  
  26132982.886   137329722.120                                                  
 21  9  1  6 12 28.0000000  0 14G 4G 7G 8G 9G14G20G27G30C23C24C25C32
                                C34E21
  23304516.040   122466049.054    23304517.613    95428089.152                  
  20629689.717   108409767.186    20629688.913    84475147.040                  
  21493977.315   112951572.938    21493979.674    88014202.801                  
  21002188.567   110367215.758    21002190.443    86000420.274                  
  23545904.455   123734560.255    23545905.473    96416541.840                  
  23812332.623   125134648.749    23812332.195    97507518.407                  
  22462524.105   118041336.146    22462525.623    91980256.707                  
  22081771.285   116040454.742    22081773.286    90421124.540                  
                 120093617.892                   120093617.892    23062707.401  
                 134589063.820                   134589063.820    25846408.877  
                 115495542.949                   115495542.949    22179700.500  
                 124539445.890                   124539445.890    23916494.178  
                 127664333.303                   127664333.303    24516593.275  
  26132575.937   137327583.696                                                  
 21  9  1  6 12 29.0000000  0 14G 4G 7G 8G 9G14G20G27G30C23C24C25C32
                                C34E21
  23305181.501   122469546.059    23305183.073    95430814.089                  
  20629559.326   108409081.943    20629558.522    84474613.079                  
  21493869.297   112951005.231    21493871.638    88013760.434                  
  21002588.154   110369315.678    21002590.048    86002056.578                  
  23545293.817   123731351.292    23545294.835    96414041.347                  
  23812473.092   125135387.009    23812472.681    97508093.673                  
  22462788.334   118042724.677    22462789.853    91981338.679                  
  22081350.183   116038241.768    22081352.167    90419400.147                  
                 120092082.876                   120092082.876    23062412.615  
                 134591599.629                   134591599.629    25846895.862  
                 115496349.411                   115496349.411    22179855.388  
                 124539025.063                   124539025.063    23916413.357  
                 127662434.415                   127662434.415    24516228.622  
  26132169.059   137325445.458                                                  
 21  9  1  6 12 30.0000000  0 14G 4G 7G 8G 9G14G20G27G30C23C24C25C32
                                C34E21
  23305847.015   122473043.297    23305848.587    95433539.207                  
  20629428.972   108408396.949    20629428.186    84474079.317                  
  21493761.404   112950438.231    21493763.745    88013318.613                  
  21002987.884   110371416.142    21002989.742    86003693.296                  
  23544683.214   123728142.552    23544684.233    96411541.032                  
  23812613.703   125136125.815    23812613.274    97508669.368                  
  22463052.688   118044113.880    22463054.225    91982421.175                  
  22080929.082   116036028.965    22080931.083    90417675.883                  
                 120090548.061                   120090548.061    23062117.884  
                 134594135.462                   134594135.462    25847382.846  
                 115497156.090                   115497156.090    22180010.277  
                 124538604.797                   124538604.797    23916332.642  
                 127660535.919                   127660535.919    24515864.040  
  26131762.200   137323307.413                                                  
 21  9  1  6 12 31.0000000  0 14G 4G 7G 8G 9G14G20G27G30C23C24C25C32
                                C34E21
  23306512.564   122476540.769    23306514.119    95436264.512                  
  20629298.689   108407712.210    20629297.885    84473545.754                  
  21493653.618   112949871.906    21493655.976    88012877.323                  
  21003387.685   110373517.116    21003389.562    86005330.421                  
  23544072.665   123724934.032    23544073.684    96409040.886                  
  23812754.404   125136865.176    23812753.957    97509245.489                  
  22463317.185   118045503.758    22463318.704    91983504.199                  
  22080508.034   116033816.324    22080510.018    90415951.747                  
                 120089013.444                   120089013.444    23061823.152  
                 134596671.318                   134596671.318    25847869.813  
                 115497962.991                   115497962.991    22180165.237  
                 124538185.101                   124538185.101    23916252.035  
                 127658637.816                   127658637.816    24515499.512  
  26131355.376   137321169.558                                                  
 21  9  1  6 12 32.0000000  0 14G 4G 7G 8G 9G14G20G27G30C23C24C25C32
                                C34E21
  23307178.168   122480038.458    23307179.722    95438989.973                  
  20629168.424   108407027.735    20629167.620    84473012.397                  
  21493545.993   112949306.276    21493548.333    88012436.573                  
  21003787.576   110375618.624    21003789.452    86006967.962                  
  23543462.117   123721725.790    23543463.135    96406540.983                  
  23812895.194   125137605.080    23812894.783    97509822.023                  
  22463581.772   118046894.308    22463583.327    91984587.742                  
  22080087.022   116031603.847    22080089.006    90414227.738                  
                 120087479.027                   120087479.027    23061528.492  
                 134599207.217                   134599207.217    25848356.797  
                 115498770.113                   115498770.113    22180320.233  
                 124537765.969                   124537765.969    23916171.553  
                 127656740.129                   127656740.129    24515135.074  
  26130948.587   137319031.898                                                  
 21  9  1  6 12 33.0000000  0 14G 4G 7G 8G 9G14G20G27G30C23C24C25C32
                                C34E21
  23307843.806   122483536.409    23307845.361    95441715.649                  
  20629038.212   108406343.527    20629037.426    84472479.246                  
  21493438.493   112948741.359    21493440.833    88011996.378                  
  21004187.574   110377720.660    21004189.468    86008605.910                  
  23542851.657   123718517.714    23542852.658    96404041.188                  
  23813036.127   125138345.558    23813035.680    97510399.020                  
  22463846.537   118048285.547    22463848.056    91985671.825                  
  22079666.046   116029391.548    22079668.011    90412503.867                  
                 120085944.809                   120085944.809    23061233.867  
                 134601743.117                   134601743.117    25848843.799  
                 115499577.456                   115499577.456    22180475.283  
                 124537347.407                   124537347.407    23916091.178  
                 127654842.817                   127654842.817    24514770.724  
  26130541.835   137316894.419                                                  
 21  9  1  6 12 34.0000000  0 14G 4G 7G 8G 9G14G20G27G30C23C24C25C32
                                C34E21
  23308509.481   122487034.594    23308511.036    95444441.507                  
  20628908.072   108405659.587    20628907.286    84471946.306                  
  21493331.118   112948177.124    21493333.476    88011556.719                  
  21004587.697   110379823.243    21004589.556    86010244.286                  
  23542241.216   123715309.860    23542242.216    96401541.559                  
  23813177.113   125139086.597    23813176.702    97510976.453                  
  22464111.392   118049677.438    22464112.929    91986756.418                  
  22079245.087   116027179.411    22079247.053    90410780.122                  
                 120084410.790                   120084410.790    23060939.279  
                 134604279.034                   134604279.034    25849330.802  
                 115500385.020                   115500385.020    22180630.386  
                 124536929.409                   124536929.409    23916010.893  
                 127652945.900                   127652945.900    24514406.446  
  26130135.118   137314757.123                                                  
 21  9  1  6 12 35.0000000  0 14G 4G 7G 8G 9G14G20G27G30C23C24C25C32
                                C34E21
  23309175.192   122490533.020    23309176.782    95447167.551                  
  20628777.986   108404975.895    20628777.181    84471413.561                  
  21493223.886   112947613.583    21493226.244    88011117.594                  
  21004987.892   110381926.341    21004989.786    86011883.062                  
  23541630.828   123712102.226    23541631.846    96399042.106                  
  23813318.243   125139828.182    23813317.814    97511554.316                  
  22464376.407   118051070.007    22464377.926    91987841.534                  
  22078824.165   116024967.445    22078826.148    90409056.516                  
                 120082876.970                   120082876.970    23060644.726  
                 134606814.977                   134606814.977    25849817.804  
                 115501192.804                   115501192.804    22180785.507  
                 124536511.981                   124536511.981    23915930.732  
                 127651049.376                   127651049.376    24514042.240  
  26129728.437   137312620.020                                                  
 21  9  1  6 12 36.0000000  0 14G 4G 7G 8G 9G14G20G27G30C23C24C25C32
                                C34E21
  23309840.974   122494031.669    23309842.546    95449893.774                  
  20628647.917   108404292.465    20628647.113    84470881.018                  
  21493116.779   112947050.736    21493119.120    88010679.012                  
  21005388.194   110384029.968    21005390.088    86013522.254                  
  23541020.475   123708894.809    23541021.476    96396542.821                  
  23813459.480   125140570.328    23813459.033    97512132.609                  
  22464641.512   118052463.254    22464643.031    91988927.183                  
  22078403.260   116022755.639    22078405.243    90407333.032                  
                 120081343.347                   120081343.347    23060350.208  
                 134609350.941                   134609350.941    25850304.807  
                 115502000.804                   115502000.804    22180940.663  
                 124536095.120                   124536095.120    23915850.697  
                 127649153.247                   127649153.247    24513678.105  
  26129321.791   137310483.104                                                  
 21  9  1  6 12 37.0000000  0 14G 4G 7G 8G 9G14G20G27G30C23C24C25C32
                                C34E21
  23310506.791   122497530.568    23310508.364    95452620.183                  
  20628517.920   108403609.296    20628517.116    84470348.679                  
  21493009.797   112946488.578    21493012.156    88010240.968                  
  21005788.621   110386134.132    21005790.497    86015161.860                  
  23540410.159   123705687.630    23540411.177    96394043.718                  
  23813600.806   125141313.034    23813600.377    97512711.341                  
  22464906.778   118053857.176    22464908.297    91990013.356                  
  22077982.409   116020544.013    22077984.374    90405609.684                  
                 120079809.931                   120079809.931    23060055.727  
                 134611886.925                   134611886.925    25850791.827  
                 115502809.031                   115502809.031    22181095.874  
                 124535678.823                   124535678.823    23915770.733  
                 127647257.511                   127647257.511    24513314.042  
  26128915.200   137308346.383                                                  
 21  9  1  6 12 38.0000000  0 14G 4G 7G 8G 9G14G20G27G30C23C24C25C32
                                C34E21
  23311172.663   122501029.698    23311174.217    95455346.781                  
  20628387.958   108402926.386    20628387.154    84469816.543                  
  21492902.958   112945927.100    21492905.299    88009803.454                  
  21006189.119   110388238.827    21006190.996    86016801.882                  
  23539799.896   123702480.659    23539800.915    96391544.782                  
  23813742.239   125142056.300    23813741.828    97513290.507                  
  22465172.169   118055251.772    22465173.688    91991100.055                  
  22077561.575   116018332.548    22077563.559    90403886.465                  
                 120078276.707                   120078276.707    23059761.299  
                 134614422.935                   134614422.935    25851278.811  
                 115503617.473                   115503617.473    22181251.120  
                 124535263.099                   124535263.099    23915690.912  
                 127645362.173                   127645362.173    24512950.067  
  26128508.626   137306209.843                                                  
 21  9  1  6 12 39.0000000  0 14G 4G 7G 8G 9G14G20G27G30C23C24C25C32
                                C34E21
  23311838.552   122504529.063    23311840.142    95458073.554                  
  20628258.069   108402243.739    20628257.264    84469284.608                  
  21492796.244   112945366.315    21492798.603    88009366.481                  
  21006589.743   110390344.044    21006591.619    86018442.313                  
  23539189.687   123699273.915    23539190.687    96389046.020                  
  23813883.780   125142800.121    23813883.369    97513870.106                  
  22465437.684   118056647.038    22465439.203    91992187.272                  
  22077140.778   116016121.242    22077142.761    90402163.371                  
                 120076743.680                   120076743.680    23059466.889  
                 134616958.965                   134616958.965    25851765.831  
                 115504426.136                   115504426.136    22181406.419  
                 124534847.939                   124534847.939    23915611.180  
                 127643467.227                   127643467.227    24512586.165  
  26128102.105   137304073.497                                                  
 21  9  1  6 12 40.0000000  0 14G 4G 7G 8G 9G14G20G27G30C23C24C25C32
                                C34E21
  23312504.512   122508028.668    23312506.085    95460800.519                  
  20628128.196   108401561.359    20628127.392    84468752.882                  
  21492689.655   112944806.226    21492692.014    88008930.043                  
  21006990.438   110392449.790    21006992.314    86020083.152                  
  23538579.495   123696067.390    23538580.496    96386547.429                  
  23814025.445   125143544.500    23814025.016    97514450.145                  
  22465703.307   118058042.970    22465704.844    91993275.011                  
  22076720.016   116013910.106    22076721.999    90400440.405                  
                 120075210.854                   120075210.854    23059172.515  
                 134619495.016                   134619495.016    25852252.852  
                 115505235.023                   115505235.023    22181561.755  
                 124534433.343                   124534433.343    23915531.556  
                 127641572.680                   127641572.680    24512222.334  
  26127695.603   137301937.345                                                  
 21  9  1  6 12 41.0000000  0 14G 4G 7G 8G 9G14G20G27G30C23C24C25C32
                                C34E21
  23313170.526   122511528.503    23313172.081    95463527.663                  
  20627998.396   108400879.235    20627997.592    84468221.356                  
  21492583.192   112944246.820    21492585.568    88008494.145                  
  21007391.258   110394556.078    21007393.134    86021724.415                  
  23537969.358   123692861.089    23537970.358    96384049.012                  
  23814167.200   125144289.430    23814166.771    97515030.608                  
  22465969.073   118059439.591    22465970.592    91994363.290                  
  22076299.272   116011699.140    22076301.255    90398717.577                  
                 120073678.232                   120073678.232    23058878.194  
                 134622031.087                   134622031.087    25852739.908  
                 115506044.128                   115506044.128    22181717.144  
                 124534019.320                   124534019.320    23915452.057  
                 127639678.523                   127639678.523    24511858.574  
  26127289.136   137299801.366                                                  
 21  9  1  6 12 42.0000000  0 14G 4G 7G 8G 9G14G20G27G30C23C24C25C32
                                C34E21
  23313836.559   122515028.590    23313838.113    95466255.003                  
  20627868.667   108400197.375    20627867.863    84467690.039                  
  21492476.907   112943688.128    21492479.248    88008058.800                  
  21007792.185   110396662.892    21007794.061    86023366.086                  
  23537359.256   123689655.004    23537360.274    96381550.765                  
  23814309.062   125145034.915    23814308.634    97515611.503                  
  22466234.965   118060836.876    22466236.501    91995452.081                  
  22075878.581   116009488.344    22075880.565    90396994.879                  
                 120072145.804                   120072145.804    23058583.927  
                 134624567.179                   134624567.179    25853226.928  
                 115506853.454                   115506853.454    22181872.569  
                 124533605.861                   124533605.861    23915372.665  
                 127637784.761                   127637784.761    24511494.904  
  26126882.705   137297665.577                                                  
 21  9  1  6 12 43.0000000  0 14G 4G 7G 8G 9G14G20G27G30C23C24C25C32
                                C34E21
  23314502.644   122518528.905    23314504.217    95468982.520                  
  20627738.938   108399515.770    20627738.134    84467158.918                  
  21492370.693   112943130.110    21492373.052    88007623.981                  
  21008193.184   110398770.222    21008195.060    86025008.164                  
  23536749.207   123686449.146    23536750.226    96379052.695                  
  23814451.014   125145780.958    23814450.603    97516192.835                  
  22466500.999   118062234.832    22466502.517    91996541.398                  
  22075457.909   116007277.706    22075459.892    90395272.304                  
                 120070613.577                   120070613.577    23058289.660  
                 134627103.297                   134627103.297    25853713.966  
                 115507662.997                   115507662.997    22182028.011  
                 124533192.969                   124533192.969    23915293.362  
                 127635891.398                   127635891.398    24511131.305  
  26126476.328   137295530.000                                                  
 21  9  1  6 12 44.0000000  0 14G 4G 7G 8G 9G14G20G27G30C23C24C25C32
                                C34E21
  23315168.784   122522029.453    23315170.338    95471710.219                  
  20627609.298   108398834.432    20627608.494    84466628.008                  
  21492264.641   112942572.788    21492266.999    88007189.704                  
  21008594.308   110400878.086    21008596.184    86026650.655                  
  23536139.194   123683243.507    23536140.195    96376554.798                  
  23814593.108   125146527.555    23814592.680    97516774.601                  
  22466767.140   118063633.464    22466768.659    91997631.243                  
  22075037.254   116005067.245    22075039.256    90393549.867                  
                 120069081.548                   120069081.548    23057995.464  
                 134629639.438                   134629639.438    25854201.004  
                 115508472.762                   115508472.762    22182183.543  
                 124532780.644                   124532780.644    23915214.184  
                 127633998.430                   127633998.430    24510767.777  
  26126069.969   137293394.590                                                  
 21  9  1  6 12 45.0000000  0 14G 4G 7G 8G 9G14G20G27G30C23C24C25C32
                                C34E21
  23315834.959   122525530.235    23315836.513    95474438.102                  
  20627479.676   108398153.353    20627478.872    84466097.292                  
  21492158.713   112942016.155    21492161.072    88006755.964                  
  21008995.521   110402986.496    21008997.397    86028293.570                  
  23535529.217   123680038.095    23535530.236    96374057.071                  
  23814735.274   125147274.706    23814734.863    97517356.797                  
  22467033.424   118065032.764    22467034.943    91998721.609                  
  22074616.653   116002856.945    22074618.637    90391827.555                  
                 120067549.719                   120067549.719    23057701.287  
                 134632175.599                   134632175.599    25854688.042  
                 115509282.751                   115509282.751    22182339.075  
                 124532368.886                   124532368.886    23915135.096  
                 127632105.854                   127632105.854    24510404.321  
  26125663.645   137291259.374                                                  
 21  9  1  6 12 46.0000000  0 14G 4G 7G 8G 9G14G20G27G30C23C24C25C32
                                C34E21
  23316501.187   122529031.258    23316502.742    95477166.171                  
  20627350.143   108397472.534    20627349.321    84465566.784                  
  21492052.946   112941460.212    21492055.287    88006322.762                  
  21009396.823   110405095.423    21009398.700    86029936.891                  
  23534919.294   123676832.902    23534920.295    96371559.517                  
  23814877.565   125148022.415    23814877.137    97517939.426                  
  22467299.815   118066432.746    22467301.352    91999812.499                  
  22074196.088   116000646.815    22074198.071    90390105.379                  
                 120066018.091                   120066018.091    23057407.162  
                 134634711.778                   134634711.778    25855175.080  
                 115510092.952                   115510092.952    22182494.679  
                 124531957.698                   124531957.698    23915056.133  
                 127630213.677                   127630213.677    24510040.955  
  26125257.357   137289124.349                                                  
 21  9  1  6 12 47.0000000  0 14G 4G 7G 8G 9G14G20G27G30C23C24C25C32
                                C34E21
  23317167.434   122532532.516    23317169.024    95479894.426                  
  20627220.629   108396791.989    20627219.825    84465036.489                  
  21491947.287   112940904.977    21491949.628    88005890.108                  
  21009798.233   110407204.868    21009800.127    86031580.613                  
  23534309.424   123673627.939    23534310.425    96369062.140                  
  23815019.946   125148770.679    23815019.517    97518522.488                  
  22467566.368   118067833.411    22467567.886    92000903.926                  
  22073775.540   115998436.856    22073777.542    90388383.328                  
                 120064486.655                   120064486.655    23057113.056  
                 134637247.985                   134637247.985    25855662.136  
                 115510903.377                   115510903.377    22182650.318  
                 124531547.074                   124531547.074    23914977.277  
                 127628321.895                   127628321.895    24509677.660  
  26124851.123   137286989.517                                                  
 21  9  1  6 12 48.0000000  0 14G 4G 7G 8G 9G14G20G27G30C23C24C25C32
                                C34E21
  23317833.752   122536034.005    23317835.324    95482622.855                  
  20627091.168   108396111.684    20627090.364    84464506.384                  
  21491841.735   112940350.419    21491844.093    88005457.988                  
  21010199.768   110409314.860    21010201.644    86033224.765                  
  23533699.555   123670423.184    23533700.573    96366564.933                  
  23815162.433   125149519.504    23815162.022    97519105.988                  
  22467833.027   118069234.739    22467834.564    92001995.875                  
  22073355.046   115996227.055    22073357.012    90386661.409                  
                 120062955.425                   120062955.425    23056819.004  
                 134639784.211                   134639784.211    25856149.192  
                 115511714.023                   115511714.023    22182805.975  
                 124531137.020                   124531137.020    23914898.546  
                 127626430.509                   127626430.509    24509314.436  
  26124444.906   137284854.858                                                  
 21  9  1  6 12 49.0000000  0 14G 4G 7G 8G 9G14G20G27G30C23C24C25C32
                                C34E21
  23318500.123   122539535.735    23318501.678    95485351.476                  
  20626961.760   108395431.646    20626960.956    84463976.484                  
  21491736.343   112939796.547    21491738.702    88005026.400                  
  21010601.374   110411425.380    21010603.268    86034869.323                  
  23533089.756   123667218.663    23533090.775    96364067.902                  
  23815305.046   125150268.891    23815304.617    97519689.926                  
  22468099.812   118070636.742    22468101.348    92003088.340                  
  22072934.553   115994017.418    22072936.536    90384939.612                  
                 120061424.391                   120061424.391    23056524.987  
                 134642320.456                   134642320.456    25856636.266  
                 115512524.891                   115512524.891    22182961.704  
                 124530727.530                   124530727.530    23914819.904  
                 127624539.515                   127624539.515    24508951.302  
  26124038.743   137282720.405                                                  
 21  9  1  6 12 50.0000000  0 14G 4G 7G 8G 9G14G20G27G30C23C24C25C32
                                C34E21
  23319166.513   122543037.700    23319168.103    95488080.278                  
  20626832.406   108394751.875    20626831.602    84463446.792                  
  21491631.077   112939243.348    21491633.418    88004595.335                  
  21011003.106   110413536.422    21011004.982    86036514.289                  
  23532479.994   123664014.360    23532481.012    96361571.042                  
  23815447.766   125151018.842    23815447.337    97520274.304                  
  22468366.739   118072039.417    22468368.258    92004181.336                  
  22072514.112   115991807.960    22072516.096    90383217.957                  
                 120059893.554                   120059893.554    23056231.005  
                 134644856.725                   134644856.725    25857123.322  
                 115513335.976                   115513335.976    22183117.468  
                 124530318.610                   124530318.610    23914741.388  
                 127622648.917                   127622648.917    24508588.221  
  26123632.598   137280586.134                                                  
 21  9  1  6 12 51.0000000  0 14G 4G 7G 8G 9G14G20G27G30C23C24C25C32
                                C34E21
  23319832.956   122546539.900    23319834.546    95490809.267                  
  20626703.106   108394072.362    20626702.302    84462917.300                  
  21491525.935   112938690.838    21491528.294    88004164.813                  
  21011404.926   110415647.995    21011406.803    86038159.671                  
  23531870.303   123660810.277    23531871.303    96359074.356                  
  23815590.575   125151769.357    23815590.164    97520859.118                  
  22468633.774   118073442.759    22468635.328    92005274.847                  
  22072093.708   115989598.673    22072095.673    90381496.437                  
                 120058362.923                   120058362.923    23055937.060  
                 134647393.015                   134647393.015    25857610.396  
                 115514147.285                   115514147.285    22183273.268  
                 124529910.258                   124529910.258    23914662.961  
                 127620758.717                   127620758.717    24508225.212  
  26123226.507   137278452.053                                                  
 21  9  1  6 12 52.0000000  0 14G 4G 7G 8G 9G14G20G27G30C23C24C25C32
                                C34E21
  23320499.453   122550042.343    23320501.043    95493538.441                  
  20626573.842   108393393.108    20626573.038    84462388.015                  
  21491420.937   112938139.042    21491423.278    88003734.837                  
  21011806.836   110417760.097    21011808.713    86039805.464                  
  23531260.612   123657606.417    23531261.612    96356577.840                  
  23815733.492   125152520.411    23815733.081    97521444.355                  
  22468900.951   118074846.769    22468902.488    92006368.883                  
  22071673.321   115987389.547    22071675.305    90379775.040                  
                 120056832.507                   120056832.507    23055643.168  
                 134649929.321                   134649929.321    25858097.452  
                 115514958.785                   115514958.785    22183429.104  
                 124529502.454                   124529502.454    23914584.641  
                 127618868.910                   127618868.910    24507862.328  
  26122820.415   137276318.158                                                  
 21  9  1  6 12 53.0000000  0 14G 4G 7G 8G 9G14G20G27G30C23C24C25C32
                                C34E21
  23321166.003   122553545.015    23321167.558    95496267.798                  
  20626444.649   108392714.118    20626443.844    84461858.929                  
  21491316.064   112937587.926    21491318.422    88003305.398                  
  21012208.854   110419872.718    21012210.748    86041451.667                  
  23530650.974   123654402.777    23530651.993    96354081.499                  
  23815876.515   125153272.023    23815876.104    97522030.027                  
  22469168.254   118076251.448    22469169.773    92007463.441                  
  22071252.953   115985180.594    22071254.936    90378053.777                  
                 120055302.269                   120055302.269    23055349.276  
                 134652465.651                   134652465.651    25858584.543  
                 115515770.531                   115515770.531    22183584.993  
                 124529095.235                   124529095.235    23914506.446  
                 127616979.504                   127616979.504    24507499.461  
  26122414.395   137274184.450                                                  
 21  9  1  6 12 54.0000000  0 14G 4G 7G 8G 9G14G20G27G30C23C24C25C32
                                C34E21
  23321832.571   122557047.919    23321834.144    95498997.329                  
  20626315.473   108392035.386    20626314.687    84461330.050                  
  21491211.315   112937037.497    21491213.656    88002876.488                  
  21012610.978   110421985.876    21012612.854    86043098.281                  
  23530041.408   123651199.360    23530042.409    96351585.328                  
  23816019.664   125154024.196    23816019.235    97522616.133                  
  22469435.700   118077656.820    22469437.219    92008558.536                  
  22070832.637   115982971.796    22070834.621    90376332.637                  
                 120053772.232                   120053772.232    23055055.456  
                 134655002.013                   134655002.013    25859071.617  
                 115516582.497                   115516582.497    22183740.918  
                 124528688.583                   124528688.583    23914428.340  
                 127615090.493                   127615090.493    24507136.702  
  26122008.393   137272050.930                                                  
 21  9  1  6 12 55.0000000  0 14G 4G 7G 8G 9G14G20G27G30C23C24C25C32
                                C34E21
  23322499.193   122560551.064    23322500.783    95501727.050                  
  20626186.352   108391356.921    20626185.566    84460801.376                  
  21491106.692   112936487.763    21491109.069    88002448.128                  
  21013013.192   110424099.562    21013015.086    86044745.309                  
  23529431.842   123647996.172    23529432.861    96349089.339                  
  23816162.902   125154776.911    23816162.473    97523202.665                  
  22469703.253   118079062.855    22469704.771    92009654.145                  
  22070412.358   115980763.172    22070414.341    90374611.633                  
                 120052242.389                   120052242.389    23054761.671  
                 134657538.387                   134657538.387    25859558.709  
                 115517394.684                   115517394.684    22183896.897  
                 124528282.499                   124528282.499    23914350.360  
                 127613201.875                   127613201.875    24506774.015  
  26121602.445   137269917.609                                                  
 21  9  1  6 12 56.0000000  0 14G 4G 7G 8G 9G14G20G27G30C23C24C25C32
                                C34E21
  23323165.886   122564054.437    23323167.441    95504456.953                  
  20626057.320   108390678.726    20626056.516    84460272.910                  
  21491002.212   112935938.707    21491004.589    88002020.293                  
  21013415.513   110426213.776    21013417.407    86046392.749                  
  23528822.348   123644793.207    23528823.366    96346593.520                  
  23816306.247   125155530.184    23816305.819    97523789.633                  
  22469970.948   118080469.559    22469972.467    92010750.278                  
  22069992.096   115978554.724    22069994.080    90372890.762                  
                 120050712.750                   120050712.750    23054467.923  
                 134660074.789                   134660074.789    25860045.801  
                 115518207.089                   115518207.089    22184052.911  
                 124527876.981                   124527876.981    23914272.487  
                 127611313.656                   127611313.656    24506411.399  
  26121196.514   137267784.476                                                  
 21  9  1  6 12 57.0000000  0 14G 4G 7G 8G 9G14G20G27G30C23C24C25C32
                                C34E21
  23323832.597   122567558.051    23323834.152    95507187.042                  
  20625928.305   108390000.780    20625927.501    84459744.640                  
  21490897.875   112935390.344    21490900.216    88001592.997                  
  21013817.941   110428328.525    21013819.818    86048040.600                  
  23528212.889   123641590.462    23528213.907    96344097.879                  
  23816449.682   125156284.012    23816449.253    97524377.028                  
  22470238.751   118081876.944    22470240.288    92011846.942                  
  22069571.888   115976346.437    22069573.854    90371170.019                  
                 120049183.309                   120049183.309    23054174.192  
                 134662611.210                   134662611.210    25860532.874  
                 115519019.715                   115519019.715    22184208.961  
                 124527472.030                   124527472.030    23914194.721  
                 127609425.832                   127609425.832    24506048.854  
  26120790.637   137265651.529                                                  
 21  9  1  6 12 58.0000000  0 14G 4G 7G 8G 9G14G20G27G30C23C24C25C32
                                C34E21
  23324499.362   122571061.894    23324500.917    95509917.309                  
  20625799.345   108389323.101    20625798.540    84459216.581                  
  21490793.663   112934842.708    21490796.021    88001166.265                  
  21014220.459   110430443.801    21014222.335    86049688.870                  
  23527603.466   123638387.934    23527604.467    96341602.398                  
  23816593.242   125157038.388    23816592.813    97524964.856                  
  22470506.697   118083285.001    22470508.216    92012944.129                  
  22069151.680   115974138.308    22069153.682    90369449.399                  
                 120047654.065                   120047654.065    23053880.532  
                 134665147.653                   134665147.653    25861019.984  
                 115519832.563                   115519832.563    22184365.065  
                 124527067.649                   124527067.649    23914117.062  
                 127607538.403                   127607538.403    24505686.399  
  26120384.778   137263518.769                                                  
 21  9  1  6 12 59.0000000  0 14G 4G 7G 8G 9G14G20G27G30C23C24C25C32
                                C34E21
  23325166.162   122574565.980    23325167.717    95512647.762                  
  20625670.437   108388645.684    20625669.633    84458688.724                  
  21490689.576   112934295.754    21490691.934    88000740.071                  
  21014623.102   110432559.597    21014624.978    86051337.542                  
  23526994.079   123635185.632    23526995.097    96339107.102                  
  23816736.909   125157793.316    23816736.480    97525553.110                  
  22470774.786   118084693.727    22470776.305    92014041.840                  
  22068731.526   115971930.356    22068733.527    90367728.917                  
                 120046125.022                   120046125.022    23053586.908  
                 134667684.117                   134667684.117    25861507.076  
                 115520645.628                   115520645.628    22184521.205  
                 124526663.832                   124526663.832    23914039.528  
                 127605651.375                   127605651.375    24505324.015  
  26119978.955   137261386.196                                                  
 21  9  1  6 13  0.0000000  0 14G 4G 7G 8G 9G14G20G27G30C23C24C25C32
                                C34E21
  23325832.999   122578070.293    23325834.571    95515378.395                  
  20625541.584   108387968.531    20625540.780    84458161.069                  
  21490585.632   112933749.497    21490587.972    88000314.415                  
  21015025.816   110434675.924    21015027.692    86052986.629                  
  23526384.745   123631983.556    23526385.763    96336611.976                  
  23816880.665   125158548.795    23816880.236    97526141.797                  
  22471042.983   118086103.116    22471044.501    92015140.063                  
  22068311.408   115969722.571    22068313.373    90366008.563                  
                 120044596.180                   120044596.180    23053293.302  
                 134670220.606                   134670220.606    25861994.203  
                 115521458.914                   115521458.914    22184677.380  
                 124526260.585                   124526260.585    23913962.084  
                 127603764.738                   127603764.738    24504961.721  
  26119573.185   137259253.818                                                  
 21  9  1  6 13  1.0000000  0 14G 4G 7G 8G 9G14G20G27G30C23C24C25C32
                                C34E21
  23326499.906   122581574.852    23326501.479    95518109.218                  
  20625412.766   108387291.630    20625411.962    84457633.614                  
  21490481.813   112933203.919    21490484.153    87999889.289                  
  21015428.637   110436792.783    21015430.513    86054636.124                  
  23525775.465   123628781.694    23525776.466    96334117.019                  
  23817024.546   125159304.836    23817024.118    97526730.917                  
  22471311.304   118087513.181    22471312.823    92016238.817                  
  22067891.307   115967514.953    22067893.272    90364288.343                  
                 120043067.535                   120043067.535    23052999.732  
                 134672757.114                   134672757.114    25862481.295  
                 115522272.418                   115522272.418    22184833.627  
                 124525857.906                   124525857.906    23913884.747  
                 127601878.501                   127601878.501    24504599.480  
  26119167.433   137257121.621                                                  
 21  9  1  6 13  2.0000000  0 14G 4G 7G 8G 9G14G20G27G30C23C24C25C32
                                C34E21
  23327166.832   122585079.634    23327168.422    95520840.219                  
  20625284.002   108386614.996    20625283.198    84457106.367                  
  21490378.119   112932659.042    21490380.477    87999464.711                  
  21015831.566   110438910.172    21015833.442    86056286.040                  
  23525166.203   123625580.070    23525167.221    96331622.247                  
  23817168.517   125160061.433    23817168.088    97527320.472                  
  22471579.768   118088923.925    22471581.287    92017338.098                  
  22067471.242   115965307.497    22067473.225    90362568.250                  
                 120041539.088                   120041539.088    23052706.216  
                 134675293.644                   134675293.644    25862968.422  
                 115523086.144                   115523086.144    22184989.873  
                 124525455.793                   124525455.793    23913807.517  
                 127599992.660                   127599992.660    24504237.328  
  26118761.735   137254989.612                                                  
 21  9  1  6 13  3.0000000  0 14G 4G 7G 8G 9G14G20G27G30C23C24C25C32
                                C34E21
  23327833.829   122588584.656    23327835.401    95523571.403                  
  20625155.291   108385938.626    20625154.505    84456579.323                  
  21490274.586   112932114.863    21490276.926    87999040.676                  
  21016234.602   110441028.081    21016236.478    86057936.363                  
  23524556.994   123622378.660    23524557.995    96329127.642                  
  23817312.577   125160818.574    23817312.166    97527910.453                  
  22471848.339   118090335.336    22471849.858    92018437.899                  
  22067051.195   115963100.210    22067053.178    90360848.289                  
                 120040010.839                   120040010.839    23052412.717  
                 134677830.195                   134677830.195    25863455.532  
                 115523900.090                   115523900.090    22185146.192  
                 124525054.247                   124525054.247    23913730.412  
                 127598107.220                   127598107.220    24503875.248  
  26118356.054   137252857.812                                                  
 21  9  1  6 13  4.0000000  0 14G 4G 7G 8G 9G14G20G27G30C23C24C25C32
                                C34E21
  23328500.862   122592089.914    23328502.416    95526302.772                  
  20625026.634   108385262.514    20625025.848    84456052.488                  
  21490171.142   112931571.356    21490173.500    87998617.164                  
  21016637.727   110443146.538    21016639.603    86059587.105                  
  23523947.821   123619177.473    23523948.840    96326633.210                  
  23817456.780   125161576.275    23817456.351    97528500.872                  
  22472117.054   118091747.425    22472118.573    92019538.226                  
  22066631.201   115960893.100    22066633.203    90359128.460                  
                 120038482.794                   120038482.794    23052119.272  
                 134680366.770                   134680366.770    25863942.659  
                 115524714.255                   115524714.255    22185302.546  
                 124524653.268                   124524653.268    23913653.397  
                 127596222.173                   127596222.173    24503513.240  
  26117950.445   137250726.179                                                  
 21  9  1  6 13  5.0000000  0 14G 4G 7G 8G 9G14G20G27G30C23C24C25C32
                                C34E21
  23329167.912   122595595.403    23329169.503    95529034.325                  
  20624898.049   108384586.679    20624897.245    84455525.860                  
  21490067.841   112931028.542    21490070.200    87998194.192                  
  21017040.941   110445265.507    21017042.817    86061238.251                  
  23523338.702   123615976.506    23523339.720    96324138.948                  
  23817601.055   125162334.530    23817600.644    97529091.718                  
  22472385.893   118093160.192    22472387.412    92020639.083                  
  22066211.243   115958686.149    22066213.227    90357408.757                  
                 120036954.946                   120036954.946    23051825.880  
                 134682903.364                   134682903.364    25864429.787  
                 115525528.640                   115525528.640    22185458.935  
                 124524252.856                   124524252.856    23913576.524  
                 127594337.518                   127594337.518    24503151.321  
  26117544.837   137248594.742                                                  
 21  9  1  6 13  6.0000000  0 14G 4G 7G 8G 9G14G20G27G30C23C24C25C32
                                C34E21
  23329835.034   122599101.135    23329836.625    95531766.062                  
  20624769.481   108383911.101    20624768.677    84454999.438                  
  21489964.683   112930486.414    21489967.042    87997771.755                  
  21017444.281   110447385.012    21017446.157    86062889.813                  
  23522729.618   123612775.763    23522730.637    96321644.867                  
  23817745.454   125163093.323    23817745.043    97529682.985                  
  22472654.858   118094573.625    22472656.377    92021740.461                  
  22065791.304   115956479.379    22065793.287    90355689.194                  
                 120035427.293                   120035427.293    23051532.507  
                 134685439.979                   134685439.979    25864916.914  
                 115526343.246                   115526343.246    22185615.379  
                 124523853.014                   124523853.014    23913499.723  
                 127592453.265                   127592453.265    24502789.455  
  26117139.263   137246463.487                                                  
 21  9  1  6 13  7.0000000  0 14G 4G 7G 8G 9G14G20G27G30C23C24C25C32
                                C34E21
  23330502.192   122602607.097    23330503.783    95534497.980                  
  20624640.967   108383235.776    20624640.163    84454473.211                  
  21489861.668   112929944.973    21489863.991    87997349.855                  
  21017847.692   110449505.039    21017849.586    86064541.781                  
  23522120.588   123609575.245    23522121.607    96319150.957                  
  23817889.961   125163852.673    23817889.532    97530274.687                  
  22472923.965   118095987.727    22472925.484    92022842.354                  
  22065371.399   115954272.765    22065373.383    90353969.757                  
                 120033899.843                   120033899.843    23051239.187  
                 134687976.620                   134687976.620    25865404.042  
                 115527158.071                   115527158.071    22185771.858  
                 124523453.740                   124523453.740    23913423.065  
                 127590569.410                   127590569.410    24502427.679  
  26116733.744   137244332.417                                                  
 21  9  1  6 13  8.0000000  0 14G 4G 7G 8G 9G14G20G27G30C23C24C25C32
                                C34E21
  23331169.422   122606113.273    23331170.976    95537230.063                  
  20624512.507   108382560.718    20624511.703    84453947.192                  
  21489758.743   112929404.204    21489761.101    87996928.472                  
  21018251.246   110451625.589    21018253.122    86066194.157                  
  23521511.594   123606374.956    23521512.595    96316657.223                  
  23818034.575   125164612.616    23818034.164    97530866.852                  
  22473193.180   118097402.506    22473194.699    92023944.785                  
  22064951.513   115952066.318    22064953.496    90352250.445                  
                 120032372.588                   120032372.588    23050945.885  
                 134690513.282                   134690513.282    25865891.187  
                 115527973.116                   115527973.116    22185928.372  
                 124523055.026                   124523055.026    23913346.478  
                 127588685.953                   127588685.953    24502065.974  
  26116328.260   137242201.562                                                  
 21  9  1  6 13  9.0000000  0 14G 4G 7G 8G 9G14G20G27G30C23C24C25C32
                                C34E21
  23331836.669   122609619.707    23331838.241    95539962.347                  
  20624384.100   108381885.930    20624383.296    84453421.378                  
  21489655.978   112928864.157    21489658.337    87996507.656                  
  21018654.854   110453746.673    21018656.748    86067846.950                  
  23520902.636   123603174.884    23520903.637    96314163.661                  
  23818179.278   125165373.078    23818178.867    97531459.418                  
  22473462.520   118098817.952    22473464.039    92025047.730                  
  22064531.680   115949860.038    22064533.664    90350531.269                  
                 120030845.540                   120030845.540    23050652.618  
                 134693049.961                   134693049.961    25866378.332  
                 115528788.380                   115528788.380    22186084.941  
                 124522656.888                   124522656.888    23913270.017  
                 127586802.892                   127586802.892    24501704.359  
  26115922.794   137240070.874                                                  
 21  9  1  6 13 10.0000000  0 14G 4G 7G 8G 9G14G20G27G30C23C24C25C32
                                C34E21
  23332503.952   122613126.364    23332505.542    95542694.809                  
  20624255.747   108381211.400    20624254.943    84452895.773                  
  21489553.338   112928324.788    21489555.697    87996087.371                  
  21019058.586   110455868.273    21019060.462    86069500.145                  
  23520293.713   123599975.033    23520294.732    96311670.270                  
  23818324.107   125166134.098    23818323.678    97532052.423                  
  22473732.002   118100234.067    22473733.521    92026151.196                  
  22064111.883   115947653.928    22064113.867    90348812.227                  
                 120029318.684                   120029318.684    23050359.423  
                 134695586.663                   134695586.663    25866865.477  
                 115529603.864                   115529603.864    22186241.545  
                 124522259.311                   124522259.311    23913193.680  
                 127584920.226                   127584920.226    24501342.815  
  26115517.381   137237940.379                                                  
 21  9  1  6 13 11.0000000  0 14G 4G 7G 8G 9G14G20G27G30C23C24C25C32
                                C34E21
  23333171.306   122616633.259    23333172.879    95545427.452                  
  20624127.447   108380537.137    20624126.625    84452370.371                  
  21489450.841   112927786.120    21489453.182    87995667.632                  
  21019462.426   110457990.414    21019464.302    86071153.761                  
  23519684.862   123596775.410    23519685.863    96309177.059                  
  23818469.025   125166895.667    23818468.596    97532645.851                  
  22474001.628   118101650.854    22474003.147    92027255.188                  
  22063692.104   115945447.992    22063694.088    90347093.313                  
                 120027792.028                   120027792.028    23050066.246  
                 134698123.391                   134698123.391    25867352.641  
                 115530419.570                   115530419.570    22186398.185  
                 124521862.308                   124521862.308    23913117.433  
                 127583037.961                   127583037.961    24500981.342  
  26115112.005   137235810.078                                                  
 21  9  1  6 13 12.0000000  0 14G 4G 7G 8G 9G14G20G27G30C23C24C25C32
                                C34E21
  23333838.678   122620140.391    23333840.269    95548160.281                  
  20623999.183   108379863.129    20623998.379    84451845.177                  
  21489348.452   112927248.148    21489350.829    87995248.432                  
  21019866.338   110460113.079    21019868.214    86072807.781                  
  23519076.046   123593576.007    23519077.047    96306684.016                  
  23818614.067   125167657.802    23818613.639    97533239.720                  
  22474271.343   118103068.313    22474272.862    92028359.699                  
  22063272.361   115943242.214    22063274.344    90345374.523                  
                 120026265.573                   120026265.573    23049773.105  
                 134700660.137                   134700660.137    25867839.786  
                 115531235.494                   115531235.494    22186554.878  
                 124521465.871                   124521465.871    23913041.293  
                 127581156.089                   127581156.089    24500619.959  
  26114706.646   137233679.962                                                  
 21  9  1  6 13 13.0000000  0 14G 4G 7G 8G 9G14G20G27G30C23C24C25C32
                                C34E21
  23334506.122   122623647.758    23334507.677    95550893.294                  
  20623870.955   108379189.392    20623870.151    84451320.180                  
  21489246.223   112926710.865    21489248.582    87994829.766                  
  21020270.374   110462236.273    21020272.268    86074462.222                  
  23518467.249   123590376.833    23518468.267    96304191.153                  
  23818759.182   125168420.474    23818758.753    97533834.007                  
  22474541.201   118104486.444    22474542.720    92029464.738                  
  22062852.635   115941036.612    22062854.619    90343655.874                  
                 120024739.316                   120024739.316    23049479.999  
                 134703196.903                   134703196.903    25868326.931  
                 115532051.635                   115532051.635    22186711.625  
                 124521070.001                   124521070.001    23912965.278  
                 127579274.618                   127579274.618    24500258.647  
  26114301.341   137231550.039                                                  
 21  9  1  6 13 14.0000000  0 14G 4G 7G 8G 9G14G20G27G30C23C24C25C32
                                C34E21
  23335173.602   122627155.331    23335175.156    95553626.456                  
  20623742.799   108378515.883    20623741.995    84450795.356                  
  21489144.102   112926174.304    21489146.460    87994411.692                  
  21020674.500   110464360.004    21020676.394    86076117.077                  
  23517858.505   123587177.856    23517859.523    96301698.435                  
  23818904.421   125169183.715    23818903.992    97534428.750                  
  22474811.202   118105905.203    22474812.721    92030570.237                  
  22062432.964   115938831.219    22062434.947    90341937.400                  
                 120023213.259                   120023213.259    23049186.911  
                 134705733.692                   134705733.692    25868814.112  
                 115532868.001                   115532868.001    22186868.372  
                 124520674.695                   124520674.695    23912889.353  
                 127577393.546                   127577393.546    24499897.407  
  26113896.054   137229420.284                                                  
 21  9  1  6 13 15.0000000  0 14G 4G 7G 8G 9G14G20G27G30C23C24C25C32
                                C34E21
  23335841.099   122630663.168    23335842.671    95556359.840                  
  20623614.696   108377842.665    20623613.892    84450270.771                  
  21489042.141   112925638.415    21489044.482    87993994.118                  
  21021078.733   110466484.251    21021080.627    86077772.335                  
  23517249.797   123583979.122    23517250.815    96299205.917                  
  23819049.768   125169947.508    23819049.339    97535023.913                  
  22475081.328   118107324.681    22475082.847    92031676.328                  
  22062013.327   115936625.948    22062015.293    90340219.012                  
                 120021687.397                   120021687.397    23048893.895  
                 134708270.505                   134708270.505    25869301.275  
                 115533684.582                   115533684.582    22187025.209  
                 124520279.956                   124520279.956    23912813.553  
                 127575512.866                   127575512.866    24499536.239  
  26113490.820   137227290.734                                                  
 21  9  1  6 13 16.0000000  0 14G 4G 7G 8G 9G14G20G27G30C23C24C25C32
                                C34E21
  23336508.686   122634171.233    23336510.240    95559093.395                  
  20623486.646   108377169.711    20623485.842    84449746.395                  
  21488940.288   112925103.207    21488942.646    87993577.071                  
  21021483.055   110468609.020    21021484.967    86079427.995                  
  23516641.160   123580780.615    23516642.160    96296713.574                  
  23819195.222   125170711.847    23819194.793    97535619.504                  
  22475351.561   118108744.836    22475353.080    92032782.941                  
  22061593.691   115934420.851    22061595.675    90338500.754                  
                 120020161.739                   120020161.739    23048600.915  
                 134710807.335                   134710807.335    25869788.457  
                 115534501.384                   115534501.384    22187182.063  
                 124519885.790                   124519885.790    23912737.859  
                 127573632.591                   127573632.591    24499175.141  
  26113085.622   137225161.375                                                  
 21  9  1  6 13 17.0000000  0 14G 4G 7G 8G 9G14G20G27G30C23C24C25C32
                                C34E21
  23337176.272   122637679.528    23337177.863    95561827.129                  
  20623358.615   108376497.021    20623357.828    84449222.219                  
  21488838.559   112924568.656    21488840.918    87993160.540                  
  21021887.503   110470734.324    21021889.379    86081084.083                  
  23516032.541   123577582.324    23516033.542    96294221.401                  
  23819340.783   125171476.746    23819340.354    97536215.527                  
  22475621.938   118110165.652    22475623.456    92033890.075                  
  22061174.127   115932215.927    22061176.092    90336782.629                  
                 120018636.278                   120018636.278    23048307.952  
                 134713344.188                   134713344.188    25870275.620  
                 115535318.406                   115535318.406    22187338.953  
                 124519492.189                   124519492.189    23912662.273  
                 127571752.711                   127571752.711    24498814.134  
  26112680.442   137223032.195                                                  
 21  9  1  6 13 18.0000000  0 14G 4G 7G 8G 9G14G20G27G30C23C24C25C32
                                C34E21
  23337843.948   122641188.066    23337845.503    95564561.055                  
  20623230.655   108375824.586    20623229.868    84448698.246                  
  21488736.974   112924034.800    21488739.315    87992744.546                  
  21022292.040   110472860.162    21022293.916    86082740.575                  
  23515423.958   123574384.265    23515424.976    96291729.405                  
  23819486.433   125172242.197    23819486.022    97536811.985                  
  22475892.439   118111587.146    22475893.958    92034997.725                  
  22060754.562   115930011.153    22060756.545    90335064.626                  
                 120017111.015                   120017111.015    23048015.061  
                 134715881.065                   134715881.065    25870762.801  
                 115536135.647                   115536135.647    22187495.897  
                 124519099.157                   124519099.157    23912586.795  
                 127569873.226                   127569873.226    24498453.197  
  26112275.315   137220903.203                                                  
 21  9  1  6 13 19.0000000  0 14G 4G 7G 8G 9G14G20G27G30C23C24C25C32
                                C34E21
  23338511.624   122644696.824    23338513.197    95567295.152                  
  20623102.766   108375152.421    20623101.962    84448174.481                  
  21488635.514   112923501.632    21488637.854    87992329.095                  
  21022696.666   110474986.513    21022698.542    86084397.472                  
  23514815.446   123571186.430    23514816.447    96289237.585                  
  23819632.209   125173008.202    23819631.780    97537408.872                  
  22476163.065   118113009.300    22476164.584    92036105.902                  
  22060335.033   115927806.555    22060337.017    90333346.755                  
                 120015585.953                   120015585.953    23047722.188  
                 134718417.962                   134718417.962    25871250.000  
                 115536953.109                   115536953.109    22187652.876  
                 124518706.692                   124518706.692    23912511.441  
                 127567994.145                   127567994.145    24498092.332  
  26111870.225   137218774.411                                                  
 21  9  1  6 13 20.0000000  0 14G 4G 7G 8G 9G14G20G27G30C23C24C25C32
                                C34E21
  23339179.354   122648205.829    23339180.944    95570029.441                  
  20622974.895   108374480.520    20622974.091    84447650.922                  
  21488534.196   112922969.176    21488536.537    87991914.192                  
  21023101.399   110477113.401    21023103.275    86086054.792                  
  23514206.952   123567988.811    23514207.953    96286745.937                  
  23819778.056   125173774.753    23819777.645    97538006.185                  
  22476433.817   118114432.141    22476435.335    92037214.609                  
  22059915.540   115925602.129    22059917.541    90331629.023                  
                 120014061.089                   120014061.089    23047429.368  
                 134720954.879                   134720954.879    25871737.181  
                 115537770.792                   115537770.792    22187809.927  
                 124518314.794                   124518314.794    23912436.177  
                 127566115.457                   127566115.457    24497731.557  
  26111465.152   137216645.806                                                  
 21  9  1  6 13 21.0000000  0 14G 4G 7G 8G 9G14G20G27G30C23C24C25C32
                                C34E21
  23339847.155   122651715.059    23339848.728    95572763.906                  
  20622847.096   108373808.884    20622846.292    84447127.567                  
  21488433.004   112922437.422    21488435.363    87991499.840                  
  21023506.240   110479240.817    21023508.116    86087712.515                  
  23513598.494   123564791.424    23513599.513    96284254.464                  
  23819924.046   125174541.868    23819923.617    97538603.934                  
  22476704.693   118115855.645    22476706.212    92038323.833                  
  22059496.100   115923397.869    22059498.084    90329911.415                  
                 120012536.425                   120012536.425    23047136.566  
                 134723491.820                   134723491.820    25872224.380  
                 115538588.693                   115538588.693    22187966.978  
                 124517923.460                   124517923.460    23912361.020  
                 127564237.168                   127564237.168    24497370.853  
  26111060.132   137214517.380                                                  
 21  9  1  6 13 22.0000000  0 14G 4G 7G 8G 9G14G20G27G30C23C24C25C32
                                C34E21
  23340514.974   122655224.530    23340516.564    95575498.559                  
  20622719.333   108373137.503    20622718.546    84446604.415                  
  21488331.937   112921906.357    21488334.296    87991086.019                  
  21023911.152   110481368.759    21023913.064    86089370.653                  
  23512990.107   123561594.258    23512991.126    96281763.163                  
  23820070.125   125175309.529    23820069.696    97539202.113                  
  22476975.713   118117279.820    22476977.231    92039433.578                  
  22059076.661   115921193.769    22059078.644    90328193.937                  
                 120011011.962                   120011011.962    23046843.800  
                 134726028.781                   134726028.781    25872711.579  
                 115539406.812                   115539406.812    22188124.100  
                 124517532.700                   124517532.700    23912285.988  
                 127562359.282                   127562359.282    24497010.220  
  26110655.149   137212389.145                                                  
 21  9  1  6 13 23.0000000  0 14G 4G 7G 8G 9G14G20G27G30C23C24C25C32
                                C34E21
  23341182.865   122658734.233    23341184.437    95578233.391                  
  20622591.623   108372466.391    20622590.819    84446081.469                  
  21488231.013   112921375.996    21488233.353    87990672.753                  
  21024316.207   110483497.223    21024318.083    86091029.194                  
  23512381.757   123558397.317    23512382.757    96279272.043                  
  23820216.311   125176077.741    23820215.900    97539800.718                  
  22477246.857   118118704.665    22477248.376    92040543.847                  
  22058657.275   115918989.849    22058659.258    90326476.599                  
                 120009487.696                   120009487.696    23046551.088  
                 134728565.765                   134728565.765    25873198.777  
                 115540225.152                   115540225.152    22188281.240  
                 124517142.500                   124517142.500    23912211.045  
                 127560481.789                   127560481.789    24496649.659  
  26110250.201   137210261.106                                                  
 21  9  1  6 13 24.0000000  0 14G 4G 7G 8G 9G14G20G27G30C23C24C25C32
                                C34E21
  23341850.773   122662244.165    23341852.363    95580968.398                  
  20622463.966   108371795.535    20622463.162    84445558.722                  
  21488130.231   112920846.343    21488132.572    87990260.039                  
  21024721.333   110485626.221    21024723.227    86092688.156                  
  23511773.441   123555200.596    23511774.442    96276781.094                  
  23820362.605   125176846.510    23820362.176    97540399.762                  
  22477518.127   118120130.182    22477519.646    92041654.641                  
  22058237.925   115916786.093    22058239.908    90324759.384                  
                 120007963.628                   120007963.628    23046258.393  
                 134731102.770                   134731102.770    25873685.976  
                 115541043.710                   115541043.710    22188438.434  
                 124516752.876                   124516752.876    23912136.227  
                 127558604.695                   127558604.695    24496289.205  
  26109845.271   137208133.252                                                  
 21  9  1  6 13 25.0000000  0 14G 4G 7G 8G 9G14G20G27G30C23C24C25C32
                                C34E21
  23342518.735   122665754.329    23342520.325    95583703.590                  
  20622336.364   108371124.946    20622335.560    84445036.187                  
  21488029.575   112920317.379    21488031.916    87989847.855                  
  21025126.585   110487755.750    21025128.461    86094347.527                  
  23511165.162   123552004.111    23511166.181    96274290.324                  
  23820509.006   125177615.832    23820508.577    97540999.231                  
  22477789.522   118121556.368    22477791.040    92042765.957                  
  22057818.574   115914582.513    22057820.558    90323042.309                  
                 120006439.758                   120006439.758    23045965.752  
                 134733639.792                   134733639.792    25874173.175  
                 115541862.492                   115541862.492    22188595.681  
                 124516363.813                   124516363.813    23912061.499  
                 127556727.999                   127556727.999    24495928.805  
  26109440.395   137206005.590                                                  
 21  9  1  6 13 26.0000000  0 14G 4G 7G 8G 9G14G20G27G30C23C24C25C32
                                C34E21
  23343186.733   122669264.730    23343188.323    95586438.968                  
  20622208.797   108370454.619    20622207.993    84444513.852                  
  21487929.044   112919789.097    21487931.403    87989436.210                  
  21025531.908   110489885.802    21025533.802    86096007.305                  
  23510556.936   123548807.836    23510557.937    96271799.722                  
  23820655.496   125178385.702    23820655.085    97541599.129                  
  22478061.041   118122983.226    22478062.560    92043877.792                  
  22057399.278   115912379.103    22057401.279    90321325.364                  
                 120004916.089                   120004916.089    23045673.147  
                 134736176.840                   134736176.840    25874660.392  
                 115542681.489                   115542681.489    22188752.965  
                 124515975.320                   124515975.320    23911986.896  
                 127554851.707                   127554851.707    24495568.476  
  26109035.554   137203878.114                                                  
 21  9  1  6 13 27.0000000  0 14G 4G 7G 8G 9G14G20G27G30C23C24C25C32
                                C34E21
  23343854.802   122672775.364    23343856.374    95589174.526                  
  20622081.283   108369784.558    20622080.479    84443991.731                  
  21487828.638   112919261.492    21487830.997    87989025.089                  
  21025937.338   110492016.379    21025939.214    86097667.495                  
  23509948.746   123545611.790    23509949.765    96269309.292                  
  23820802.111   125179156.133    23820801.700    97542199.465                  
  22478332.686   118124410.753    22478334.205    92044990.153                  
  22056980.017   115910175.854    22056982.000    90319608.551                  
                 120003392.620                   120003392.620    23045380.577  
                 134738713.911                   134738713.911    25875147.627  
                 115543500.707                   115543500.707    22188910.283  
                 124515587.395                   124515587.395    23911912.400  
                 127552975.807                   127552975.807    24495208.218  
  26108630.731   137201750.833                                                  
 21  9  1  6 13 28.0000000  0 14G 4G 7G 8G 9G14G20G27G30C23C24C25C32
                                C34E21
  23344522.889   122676286.331    23344524.461    95591910.391                  
  20621953.841   108369114.676    20621953.055    84443469.706                  
  21487728.357   112918734.685    21487730.698    87988614.634                  
  21026342.893   110494147.384    21026344.805    86099327.968                  
  23509340.574   123542416.120    23509341.575    96266819.235                  
  23820948.834   125179927.141    23820948.423    97542800.251                  
  22478604.456   118125838.973    22478605.975    92046103.054                  
  22056560.792   115907972.770    22056562.775    90317891.855                  
                 120001869.398                   120001869.398    23045088.044  
                 134741250.997                   134741250.997    25875634.861  
                 115544320.149                   115544320.149    22189067.656  
                 124515200.036                   124515200.036    23911838.011  
                 127551100.425                   127551100.425    24494848.032  
  26108225.980   137199623.742                                                  
 21  9  1  6 13 29.0000000  0 14G 4G 7G 8G 9G14G20G27G30C23C24C25C32
                                C34E21
  23345191.012   122679797.417    23345192.602    95594646.302                  
  20621826.435   108368445.132    20621825.631    84442947.983                  
  21487628.237   112918208.479    21487630.578    87988204.606                  
  21026748.538   110496279.011    21026750.432    86100988.977                  
  23508732.473   123539220.512    23508733.474    96264329.149                  
  23821095.664   125180698.664    23821095.235    97543401.437                  
  22478876.351   118127267.835    22478877.888    92047216.453                  
  22056141.602   115905769.859    22056143.586    90316175.301                  
                 120000346.319                   120000346.319    23044795.563  
                 134743788.101                   134743788.101    25876122.078  
                 115545139.800                   115545139.800    22189225.064  
                 124514813.238                   124514813.238    23911763.747  
                 127549225.320                   127549225.320    24494487.936  
  26107821.247   137197496.837                                                  
 21  9  1  6 13 30.0000000  0 14G 4G 7G 8G 9G14G20G27G30C23C24C25C32
                                C34E21
  23345859.224   122683308.757    23345860.778    95597382.402                  
  20621699.083   108367775.854    20621698.279    84442426.464                  
  21487528.242   112917682.981    21487530.583    87987795.118                  
  21027154.272   110498411.176    21027156.184    86102650.399                  
  23508124.426   123536025.150    23508125.427    96261839.249                  
  23821242.583   125181470.755    23821242.154    97544003.058                  
  22479148.407   118128697.372    22479149.926    92048330.376                  
  22055722.449   115903567.119    22055724.414    90314458.875                  
                 119998823.449                   119998823.449    23044503.101  
                 134746325.233                   134746325.233    25876609.295  
                 115545959.676                   115545959.676    22189382.508  
                 124514427.019                   124514427.019    23911689.573  
                 127547350.621                   127547350.621    24494127.929  
  26107416.531   137195370.107                                                  
 21  9  1  6 13 31.0000000  0 14G 4G 7G 8G 9G14G20G27G30C23C24C25C32
                                C34E21
  23346527.436   122686820.312    23346529.008    95600118.681                  
  20621571.766   108367106.838    20621570.980    84441905.153                  
  21487428.354   112917158.155    21487430.695    87987386.160                  
  21027560.113   110500543.862    21027562.025    86104312.230                  
  23507516.397   123532829.996    23507517.398    96259349.519                  
  23821389.591   125182243.395    23821389.180    97544605.117                  
  22479420.552   118130127.599    22479422.071    92049444.836                  
  22055303.295   115901364.551    22055305.278    90312742.589                  
                 119997300.774                   119997300.774    23044210.692  
                 134748862.392                   134748862.392    25877096.547  
                 115546779.775                   115546779.775    22189540.006  
                 124514041.364                   124514041.364    23911615.524  
                 127545476.321                   127545476.321    24493767.975  
  26107011.887   137193243.574                                                  
 21  9  1  6 13 32.0000000  0 14G 4G 7G 8G 9G14G20G27G30C23C24C25C32
                                C34E21
  23347195.719   122690332.107    23347197.274    95602855.140                  
  20621444.503   108366438.083    20621443.717    84441384.043                  
  21487328.627   112916634.007    21487330.968    87986977.735                  
  21027966.062   110502677.074    21027967.938    86105974.474                  
  23506908.421   123529635.071    23506909.422    96256859.970                  
  23821536.743   125183016.581    23821536.314    97545207.602                  
  22479692.840   118131558.480    22479694.377    92050559.808                  
  22054884.195   115899162.145    22054886.178    90311026.431                  
                 119995778.300                   119995778.300    23043918.319  
                 134751399.565                   134751399.565    25877583.782  
                 115547600.086                   115547600.086    22189697.539  
                 124513656.277                   124513656.277    23911541.564  
                 127543602.419                   127543602.419    24493408.129  
  26106607.243   137191117.231                                                  
 21  9  1  6 13 33.0000000  0 14G 4G 7G 8G 9G14G20G27G30C23C24C25C32
                                C34E21
  23347864.021   122693844.134    23347865.593    95605591.782                  
  20621317.293   108365769.593    20621316.507    84440863.141                  
  21487229.025   112916110.557    21487231.366    87986569.855                  
  21028372.082   110504810.809    21028373.976    86107637.126                  
  23506300.499   123526440.367    23506301.482    96254370.589                  
  23821683.983   125183790.319    23821683.555    97545810.513                  
  22479965.254   118132990.033    22479966.773    92051675.304                  
  22054465.113   115896959.912    22054467.096    90309310.402                  
                 119994256.024                   119994256.024    23043625.982  
                 134753936.762                   134753936.762    25878071.017  
                 115548420.622                   115548420.622    22189855.108  
                 124513271.759                   124513271.759    23911467.711  
                 127541728.913                   127541728.913    24493048.336  
  26106202.653   137188991.071                                                  
 21  9  1  6 13 34.0000000  0 14G 4G 7G 8G 9G14G20G27G30C23C24C25C32
                                C34E21
  23348532.394   122697356.396    23348533.966    95608328.610                  
  20621190.137   108365101.363    20621189.333    84440342.445                  
  21487129.548   112915587.812    21487131.871    87986162.520                  
  21028778.227   110506945.077    21028780.121    86109300.192                  
  23505692.595   123523245.891    23505693.596    96251881.388                  
  23821831.314   125184564.615    23821830.903    97546413.855                  
  22480237.792   118134422.249    22480239.329    92052791.317                  
  22054046.084   115894757.840    22054048.068    90307594.505                  
                 119992733.950                   119992733.950    23043333.681  
                 134756473.981                   134756473.981    25878558.287  
                 115549241.375                   115549241.375    22190012.713  
                 124512887.808                   124512887.808    23911393.984  
                 127539855.808                   127539855.808    24492688.615  
  26105798.098   137186865.095                                                  
 21  9  1  6 13 35.0000000  0 14G 4G 7G 8G 9G14G20G27G30C23C24C25C32
                                C34E21
  23349200.802   122700868.890    23349202.357    95611065.618                  
  20621063.035   108364433.406    20621062.249    84439821.957                  
  21487030.178   112915065.747    21487032.519    87985755.714                  
  21029184.461   110509079.874    21029186.355    86110963.668                  
  23505084.762   123520051.641    23505085.763    96249392.364                  
  23821978.769   125185339.462    23821978.340    97547017.632                  
  22480510.473   118135855.149    22480511.992    92053907.862                  
  22053627.073   115892555.944    22053629.057    90305878.742                  
                 119991212.069                   119991212.069    23043041.415  
                 134759011.219                   134759011.219    25879045.522  
                 115550062.347                   115550062.347    22190170.371  
                 124512504.427                   124512504.427    23911320.363  
                 127537983.104                   127537983.104    24492329.001  
  26105393.579   137184739.328                                                  
 21  9  1  6 13 36.0000000  0 14G 4G 7G 8G 9G14G20G27G30C23C24C25C32
                                C34E21
  23349869.247   122704381.612    23349870.819    95613802.804                  
  20620935.986   108363765.702    20620935.182    84439301.667                  
  21486930.988   112914544.360    21486933.328    87985349.437                  
  21029590.803   110511215.192    21029592.697    86112627.550                  
  23504476.965   123516857.609    23504477.966    96246903.507                  
  23822126.313   125186114.854    23822125.902    97547621.841                  
  22480783.280   118137288.706    22480784.799    92055024.922                  
  22053208.098   115890354.216    22053210.082    90304163.109                  
                 119989690.392                   119989690.392    23042749.203  
                 134761548.482                   134761548.482    25879532.774  
                 115550883.542                   115550883.542    22190328.083  
                 124512121.610                   124512121.610    23911246.832  
                 127536110.802                   127536110.802    24491969.440  
  26104989.096   137182613.734                                                  
 21  9  1  6 13 37.0000000  0 14G 4G 7G 8G 9G14G20G27G30C23C24C25C32
                                C34E21
  23350537.745   122707894.564    23350539.299    95616540.169                  
  20620808.955   108363098.253    20620808.151    84438781.577                  
  21486831.886   112914023.668    21486834.227    87984943.708                  
  21029997.234   110513351.034    21029999.146    86114291.844                  
  23503869.204   123513663.808    23503870.205    96244414.831                  
  23822273.983   125186890.805    23822273.554    97548226.473                  
  22481056.193   118138722.944    22481057.712    92056142.508                  
  22052789.159   115888152.646    22052791.143    90302447.598                  
                 119988168.909                   119988168.909    23042457.026  
                 134764085.763                   134764085.763    25880020.045  
                 115551704.953                   115551704.953    22190485.813  
                 124511739.360                   124511739.360    23911173.444  
                 127534238.895                   127534238.895    24491609.969  
  26104584.666   137180488.339                                                  
 21  9  1  6 13 38.0000000  0 14G 4G 7G 8G 9G14G20G27G30C23C24C25C32
                                C34E21
  23351206.279   122711407.759    23351207.833    95619277.723                  
  20620681.996   108362431.079    20620681.192    84438261.704                  
  21486732.945   112913503.687    21486735.286    87984538.527                  
  21030403.772   110515487.406    21030405.684    86115956.550                  
  23503261.479   123510470.236    23503262.479    96241926.332                  
  23822421.742   125187667.310    23822421.313    97548831.539                  
  22481329.268   118140157.848    22481330.787    92057260.613                  
  22052370.238   115885951.255    22052372.221    90300732.231                  
                 119986647.630                   119986647.630    23042164.868  
                 134766623.067                   134766623.067    25880507.297  
                 115552526.587                   115552526.587    22190643.614  
                 124511357.680                   124511357.680    23911100.146  
                 127532367.392                   127532367.392    24491250.551  
  26104180.237   137178363.129                                                  
 21  9  1  6 13 39.0000000  0 14G 4G 7G 8G 9G14G20G27G30C23C24C25C32
                                C34E21
  23351874.866   122714921.177    23351876.421    95622015.449                  
  20620555.108   108361764.161    20620554.304    84437742.028                  
  21486634.112   112912984.389    21486636.452    87984133.880                  
  21030810.417   110517624.298    21030812.311    86117621.661                  
  23502653.807   123507276.878    23502654.808    96239438.001                  
  23822569.608   125188444.354    23822569.197    97549437.031                  
  22481602.432   118141593.430    22481603.968    92058379.250                  
  22051951.352   115883750.022    22051953.336    90299016.989                  
                 119985126.548                   119985126.548    23041872.763  
                 134769160.391                   134769160.391    25880994.568  
                 115553348.434                   115553348.434    22190801.434  
                 124510976.570                   124510976.570    23911026.954  
                 127530496.281                   127530496.281    24490891.223  
  26103775.861   137176238.099                                                  
 21  9  1  6 13 40.0000000  0 18G 4G 7G 8G 9G14G20G27G30C23C24C25C32
                                C34E 7E19E21E27E30
  23352543.471   122718434.824    23352545.062    95624753.356                  
  20620428.238   108361097.516    20620427.434    84437222.562                  
  21486535.439   112912465.790    21486537.780    87983729.774                  
  21031217.152   110519761.718    21031219.064    86119287.183                  
  23502046.189   123504083.749    23502047.154    96236949.851                  
  23822717.581   125189221.957    23822717.153    97550042.958                  
  22481875.738   118143029.676    22481877.257    92059498.403                  
  22051532.520   115881548.966    22051534.504    90297301.876                  
                 119983605.667                   119983605.667    23041580.676  
                 134771697.733                   134771697.733    25881481.838  
                 115554170.504                   115554170.504    22190959.324  
                 124510596.024                   124510596.024    23910953.888  
                 127528625.578                   127528625.578    24490531.984  
  25377291.934   133358546.570                                                  
  25718923.119   135153847.376                                                  
  26103371.521   137174113.273                                                  
  23338274.324   122643450.367                                                  
  24657919.985   129578223.901                                                  
 21  9  1  6 13 41.0000000  0 18G 4G 7G 8G 9G14G20G27G30C23C24C25C32
                                C34E 7E19E21E27E30
  23353212.166   122721948.708    23353213.720    95627491.446                  
  20620301.421   108360431.130    20620300.635    84436703.302                  
  21486436.873   112911947.875    21486439.214    87983326.206                  
  21031623.994   110521899.669    21031625.888    86120953.114                  
  23501438.588   123500890.840    23501439.589    96234461.868                  
  23822865.662   125190000.117    23822865.233    97550649.314                  
  22482149.188   118144466.599    22482150.707    92060618.083                  
  22051113.706   115879348.083    22051115.671    90295586.902                  
                 119982084.984                   119982084.984    23041288.660  
                 134774235.101                   134774235.101    25881969.126  
                 115554992.793                   115554992.793    22191117.215  
                 124510216.048                   124510216.048    23910880.893  
                 127526755.270                   127526755.270    24490172.799  
  25377787.907   133361152.862                                                  
  25718519.940   135151728.625                                                  
  26102967.216   137171988.630                                                  
  23338262.566   122643388.477                                                  
  24658332.403   129580391.170                                                  
 21  9  1  6 13 42.0000000  0 18G 4G 7G 8G 9G14G20G27G30C23C24C25C32
                                C34E 7E19E21E27E30
  23353880.878   122725462.827    23353882.433    95630229.723                  
  20620174.659   108359765.013    20620173.872    84436184.245                  
  21486338.469   112911430.649    21486340.792    87982923.173                  
  21032030.925   110524038.139    21032032.819    86122619.457                  
  23500831.041   123497698.163    23500832.024    96231974.070                  
  23823013.832   125190778.817    23823013.421    97551256.093                  
  22482422.745   118145904.179    22482424.264    92061738.278                  
  22050694.927   115877147.364    22050696.893    90293872.054                  
                 119980564.499                   119980564.499    23040996.663  
                 134776772.492                   134776772.492    25882456.379  
                 115555815.306                   115555815.306    22191275.177  
                 124509836.639                   124509836.639    23910808.041  
                 127524885.364                   127524885.364    24489813.721  
  25378283.915   133363759.418                                                  
  25718116.815   135149610.161                                                  
  26102562.965   137169864.175                                                  
  23338250.844   122643326.871                                                  
  24658744.837   129582558.536                                                  
 21  9  1  6 13 43.0000000  0 18G 4G 7G 8G 9G14G20G27G30C23C24C25C32
                                C34E 7E19E21E27E30
  23354549.626   122728977.176    23354551.199    95632968.171                  
  20620047.967   108359099.148    20620047.163    84435665.390                  
  21486240.153   112910914.119    21486242.494    87982520.679                  
  21032437.964   110526177.144    21032439.858    86124286.211                  
  23500223.548   123494505.704    23500224.513    96229486.436                  
  23823162.145   125191558.083    23823161.716    97551863.309                  
  22482696.445   118147342.435    22482697.963    92062858.996                  
  22050276.167   115874946.815    22050278.168    90292157.345                  
                 119979044.214                   119979044.214    23040704.719  
                 134779309.901                   134779309.901    25882943.685  
                 115556638.031                   115556638.031    22191433.175  
                 124509457.797                   124509457.797    23910735.278  
                 127523015.856                   127523015.856    24489454.697  
  25378779.977   133366366.218                                                  
  25717713.743   135147491.985                                                  
  26102158.714   137167739.919                                                  
  23338239.158   122643265.544                                                  
  24659157.308   129584725.985                                                  
 21  9  1  6 13 44.0000000  0 18G 4G 7G 8G 9G14G20G27G30C23C24C25C32
                                C34E 7E19E21E27E30
  23355218.446   122732491.759    23355220.001    95635706.808                  
  20619921.294   108358433.551    20619920.507    84435146.747                  
  21486141.999   112910398.292    21486144.340    87982118.739                  
  21032845.091   110528316.671    21032847.003    86125953.380                  
  23499616.073   123491313.473    23499617.056    96226998.984                  
  23823310.511   125192337.883    23823310.100    97552470.945                  
  22482970.252   118148781.350    22482971.788    92063980.231                  
  22049857.442   115872746.434    22049859.443    90290442.762                  
                 119977524.130                   119977524.130    23040412.792  
                 134781847.333                   134781847.333    25883430.955  
                 115557460.977                   115557460.977    22191591.227  
                 124509079.528                   124509079.528    23910662.640  
                 127521146.749                   127521146.749    24489095.744  
  25379276.092   133368973.279                                                  
  25717310.726   135145374.106                                                  
  26101754.517   137165615.836                                                  
  23338227.543   122643204.490                                                  
  24659569.761   129586893.533                                                  
 21  9  1  6 13 45.0000000  0 18G 4G 7G 8G 9G14G20G27G30C23C24C25C32
                                C34E 7E19E21E27E30
  23355887.284   122736006.568    23355888.838    95638445.622                  
  20619794.674   108357768.223    20619793.905    84434628.308                  
  21486043.987   112909883.144    21486046.328    87981717.325                  
  21033252.344   110530456.732    21033254.238    86127620.957                  
  23499008.651   123488121.474    23499009.634    96224511.714                  
  23823459.021   125193118.241    23823458.592    97553079.019                  
  22483244.202   118150220.949    22483245.720    92065101.992                  
  22049438.753   115870546.231    22049440.736    90288728.316                  
                 119976004.238                   119976004.238    23040120.920  
                 134784384.786                   134784384.786    25883918.261  
                 115558284.144                   115558284.144    22191749.296  
                 124508701.820                   124508701.820    23910590.128  
                 127519278.043                   127519278.043    24488736.880  
  25379772.262   133371580.595                                                  
  25716907.761   135143256.508                                                  
  26101350.355   137163491.958                                                  
  23338215.981   122643143.723                                                  
  24659982.267   129589061.163                                                  
 21  9  1  6 13 46.0000000  0 18G 4G 7G 8G 9G14G20G27G30C23C24C25C32
                                C34E 7E19E21E27E30
  23356556.175   122739521.608    23356557.747    95641184.613                  
  20619668.125   108357103.151    20619667.339    84434110.070                  
  21485946.083   112909368.691    21485948.424    87981316.453                  
  21033659.687   110532597.312    21033661.581    86129288.942                  
  23498401.283   123484929.695    23498402.266    96222024.613                  
  23823607.620   125193899.157    23823607.209    97553687.524                  
  22483518.277   118151661.215    22483519.796    92066224.277                  
  22049020.100   115868346.187    22049022.101    90287014.001                  
                 119974484.552                   119974484.552    23039829.083  
                 134786922.258                   134786922.258    25884405.532  
                 115559107.528                   115559107.528    22191907.419  
                 124508324.682                   124508324.682    23910517.687  
                 127517409.739                   127517409.739    24488378.106  
  25380268.467   133374188.160                                                  
  25716504.833   135141139.195                                                  
  26100946.247   137161368.269                                                  
  23338204.474   122643083.227                                                  
  24660394.756   129591228.884                                                  
 21  9  1  6 13 47.0000000  0 18G 4G 7G 8G 9G14G20G27G30C23C24C25C32
                                C34E 7E19E21E27E30
  23357225.102   122743036.884    23357226.674    95643923.786                  
  20619541.613   108356438.349    20619540.844    84433592.044                  
  21485848.303   112908854.884    21485850.644    87980916.081                  
  21034067.118   110534738.421    21034069.012    86130957.336                  
  23497793.933   123481738.136    23497794.934    96219537.684                  
  23823756.343   125194680.624    23823755.915    97554296.462                  
  22483792.459   118153102.141    22483793.996    92067347.079                  
  22048601.482   115866146.313    22048603.483    90285299.813                  
                 119972965.064                   119972965.064    23039537.282  
                 134789459.754                   134789459.754    25884892.838  
                 115559931.132                   115559931.132    22192065.578  
                 124507948.114                   124507948.114    23910445.389  
                 127515541.833                   127515541.833    24488019.385  
  25380764.707   133376795.964                                                  
  25716101.975   135139022.161                                                  
  26100542.157   137159244.781                                                  
  23338193.020   122643023.012                                                  
  24660807.280   129593396.684                                                  
 21  9  1  6 13 48.0000000  0 18G 4G 7G 8G 9G14G20G27G30C23C24C25C32
                                C34E 7E19E21E27E30
  23357894.082   122746552.385    23357895.655    95646663.140                  
  20619415.154   108355773.802    20619414.385    84433074.215                  
  21485750.667   112908341.793    21485753.008    87980516.274                  
  21034474.657   110536880.057    21034476.569    86132626.144                  
  23497186.654   123478546.812    23497187.637    96217050.941                  
  23823905.139   125195462.628    23823904.728    97554905.813                  
  22484066.802   118154543.753    22484068.321    92068470.413                  
  22048182.900   115863946.610    22048184.884    90283585.754                  
                 119971445.774                   119971445.774    23039245.498  
                 134791997.271                   134791997.271    25885380.144  
                 115560754.958                   115560754.958    22192223.772  
                 124507572.113                   124507572.113    23910373.162  
                 127513674.325                   127513674.325    24487660.736  
  25381261.001   133379404.034                                                  
  25715699.172   135136905.435                                                  
  26100138.103   137157121.473                                                  
  23338181.601   122642963.070                                                  
  24661219.822   129595564.578                                                  
 21  9  1  6 13 49.0000000  0 18G 4G 7G 8G 9G14G20G27G30C23C24C25C32
                                C34E 7E19E21E27E30
  23358563.098   122750068.125    23358564.689    95649402.675                  
  20619288.766   108355109.528    20619287.962    84432556.597                  
  21485653.156   112907829.403    21485655.497    87980117.007                  
  21034882.303   110539022.214    21034884.197    86134295.359                  
  23496579.393   123475355.704    23496580.394    96214564.359                  
  23824054.059   125196245.195    23824053.648    97555515.606                  
  22484341.252   118155986.017    22484342.771    92069594.255                  
  22047764.336   115861747.073    22047766.320    90281871.832                  
                 119969926.684                   119969926.684    23038953.787  
                 134794534.804                   134794534.804    25885867.468  
                 115561579.001                   115561579.001    22192382.038  
                 124507196.679                   124507196.679    23910301.061  
                 127511807.219                   127511807.219    24487302.176  
  25381757.331   133382012.351                                                  
  25715296.440   135134788.981                                                  
  26099734.084   137154998.353                                                  
  23338170.255   122642903.406                                                  
  24661632.364   129597732.563                                                  
 21  9  1  6 13 50.0000000  0 18G 4G 7G 8G 9G14G20G27G30C23C24C25C32
                                C34E 7E19E21E27E30
  23359232.186   122753584.090    23359233.741    95652142.386                  
  20619162.396   108354445.503    20619161.592    84432039.175                  
  21485555.788   112907317.711    21485558.128    87979718.289                  
  21035290.038   110541164.895    21035291.932    86135964.976                  
  23495972.204   123472164.829    23495973.205    96212077.965                  
  23824203.087   125197028.309    23824202.658    97556125.824                  
  22484615.846   118157428.964    22484617.365    92070718.630                  
  22047345.826   115859547.710    22047347.791    90280158.042                  
                 119968407.789                   119968407.789    23038662.093  
                 134797072.364                   134797072.364    25886354.756  
                 115562403.261                   115562403.261    22192540.322  
                 124506821.812                   124506821.812    23910229.084  
                 127509940.517                   127509940.517    24486943.706  
  25382253.733   133384620.914                                                  
  25714893.744   135132672.815                                                  
  26099330.102   137152875.423                                                  
  23338158.961   122642844.019                                                  
  24662044.942   129599900.625                                                  
 21  9  1  6 13 51.0000000  0 18G 4G 7G 8G 9G14G20G27G30C23C24C25C32
                                C34E 7E19E21E27E30
  23359901.274   122757100.293    23359902.864    95654882.286                  
  20619036.080   108353781.749    20619035.294    84431521.968                  
  21485458.544   112906806.718    21485460.885    87979320.112                  
  21035697.881   110543308.110    21035699.775    86137635.017                  
  23495365.032   123468974.171    23495366.033    96209591.738                  
  23824352.204   125197811.974    23824351.793    97556736.468                  
  22484890.546   118158872.581    22484892.065    92071843.523                  
  22046927.315   115857348.526    22046929.299    90278444.395                  
                 119966889.121                   119966889.121    23038370.452  
                 134799609.945                   134799609.945    25886842.080  
                 115563227.751                   115563227.751    22192698.659  
                 124506447.492                   124506447.492    23910157.197  
                 127508074.216                   127508074.216    24486585.307  
  25382750.188   133387229.727                                                  
  25714491.119   135130556.958                                                  
  26098926.154   137150752.684                                                  
  23338147.704   122642784.908                                                  
  24662457.520   129602068.777                                                  
 21  9  1  6 13 52.0000000  0 18G 4G 7G 8G 9G14G20G27G30C23C24C25C32
                                C34E 7E19E21E27E30
  23360570.433   122760616.718    23360572.023    95657622.358                  
  20618909.818   108353118.258    20618909.031    84431004.960                  
  21485361.444   112906296.418    21485363.785    87978922.475                  
  21036105.813   110545451.842    21036107.725    86139305.457                  
  23494757.914   123465783.739    23494758.915    96207105.687                  
  23824501.446   125198596.190    23824501.017    97557347.550                  
  22485165.372   118160316.855    22485166.908    92072968.934                  
  22046508.859   115855149.497    22046510.842    90276730.863                  
                 119965370.630                   119965370.630    23038078.848  
                 134802147.548                   134802147.548    25887329.404  
                 115564052.450                   115564052.450    22192857.032  
                 124506073.762                   124506073.762    23910085.417  
                 127506208.314                   127506208.314    24486226.979  
  25383246.679   133389838.792                                                  
  25714088.512   135128441.356                                                  
  26098522.261   137148630.130                                                  
  23338136.500   122642726.069                                                  
  24662870.116   129604237.003                                                  
 21  9  1  6 13 53.0000000  0 18G 4G 7G 8G 9G14G20G27G30C23C24C25C32
                                C34E 7E19E21E27E30
  23361239.646   122764133.376    23361241.200    95660362.606                  
  20618783.627   108352455.032    20618782.823    84430488.161                  
  21485264.469   112905786.824    21485266.792    87978525.390                  
  21036513.852   110547596.103    21036515.764    86140976.305                  
  23494150.832   123462593.530    23494151.833    96204619.812                  
  23824650.777   125199380.964    23824650.366    97557959.063                  
  22485440.358   118161761.812    22485441.877    92074094.875                  
  22046090.438   115852950.642    22046092.421    90275017.469                  
                 119963852.332                   119963852.332    23037787.261  
                 134804685.169                   134804685.169    25887816.728  
                 115564877.370                   115564877.370    22193015.459  
                 124505700.602                   124505700.602    23910013.763  
                 127504342.809                   127504342.809    24485868.723  
  25383743.205   133392448.106                                                  
  25713685.994   135126326.044                                                  
  26098118.385   137146507.767                                                  
  23338125.368   122642667.509                                                  
  24663282.747   129606405.331                                                  
 21  9  1  6 13 54.0000000  0 18G 4G 7G 8G 9G14G20G27G30C23C24C25C32
                                C34E 7E19E21E27E30
  23361908.876   122767650.266    23361910.467    95663103.040                  
  20618657.453   108351792.067    20618656.685    84429971.562                  
  21485167.619   112905277.932    21485169.960    87978128.850                  
  21036921.998   110549740.882    21036923.892    86142647.566                  
  23493543.822   123459403.556    23493544.804    96202134.118                  
  23824800.216   125200166.284    23824799.805    97558570.996                  
  22485715.434   118163207.433    22485716.953    92075221.333                  
  22045672.034   115850751.953    22045674.018    90273304.208                  
                 119962334.239                   119962334.239    23037495.746  
                 134807222.808                   134807222.808    25888304.052  
                 115565702.509                   115565702.509    22193173.922  
                 124505328.009                   124505328.009    23909942.197  
                 127502477.707                   127502477.707    24485510.557  
  25384239.803   133395057.664                                                  
  25713283.512   135124211.022                                                  
  26097714.545   137144385.597                                                  
  23338114.289   122642609.222                                                  
  24663695.379   129608573.745                                                  
 21  9  1  6 13 55.0000000  0 18G 4G 7G 8G 9G14G20G27G30C23C24C25C32
                                C34E 7E19E21E27E30
  23362578.161   122771167.390    23362579.733    95665843.656                  
  20618531.352   108351129.362    20618530.566    84429455.172                  
  21485070.912   112904769.727    21485073.252    87977732.849                  
  21037330.234   110551886.193    21037332.146    86144319.234                  
  23492936.829   123456213.796    23492937.812    96199648.591                  
  23824949.762   125200952.147    23824949.333    97559183.359                  
  22485990.653   118164653.723    22485992.171    92076348.312                  
  22045253.667   115848553.421    22045255.668    90271591.066                  
                 119960816.339                   119960816.339    23037204.248  
                 134809760.472                   134809760.472    25888791.376  
                 115566527.868                   115566527.868    22193332.420  
                 124504955.980                   124504955.980    23909870.757  
                 127500613.008                   127500613.008    24485152.461  
  25384736.419   133397667.477                                                  
  25712881.102   135122096.297                                                  
  26097310.741   137142263.610                                                  
  23338103.246   122642551.211                                                  
  24664108.028   129610742.241                                                  
 21  9  1  6 13 56.0000000  0 18G 4G 7G 8G 9G14G20G27G30C23C24C25C32
                                C34E 7E19E21E27E30
  23363247.498   122774684.743    23363249.053    95668584.448                  
  20618405.304   108350466.925    20618404.500    84428938.989                  
  21484974.347   112904262.202    21484976.688    87977337.370                  
  21037738.577   110554032.029    21037740.489    86145991.317                  
  23492329.872   123453024.270    23492330.854    96197163.242                  
  23825099.415   125201738.574    23825099.004    97559796.161                  
  22486265.996   118166100.685    22486267.533    92077475.812                  
  22044835.335   115846355.076    22044837.319    90269878.067                  
                 119959298.645                   119959298.645    23036912.787  
                 134812298.160                   134812298.160    25889278.718  
                 115567353.442                   115567353.442    22193490.954  
                 124504584.523                   124504584.523    23909799.424  
                 127498748.708                   127498748.708    24484794.438  
  25385233.107   133400277.540                                                  
  25712478.745   135119981.851                                                  
  26096906.973   137140141.816                                                  
  23338092.238   122642493.476                                                  
  24664520.695   129612910.825                                                  
 21  9  1  6 13 57.0000000  0 18G 4G 7G 8G 9G14G20G27G30C23C24C25C32
                                C34E 7E19E21E27E30
  23363916.872   122778202.328    23363918.445    95671325.426                  
  20618279.291   108349804.758    20618278.505    84428423.012                  
  21484877.908   112903755.394    21484880.231    87976942.457                  
  21038147.027   110556178.396    21038148.921    86147663.808                  
  23491722.986   123449834.986    23491723.969    96194678.087                  
  23825249.175   125202525.552    23825248.764    97560409.386                  
  22486541.483   118167548.301    22486543.002    92078603.827                  
  22044417.039   115844156.904    22044419.023    90268165.204                  
                 119957781.146                   119957781.146    23036621.361  
                 134814835.863                   134814835.863    25889766.060  
                 115568179.238                   115568179.238    22193649.541  
                 124504213.634                   124504213.634    23909728.198  
                 127496884.808                   127496884.808    24484436.503  
  25385729.812   133402887.855                                                  
  25712076.424   135117867.687                                                  
  26096503.258   137138020.215                                                  
  23338081.320   122642436.022                                                  
  24664933.380   129615079.488                                                  
 21  9  1  6 13 58.0000000  0 18G 4G 7G 8G 9G14G20G27G30C23C24C25C32
                                C34E 7E19E21E27E30
  23364586.299   122781720.136    23364587.854    95674066.571                  
  20618153.333   108349142.846    20618152.546    84427907.239                  
  21484781.576   112903249.275    21484783.917    87976548.078                  
  21038555.567   110558325.276    21038557.461    86149336.702                  
  23491116.118   123446645.886    23491117.101    96192193.079                  
  23825399.043   125203313.070    23825398.614    97561023.036                  
  22486817.077   118168996.601    22486818.596    92079732.375                  
  22043998.779   115841958.890    22044000.763    90266452.468                  
                 119956263.847                   119956263.847    23036329.989  
                 134817373.594                   134817373.594    25890253.402  
                 115569005.254                   115569005.254    22193808.165  
                 124503843.309                   124503843.309    23909657.079  
                 127495021.314                   127495021.314    24484078.622  
  25386226.606   133405498.411                                                  
  25711674.157   135115753.804                                                  
  26096099.561   137135898.797                                                  
  23338070.438   122642378.836                                                  
  24665346.083   129617248.250                                                  
 21  9  1  6 13 59.0000000  0 18G 4G 7G 8G 9G14G20G27G30C23C24C25C32
                                C34E 7E19E21E27E30
  23365255.762   122785238.176    23365257.317    95676807.903                  
  20618027.427   108348481.199    20618026.641    84427391.667                  
  21484685.405   112902743.848    21484687.746    87976154.237                  
  21038964.195   110560472.691    21038966.107    86151010.012                  
  23490509.304   123443457.035    23490510.287    96189708.253                  
  23825549.000   125204101.145    23825548.589    97561637.121                  
  22487092.814   118170445.567    22487094.333    92080861.437                  
  22043580.537   115839761.050    22043582.520    90264739.868                  
                 119954746.746                   119954746.746    23036038.634  
                 134819911.340                   134819911.340    25890740.762  
                 115569831.489                   115569831.489    22193966.842  
                 124503473.554                   124503473.554    23909586.085  
                 127493158.214                   127493158.214    24483720.849  
  25386723.419   133408109.222                                                  
  25711271.961   135113640.224                                                  
  26095695.900   137133777.563                                                  
  23338059.592   122642321.922                                                  
  24665758.804   129619417.087                                                  
 21  9  1  6 14  0.0000000  0 18G 4G 7G 8G 9G14G20G27G30C23C24C25C32
                                C34E 7E19E21E27E30
  23365925.261   122788756.453    23365926.815    95679549.415                  
  20617901.558   108347819.821    20617900.772    84426876.308                  
  21484589.359   112902239.103    21484591.700    87975760.929                  
  21039372.931   110562620.646    21039374.843    86152683.743                  
  23489902.526   123440268.411    23489903.508    96187223.613                  
  23825699.081   125204889.781    23825698.653    97562251.640                  
  22487368.676   118171895.202    22487370.195    92081991.023                  
  22043162.348   115837563.392    22043164.314    90263027.407                  
                 119953229.843                   119953229.843    23035747.316  
                 134822449.109                   134822449.109    25891228.103  
                 115570657.942                   115570657.942    22194125.536  
                 124503104.372                   124503104.372    23909515.181  
                 127491295.519                   127491295.519    24483363.129  
  25387220.285   133410720.286                                                  
  25710869.818   135111526.922                                                  
  26095292.274   137131656.535                                                  
  23338048.817   122642265.302                                                  
  24666171.525   129621586.017                                                  
 21  9  1  6 14  1.0000000  0 18G 4G 7G 8G 9G14G20G27G30C23C24C25C32
                                C34E 7E19E21E27E30
  23366594.795   122792274.960    23366596.386    95682291.108                  
  20617775.760   108347158.696    20617774.974    84426361.145                  
  21484493.438   112901735.049    21484495.779    87975368.165                  
  21039781.775   110564769.096    21039783.687    86154357.860                  
  23489295.783   123437080.006    23489296.784    96184739.144                  
  23825849.253   125205678.966    23825848.842    97562866.594                  
  22487644.663   118173345.509    22487646.182    92083121.132                  
  22042744.159   115835365.886    22042746.143    90261315.067                  
                 119951713.144                   119951713.144    23035456.068  
                 134824986.899                   134824986.899    25891715.463  
                 115571484.610                   115571484.610    22194284.303  
                 124502735.751                   124502735.751    23909444.402  
                 127489433.228                   127489433.228    24483005.498  
  25387717.204   133413331.590                                                  
  25710467.712   135109413.914                                                  
  26094888.702   137129535.692                                                  
  23338038.095   122642208.946                                                  
  24666584.282   129623755.026                                                  
 21  9  1  6 14  2.0000000  0 18G 4G 7G 8G 9G14G20G27G30C23C24C25C32
                                C34E 7E19E21E27E30
  23367264.401   122795793.701    23367265.974    95685032.980                  
  20617649.998   108346497.837    20617649.212    84425846.186                  
  21484397.660   112901231.680    21484399.983    87974975.929                  
  21040190.725   110566918.090    21040192.619    86156032.398                  
  23488689.094   123433891.843    23488690.077    96182254.859                  
  23825999.531   125206468.696    23825999.120    97563481.964                  
  22487920.757   118174796.477    22487922.276    92084251.759                  
  22042326.024   115833168.551    22042328.008    90259602.855                  
                 119950196.639                   119950196.639    23035164.839  
                 134827524.712                   134827524.712    25892202.823  
                 115572311.501                   115572311.501    22194443.105  
                 124502367.702                   124502367.702    23909373.712  
                 127487571.335                   127487571.335    24482647.939  
  25388214.160   133415943.140                                                  
  25710065.677   135107301.184                                                  
  26094485.166   137127415.028                                                  
  23338027.445   122642152.863                                                  
  24666997.038   129625924.120                                                  
 21  9  1  6 14  3.0000000  0 18G 4G 7G 8G 9G14G20G27G30C23C24C25C32
                                C34E 7E19E21E27E30
  23367934.043   122799312.659    23367935.615    95687775.028                  
  20617524.307   108345837.234    20617523.503    84425331.433                  
  21484302.008   112900729.009    21484304.348    87974584.235                  
  21040599.765   110569067.602    21040601.659    86157707.343                  
  23488082.441   123430703.878    23488083.441    96179770.735                  
  23826149.917   125207258.981    23826149.506    97564097.773                  
  22488196.994   118176248.125    22488198.513    92085382.911                  
  22041907.925   115830971.391    22041909.908    90257890.785                  
                 119948680.335                   119948680.335    23034873.645  
                 134830062.542                   134830062.542    25892690.200  
                 115573138.614                   115573138.614    22194601.942  
                 124502000.218                   124502000.218    23909303.147  
                 127485709.844                   127485709.844    24482290.451  
  25388711.187   133418554.949                                                  
  25709663.695   135105188.742                                                  
  26094081.648   137125294.563                                                  
  23338016.813   122642097.058                                                  
  24667409.813   129628093.306                                                  
 21  9  1  6 14  4.0000000  0 18G 4G 7G 8G 9G14G20G27G30C23C24C25C32
                                C34E 7E19E21E27E30
  23368603.720   122802831.852    23368605.293    95690517.258                  
  20617398.634   108345176.901    20617397.848    84424816.890                  
  21484206.480   112900227.030    21484208.821    87974193.085                  
  21041008.894   110571217.638    21041010.806    86159382.695                  
  23487475.841   123427516.164    23487476.842    96177286.797                  
  23826300.392   125208049.821    23826299.999    97564714.007                  
  22488473.357   118177700.430    22488474.876    92086514.577                  
  22041489.843   115828774.393    22041491.827    90256178.837                  
                 119947164.232                   119947164.232    23034582.505  
                 134832600.399                   134832600.399    25893177.560  
                 115573965.942                   115573965.942    22194760.816  
                 124501633.304                   124501633.304    23909232.672  
                 127483848.757                   127483848.757    24481933.053  
  25389208.231   133421167.013                                                  
  25709261.767   135103076.585                                                  
  26093678.165   137123174.274                                                  
  23338006.235   122642041.527                                                  
  24667822.623   129630262.582                                                  
 21  9  1  6 14  5.0000000  0 18G 4G 7G 8G 9G14G20G27G30C23C24C25C32
                                C34E 7E19E21E27E30
  23369273.433   122806351.283    23369275.024    95693259.667                  
  20617273.033   108344516.841    20617272.247    84424302.555                  
  21484111.077   112899725.742    21484113.418    87973802.473                  
  21041418.148   110573368.195    21041420.042    86161058.457                  
  23486869.277   123424328.675    23486870.278    96174803.042                  
  23826450.992   125208841.198    23826450.581    97565330.669                  
  22488749.862   118179153.411    22488751.381    92087646.770                  
  22041071.797   115826577.562    22041073.781    90254467.023                  
                 119945648.323                   119945648.323    23034291.383  
                 134835138.270                   134835138.270    25893664.938  
                 115574793.488                   115574793.488    22194919.743  
                 124501266.960                   124501266.960    23909162.321  
                 127481988.071                   127481988.071    24481575.744  
  25389705.348   133423779.318                                                  
  25708859.893   135100964.724                                                  
  26093274.719   137121054.182                                                  
  23337995.728   122641986.277                                                  
  24668235.433   129632431.935                                                  
 21  9  1  6 14  6.0000000  0 18G 4G 7G 8G 9G14G20G27G30C23C24C25C32
                                C34E 7E19E21E27E30
  23369943.218   122809870.936    23369944.773    95696002.257                  
  20617147.485   108343857.030    20617146.681    84423788.417                  
  21484015.817   112899225.169    21484018.158    87973412.409                  
  21041827.474   110575519.281    21041829.368    86162734.625                  
  23486262.767   123421141.380    23486263.767    96172319.433                  
  23826601.699   125209633.129    23826601.288    97565947.758                  
  22489026.474   118180607.051    22489027.993    92088779.477                  
  22040653.787   115824380.899    22040655.789    90252755.337                  
                 119944132.621                   119944132.621    23034000.297  
                 134837676.167                   134837676.167    25894152.298  
                 115575621.255                   115575621.255    22195078.706  
                 124500901.179                   124500901.179    23909092.078  
                 127480127.786                   127480127.786    24481218.489  
  25390202.482   133426391.833                                                  
  25708458.072   135098853.145                                                  
  26092871.325   137118934.278                                                  
  23337985.257   122641931.297                                                  
  24668648.261   129634601.378                                                  
 21  9  1  6 14  7.0000000  0 18G 4G 7G 8G 9G14G20G27G30C23C24C25C32
                                C34E 7E19E21E27E30
  23370613.020   122813390.831    23370614.593    95698745.032                  
  20617021.955   108343197.490    20617021.187    84423274.491                  
  21483920.700   112898725.283    21483923.041    87973022.890                  
  21042236.907   110577670.895    21042238.801    86164411.207                  
  23485656.274   123417954.331    23485657.275    96169836.023                  
  23826752.496   125210425.597    23826752.103    97566565.266                  
  22489303.212   118182061.367    22489304.749    92089912.712                  
  22040235.813   115822184.414    22040237.797    90251043.788                  
                 119942617.114                   119942617.114    23033709.264  
                 134840214.082                   134840214.082    25894639.675  
                 115576449.237                   115576449.237    22195237.704  
                 124500535.972                   124500535.972    23909021.942  
                 127478267.902                   127478267.902    24480861.323  
  25390699.687   133429004.602                                                  
  25708056.323   135096741.862                                                  
  26092467.968   137116814.573                                                  
  23337974.857   122641876.590                                                  
  24669061.125   129636770.919                                                  
 21  9  1  6 14  8.0000000  0 18G 4G 7G 8G 9G14G20G27G30C23C24C25C32
                                C34E 7E19E21E27E30
  23371282.876   122816910.925    23371284.467    95701487.962                  
  20616896.515   108342538.216    20616895.729    84422760.769                  
  21483825.709   112898226.065    21483828.032    87972633.894                  
  21042646.447   110579823.040    21042648.341    86166088.204                  
  23485049.853   123414767.520    23485050.836    96167352.794                  
  23826903.418   125211218.664    23826903.007    97567183.238                  
  22489580.093   118183516.360    22489581.611    92091046.473                  
  22039817.857   115819988.106    22039819.858    90249332.383                  
                 119941101.804                   119941101.804    23033418.267  
                 134842752.020                   134842752.020    25895127.088  
                 115577277.440                   115577277.440    22195396.757  
                 124500171.329                   124500171.329    23908951.914  
                 127476408.423                   127476408.423    24480504.228  
  25391196.947   133431617.734                                                  
  25707654.591   135094630.834                                                  
  26092064.628   137114695.042                                                  
  23337964.493   122641822.165                                                  
  24669473.989   129638940.515                                                  
 21  9  1  6 14  9.0000000  0 18G 4G 7G 8G 9G14G20G27G30C23C24C25C32
                                C34E 7E19E21E27E30
  23371952.786   122820431.274    23371954.359    95704231.087                  
  20616771.092   108341879.203    20616770.324    84422247.253                  
  21483730.842   112897727.549    21483733.183    87972245.442                  
  21043056.077   110581975.698    21043057.989    86167765.602                  
  23484443.468   123411580.923    23484444.468    96164869.727                  
  23827054.447   125212012.251    23827054.018    97567801.617                  
  22489857.098   118184972.005    22489858.617    92092180.737                  
  22039399.954   115817791.956    22039401.937    90247621.093                  
                 119939586.695                   119939586.695    23033127.306  
                 134845289.981                   134845289.981    25895614.466  
                 115578105.864                   115578105.864    22195555.845  
                 124499807.258                   124499807.258    23908881.992  
                 127474549.339                   127474549.339    24480147.205  
  25391694.241   133434231.019                                                  
  25707252.932   135092520.124                                                  
  26091661.324   137112575.704                                                  
  23337954.200   122641768.007                                                  
  24669886.852   129641110.220                                                  
 21  9  1  6 14 10.0000000  0 18G 4G 7G 8G 9G14G20G27G30C23C24C25C32
                                C34E 7E19E21E27E30
  23372622.714   122823951.849    23372624.304    95706974.390                  
  20616645.759   108341220.464    20616644.955    84421733.949                  
  21483636.101   112897229.723    21483638.441    87971857.519                  
  21043465.813   110584128.888    21043467.725    86169443.410                  
  23483837.118   123408394.555    23483838.119    96162386.843                  
  23827205.565   125212806.392    23827205.136    97568420.425                  
  22490134.247   118186428.337    22490135.766    92093315.543                  
  22038982.087   115815595.982    22038984.052    90245909.945                  
                 119938071.784                   119938071.784    23032836.380  
                 134847827.957                   134847827.957    25896101.862  
                 115578934.507                   115578934.507    22195714.986  
                 124499443.749                   124499443.749    23908812.196  
                 127472690.663                   127472690.663    24479790.253  
  25392191.572   133436844.574                                                  
  25706851.343   135090409.695                                                  
  26091258.056   137110456.563                                                  
  23337943.943   122641714.133                                                  
  24670299.752   129643280.001                                                  
 21  9  1  6 14 11.0000000  0 18G 4G 7G 8G 9G14G20G27G30C23C24C25C32
                                C34E 7E19E21E27E30
  23373292.713   122827472.647    23373294.285    95709717.871                  
  20616520.443   108340561.985    20616519.657    84421220.852                  
  21483541.502   112896732.587    21483543.843    87971470.140                  
  21043875.657   110586282.603    21043877.551    86171121.629                  
  23483230.822   123405208.425    23483231.823    96159904.148                  
  23827356.773   125213601.081    23827356.362    97569039.669                  
  22490411.485   118187885.320    22490413.003    92094450.855                  
  22038564.220   115813400.175    22038566.221    90244198.929                  
                 119936557.074                   119936557.074    23032545.508  
                 134850365.956                   134850365.956    25896589.257  
                 115579763.367                   115579763.367    22195874.163  
                 124499080.812                   124499080.812    23908742.507  
                 127470832.390                   127470832.390    24479433.391  
  25392688.956   133439458.372                                                  
  25706449.808   135088299.551                                                  
  26090854.842   137108337.600                                                  
  23337933.740   122641660.533                                                  
  24670712.651   129645449.867                                                  
 21  9  1  6 14 12.0000000  0 18G 4G 7G 8G 9G14G20G27G30C23C24C25C32
                                C34E 7E19E21E27E30
  23373962.747   122830993.680    23373964.320    95712461.531                  
  20616395.199   108339903.774    20616394.395    84420707.962                  
  21483447.046   112896236.157    21483449.387    87971083.316                  
  21044285.608   110588436.840    21044287.502    86172800.254                  
  23482624.562   123402022.512    23482625.563    96157421.616                  
  23827508.123   125214396.329    23827507.695    97569659.335                  
  22490688.883   118189342.978    22490690.402    92095586.692                  
  22038146.424   115811204.539    22038148.407    90242488.043                  
                 119935042.564                   119935042.564    23032254.654  
                 134852903.981                   134852903.981    25897076.652  
                 115580592.445                   115580592.445    22196033.358  
                 124498718.440                   124498718.440    23908672.925  
                 127468974.516                   127468974.516    24479076.618  
  25393186.394   133442072.414                                                  
  25706048.291   135086189.688                                                  
  26090451.663   137106218.846                                                  
  23337923.608   122641607.208                                                  
  24671125.604   129647619.824                                                  
 21  9  1  6 14 13.0000000  0 18G 4G 7G 8G 9G14G20G27G30C23C24C25C32
                                C34E 7E19E21E27E30
  23374632.818   122834514.942    23374634.408    95715205.371                  
  20616269.991   108339245.823    20616269.205    84420195.269                  
  21483352.698   112895740.414    21483355.039    87970697.018                  
  21044695.649   110590591.606    21044697.543    86174479.294                  
  23482018.337   123398836.819    23482019.338    96154939.263                  
  23827659.546   125215192.116    23827659.135    97570279.434                  
  22490966.371   118190801.302    22490967.908    92096723.046                  
  22037728.646   115809009.087    22037730.612    90240777.302                  
                 119933528.251                   119933528.251    23031963.836  
                 134855442.024                   134855442.024    25897564.066  
                 115581421.742                   115581421.742    22196192.625  
                 124498356.641                   124498356.641    23908603.432  
                 127467117.046                   127467117.046    24478719.899  
  25393683.886   133444686.720                                                  
  25705646.864   135084080.116                                                  
  26090048.502   137104100.269                                                  
  23337913.495   122641554.156                                                  
  24671538.540   129649789.872                                                  
 21  9  1  6 14 14.0000000  0 18G 4G 7G 8G 9G14G20G27G30C23C24C25C32
                                C34E 7E19E21E27E30
  23375302.942   122838036.433    23375304.497    95717949.390                  
  20616144.837   108338588.128    20616144.032    84419682.781                  
  21483258.492   112895245.364    21483260.815    87970311.270                  
  21045105.779   110592746.888    21045107.673    86176158.730                  
  23481412.184   123395651.358    23481413.167    96152457.083                  
  23827811.075   125215988.458    23827810.664    97570899.957                  
  22491244.020   118192260.286    22491245.539    92097859.922                  
  22037310.886   115806813.782    22037312.852    90239066.677                  
                 119932014.137                   119932014.137    23031673.071  
                 134857980.087                   134857980.087    25898051.461  
                 115582251.262                   115582251.262    22196351.927  
                 124497995.411                   124497995.411    23908534.065  
                 127465259.980                   127465259.980    24478363.287  
  25394181.413   133447301.257                                                  
  25705245.472   135081970.840                                                  
  26089645.377   137101981.879                                                  
  23337903.452   122641501.383                                                  
  24671951.493   129651959.988                                                  
 21  9  1  6 14 15.0000000  0 18G 4G 7G 8G 9G14G20G27G30C23C24C25C32
                                C34E 7E19E21E27E30
  23375973.102   122841558.202    23375974.674    95720693.653                  
  20616019.736   108337930.701    20616018.931    84419170.495                  
  21483164.412   112894750.962    21483166.753    87969925.996                  
  21045516.016   110594902.704    21045517.928    86177838.589                  
  23480806.031   123392466.149    23480807.032    96149975.114                  
  23827962.711   125216785.386    23827962.318    97571520.964                  
  22491521.776   118193719.895    22491523.295    92098997.261                  
  22036893.162   115804618.636    22036895.146    90237356.157                  
                 119930500.223                   119930500.223    23031382.342  
                 134860518.167                   134860518.167    25898538.875  
                 115583080.995                   115583080.995    22196511.265  
                 124497634.743                   124497634.743    23908464.804  
                 127463403.313                   127463403.313    24478006.728  
  25394678.994   133449916.036                                                  
  25704844.151   135079861.917                                                  
  26089242.305   137099863.785                                                  
  23337893.463   122641448.885                                                  
  24672364.482   129654130.156                                                  
 21  9  1  6 14 16.0000000  0 18G 4G 7G 8G 9G14G20G27G30C23C24C25C32
                                C34E 7E19E21E27E30
  23376643.297   122845080.148    23376644.888    95723438.024                  
  20615894.688   108337273.531    20615893.884    84418658.415                  
  21483070.474   112894257.259    21483072.797    87969541.292                  
  21045926.360   110597059.030    21045928.254    86179518.841                  
  23480199.968   123389281.137    23480200.933    96147493.288                  
  23828114.473   125217582.820    23828114.062    97572142.343                  
  22491799.675   118195180.226    22491801.194    92100135.179                  
  22036475.474   115802423.665    22036477.457    90235645.788                  
                 119928986.504                   119928986.504    23031091.649  
                 134863056.274                   134863056.274    25899026.306  
                 115583910.948                   115583910.948    22196670.657  
                 124497274.647                   124497274.647    23908395.633  
                 127461547.050                   127461547.050    24477650.241  
  25395176.628   133452531.075                                                  
  25704442.885   135077753.214                                                  
  26088839.252   137097745.776                                                  
  23337883.528   122641396.655                                                  
  24672777.488   129656300.462                                                  
 21  9  1  6 14 17.0000000  0 18G 4G 7G 8G 9G14G20G27G30C23C24C25C32
                                C34E 7E19E21E27E30
  23377313.564   122848602.328    23377315.119    95726182.578                  
  20615769.676   108336616.634    20615768.872    84418146.547                  
  21482976.662   112893764.275    21482979.003    87969157.149                  
  21046336.776   110599215.882    21046338.688    86181199.505                  
  23479593.904   123386096.348    23479594.905    96145011.632                  
  23828266.324   125218380.805    23828265.913    97572764.149                  
  22492077.699   118196641.227    22492079.218    92101273.621                  
  22036057.821   115800228.880    22036059.805    90233935.564                  
                 119927472.989                   119927472.989    23030800.991  
                 134865594.404                   134865594.404    25899513.719  
                 115584741.126                   115584741.126    22196830.085  
                 124496915.116                   124496915.116    23908326.605  
                 127459691.191                   127459691.191    24477293.844  
  25395674.298   133455146.356                                                  
  25704041.654   135075644.789                                                  
  26088436.252   137095627.973                                                  
  23337873.647   122641344.707                                                  
  24673190.477   129658470.857                                                  
 21  9  1  6 14 18.0000000  0 18G 4G 7G 8G 9G14G20G27G30C23C24C25C32
                                C34E 7E19E21E27E30
  23377983.832   122852124.743    23377985.422    95728927.308                  
  20615644.718   108335959.995    20615643.932    84417634.874                  
  21482882.975   112893272.009    21482885.316    87968773.558                  
  21046747.316   110601373.271    21046749.228    86182880.582                  
  23478987.894   123382911.788    23478988.895    96142530.157                  
  23828418.282   125219179.345    23828417.853    97573386.379                  
  22492355.849   118198102.887    22492357.368    92102412.570                  
  22035640.204   115798034.265    22035642.188    90232225.474                  
                 119925959.671                   119925959.671    23030510.387  
                 134868132.548                   134868132.548    25900001.133  
                 115585571.516                   115585571.516    22196989.548  
                 124496556.157                   124496556.157    23908257.666  
                 127457835.736                   127457835.736    24476937.518  
  25396172.022   133457761.897                                                  
  25703640.494   135073536.661                                                  
  26088033.287   137093510.340                                                  
  23337863.819   122641293.043                                                  
  24673603.520   129660641.324                                                  
 21  9  1  6 14 19.0000000  0 18G 4G 7G 8G 9G14G20G27G30C23C24C25C32
                                C34E 7E19E21E27E30
  23378654.188   122855647.378    23378655.760    95731672.223                  
  20615519.814   108335303.624    20615519.028    84417123.418                  
  21482789.448   112892780.433    21482791.771    87968390.514                  
  21047157.964   110603531.176    21047159.858    86184562.067                  
  23478381.956   123379727.462    23478382.938    96140048.859                  
  23828570.348   125219978.427    23828569.919    97574009.038                  
  22492634.105   118199565.226    22492635.642    92103552.055                  
  22035222.623   115795839.820    22035224.606    90230515.516                  
                 119924446.554                   119924446.554    23030219.801  
                 134870670.716                   134870670.716    25900488.564  
                 115586402.126                   115586402.126    22197149.064  
                 124496197.766                   124496197.766    23908188.835  
                 127455980.679                   127455980.679    24476581.281  
  25396669.782   133460377.685                                                  
  25703239.388   135071428.820                                                  
  26087630.341   137091392.904                                                  
  23337854.044   122641241.646                                                  
  24674016.562   129662811.880                                                  
 21  9  1  6 14 20.0000000  0 18G 4G 7G 8G 9G14G20G27G30C23C24C25C32
                                C34E 7E19E21E27E30
  23379324.562   122859170.245    23379326.135    95734417.312                  
  20615394.963   108334647.516    20615394.177    84416612.163                  
  21482696.011   112892289.547    21482698.352    87968008.003                  
  21047568.702   110605689.619    21047570.596    86186243.968                  
  23477776.035   123376543.360    23477777.018    96137567.743                  
  23828722.520   125220778.067    23828722.091    97574632.141                  
  22492912.505   118201028.227    22492914.041    92104692.058                  
  22034805.060   115793645.548    22034807.043    90228805.692                  
                 119922933.631                   119922933.631    23029929.269  
                 134873208.901                   134873208.901    25900975.995  
                 115587232.952                   115587232.952    22197308.599  
                 124495839.941                   124495839.941    23908120.129  
                 127454126.027                   127454126.027    24476225.115  
  25397167.595   133462993.725                                                  
  25702838.336   135069321.258                                                  
  26087227.448   137089275.649                                                  
  23337844.306   122641190.525                                                  
  24674429.623   129664982.521                                                  
 21  9  1  6 14 21.0000000  0 18G 4G 7G 8G 9G14G20G27G30C23C24C25C32
                                C34E 7E19E21E27E30
  23379994.972   122862693.353    23379996.563    95737162.586                  
  20615270.166   108333991.673    20615269.379    84416101.114                  
  21482602.735   112891799.362    21482605.076    87967626.043                  
  21047979.546   110607848.566    21047981.440    86187926.267                  
  23477170.168   123373359.480    23477171.168    96135086.793                  
  23828874.782   125221578.247    23828874.353    97575255.656                  
  22493191.047   118202491.892    22493192.566    92105832.574                  
  22034387.514   115791451.437    22034389.516    90227095.995                  
                 119921420.913                   119921420.913    23029638.754  
                 134875747.112                   134875747.112    25901463.444  
                 115588063.999                   115588063.999    22197468.205  
                 124495482.686                   124495482.686    23908051.512  
                 127452271.782                   127452271.782    24475869.021  
  25397665.461   133465610.009                                                  
  25702437.337   135067214.001                                                  
  26086824.573   137087158.595                                                  
  23337834.621   122641139.668                                                  
  24674842.701   129667153.247                                                  
 21  9  1  6 14 22.0000000  0 18G 4G 7G 8G 9G14G20G27G30C23C24C25C32
                                C34E 7E19E21E27E30
  23380665.454   122866216.674    23380667.026    95739908.036                  
  20615145.422   108333336.094    20615144.618    84415590.278                  
  21482509.602   112891309.879    21482511.942    87967244.625                  
  21048390.462   110610008.044    21048392.374    86189608.972                  
  23476564.336   123370175.824    23476565.319    96132606.027                  
  23829027.151   125222378.985    23829026.740    97575879.605                  
  22493469.696   118203956.246    22493471.215    92106973.629                  
  22033970.040   115789257.520    22033972.024    90225386.450                  
                 119919908.395                   119919908.395    23029348.293  
                 134878285.344                   134878285.344    25901950.875  
                 115588895.270                   115588895.270    22197627.847  
                 124495125.996                   124495125.996    23907983.020  
                 127450417.935                   127450417.935    24475513.017  
  25398163.382   133468226.539                                                  
  25702036.374   135065107.023                                                  
  26086421.752   137085041.730                                                  
  23337825.007   122641089.102                                                  
  24675255.779   129669324.058                                                  
 21  9  1  6 14 23.0000000  0 18G 4G 7G 8G 9G14G20G27G30C23C24C25C32
                                C34E 7E19E21E27E30
  23381335.953   122869740.222    23381337.543    95742653.655                  
  20615020.696   108332680.779    20615019.928    84415079.640                  
  21482416.575   112890821.058    21482418.916    87966863.726                  
  21048801.503   110612168.050    21048803.398    86191292.099                  
  23475958.541   123366992.402    23475959.541    96130125.438                  
  23829179.646   125223180.254    23829179.217    97576503.973                  
  22493748.489   118205421.243    22493750.008    92108115.188                  
  22033552.584   115787063.738    22033554.568    90223677.012                  
                 119918396.071                   119918396.071    23029057.868  
                 134880823.593                   134880823.593    25902438.324  
                 115589726.753                   115589726.753    22197787.525  
                 124494769.878                   124494769.878    23907914.635  
                 127448564.492                   127448564.492    24475157.084  
  25398661.338   133470843.328                                                  
  25701635.500   135063000.327                                                  
  26086018.966   137082925.039                                                  
  23337815.411   122641038.802                                                  
  24675668.875   129671494.948                                                  
 21  9  1  6 14 24.0000000  0 18G 4G 7G 8G 9G14G20G27G30C23C24C25C32
                                C34E 7E19E21E27E30
  23382006.524   122873263.987    23382008.096    95745399.437                  
  20614896.060   108332025.722    20614895.256    84414569.204                  
  21482323.692   112890332.942    21482326.033    87966483.378                  
  21049212.634   110614328.579    21049214.546    86192975.621                  
  23475352.799   123363809.259    23475353.782    96127645.090                  
  23829332.211   125223982.054    23829331.800    97577128.734                  
  22494027.389   118206886.909    22494028.907    92109257.261                  
  22033135.164   115784870.135    22033137.147    90221967.706                  
                 119916883.946                   119916883.946    23028767.479  
                 134883361.894                   134883361.894    25902925.756  
                 115590558.457                   115590558.457    22197947.238  
                 124494414.325                   124494414.325    23907846.357  
                 127446711.474                   127446711.474    24474801.222  
  25399159.347   133473460.336                                                  
  25701234.662   135060893.915                                                  
  26085616.198   137080808.563                                                  
  23337805.923   122640988.773                                                  
  24676082.025   129673665.918                                                  
 21  9  1  6 14 25.0000000  0 18G 4G 7G 8G 9G14G20G27G30C23C24C25C32
                                C34E 7E19E21E27E30
  23382677.113   122876788.001    23382678.703    95748145.418                  
  20614771.459   108331370.935    20614770.655    84414058.980                  
  21482230.934   112889845.495    21482233.275    87966103.554                  
  21049623.872   110616489.630    21049625.784    86194659.559                  
  23474747.093   123360626.286    23474748.075    96125164.856                  
  23829484.902   125224784.429    23829484.509    97577753.965                  
  22494306.413   118208353.247    22494307.932    92110399.864                  
  22032717.761   115782676.717    22032719.745    90220258.551                  
                 119915372.021                   119915372.021    23028477.143  
                 134885900.187                   134885900.187    25903413.222  
                 115591390.380                   115591390.380    22198107.005  
                 124494059.344                   124494059.344    23907778.187  
                 127444858.837                   127444858.837    24474445.432  
  25399657.393   133476077.618                                                  
  25700833.878   135058787.800                                                  
  26085213.484   137078692.259                                                  
  23337796.435   122640939.028                                                  
  24676495.157   129675836.987                                                  
 21  9  1  6 14 26.0000000  0 18G 4G 7G 8G 9G14G20G27G30C23C24C25C32
                                C34E 7E19E21E27E30
  23383347.755   122880312.239    23383349.345    95750891.579                  
  20614646.894   108330716.406    20614646.126    84413548.960                  
  21482138.319   112889358.746    21482140.660    87965724.265                  
  21050035.199   110618651.203    21050037.129    86196343.902                  
  23474141.440   123357443.534    23474142.423    96122684.789                  
  23829637.700   125225587.358    23829637.271    97578379.620                  
  22494585.581   118209820.263    22494587.100    92111542.993                  
  22032300.394   115780483.470    22032302.378    90218549.523                  
                 119913860.296                   119913860.296    23028186.825  
                 134888438.500                   134888438.500    25903900.672  
                 115592222.520                   115592222.520    22198266.808  
                 124493704.930                   124493704.930    23907710.124  
                 127443006.606                   127443006.606    24474089.731  
  25400155.492   133478695.134                                                  
  25700433.165   135056681.975                                                  
  26084810.806   137076576.134                                                  
  23337787.018   122640889.544                                                  
  24676908.324   129678008.141                                                  
 21  9  1  6 14 27.0000000  0 18G 4G 7G 8G 9G14G20G27G30C23C24C25C32
                                C34E 7E19E21E27E30
  23384018.433   122883836.711    23384020.023    95753637.923                  
  20614522.401   108330062.153    20614521.614    84413039.153                  
  21482045.811   112888872.687    21482048.152    87965345.520                  
  21050446.633   110620813.308    21050448.545    86198028.656                  
  23473535.823   123354261.019    23473536.824    96120204.907                  
  23829790.605   125226390.831    23829790.176    97579005.703                  
  22494864.856   118211287.936    22494866.375    92112686.637                  
  22031883.063   115778290.380    22031885.047    90216840.624                  
                 119912348.770                   119912348.770    23027896.542  
                 134890976.836                   134890976.836    25904388.138  
                 115593054.878                   115593054.878    22198426.646  
                 124493351.083                   124493351.083    23907642.168  
                 127441154.778                   127441154.778    24473734.120  
  25400653.644   133481312.914                                                  
  25700032.488   135054576.432                                                  
  26084408.163   137074460.224                                                  
  23337777.654   122640840.351                                                  
  24677321.474   129680179.372                                                  
 21  9  1  6 14 28.0000000  0 18G 4G 7G 8G 9G14G20G27G30C23C24C25C32
                                C34E 7E19E21E27E30
  23384689.182   122887361.403    23384690.737    95756384.434                  
  20614397.961   108329408.161    20614397.157    84412529.547                  
  21481953.464   112888387.323    21481955.805    87964967.317                  
  21050858.174   110622975.929    21050860.086    86199713.816                  
  23472930.260   123351078.727    23472931.242    96117725.195                  
  23829943.600   125227194.867    23829943.189    97579632.222                  
  22495144.274   118212756.278    22495145.793    92113830.797                  
  22031465.768   115776097.464    22031467.734    90215131.860                  
                 119910837.444                   119910837.444    23027606.314  
                 134893515.190                   134893515.190    25904875.605  
                 115593887.457                   115593887.457    22198586.538  
                 124492997.804                   124492997.804    23907574.319  
                 127439303.353                   127439303.353    24473378.562  
  25401151.833   133483930.932                                                  
  25699631.883   135052471.189                                                  
  26084005.538   137072344.481                                                  
  23337768.362   122640791.431                                                  
  24677734.677   129682350.699                                                  
 21  9  1  6 14 29.0000000  0 18G 4G 7G 8G 9G14G20G27G30C23C24C25C32
                                C34E 7E19E21E27E30
  23385359.932   122890886.333    23385361.522    95759131.128                  
  20614273.557   108328754.437    20614272.753    84412020.153                  
  21481861.224   112887902.664    21481863.565    87964589.660                  
  21051269.823   110625139.090    21051271.717    86201399.396                  
  23472324.732   123347896.667    23472325.715    96115245.672                  
  23830096.702   125227999.437    23830096.309    97580259.164                  
  22495423.817   118214225.284    22495425.336    92114975.481                  
  22031048.509   115773904.727    22031050.474    90213423.229                  
                 119909326.316                   119909326.316    23027316.121  
                 134896053.567                   134896053.567    25905363.072  
                 115594720.255                   115594720.255    22198746.466  
                 124492645.094                   124492645.094    23907506.596  
                 127437452.329                   127437452.329    24473023.094  
  25401650.075   133486549.203                                                  
  25699231.313   135050366.238                                                  
  26083602.985   137070228.946                                                  
  23337759.106   122640742.784                                                  
  24678147.880   129684522.100                                                  
 21  9  1  6 14 30.0000000  0 18G 4G 7G 8G 9G14G20G27G30C23C24C25C32
                                C34E 7E19E21E27E30
  23386030.753   122894411.486    23386032.343    95761878.000                  
  20614149.206   108328100.976    20614148.420    84411510.961                  
  21481769.145   112887418.706    21481771.486    87964212.547                  
  21051681.543   110627302.758    21051683.437    86203085.371                  
  23471719.240   123344714.833    23471720.241    96112766.316                  
  23830249.929   125228804.561    23830249.500    97580886.532                  
  22495703.503   118215694.964    22495705.022    92116120.685                  
  22030631.267   115771712.157    22030633.268    90211714.733                  
                 119907815.391                   119907815.391    23027025.964  
                 134898591.965                   134898591.965    25905850.539  
                 115595553.270                   115595553.270    22198906.447  
                 124492292.954                   124492292.954    23907438.961  
                 127435601.710                   127435601.710    24472667.697  
  25402148.352   133489167.723                                                  
  25698830.796   135048261.555                                                  
  26083200.431   137068113.587                                                  
  23337749.904   122640694.415                                                  
  24678561.101   129686693.601                                                  
 21  9  1  6 14 31.0000000  0 18G 4G 7G 8G 9G14G20G27G30C23C24C25C32
                                C34E 7E19E21E27E30
  23386701.627   122897936.867    23386703.200    95764625.051                  
  20614024.891   108327447.771    20614024.123    84411001.970                  
  21481677.173   112886935.449    21481679.514    87963835.984                  
  21052093.388   110629466.946    21052095.283    86204771.749                  
  23471113.802   123341533.216    23471114.803    96110287.136                  
  23830403.227   125229610.235    23830402.816    97581514.329                  
  22495983.296   118217165.305    22495984.815    92117266.402                  
  22030214.061   115769519.745    22030216.044    90210006.363                  
                 119906304.661                   119906304.661    23026735.842  
                 134901130.380                   134901130.380    25906338.024  
                 115596386.501                   115596386.501    22199066.446  
                 124491941.378                   124491941.378    23907371.434  
                 127433751.495                   127433751.495    24472312.407  
  25402646.702   133491786.492                                                  
  25698430.352   135046157.171                                                  
  26082797.914   137065998.410                                                  
  23337740.737   122640646.314                                                  
  24678974.340   129688865.169                                                  
 21  9  1  6 14 32.0000000  0 18G 4G 7G 8G 9G14G20G27G30C23C24C25C32
                                C34E 7E19E21E27E30
  23387372.520   122901462.472    23387374.092    95767372.278                  
  20613900.666   108326794.827    20613899.862    84410493.184                  
  21481585.344   112886452.879    21481587.685    87963459.953                  
  21052505.305   110631631.660    21052507.217    86206458.539                  
  23470508.399   123338351.836    23470509.400    96107808.137                  
  23830556.632   125230416.460    23830556.239    97582142.559                  
  22496263.214   118218636.309    22496264.733    92118412.641                  
  22029796.909   115767327.507    22029798.874    90208298.130                  
                 119904794.132                   119904794.132    23026445.756  
                 134903668.821                   134903668.821    25906825.491  
                 115597219.953                   115597219.953    22199226.499  
                 124491590.375                   124491590.375    23907304.032  
                 127431901.687                   127431901.687    24471957.153  
  25403145.087   133494405.508                                                  
  25698029.960   135044053.078                                                  
  26082395.468   137063883.433                                                  
  23337731.642   122640598.488                                                  
  24679387.580   129691036.825                                                  
 21  9  1  6 14 33.0000000  0 18G 4G 7G 8G 9G14G20G27G30C23C24C25C32
                                C34E 7E19E21E27E30
  23388043.466   122904988.312    23388045.038    95770119.683                  
  20613776.458   108326142.150    20613775.654    84409984.605                  
  21481493.640   112885970.981    21481495.981    87963084.450                  
  21052917.347   110633796.898    21052919.241    86208145.742                  
  23469903.068   123335170.680    23469904.033    96105329.316                  
  23830710.181   125231223.222    23830709.752    97582771.202                  
  22496543.258   118220107.987    22496544.777    92119559.402                  
  22029379.756   115765135.444    22029381.740    90206590.027                  
                 119903283.801                   119903283.801    23026155.724  
                 134906207.276                   134906207.276    25907312.976  
                 115598053.625                   115598053.625    22199386.606  
                 124491239.937                   124491239.937    23907236.738  
                 127430052.280                   127430052.280    24471602.006  
  25403643.507   133497024.770                                                  
  25697629.623   135041949.263                                                  
  26081993.039   137061768.643                                                  
  23337722.600   122640550.941                                                  
  24679800.854   129693208.569                                                  
 21  9  1  6 14 34.0000000  0 18G 4G 7G 8G 9G14G20G27G30C23C24C25C32
                                C34E 7E19E21E27E30
  23388714.448   122908514.369    23388716.020    95772867.258                  
  20613652.304   108325489.743    20613651.518    84409476.233                  
  21481402.080   112885489.784    21481404.420    87962709.492                  
  21053329.478   110635962.668    21053331.372    86209833.352                  
  23469297.737   123331989.750    23469298.738    96102850.672                  
  23830863.801   125232030.547    23830863.408    97583400.285                  
  22496823.444   118221580.335    22496824.963    92120706.688                  
  22028962.657   115762943.547    22028964.641    90204882.055                  
                 119901773.667                   119901773.667    23025865.692  
                 134908745.758                   134908745.758    25907800.479  
                 115598887.510                   115598887.510    22199546.748  
                 124490890.071                   124490890.071    23907169.568  
                 127428203.281                   127428203.281    24471246.913  
  25404141.982   133499644.273                                                  
  25697229.339   135039845.751                                                  
  26081590.647   137059654.042                                                  
  23337713.594   122640503.667                                                  
  24680214.147   129695380.402                                                  
 21  9  1  6 14 35.0000000  0 18G 4G 7G 8G 9G14G20G27G30C23C24C25C32
                                C34E 7E19E21E27E30
  23389385.483   122912040.660    23389387.056    95775615.015                  
  20613528.204   108324837.597    20613527.418    84408968.070                  
  21481310.644   112885009.274    21481312.985    87962335.071                  
  21053741.699   110638128.948    21053743.593    86211521.363                  
  23468692.478   123328809.042    23468693.461    96100372.198                  
  23831017.546   125232838.421    23831017.117    97584029.797                  
  22497103.755   118223053.349    22497105.274    92121854.489                  
  22028545.577   115760751.833    22028547.560    90203174.226                  
                 119900263.740                   119900263.740    23025575.732  
                 134911284.257                   134911284.257    25908287.963  
                 115599721.622                   115599721.622    22199706.926  
                 124490540.769                   124490540.769    23907102.488  
                 127426354.682                   127426354.682    24470891.909  
  25404640.492   133502264.028                                                  
  25696829.108   135037742.517                                                  
  26081188.272   137057539.637                                                  
  23337704.659   122640456.669                                                  
  24680627.440   129697552.316                                                  
 21  9  1  6 14 36.0000000  0 18G 4G 7G 8G 9G14G20G27G30C23C24C25C32
                                C34E 7E19E21E27E30
  23390056.554   122915567.174    23390058.145    95778362.948                  
  20613404.157   108324185.718    20613403.353    84408460.112                  
  21481219.315   112884529.457    21481221.656    87961961.185                  
  21054154.044   110640295.754    21054155.938    86213209.781                  
  23468087.254   123325628.578    23468088.237    96097893.915                  
  23831171.380   125233646.836    23831170.952    97584659.730                  
  22497384.174   118224527.026    22497385.693    92123002.808                  
  22028128.531   115758560.279    22028130.533    90201466.519                  
                 119898754.004                   119898754.004    23025285.825  
                 134913822.776                   134913822.776    25908775.466  
                 115600555.946                   115600555.946    22199867.139  
                 124490192.040                   124490192.040    23907035.497  
                 127424506.488                   127424506.488    24470536.976  
  25405139.073   133504884.027                                                  
  25696428.914   135035639.571                                                  
  26080785.951   137055425.422                                                  
  23337695.761   122640409.941                                                  
  24681040.768   129699724.316                                                  
 21  9  1  6 14 37.0000000  0 18G 4G 7G 8G 9G14G20G27G30C23C24C25C32
                                C34E 7E19E21E27E30
  23390727.679   122919093.927    23390729.252    95781111.067                  
  20613280.164   108323534.097    20613279.360    84407952.356                  
  21481128.165   112884050.344    21481130.506    87961587.852                  
  21054566.461   110642463.099    21054568.355    86214898.621                  
  23467482.084   123322448.329    23467483.067    96095415.796                  
  23831325.322   125234455.801    23831324.893    97585290.093                  
  22497664.735   118226001.372    22497666.254    92124151.652                  
  22027711.540   115756368.903    22027713.523    90199758.954                  
                 119897244.469                   119897244.469    23024995.918  
                 134916361.319                   134916361.319    25909262.969  
                 115601390.488                   115601390.488    22200027.425  
                 124489843.875                   124489843.875    23906968.649  
                 127422658.698                   127422658.698    24470182.133  
  25405637.708   133507504.284                                                  
  25696028.809   135033536.921                                                  
  26080383.684   137053311.408                                                  
  23337686.915   122640363.492                                                  
  24681454.096   129701896.406                                                  
 21  9  1  6 14 38.0000000  0 18G 4G 7G 8G 9G14G20G27G30C23C24C25C32
                                C34E 7E19E21E27E30
  23391398.840   122922620.902    23391400.412    95783859.359                  
  20613156.207   108322882.746    20613155.420    84407444.812                  
  21481037.123   112883571.938    21481039.463    87961215.066                  
  21054979.003   110644630.958    21054980.898    86216587.860                  
  23466876.932   123319268.311    23466877.914    96092937.862                  
  23831479.353   125235265.319    23831478.942    97585920.891                  
  22497945.422   118227476.387    22497946.941    92125301.017                  
  22027294.566   115754177.689    22027296.568    90198051.516                  
                 119895735.132                   119895735.132    23024706.082  
                 134918899.882                   134918899.882    25909750.454  
                 115602225.251                   115602225.251    22200187.728  
                 124489496.277                   124489496.277    23906901.908  
                 127420811.312                   127420811.312    24469827.362  
  25406136.361   133510124.793                                                  
  25695628.739   135031434.562                                                  
  26079981.416   137051197.563                                                  
  23337678.142   122640317.324                                                  
  24681867.443   129704068.567                                                  
 21  9  1  6 14 39.0000000  0 18G 4G 7G 8G 9G14G20G27G30C23C24C25C32
                                C34E 7E19E21E27E30
  23392070.036   122926148.103    23392071.626    95786607.828                  
  20613032.321   108322231.663    20613031.517    84406937.472                  
  21480946.223   112883094.230    21480948.564    87960842.828                  
  21055391.617   110646799.331    21055393.511    86218277.507                  
  23466271.833   123316088.522    23466272.816    96090460.105                  
  23831633.491   125236075.379    23831633.098    97586552.102                  
  22498226.234   118228952.063    22498227.753    92126450.891                  
  22026877.628   115751986.657    22026879.612    90196344.218                  
                 119894225.999                   119894225.999    23024416.264  
                 134921438.466                   134921438.466    25910237.974  
                 115603060.230                   115603060.230    22200348.066  
                 124489149.255                   124489149.255    23906835.256  
                 127418964.331                   127418964.331    24469472.662  
  25406635.085   133512745.534                                                  
  25695228.723   135029332.482                                                  
  26079579.202   137049083.903                                                  
  23337669.404   122640271.420                                                  
  24682280.824   129706240.822                                                  
 21  9  1  6 14 40.0000000  0 18G 4G 7G 8G 9G14G20G27G30C23C24C25C32
                                C34E 7E19E21E27E30
  23392741.286   122929675.530    23392742.858    95789356.470                  
  20612908.453   108321580.843    20612907.684    84406430.340                  
  21480855.448   112882617.215    21480857.771    87960471.128                  
  21055804.356   110648968.237    21055806.268    86219967.562                  
  23465666.806   123312908.956    23465667.788    96087982.523                  
  23831787.754   125236885.991    23831787.361    97587183.750                  
  22498507.188   118230428.410    22498508.707    92127601.290                  
  22026460.726   115749795.797    22026462.692    90194637.055                  
                 119892717.063                   119892717.063    23024126.482  
                 134923977.070                   134923977.070    25910725.477  
                 115603895.429                   115603895.429    22200508.459  
                 124488802.794                   124488802.794    23906768.712  
                 127417117.759                   127417117.759    24469118.069  
  25407133.846   133515366.531                                                  
  25694828.761   135027230.701                                                  
  26079177.024   137046970.449                                                  
  23337660.719   122640225.796                                                  
  24682694.206   129708413.165                                                  
 21  9  1  6 14 41.0000000  0 18G 4G 7G 8G 9G14G20G27G30C23C24C25C32
                                C34E 7E19E21E27E30
  23393412.571   122933203.192    23393414.162    95792105.297                  
  20612784.656   108320930.293    20612783.888    84405923.418                  
  21480764.799   112882140.886    21480767.140    87960099.965                  
  21056217.184   110651137.672    21056219.078    86221658.026                  
  23465061.778   123309729.622    23465062.761    96085505.118                  
  23831942.125   125237697.149    23831941.714    97587815.816                  
  22498788.232   118231905.427    22498789.751    92128752.214                  
  22026043.842   115747605.097    22026045.825    90192930.020                  
                 119891208.325                   119891208.325    23023836.736  
                 134926515.694                   134926515.694    25911212.997  
                 115604730.849                   115604730.849    22200668.905  
                 124488456.905                   124488456.905    23906702.293  
                 127415271.586                   127415271.586    24468763.512  
  25407632.642   133517987.774                                                  
  25694428.852   135025129.192                                                  
  26078774.882   137044857.177                                                  
  23337652.089   122640180.441                                                  
  24683107.606   129710585.590                                                  
 21  9  1  6 14 42.0000000  0 18G 4G 7G 8G 9G14G20G27G30C23C24C25C32
                                C34E 7E19E21E27E30
  23394083.928   122936731.074    23394085.501    95794854.296                  
  20612660.913   108320280.005    20612660.127    84405416.700                  
  21480674.274   112881665.247    21480676.615    87959729.335                  
  21056630.101   110653307.617    21056632.013    86223348.895                  
  23464456.823   123306550.509    23464457.805    96083027.886                  
  23832096.585   125238508.853    23832096.174    97588448.313                  
  22499069.437   118233383.112    22499070.956    92129903.657                  
  22025626.993   115745414.578    22025628.977    90191223.118                  
                 119889699.785                   119889699.785    23023547.044  
                 134929054.338                   134929054.338    25911700.518  
                 115605566.484                   115605566.484    22200829.368  
                 124488111.581                   124488111.581    23906635.981  
                 127413425.817                   127413425.817    24468409.062  
  25408131.509   133520609.261                                                  
  25694029.015   135023027.989                                                  
  26078372.775   137042744.101                                                  
  23337643.511   122640135.368                                                  
  24683521.006   129712758.097                                                  
 21  9  1  6 14 43.0000000  0 18G 4G 7G 8G 9G14G20G27G30C23C24C25C32
                                C34E 7E19E21E27E30
  23394755.303   122940259.179    23394756.876    95797603.469                  
  20612537.224   108319629.978    20612536.438    84404910.183                  
  21480583.893   112881190.304    21480586.234    87959359.249                  
  21057043.144   110655478.085    21057045.038    86225040.171                  
  23463851.902   123303371.626    23463852.885    96080550.835                  
  23832251.134   125239321.102    23832250.741    97589081.239                  
  22499350.767   118234861.452    22499352.286    92131055.613                  
  22025210.198   115743224.223    22025212.182    90189516.348                  
                 119888191.445                   119888191.445    23023257.387  
                 134931593.003                   134931593.003    25912188.056  
                 115606402.341                   115606402.341    22200989.886  
                 124487766.827                   124487766.827    23906569.776  
                 127411580.452                   127411580.452    24468054.683  
  25408630.376   133523230.994                                                  
  25693629.213   135020927.071                                                  
  26077970.704   137040631.204                                                  
  23337634.988   122640090.559                                                  
  24683934.442   129714930.680                                                  
 21  9  1  6 14 44.0000000  0 18G 4G 7G 8G 9G14G20G27G30C23C24C25C32
                                C34E 7E19E21E27E30
  23395426.714   122943787.518    23395428.304    95800352.824                  
  20612413.588   108318980.215    20612412.784    84404403.878                  
  21480493.654   112880716.056    21480495.995    87958989.708                  
  21057456.258   110657649.087    21057458.152    86226731.856                  
  23463247.018   123300192.976    23463248.001    96078073.965                  
  23832405.826   125240133.906    23832405.415    97589714.590                  
  22499632.204   118236340.461    22499633.723    92132208.087                  
  22024793.421   115741034.036    22024795.405    90187809.707                  
                 119886683.303                   119886683.303    23022967.766  
                 134934131.691                   134934131.691    25912675.577  
                 115607238.409                   115607238.409    22201150.439  
                 124487422.646                   124487422.646    23906503.679  
                 127409735.497                   127409735.497    24467700.358  
  25409129.333   133525852.967                                                  
  25693229.483   135018826.446                                                  
  26077568.687   137038518.501                                                  
  23337626.518   122640046.028                                                  
  24684347.877   129717103.355                                                  
 21  9  1  6 14 45.0000000  0 18G 4G 7G 8G 9G14G20G27G30C23C24C25C32
                                C34E 7E19E21E27E30
  23396098.178   122947316.081    23396099.769    95803102.351                  
  20612289.988   108318330.727    20612289.202    84403897.782                  
  21480403.541   112880242.507    21480405.882    87958620.706                  
  21057869.479   110659820.593    21057871.409    86228423.941                  
  23462642.188   123297014.552    23462643.188    96075597.271                  
  23832560.608   125240947.262    23832560.179    97590348.372                  
  22499913.784   118237820.136    22499915.303    92133361.078                  
  22024376.662   115738844.016    22024378.646    90186103.202                  
                 119885175.362                   119885175.362    23022678.180  
                 134936670.397                   134936670.397    25913163.115  
                 115608074.702                   115608074.702    22201311.046  
                 124487079.029                   124487079.029    23906437.689  
                 127407890.946                   127407890.946    24467346.141  
  25409628.343   133528475.208                                                  
  25692829.807   135016726.097                                                  
  26077166.688   137036405.977                                                  
  23337618.102   122640001.774                                                  
  24684761.349   129719276.117                                                  
 21  9  1  6 14 46.0000000  0 18G 4G 7G 8G 9G14G20G27G30C23C24C25C32
                                C34E 7E19E21E27E30
  23396769.678   122950844.876    23396771.269    95805852.059                  
  20612166.442   108317681.504    20612165.655    84403391.894                  
  21480313.552   112879769.652    21480315.893    87958252.251                  
  21058282.825   110661992.628    21058284.719    86230116.438                  
  23462037.393   123293836.350    23462038.375    96073120.755                  
  23832715.478   125241761.167    23832715.067    97590982.583                  
  22500195.472   118239300.480    22500197.008    92134514.593                  
  22023959.956   115736654.172    22023961.940    90184396.828                  
                 119883667.621                   119883667.621    23022388.648  
                 134939209.126                   134939209.126    25913650.636  
                 115608911.210                   115608911.210    22201471.688  
                 124486735.981                   124486735.981    23906371.806  
                 127406046.797                   127406046.797    24466991.995  
  25410127.372   133531097.681                                                  
  25692430.184   135014626.042                                                  
  26076764.724   137034293.652                                                  
  23337609.721   122639957.792                                                  
  24685174.820   129721448.956                                                  
 21  9  1  6 14 47.0000000  0 18G 4G 7G 8G 9G14G20G27G30C23C24C25C32
                                C34E 7E19E21E27E30
  23397441.232   122954373.890    23397442.822    95808601.941                  
  20612042.949   108317032.536    20612042.162    84402886.202                  
  21480223.725   112879297.467    21480226.048    87957884.312                  
  21058696.243   110664165.194    21058698.137    86231809.344                  
  23461432.633   123290658.387    23461433.634    96070644.415                  
  23832870.456   125242575.614    23832870.063    97591617.220                  
  22500477.302   118240781.487    22500478.821    92135668.625                  
  22023543.287   115734464.493    22023545.252    90182690.586                  
                 119882160.078                   119882160.078    23022099.117  
                 134941747.875                   134941747.875    25914138.174  
                 115609747.938                   115609747.938    22201632.384  
                 124486393.504                   124486393.504    23906306.048  
                 127404203.054                   127404203.054    24466637.920  
  25410626.453   133533720.405                                                  
  25692030.615   135012526.288                                                  
  26076362.778   137032181.530                                                  
  23337601.394   122639914.087                                                  
  24685588.327   129723621.871                                                  
 21  9  1  6 14 48.0000000  0 18G 4G 7G 8G 9G14G20G27G30C23C24C25C32
                                C34E 7E19E21E27E30
  23398112.821   122957903.137    23398114.394    95811352.001                  
  20611919.492   108316383.841    20611918.723    84402380.726                  
  21480134.004   112878825.995    21480136.345    87957516.933                  
  21059109.768   110666338.285    21059111.662    86233502.660                  
  23460827.946   123287480.640    23460828.928    96068168.251                  
  23833025.560   125243390.613    23833025.149    97592252.282                  
  22500759.257   118242263.167    22500760.776    92136823.180                  
  22023126.617   115732275.004    22023128.600    90180984.491                  
                 119880652.733                   119880652.733    23021809.656  
                 134944286.645                   134944286.645    25914625.748  
                 115610584.882                   115610584.882    22201793.098  
                 124486051.591                   124486051.591    23906240.379  
                 127402359.719                   127402359.719    24466283.917  
  25411125.607   133536343.374                                                  
  25691631.099   135010426.828                                                  
  26075960.904   137030069.581                                                  
  23337593.139   122639870.657                                                  
  24686001.816   129725794.891                                                  
 21  9  1  6 14 49.0000000  0 18G 4G 7G 8G 9G14G20G27G30C23C24C25C32
                                C34E 7E19E21E27E30
  23398784.464   122961432.609    23398786.037    95814102.239                  
  20611796.124   108315735.410    20611795.320    84401875.457                  
  21480044.427   112878355.234    21480046.732    87957150.106                  
  21059523.382   110668511.895    21059525.294    86235196.378                  
  23460223.276   123284303.132    23460224.259    96065692.270                  
  23833180.734   125244206.172    23833180.341    97592887.780                  
  22501041.337   118243745.509    22501042.856    92137978.250                  
  22022710.018   115730085.679    22022712.002    90179278.524                  
                 119879145.589                   119879145.589    23021520.214  
                 134946825.435                   134946825.435    25915113.287  
                 115611422.047                   115611422.047    22201953.866  
                 124485710.251                   124485710.251    23906174.817  
                 127400516.785                   127400516.785    24465930.003  
  25411624.778   133538966.589                                                  
  25691231.637   135008327.635                                                  
  26075559.048   137027957.835                                                  
  23337584.919   122639827.500                                                  
  24686415.359   129727967.988                                                  
 21  9  1  6 14 50.0000000  0 18G 4G 7G 8G 9G14G20G27G30C23C24C25C32
                                C34E 7E19E21E27E30
  23399456.143   122964962.305    23399457.715    95816852.649                  
  20611672.774   108315087.246    20611671.988    84401370.394                  
  21479954.957   112877885.173    21479957.298    87956783.825                  
  21059937.121   110670686.022    21059939.015    86236890.507                  
  23459618.659   123281125.840    23459619.642    96063216.456                  
  23833336.034   125245022.269    23833335.641    97593523.704                  
  22501323.543   118245228.521    22501325.062    92139133.843                  
  22022293.420   115727896.516    22022295.403    90177572.683                  
                 119877638.645                   119877638.645    23021230.825  
                 134949364.242                   134949364.242    25915600.843  
                 115612259.430                   115612259.430    22202114.687  
                 124485369.477                   124485369.477    23906109.381  
                 127398674.258                   127398674.258    24465576.178  
  25412124.003   133541590.053                                                  
  25690832.229   135006228.742                                                  
  26075157.227   137025846.261                                                  
  23337576.753   122639784.613                                                  
  24686828.902   129730141.159                                                  
 21  9  1  6 14 51.0000000  0 19G 4G 5G 7G 8G 9G14G20G27G30C23C24C25
                                C32C34E 7E19E21E27E30
  23400127.857   122968492.226    23400129.448    95819603.239                  
  24630476.561   129434041.609    24630476.275   100857697.962                  
  20611549.478   108314439.352    20611548.692    84400865.539                  
  21479865.647   112877415.808    21479867.988    87956418.086                  
  21060350.932   110672860.669    21060352.844    86238585.035                  
  23459014.079   123277948.777    23459015.080    96060740.825                  
  23833491.441   125245838.911    23833491.048    97594160.042                  
  22501605.874   118246712.193    22501607.392    92140289.954                  
  22021876.875   115725707.526    22021878.859    90175866.976                  
                 119876131.899                   119876131.899    23020941.472  
                 134951903.076                   134951903.076    25916088.382  
                 115613097.031                   115613097.031    22202275.544  
                 124485029.271                   124485029.271    23906044.052  
                 127396832.138                   127396832.138    24465222.425  
  25412623.281   133544213.770                                                  
  25690432.874   135004130.145                                                  
  26074755.442   137023734.888                                                  
  23337568.658   122639742.005                                                  
  24687242.462   129732314.435                                                  
 21  9  1  6 14 52.0000000  0 19G 4G 5G 7G 8G 9G14G20G27G30C23C24C25
                                C32C34E 7E19E21E27E30
  23400799.643   122972022.370    23400801.216    95822354.001                  
  24630295.298   129433089.081    24630295.012   100856955.730                  
  20611426.235   108313791.714    20611425.449    84400360.886                  
  21479776.463   112876947.133    21479778.804    87956052.887                  
  21060764.868   110675035.840    21060766.762    86240279.974                  
  23458409.552   123274771.946    23458410.535    96058265.370                  
  23833646.955   125246656.108    23833646.544    97594796.823                  
  22501888.347   118248196.525    22501889.866    92141446.574                  
  22021460.366   115723518.710    22021462.332    90174161.407                  
                 119874625.379                   119874625.379    23020652.155  
                 134954441.921                   134954441.921    25916575.938  
                 115613934.845                   115613934.845    22202436.419  
                 124484689.640                   124484689.640    23905978.848  
                 127394990.411                   127394990.411    24464868.726  
  25413122.595   133546837.727                                                  
  25690033.573   135002031.835                                                  
  26074353.693   137021623.699                                                  
  23337560.599   122639699.673                                                  
  24687656.023   129734487.781                                                  
 21  9  1  6 14 53.0000000  0 19G 4G 5G 7G 8G 9G14G20G27G30C23C24C25
                                C32C34E 7E19E21E27E30
  23401471.447   122975552.758    23401473.020    95825104.950                  
  24630114.160   129432137.143    24630113.874   100856213.960                  
  20611303.064   108313144.348    20611302.260    84399856.445                  
  21479687.404   112876479.153    21479689.745    87955688.227                  
  21061178.875   110677211.531    21061180.787    86241975.317                  
  23457805.061   123271595.338    23457806.062    96055790.094                  
  23833802.558   125247473.845    23833802.165    97595434.019                  
  22502170.928   118249681.529    22502172.447    92142603.722                  
  22021043.875   115721330.063    22021045.858    90172455.968                  
                 119873119.031                   119873119.031    23020362.873  
                 134956980.792                   134956980.792    25917063.512  
                 115614772.882                   115614772.882    22202597.365  
                 124484350.571                   124484350.571    23905913.715  
                 127393149.102                   127393149.102    24464515.116  
  25413621.981   133549461.934                                                  
  25689634.343   134999933.810                                                  
  26073951.979   137019512.712                                                  
  23337552.594   122639657.613                                                  
  24688069.620   129736661.216                                                  
 21  9  1  6 14 54.0000000  0 19G 4G 5G 7G 8G 9G14G20G27G30C23C24C25
                                C32C34E 7E19E21E27E30
  23402143.304   122979083.366    23402144.877    95827856.071                  
  24629933.129   129431185.813    24629932.843   100855472.663                  
  20611179.929   108312497.237    20611179.124    84399352.208                  
  21479598.488   112876011.859    21479600.828    87955324.098                  
  21061593.008   110679387.757    21061594.902    86243671.077                  
  23457200.623   123268418.965    23457201.606    96053314.995                  
  23833958.287   125248292.134    23833957.876    97596071.644                  
  22502453.634   118251167.199    22502455.152    92143761.387                  
  22020627.419   115719141.592    22020629.403    90170750.664                  
                 119871612.884                   119871612.884    23020073.645  
                 134959519.687                   134959519.687    25917551.086  
                 115615611.137                   115615611.137    22202758.347  
                 124484012.071                   124484012.071    23905848.726  
                 127391308.195                   127391308.195    24464161.595  
  25414121.402   133552086.382                                                  
  25689235.167   134997836.075                                                  
  26073550.319   137017401.899                                                  
  23337544.642   122639615.832                                                  
  24688483.216   129738834.738                                                  
 21  9  1  6 14 55.0000000  0 19G 4G 5G 7G 8G 9G14G20G27G30C23C24C25
                                C32C34E 7E19E21E27E30
  23402815.180   122982614.194    23402816.788    95830607.368                  
  24629752.205   129430235.081    24629751.919   100854731.836                  
  20611056.829   108311850.403    20611056.025    84398848.176                  
  21479509.696   112875545.265    21479512.019    87954960.520                  
  21062007.212   110681564.495    21062009.124    86245367.239                  
  23456596.221   123265242.821    23456597.204    96050840.078                  
  23834114.105   125249110.968    23834113.694    97596709.699                  
  22502736.482   118252653.538    22502738.001    92144919.573                  
  22020211.000   115716953.289    22020212.983    90169045.493                  
                 119870106.935                   119870106.935    23019784.435  
                 134962058.599                   134962058.599    25918038.660  
                 115616449.611                   115616449.611    22202919.365  
                 124483674.142                   124483674.142    23905783.825  
                 127389467.695                   127389467.695    24463808.146  
  25414620.859   133554711.081                                                  
  25688836.026   134995738.629                                                  
  26073148.677   137015291.285                                                  
  23337536.744   122639574.316                                                  
  24688896.848   129741008.337                                                  
 21  9  1  6 14 56.0000000  0 19G 4G 5G 7G 8G 9G14G20G27G30C23C24C25
                                C32C34E 7E19E21E27E30
  23403487.126   122986145.243    23403488.699    95833358.832                  
  24629571.406   129429284.953    24629571.120   100853991.472                  
  20610933.783   108311203.829    20610932.996    84398344.355                  
  21479421.048   112875079.371    21479423.371    87954597.483                  
  21062421.541   110683741.765    21062423.435    86247063.809                  
  23455991.855   123262066.906    23455992.856    96048365.341                  
  23834270.012   125249930.357    23834269.619    97597348.184                  
  22503019.438   118254140.543    22503020.957    92146078.277                  
  22019794.616   115714765.147    22019796.599    90167340.449                  
                 119868601.180                   119868601.180    23019495.278  
                 134964597.531                   134964597.531    25918526.217  
                 115617288.302                   115617288.302    22203080.419  
                 124483336.776                   124483336.776    23905719.014  
                 127387627.605                   127387627.605    24463454.786  
  25415120.352   133557336.028                                                  
  25688436.940   134993641.481                                                  
  26072747.089   137013180.856                                                  
  23337528.900   122639533.081                                                  
  24689310.480   129743182.021                                                  
 21  9  1  6 14 57.0000000  0 19G 4G 5G 7G 8G 9G14G20G27G30C23C24C25
                                C32C34E 7E19E21E27E30
  23404159.091   122989676.531    23404160.699    95836110.485                  
  24629390.697   129428335.425    24629390.446   100853251.582                  
  20610810.808   108310557.523    20610810.004    84397840.737                  
  21479332.507   112874614.167    21479334.848    87954234.989                  
  21062835.959   110685919.542    21062837.853    86248760.780                  
  23455387.561   123258891.210    23455388.544    96045890.769                  
  23834426.062   125250750.280    23834425.633    97597987.085                  
  22503302.537   118255628.212    22503304.056    92147237.501                  
  22019378.268   115712577.184    22019380.233    90165635.543                  
                 119867095.629                   119867095.629    23019206.158  
                 134967136.484                   134967136.484    25919013.809  
                 115618127.212                   115618127.212    22203241.526  
                 124482999.981                   124482999.981    23905654.364  
                 127385787.913                   127385787.913    24463101.479  
  25415619.916   133559961.223                                                  
  25688037.924   134991544.606                                                  
  26072345.518   137011070.618                                                  
  23337521.109   122639492.113                                                  
  24689724.148   129745355.781                                                  
 21  9  1  6 14 58.0000000  0 19G 4G 5G 7G 8G 9G14G20G27G30C23C24C25
                                C32C34E 7E19E21E27E30
  23404831.145   122993208.040    23404832.718    95838862.304                  
  24629210.148   129427386.509    24629209.862   100852512.165                  
  20610687.851   108309911.490    20610687.065    84397337.337                  
  21479244.127   112874149.653    21479246.468    87953873.032                  
  21063250.485   110688097.857    21063252.379    86250458.164                  
  23454783.284   123255715.747    23454784.267    96043416.384                  
  23834582.184   125251570.761    23834581.773    97598626.423                  
  22503585.761   118257116.544    22503587.280    92148397.238                  
  22018961.919   115710389.386    22018963.921    90163930.765                  
                 119865590.279                   119865590.279    23018917.055  
                 134969675.460                   134969675.460    25919501.401  
                 115618966.336                   115618966.336    22203402.669  
                 124482663.758                   124482663.758    23905589.786  
                 127383948.634                   127383948.634    24462748.263  
  25416119.516   133562586.654                                                  
  25687638.963   134989448.022                                                  
  26071943.983   137008960.562                                                  
  23337513.354   122639451.427                                                  
  24690137.816   129747529.638                                                  
 21  9  1  6 14 59.0000000  0 19G 4G 5G 7G 8G 9G14G20G27G30C23C24C25
                                C32C34E 7E19E21E27E30
  23405503.199   122996739.769    23405504.771    95841614.305                  
  24629029.689   129426438.180    24629029.403   100851773.212                  
  20610564.984   108309265.711    20610564.180    84396834.133                  
  21479155.854   112873685.842    21479158.195    87953511.622                  
  21063665.100   110690276.673    21063666.994    86252155.945                  
  23454179.061   123252540.512    23454180.044    96040942.175                  
  23834738.413   125252391.784    23834738.020    97599266.177                  
  22503869.092   118258605.550    22503870.611    92149557.505                  
  22018545.643   115708201.769    22018547.626    90162226.129                  
                 119864085.126                   119864085.126    23018628.023  
                 134972214.454                   134972214.454    25919988.975  
                 115619805.679                   115619805.679    22203563.865  
                 124482328.096                   124482328.096    23905525.314  
                 127382109.759                   127382109.759    24462395.135  
  25416619.188   133565212.340                                                  
  25687240.055   134987351.746                                                  
  26071542.484   137006850.708                                                  
  23337505.688   122639411.011                                                  
  24690551.502   129749703.574                                                  
 21  9  1  6 15  0.0000000  0 19G 4G 5G 7G 8G 9G14G20G27G30C23C24C25
                                C32C34E 7E19E21E27E30
  23406175.307   123000271.727    23406176.897    95844366.480                  
  24628849.319   129425490.465    24628849.069   100851034.730                  
  20610442.134   108308620.200    20610441.348    84396331.138                  
  21479067.724   112873222.728    21479070.065    87953150.751                  
  21064079.804   110692456.026    21064081.716    86253854.140                  
  23453574.873   123249365.504    23453575.856    96038468.144                  
  23834894.767   125253213.356    23834894.356    97599906.363                  
  22504152.585   118260095.208    22504154.103    92150718.277                  
  22018129.384   115706014.329    22018131.367    90160521.630                  
                 119862580.171                   119862580.171    23018338.992  
                 134974753.467                   134974753.467    25920476.585  
                 115620645.246                   115620645.246    22203725.079  
                 124481993.011                   124481993.011    23905460.986  
                 127380271.288                   127380271.288    24462042.079  
  25417118.877   133567838.266                                                  
  25686841.200   134985255.749                                                  
  26071141.039   137004741.031                                                  
  23337498.040   122639370.868                                                  
  24690965.205   129751877.592                                                  
 21  9  1  6 15  1.0000000  0 19G 4G 5G 7G 8G 9G14G20G27G30C23C24C25
                                C32C34E 7E19E21E27E30
  23406847.468   123003803.914    23406849.040    95847118.833                  
  24628669.092   129424543.348    24628668.824   100850296.715                  
  20610319.338   108307974.956    20610318.552    84395828.352                  
  21478979.737   112872760.317    21478982.060    87952790.433                  
  21064494.616   110694635.890    21064496.527    86255552.737                  
  23452970.740   123246190.727    23452971.722    96035994.290                  
  23835051.192   125254035.480    23835050.799    97600546.981                  
  22504436.184   118261585.538    22504437.703    92151879.574                  
  22017713.160   115703827.035    22017715.144    90158817.247                  
                 119861075.414                   119861075.414    23018050.032  
                 134977292.505                   134977292.505    25920964.159  
                 115621485.028                   115621485.028    22203886.365  
                 124481658.489                   124481658.489    23905396.747  
                 127378433.228                   127378433.228    24461689.094  
  25417618.620   133570464.451                                                  
  25686442.399   134983160.060                                                  
  26070739.611   137002631.555                                                  
  23337490.445   122639331.000                                                  
  24691378.927   129754051.696                                                  
 21  9  1  6 15  2.0000000  0 19G 4G 5G 7G 8G 9G14G20G27G30C23C24C25
                                C32C34E 7E19E21E27E30
  23407519.665   123007336.324    23407521.237    95849871.356                  
  24628488.972   129423596.833    24628488.704   100849559.173                  
  20610196.614   108307329.976    20610195.828    84395325.770                  
  21478891.857   112872298.567    21478894.198    87952430.626                  
  21064909.534   110696816.282    21064911.446    86257251.746                  
  23452366.642   123243016.179    23452367.624    96033520.621                  
  23835207.760   125254858.150    23835207.332    97601188.020                  
  22504719.908   118263076.532    22504721.427    92153041.387                  
  22017296.955   115701639.938    22017298.939    90157113.011                  
                 119859570.860                   119859570.860    23017761.108  
                 134979831.562                   134979831.562    25921451.769  
                 115622325.028                   115622325.028    22204047.669  
                 124481324.540                   124481324.540    23905332.597  
                 127376595.571                   127376595.571    24461336.181  
  25418118.417   133573090.876                                                  
  25686043.652   134981064.629                                                  
  26070338.219   137000522.265                                                  
  23337482.923   122639291.406                                                  
  24691792.666   129756225.882                                                  
 21  9  1  6 15  3.0000000  0 19G 4G 5G 7G 8G 9G14G20G27G30C23C24C25
                                C32C34E 7E19E21E27E30
  23408191.897   123010868.965    23408193.488    95852624.066                  
  24628308.977   129422650.914    24628308.691   100848822.093                  
  20610073.925   108306685.269    20610073.139    84394823.399                  
  21478804.120   112871837.519    21478806.461    87952071.367                  
  21065324.560   110698997.199    21065326.454    86258951.160                  
  23451762.579   123239841.851    23451763.562    96031047.117                  
  23835364.400   125255681.362    23835364.007    97601829.484                  
  22505003.758   118264568.185    22505005.276    92154203.714                  
  22016880.804   115699453.005    22016882.787    90155408.910                  
                 119858066.504                   119858066.504    23017472.201  
                 134982370.637                   134982370.637    25921939.361  
                 115623165.243                   115623165.243    22204209.026  
                 124480991.155                   124480991.155    23905268.572  
                 127374758.319                   127374758.319    24460983.357  
  25418618.267   133575717.539                                                  
  25685644.958   134978969.512                                                  
  26069936.881   136998413.154                                                  
  23337475.418   122639252.081                                                  
  24692206.406   129758400.152                                                  
 21  9  1  6 15  4.0000000  0 19G 4G 5G 7G 8G 9G14G20G27G30C23C24C25
                                C32C34E 7E19E21E27E30
  23408864.184   123014401.824    23408865.756    95855376.940                  
  24628129.108   129421705.605    24628128.822   100848085.488                  
  20609951.308   108306040.829    20609950.504    84394321.238                  
  21478716.526   112871377.180    21478718.867    87951712.664                  
  21065739.658   110701178.636    21065741.587    86260650.981                  
  23451158.588   123236667.761    23451159.553    96028573.802                  
  23835521.165   125256505.124    23835520.754    97602471.379                  
  22505287.732   118266060.508    22505289.269    92155366.567                  
  22016464.688   115697266.242    22016466.653    90153704.941                  
                 119856562.343                   119856562.343    23017183.348  
                 134984909.735                   134984909.735    25922426.989  
                 115624005.679                   115624005.679    22204370.419  
                 124480658.340                   124480658.340    23905204.655  
                 127372921.474                   127372921.474    24460630.622  
  25419118.135   133578344.454                                                  
  25685246.336   134976874.680                                                  
  26069535.561   136996304.239                                                  
  23337468.002   122639213.035                                                  
  24692620.163   129760574.508                                                  
 21  9  1  6 15  5.0000000  0 19G 4G 5G 7G 8G 9G14G20G27G30C23C24C25
                                C32C34E 7E19E21E27E30
  23409536.506   123017934.915    23409538.078    95858129.996                  
  24627949.328   129420760.885    24627949.042   100847349.343                  
  20609828.727   108305396.650    20609827.922    84393819.278                  
  21478629.057   112870917.528    21478631.398    87951354.491                  
  21066154.880   110703360.595    21066156.774    86262351.206                  
  23450554.598   123233493.900    23450555.580    96026100.661                  
  23835678.019   125257329.434    23835677.626    97603113.696                  
  22505571.832   118267553.499    22505573.368    92156529.933                  
  22016048.572   115695079.655    22016050.555    90152001.105                  
                 119855058.388                   119855058.388    23016894.514  
                 134987448.851                   134987448.851    25922914.581  
                 115624846.333                   115624846.333    22204531.866  
                 124480326.093                   124480326.093    23905140.862  
                 127371085.036                   127371085.036    24460277.942  
  25419618.056   133580971.610                                                  
  25684847.768   134974780.149                                                  
  26069134.276   136994195.521                                                  
  23337460.622   122639174.265                                                  
  24693033.938   129762748.946                                                  
 21  9  1  6 15  6.0000000  0 19G 4G 5G 7G 8G 9G14G20G27G30C23C24C25
                                C32C34E 7E19E21E27E30
  23410208.881   123021468.234    23410210.454    95860883.234                  
  24627769.655   129419816.771    24627769.386   100846613.672                  
  20609706.181   108304752.726    20609705.377    84393317.524                  
  21478541.714   112870458.595    21478544.054    87950996.883                  
  21066570.192   110705543.079    21066572.104    86264051.843                  
  23449950.678   123230320.261    23449951.661    96023627.696                  
  23835834.981   125258154.281    23835834.588    97603756.434                  
  22505856.074   118269047.163    22505857.593    92157693.829                  
  22015632.527   115692893.233    22015634.493    90150297.402                  
                 119853554.628                   119853554.628    23016605.732  
                 134989987.990                   134989987.990    25923402.208  
                 115625687.203                   115625687.203    22204693.348  
                 124479994.418                   124479994.418    23905077.159  
                 127369249.005                   127369249.005    24459925.368  
  25420118.032   133583598.980                                                  
  25684449.235   134972685.898                                                  
  26068733.045   136992086.999                                                  
  23337453.296   122639135.754                                                  
  24693447.749   129764923.472                                                  
 21  9  1  6 15  7.0000000  0 19G 4G 5G 7G 8G 9G14G20G27G30C23C24C25
                                C32C34E 7E19E21E27E30
  23410881.275   123025001.777    23410882.883    95863636.641                  
  24627590.124   129418873.246    24627589.839   100845878.458                  
  20609583.707   108304109.058    20609582.902    84392815.962                  
  21478454.513   112870000.360    21478456.854    87950639.817                  
  21066985.593   110707726.071    21066987.505    86265752.878                  
  23449346.795   123227146.849    23449347.777    96021154.907                  
  23835992.068   125258979.668    23835991.639    97604399.595                  
  22506140.442   118270541.492    22506141.961    92158858.239                  
  22015216.501   115690706.981    22015218.484    90148593.829                  
                 119852051.066                   119852051.066    23016317.005  
                 134992527.149                   134992527.149    25923889.818  
                 115626528.293                   115626528.293    22204854.866  
                 124479663.310                   124479663.310    23905013.581  
                 127367413.378                   127367413.378    24459572.848  
  25420618.061   133586226.582                                                  
  25684050.756   134970591.929                                                  
  26068331.832   136989978.657                                                  
  23337446.023   122639097.509                                                  
  24693861.560   129767098.098                                                  
 21  9  1  6 15  8.0000000  0 19G 4G 5G 7G 8G 9G14G20G27G30C23C24C25
                                C32C34E 7E19E21E27E30
  23411553.740   123028535.527    23411555.312    95866390.216                  
  24627410.684   129417930.361    24627410.416   100845143.737                  
  20609461.268   108303465.704    20609460.482    84392314.649                  
  21478367.437   112869542.739    21478369.778    87950283.231                  
  21067401.119   110709909.588    21067403.013    86267454.320                  
  23448742.965   123223973.674    23448743.965    96018682.304                  
  23836149.243   125259805.656    23836148.815    97605043.220                  
  22506424.917   118272036.456    22506426.436    92160023.148                  
  22014800.492   115688520.905    22014802.475    90146890.395                  
                 119850547.707                   119850547.707    23016028.295  
                 134995066.325                   134995066.325    25924377.446  
                 115627369.601                   115627369.601    22205016.420  
                 124479332.769                   124479332.769    23904950.092  
                 127365578.161                   127365578.161    24459220.417  
  25421118.161   133588854.589                                                  
  25683652.348   134968498.250                                                  
  26067930.672   136987870.485                                                  
  23337438.804   122639059.587                                                  
  24694275.388   129769272.750                                                  
 21  9  1  6 15  9.0000000  0 19G 4G 5G 7G 8G 9G14G20G27G30C23C24C25
                                C32C34E 7E19E21E27E30
  23412226.240   123032069.519    23412227.813    95869143.973                  
  24627231.386   129416988.048    24627231.100   100844409.472                  
  20609338.883   108302822.581    20609338.097    84391813.512                  
  21478280.504   112869085.880    21478282.845    87949927.233                  
  21067816.717   110712093.628    21067818.611    86269156.167                  
  23448139.188   123220800.723    23448140.153    96016209.876                  
  23836306.527   125260632.149    23836306.098    97605687.238                  
  22506709.535   118273532.106    22506711.053    92161188.590                  
  22014384.537   115686335.005    22014386.520    90145187.094                  
                 119849044.546                   119849044.546    23015739.639  
                 134997605.522                   134997605.522    25924865.074  
                 115628211.125                   115628211.125    22205178.045  
                 124479002.798                   124479002.798    23904886.747  
                 127363743.352                   127363743.352    24458868.058  
  25421618.261   133591482.710                                                  
  25683253.994   134966404.867                                                  
  26067529.548   136985762.526                                                  
  23337431.621   122639021.903                                                  
  24694689.235   129771447.529                                                  
 21  9  1  6 15 10.0000000  0 19G 4G 5G 7G 8G 9G14G20G27G30C23C24C25
                                C32C34E 7E19E21E27E30
  23412898.777   123035603.727    23412900.367    95871897.899                  
  24627052.178   129416046.348    24627051.892   100843675.680                  
  20609216.552   108302179.726    20609215.765    84391312.586                  
  21478193.696   112868629.688    21478196.037    87949571.761                  
  21068232.440   110714278.193    21068234.334    86270858.425                  
  23447535.412   123217628.000    23447536.395    96013737.620                  
  23836463.899   125261459.191    23836463.488    97606331.687                  
  22506994.277   118275028.417    22506995.796    92162354.546                  
  22013968.599   115684149.269    22013970.583    90143483.926                  
                 119847541.583                   119847541.583    23015451.000  
                 135000144.743                   135000144.743    25925352.702  
                 115629052.867                   115629052.867    22205339.689  
                 124478673.394                   124478673.394    23904823.473  
                 127361908.946                   127361908.946    24458515.788  
  25422118.433   133594111.102                                                  
  25682855.693   134964311.778                                                  
  26067128.443   136983654.753                                                  
  23337424.509   122638984.500                                                  
  24695103.099   129773622.383                                                  
 21  9  1  6 15 11.0000000  0 19G 4G 5G 7G 8G 9G14G20G27G30C23C24C25
                                C32C34E 7E19E21E27E30
  23413571.367   123039138.159    23413572.939    95874652.000                  
  24626873.076   129415105.247    24626872.808   100842942.352                  
  20609094.274   108301537.140    20609093.488    84390811.872                  
  21478107.014   112868174.177    21478109.355    87949216.817                  
  21068648.234   110716463.274    21068650.146    86272561.086                  
  23446931.725   123214455.512    23446932.707    96011265.554                  
  23836621.379   125262286.782    23836620.986    97606976.563                  
  22507279.145   118276525.390    22507280.664    92163521.019                  
  22013552.698   115681963.698    22013554.681    90141780.883                  
                 119846038.821                   119846038.821    23015162.416  
                 135002683.983                   135002683.983    25925840.347  
                 115629894.827                   115629894.827    22205501.385  
                 124478344.563                   124478344.563    23904760.323  
                 127360074.951                   127360074.951    24458163.572  
  25422618.641   133596739.734                                                  
  25682457.446   134962218.985                                                  
  26066727.372   136981547.159                                                  
  23337417.433   122638947.368                                                  
  24695516.982   129775797.323                                                  
