     2.11           OBSERVATION DATA    M (MIXED)           RINEX VERSION / TYPE
CONVBIN 2.4.3                           20210831 054546 UTC PGM / RUN BY / DATE 
log: logs/21_08_31_03_04_47_tn31_SNTN.rtcm                  COMMENT             
format: RTCM 3, station ID: 697                             COMMENT             
0697                                                        MARKER NAME         
                                                            MARKER NUMBER       
                                                            OBSERVER / AGENCY   
1707503             LEICA GR30          4.50                REC # / TYPE / VERS 
                    GPPNULLANTENNA                          ANT # / TYPE        
   281404.8190 -5147182.6825  3743462.2143                  APPROX POSITION XYZ 
        0.0000        0.0000        0.0000                  ANTENNA: DELTA H/E/N
     1     1                                                WAVELENGTH FACT L1/2
     7    C1    L1    C2    L2    P2    C5    L5            # / TYPES OF OBSERV 
  2021     8    31     3     4   54.0000000     GPS         TIME OF FIRST OBS   
  2021     8    31     3    34   51.0000000     GPS         TIME OF LAST OBS    
                                                            END OF HEADER       
 21  8 31  3  4 54.0000000  0 14G 3G 4G16G22G26G31R 7R 8R 9E 1E 4E19
                                E21E27
  21652111.878   113782615.900    21652112.272    88661777.201    21652111.646  
  21652112.700    84967540.496  
  21800787.582   114563911.545    21800786.116    89270572.611    21800785.759  
  21800790.226    85550983.011  
  20380854.137   107102111.039                    83456176.559    20380850.653  
                                
  22541015.682   118453836.701                    92301671.175    22541010.893  
                                
  20388206.364   107140747.627    20388206.597    83486296.532    20388206.311  
  20388205.846    80007699.088  
  22539164.183   118444107.185    22539161.288    92294094.189    22539160.556  
                                
  19295735.792   103291584.903    19295734.970    80337895.042    19295734.809  
                                
  20486098.447   109702126.612    20486096.857    85323869.774    20486096.821  
                                
  20153921.137   107620814.262    20153920.494    83705074.942    20153920.512  
                                
  26184454.893   137600239.606                                                  
  26184457.913   102753437.000  
  27609063.731   145086609.597                                                  
  27609066.305   108343906.101  
  23351586.442   122713414.924                                                  
  23351587.425    91636644.243  
  23480306.860   123389846.294                                                  
  23480309.112    92141775.958  
  25071921.821   131753838.433                                                  
  25071924.287    98387615.591  
 21  8 31  3  4 55.0000000  0 14G 3G 4G16G22G26G31R 7R 8R 9E 1E 4E19
                                E21E27
  21652388.759   113784070.855    21652389.152    88662910.932    21652388.509  
  21652389.581    84968626.991  
  21800313.195   114561418.610    21800311.712    89268630.063    21800311.354  
  21800315.840    85549121.404  
  20380540.554   107100463.123                    83454892.466    20380537.051  
                                
  22541465.946   118456202.765                    92303514.861    22541461.139  
                                
  20388429.638   107141920.984    20388429.888    83487210.836    20388429.602  
  20388429.120    80008575.298  
  22539616.752   118446485.506    22539613.875    92295947.426    22539613.142  
                                
  19295948.380   103292722.887    19295947.558    80338780.141    19295947.397  
                                
  20485587.250   109699389.250    20485585.678    85321740.715    20485585.624  
                                
  20154325.906   107622975.641    20154325.245    83706756.014    20154325.245  
                                
  26183998.607   137597841.821                                                  
  26184001.627   102751646.444  
  27608559.110   145083957.709                                                  
  27608561.665   108341925.800  
  23351429.016   122712587.656                                                  
  23351429.999    91636026.484  
  23480239.012   123389489.697                                                  
  23480241.245    92141509.679  
  25072321.426   131755938.345                                                  
  25072323.892    98389183.703  
 21  8 31  3  4 56.0000000  0 14G 3G 4G16G22G26G31R 7R 8R 9E 1E 4E19
                                E21E27
  21652665.729   113785526.382    21652666.122    88664045.112    21652665.479  
  21652666.551    84969713.915  
  21799838.844   114558925.879    21799837.361    89266687.676    21799837.003  
  21799841.488    85547259.955  
  20380227.077   107098815.844                    83453608.874    20380223.593  
                                
  22541916.245   118458569.165                    92305358.810    22541911.456  
                                
  20388653.036   107143094.895    20388653.269    83488125.572    20388652.983  
  20388652.500    80009451.920  
  22540069.356   118448863.885    22540066.444    92297800.708    22540065.729  
                                
  19296161.111   103293861.669    19296160.289    80339665.860    19296160.128  
                                
  20485076.178   109696652.459    20485074.588    85319612.100    20485074.552  
                                
  20154730.729   107625137.324    20154730.050    83708437.321    20154730.068  
                                
  26183542.357   137595444.242                                                  
  26183545.377   102749856.048  
  27608054.453   145081305.831                                                  
  27608057.026   108339945.501  
  23351271.644   122711760.688                                                  
  23351272.608    91635408.938  
  23480171.217   123389133.467                                                  
  23480173.468    92141243.661  
  25072721.049   131758038.395                                                  
  25072723.515    98390751.926  
 21  8 31  3  4 57.0000000  0 14G 3G 4G16G22G26G31R 7R 8R 9E 1E 4E19
                                E21E27
  21652942.806   113786982.415    21652943.199    88665179.685    21652942.556  
  21652943.628    84970801.212  
  21799364.528   114556433.320    21799363.045    89264745.423    21799362.688  
  21799367.155    85545398.627  
  20379913.744   107097169.146                    83452325.733    20379910.242  
                                
  22542366.616   118460935.836                    92307202.967    22542361.809  
                                
  20388876.524   107144269.291    20388876.739    83489040.683    20388876.453  
  20388875.988    80010328.902  
  22540521.943   118451242.247    22540519.048    92299653.977    22540518.316  
                                
  19296373.984   103295001.207    19296373.162    80340552.166    19296373.002  
                                
  20484565.196   109693916.161    20484563.606    85317483.866    20484563.570  
                                
  20155135.570   107627299.231    20155134.908    83710118.804    20155134.908  
                                
  26183086.126   137593046.806                                                  
  26183089.145   102748065.764  
  27607549.814   145078653.896                                                  
  27607552.369   108337965.171  
  23351114.325   122710933.957                                                  
  23351115.307    91634791.576  
  23480103.493   123388777.533                                                  
  23480105.727    92140977.864  
  25073120.690   131760138.565                                                  
  25073123.156    98392320.233  
 21  8 31  3  4 58.0000000  0 14G 3G 4G16G22G26G31R 7R 8R 9E 1E 4E19
                                E21E27
  21653219.990   113788439.119    21653220.401    88666314.774    21653219.758  
  21653220.812    84971889.009  
  21798890.267   114553941.069    21798888.784    89262803.410    21798888.426  
  21798892.911    85543537.528  
  20379600.518   107095523.176                    83451043.159    20379597.016  
                                
  22542817.058   118463302.938                    92309047.464    22542812.269  
                                
  20389100.119   107145444.329    20389100.334    83489956.295    20389100.066  
  20389099.583    80011206.368  
  22540974.548   118453620.773    22540971.671    92301507.371    22540970.938  
                                
  19296587.037   103296141.696    19296586.215    80341439.213    19296586.054  
                                
  20484054.338   109691180.513    20484052.748    85315356.139    20484052.712  
                                
  20155540.517   107629461.555    20155539.856    83711800.611    20155539.856  
                                
  26182629.965   137590649.688                                                  
  26182632.985   102746275.717  
  27607045.175   145076002.088                                                  
  27607047.748   108335984.918  
  23350957.077   122710107.634                                                  
  23350958.060    91634174.515  
  23480035.841   123388422.048                                                  
  23480038.092    92140712.411  
  25073520.402   131762238.999                                                  
  25073522.868    98393888.745  
 21  8 31  3  4 59.0000000  0 14G 3G 4G16G22G26G31R 7R 8R 9E 1E 4E19
                                E21E27
  21653497.282   113789896.260    21653497.693    88667450.211    21653497.049  
  21653498.104    84972977.134  
  21798416.005   114551448.892    21798414.558    89260861.456    21798414.164  
  21798418.650    85541676.491  
  20379287.381   107093877.684                    83449760.962    20379283.879  
                                
  22543267.536   118465670.237                    92310892.117    22543262.730  
                                
  20389323.804   107146619.775    20389324.018    83490872.234    20389323.750  
  20389323.268    80012084.134  
  22541427.170   118455999.208    22541424.275    92303360.700    22541423.542  
                                
  19296800.232   103297282.867    19296799.392    80342326.794    19296799.231  
                                
  20483543.552   109688445.262    20483541.944    85313228.720    20483541.926  
                                
  20155945.483   107631624.046    20155944.822    83713482.549    20155944.822  
                                
  26182173.823   137588252.654                                                  
  26182176.860   102744485.718  
  27606540.518   145073350.130                                                  
  27606543.091   108334004.573  
  23350799.866   122709281.469                                                  
  23350800.848    91633557.580  
  23479968.242   123388066.789                                                  
  23479970.476    92140447.120  
  25073920.114   131764339.466                                                  
  25073922.562    98395457.273  
 21  8 31  3  5  0.0000000  0 14G 3G 4G16G22G26G31R 7R 8R 9E 1E 4E19
                                E21E27
  21653774.698   113791354.138    21653775.091    88668586.225    21653774.466  
  21653775.520    84974065.811  
  21797941.833   114548957.111    21797940.367    89258919.813    21797939.992  
  21797944.477    85539815.754  
  20378974.405   107092233.005                    83448479.396    20378970.921  
                                
  22543718.104   118468038.044                    92312737.159    22543713.315  
                                
  20389547.631   107147795.949    20389547.846    83491788.733    20389547.560  
  20389547.077    80012962.450  
  22541879.792   118458377.886    22541876.915    92305214.220    22541876.183  
                                
  19297013.588   103298425.045    19297012.766    80343215.152    19297012.605  
                                
  20483032.874   109685710.723    20483031.301    85311101.860    20483031.265  
                                
  20156350.520   107633787.014    20156349.859    83715164.857    20156349.859  
                                
  26181717.751   137585856.008                                                  
  26181720.789   102742696.019  
  27606035.915   145070698.392                                                  
  27606038.488   108332024.381  
  23350642.743   122708455.794                                                  
  23350643.726    91632941.001  
  23479900.733   123387712.070                                                  
  23479902.985    92140182.232  
  25074319.880   131766440.287                                                  
  25074322.346    98397026.062  
 21  8 31  3  5  1.0000000  0 14G 3G 4G16G22G26G31R 7R 8R 9E 1E 4E19
                                E21E27
  21654052.258   113792812.621    21654052.651    88669722.705    21654052.008  
  21654053.080    84975154.929  
  21797467.714   114546465.574    21797466.249    89256978.355    21797465.873  
  21797470.358    85537955.184  
  20378661.554   107090588.997                    83447198.349    20378658.070  
                                
  22544168.760   118470406.196                    92314582.473    22544163.972  
                                
  20389771.548   107148972.689    20389771.762    83492705.674    20389771.476  
  20389771.012    80013841.182  
  22542332.468   118460756.644    22542329.573    92307067.795    22542328.859  
                                
  19297227.123   103299568.048    19297226.301    80344104.157    19297226.140  
                                
  20482522.338   109682976.755    20482520.747    85308975.438    20482520.712  
                                
  20156755.647   107635950.346    20156754.985    83716847.447    20156754.985  
                                
  26181261.716   137583459.593                                                  
  26181264.772   102740906.487  
  27605531.294   145068046.649                                                  
  27605533.849   108330044.194  
  23350485.675   122707630.440                                                  
  23350486.675    91632324.671  
  23479833.295   123387357.721                                                  
  23479835.565    92139917.621  
  25074719.681   131768541.273                                                  
  25074722.147    98398594.987  
 21  8 31  3  5  2.0000000  0 14G 3G 4G16G22G26G31R 7R 8R 9E 1E 4E19
                                E21E27
  21654329.907   113794271.722    21654330.300    88670859.665    21654329.657  
  21654330.729    84976244.520  
  21796993.649   114543974.321    21796992.183    89255037.119    21796991.826  
  21796996.293    85536094.833  
  20378348.864   107088945.680                    83445917.842    20378345.362  
                                
  22544619.471   118472774.748                    92316428.095    22544614.682  
                                
  20389995.590   107150150.034    20389995.804    83493623.085    20389995.518  
  20389995.054    80014720.373  
  22542785.144   118463135.499    22542782.267    92308921.448    22542781.535  
                                
  19297440.783   103300711.896    19297439.961    80344993.817    19297439.800  
                                
  20482011.891   109680243.411    20482010.319    85306849.505    20482010.283  
                                
  20157160.845   107638114.039    20157160.183    83718530.321    20157160.183  
                                
  26180805.752   137581063.458                                                  
  26180808.790   102739117.169  
  27605026.708   145065395.005                                                  
  27605029.246   108328064.068  
  23350328.677   122706805.446                                                  
  23350329.660    91631708.609  
  23479765.947   123387003.797                                                  
  23479768.181    92139653.331  
  25075119.519   131770642.505                                                  
  25075122.003    98400164.089  
 21  8 31  3  5  3.0000000  0 14G 3G 4G16G22G26G31R 7R 8R 9E 1E 4E19
                                E21E27
  21654607.663   113795731.361    21654608.074    88671997.045    21654607.413  
  21654608.503    84977334.510  
  21796519.601   114541483.244    21796518.136    89253096.023    21796517.761  
  21796522.246    85534234.622  
  20378036.246   107087302.955                    83444637.797    20378032.761  
                                
  22545070.253   118475143.605                    92318273.958    22545065.446  
                                
  20390219.703   107151327.892    20390219.953    83494540.897    20390219.667  
  20390219.185    80015599.946  
  22543237.838   118465514.397    22543234.943    92310775.135    22543234.211  
                                
  19297654.622   103301856.510    19297653.800    80345884.073    19297653.639  
                                
  20481501.570   109677510.610    20481499.997    85304723.997    20481499.944  
                                
  20157566.096   107640277.988    20157565.417    83720213.390    20157565.435  
                                
  26180349.806   137578667.507                                                  
  26180352.844   102737327.985  
  27604522.105   145062743.329                                                  
  27604524.660   108326083.927  
  23350171.752   122705980.740                                                  
  23350172.734    91631092.750  
  23479698.652   123386650.204                                                  
  23479700.922    92139389.281  
  25075519.410   131772743.878                                                  
  25075521.875    98401733.294  
 21  8 31  3  5  4.0000000  0 14G 3G 4G16G22G26G31R 7R 8R 9E 1E 4E19
                                E21E27
  21654885.490   113797191.358    21654885.883    88673134.705    21654885.258  
  21654886.312    84978424.765  
  21796045.572   114538992.182    21796044.107    89251154.938    21796043.731  
  21796048.216    85532374.416  
  20377723.734   107085660.659                    83443358.088    20377720.250  
                                
  22545521.052   118477512.582                    92320119.916    22545516.246  
                                
  20390443.924   107152506.085    20390444.156    83495458.972    20390443.870  
  20390443.387    80016479.766  
  22543690.496   118467893.141    22543687.619    92312628.702    22543686.869  
                                
  19297868.549   103303001.731    19297867.728    80346774.793    19297867.567  
                                
  20480991.302   109674778.181    20480989.712    85302598.773    20480989.676  
                                
  20157971.330   107642442.048    20157970.669    83721896.552    20157970.669  
                                
  26179893.878   137576271.548                                                  
  26179896.934   102735538.792  
  27604017.466   145060091.450                                                  
  27604020.021   108324103.637  
  23350014.808   122705156.113                                                  
  23350015.809    91630476.959  
  23479631.393   123386296.744                                                  
  23479633.645    92139125.340  
  25075919.283   131774845.190                                                  
  25075921.731    98403302.457  
 21  8 31  3  5  5.0000000  0 14G 3G 4G16G22G26G31R 7R 8R 9E 1E 4E19
                                E21E27
  21655163.443   113798652.020    21655163.836    88674272.884    21655163.211  
  21655164.283    84979515.520  
  21795571.596   114536501.422    21795570.131    89249214.086    21795569.756  
  21795574.223    85530514.433  
  20377411.348   107084019.076                    83442078.934    20377407.846  
                                
  22545971.941   118479881.976                    92321966.197    22545967.135  
                                
  20390668.251   107153684.915    20390668.466    83496377.542    20390668.180  
  20390667.715    80017360.061  
  22544143.190   118470272.022    22544140.277    92314482.380    22544139.562  
                                
  19298082.656   103304147.873    19298081.852    80347666.239    19298081.691  
                                
  20480481.159   109672046.438    20480479.587    85300474.086    20480479.551  
                                
  20158376.671   107644606.528    20158376.010    83723580.035    20158376.010  
                                
  26179438.004   137573875.893                                                  
  26179441.041   102733749.827  
  27603512.862   145057439.680                                                  
  27603515.400   108322123.421  
  23349857.989   122704331.888                                                  
  23349858.972    91629861.469  
  23479564.224   123385943.742                                                  
  23479566.475    92138861.730  
  25076319.209   131776946.771                                                  
  25076321.657    98404871.820  
 21  8 31  3  5  6.0000000  0 14G 3G 4G16G22G26G31R 7R 8R 9E 1E 4E19
                                E21E27
  21655441.503   113800113.244    21655441.896    88675411.500    21655441.253  
  21655442.343    84980606.699  
  21795097.674   114534010.894    21795096.191    89247273.417    21795095.833  
  21795100.318    85528654.623  
  20377099.087   107082378.141                    83440800.284    20377095.585  
                                
  22546422.866   118482251.722                    92323812.753    22546418.095  
                                
  20390892.668   107154864.311    20390892.883    83497296.552    20390892.615  
  20390892.150    80018240.776  
  22544595.902   118472650.988    22544592.989    92316336.122    22544592.274  
                                
  19298296.941   103305294.851    19298296.119    80348558.331    19298295.941  
                                
  20479971.159   109669315.281    20479969.551    85298349.850    20479969.533  
                                
  20158782.083   107646771.327    20158781.404    83725263.772    20158781.422  
                                
  26178982.165   137571480.465                                                  
  26178985.220   102731961.038  
  27603008.241   145054787.931                                                  
  27603010.796   108320143.219  
  23349701.189   122703507.974                                                  
  23349702.171    91629246.211  
  23479497.108   123385591.106                                                  
  23479499.377    92138598.402  
  25076719.154   131779048.523                                                  
  25076721.602    98406441.314  
 21  8 31  3  5  7.0000000  0 14G 3G 4G16G22G26G31R 7R 8R 9E 1E 4E19
                                E21E27
  21655719.706   113801575.239    21655720.117    88676550.714    21655719.473  
  21655720.546    84981698.447  
  21794623.805   114531520.765    21794622.340    89245333.057    21794621.965  
  21794626.432    85526795.113  
  20376786.987   107080738.028                    83439522.273    20376783.484  
                                
  22546873.934   118484621.962                    92325659.685    22546869.127  
                                
  20391117.228   107156044.422    20391117.478    83498216.120    20391117.193  
  20391116.710    80019122.033  
  22545048.631   118475030.180    22545045.736    92318190.035    22545045.004  
                                
  19298511.388   103306442.837    19298510.566    80349451.206    19298510.405  
                                
  20479461.267   109666584.850    20479459.694    85296226.182    20479459.641  
                                
  20159187.567   107648936.627    20159186.906    83726947.892    20159186.906  
                                
  26178526.415   137569085.430                                                  
  26178529.453   102730172.535  
  27602503.638   145052136.354                                                  
  27602506.211   108318163.158  
  23349544.513   122702684.544                                                  
  23349545.478    91628631.312  
  23479430.135   123385239.014                                                  
  23479432.368    92138335.472  
  25077119.170   131781150.633                                                  
  25077121.636    98408011.069  
 21  8 31  3  5  8.0000000  0 14G 3G 4G16G22G26G31R 7R 8R 9E 1E 4E19
                                E21E27
  21655998.034   113803037.803    21655998.445    88677690.375    21655997.783  
  21655998.873    84982790.619  
  21794150.008   114529030.860    21794148.525    89243392.872    21794148.168  
  21794152.635    85524935.766  
  20376475.011   107079098.540                    83438244.750    20376471.509  
                                
  22547325.037   118486992.553                    92327506.902    22547320.249  
                                
  20391341.913   107157225.089    20391342.128    83499136.120    20391341.860  
  20391341.395    80020003.697  
  22545501.396   118477409.436    22545498.502    92320044.002    22545497.787  
                                
  19298725.977   103307591.633    19298725.155    80350344.717    19298724.994  
                                
  20478951.482   109663854.967    20478949.891    85294102.941    20478949.855  
                                
  20159593.105   107651102.216    20159592.443    83728632.241    20159592.443  
                                
  26178070.684   137566690.612                                                  
  26178073.722   102728384.206  
  27601999.088   145049484.810                                                  
  27602001.625   108316183.105  
  23349387.855   122701861.423                                                  
  23349388.856    91628016.648  
  23479363.179   123384887.279                                                  
  23479365.431    92138072.812  
  25077519.221   131783252.907                                                  
  25077521.669    98409580.949  
 21  8 31  3  5  9.0000000  0 14G 3G 4G16G22G26G31R 7R 8R 9E 1E 4E19
                                E21E27
  21656276.487   113804501.078    21656276.880    88678830.586    21656276.236  
  21656277.326    84983883.326  
  21793676.247   114526541.329    21793674.781    89241452.979    21793674.424  
  21793678.909    85523076.696  
  20376163.179   107077459.832                    83436967.838    20376159.677  
                                
  22547776.230   118489363.611                    92329354.479    22547771.441  
                                
  20391566.706   107158406.460    20391566.956    83500056.671    20391566.670  
  20391566.188    80020885.890  
  22545954.198   118479788.901    22545951.303    92321898.130    22545950.570  
                                
  19298940.762   103308741.386    19298939.958    80351238.969    19298939.797  
                                
  20478441.803   109661125.774    20478440.231    85291980.241    20478440.177  
                                
  20159998.749   107653268.261    20159998.070    83730316.941    20159998.070  
                                
  26177615.042   137564296.155                                                  
  26177618.079   102726596.133  
  27601494.538   145046833.439                                                  
  27601497.076   108314203.194  
  23349231.305   122701038.762                                                  
  23349232.306    91627402.316  
  23479296.349   123384536.046                                                  
  23479298.583    92137810.533  
  25077919.327   131785355.501                                                  
  25077921.792    98411151.075  
 21  8 31  3  5 10.0000000  0 14G 3G 4G16G22G26G31R 7R 8R 9E 1E 4E19
                                E21E27
  21656555.100   113805965.103    21656555.493    88679971.385    21656554.832  
  21656555.904    84984976.590  
  21793202.592   114524052.186    21793201.109    89239513.387    21793200.752  
  21793205.219    85521217.925  
  20375851.490   107075821.943                    83435691.558    20375847.987  
                                
  22548227.530   118491735.188                    92331202.466    22548222.724  
                                
  20391791.659   107159588.547    20391791.891    83500977.777    20391791.605  
  20391791.141    80021768.619  
  22546407.034   118482168.613    22546404.122    92323752.453    22546403.407  
                                
  19299155.745   103309892.148    19299154.923    80352134.006    19299154.762  
                                
  20477932.286   109658397.311    20477930.696    85289858.110    20477930.660  
                                
  20160404.465   107655434.814    20160403.786    83732002.037    20160403.804  
                                
  26177159.453   137561902.094                                                  
  26177162.509   102724808.367  
  27600990.024   145044182.250                                                  
  27600992.562   108312223.403  
  23349074.862   122700216.582                                                  
  23349075.862    91626788.355  
  23479229.626   123384185.362                                                  
  23479231.860    92137548.654  
  25078319.503   131787458.441                                                  
  25078321.969    98412721.446  
 21  8 31  3  5 11.0000000  0 14G 3G 4G16G22G26G31R 7R 8R 9E 1E 4E19
                                E21E27
  21656833.786   113807429.757    21656834.179    88681112.674    21656833.553  
  21656834.625    84986070.331  
  21792728.974   114521563.331    21792727.491    89237574.019    21792727.133  
  21792731.619    85519359.367  
  20375539.943   107074184.753                    83434415.825    20375536.459  
                                
  22548678.884   118494107.149                    92333050.752    22548674.077  
                                
  20392016.719   107160771.250    20392016.952    83501899.366    20392016.683  
  20392016.201    80022651.806  
  22546859.907   118484548.439    22546856.994    92325606.868    22546856.279  
                                
  19299370.870   103311043.808    19299370.083    80353029.742    19299369.887  
                                
  20477422.876   109655669.506    20477421.303    85287736.483    20477421.268  
                                
  20160810.253   107657601.733    20160809.592    83733687.421    20160809.592  
                                
  26176703.918   137559508.309                                                  
  26176706.992   102723020.804  
  27600485.546   145041531.131                                                  
  27600488.084   108310243.687  
  23348918.472   122699394.764                                                  
  23348919.437    91626174.655  
  23479162.957   123383835.091                                                  
  23479165.208    92137287.092  
  25078719.716   131789561.613                                                  
  25078722.182    98414291.994  
 21  8 31  3  5 12.0000000  0 14G 3G 4G16G22G26G31R 7R 8R 9E 1E 4E19
                                E21E27
  21657112.560   113808894.689    21657112.953    88682254.182    21657112.310  
  21657113.400    84987164.268  
  21792255.338   114519074.382    21792253.872    89235634.580    21792253.497  
  21792257.982    85517500.736  
  20375228.450   107072547.885                    83433140.349    20375224.948  
                                
  22549130.256   118496479.152                    92334899.064    22549125.484  
                                
  20392241.833   107161954.184    20392242.048    83502821.134    20392241.780  
  20392241.297    80023535.167  
  22547312.708   118486928.001    22547309.813    92327461.074    22547309.098  
                                
  19299586.102   103312195.979    19299585.298    80353925.874    19299585.155  
                                
  20476913.537   109652941.949    20476911.947    85285615.055    20476911.911  
                                
  20161216.059   107659768.643    20161215.380    83735372.793    20161215.397  
                                
  26176248.383   137557114.435                                                  
  26176251.439   102721233.165  
  27599980.979   145038879.716                                                  
  27599983.516   108308263.741  
  23348762.100   122698572.959                                                  
  23348763.065    91625560.968  
  23479096.306   123383484.874                                                  
  23479098.557    92137025.564  
  25079119.928   131791664.638                                                  
  25079122.359    98415862.444  
 21  8 31  3  5 13.0000000  0 14G 3G 4G16G22G26G31R 7R 8R 9E 1E 4E19
                                E21E27
  21657391.406   113810360.103    21657391.817    88683396.061    21657391.174  
  21657392.246    84988258.572  
  21791781.737   114516585.591    21791780.272    89233695.263    21791779.897  
  21791784.382    85515642.223  
  20374917.083   107070911.596                    83431865.316    20374913.580  
                                
  22549581.699   118498851.413                    92336747.581    22549576.892  
                                
  20392467.019   107163137.606    20392467.251    83503743.281    20392466.983  
  20392466.500    80024418.889  
  22547765.527   118489307.571    22547762.632    92329315.285    22547761.899  
                                
  19299801.495   103313348.894    19299800.673    80354822.584    19299800.513  
                                
  20476404.288   109650214.921    20476402.680    85283494.033    20476402.644  
                                
  20161621.900   107661935.813    20161621.221    83737058.372    20161621.239  
                                
  26175792.866   137554720.706                                                  
  26175795.939   102719445.644  
  27599476.411   145036228.240                                                  
  27599478.948   108306283.757  
  23348605.746   122697751.381                                                  
  23348606.747    91624947.459  
  23479029.726   123383134.955                                                  
  23479031.977    92136764.259  
  25079520.123   131793767.784                                                  
  25079522.589    98417432.964  
 21  8 31  3  5 14.0000000  0 14G 3G 4G16G22G26G31R 7R 8R 9E 1E 4E19
                                E21E27
  21657670.378   113811826.080    21657670.789    88684538.383    21657670.145  
  21657671.217    84989353.291  
  21791308.190   114514097.003    21791306.707    89231756.101    21791306.350  
  21791310.817    85513783.862  
  20374605.822   107069275.908                    83430590.751    20374602.320  
                                
  22550033.177   118501223.994                    92338596.345    22550028.388  
                                
  20392692.311   107164321.562    20392692.561    83504665.844    20392692.275  
  20392691.793    80025303.010  
  22548218.364   118491687.168    22548215.451    92331169.518    22548214.736  
                                
  19300017.014   103314502.562    19300016.192    80355719.884    19300016.031  
                                
  20475895.128   109647488.432    20475893.538    85281373.430    20475893.484  
                                
  20162027.777   107664103.257    20162027.098    83738744.160    20162027.116  
                                
  26175337.402   137552327.170                                                  
  26175340.440   102717658.264  
  27598971.879   145033576.769                                                  
  27598974.399   108304303.763  
  23348449.446   122696930.085                                                  
  23348450.446    91624334.155  
  23478963.217   123382785.363                                                  
  23478965.451    92136503.204  
  25079920.371   131795871.056                                                  
  25079922.837    98419003.595  
 21  8 31  3  5 15.0000000  0 14G 3G 4G16G22G26G31R 7R 8R 9E 1E 4E19
                                E21E27
  21657949.456   113813292.597    21657949.867    88685681.121    21657949.206  
  21657950.278    84990448.422  
  21790834.643   114511608.608    21790833.160    89229817.094    21790832.803  
  21790837.288    85511925.651  
  20374294.687   107067640.830                    83429316.672    20374291.184  
                                
  22550484.727   118503596.874                    92340445.345    22550479.921  
                                
  20392917.711   107165506.041    20392917.961    83505588.809    20392917.675  
  20392917.193    80026187.523  
  22548671.182   118494066.815    22548668.288    92333023.789    22548667.573  
                                
  19300232.657   103315657.017    19300231.853    80356617.793    19300231.692  
                                
  20475386.075   109644762.486    20475384.485    85279253.251    20475384.449  
                                
  20162433.725   107666271.011    20162433.064    83740430.193    20162433.064  
                                
  26174881.957   137549933.828                                                  
  26174885.030   102715871.032  
  27598467.311   145030925.292                                                  
  27598469.849   108302323.760  
  23348293.217   122696109.082                                                  
  23348294.200    91623721.071  
  23478896.744   123382436.111                                                  
  23478898.996    92136242.399  
  25080320.637   131797974.480                                                  
  25080323.103    98420574.332  
 21  8 31  3  5 16.0000000  0 14G 3G 4G16G22G26G31R 7R 8R 9E 1E 4E19
                                E21E27
  21658228.624   113814759.704    21658229.035    88686824.321    21658228.391  
  21658229.464    84991543.984  
  21790361.168   114509120.457    21790359.702    89227878.278    21790359.327  
  21790363.812    85510067.612  
  20373983.659   107066006.407                    83428043.093    20373980.156  
                                
  22550936.331   118505970.118                    92342294.628    22550931.542  
                                
  20393143.218   107166691.068    20393143.468    83506512.212    20393143.182  
  20393142.700    80027072.446  
  22549124.019   118496446.533    22549121.124    92334878.114    22549120.392  
                                
  19300448.479   103316812.293    19300447.675    80357516.339    19300447.514  
                                
  20474877.130   109642037.082    20474875.522    85277133.492    20474875.486  
                                
  20162839.727   107668439.066    20162839.066    83742116.456    20162839.066  
                                
  26174426.565   137547540.718                                                  
  26174429.620   102714083.970  
  27597962.762   145028273.845                                                  
  27597965.281   108300343.787  
  23348137.059   122695288.399                                                  
  23348138.024    91623108.216  
  23478830.361   123382087.231                                                  
  23478832.612    92135981.874  
  25080720.939   131800078.095                                                  
  25080723.405    98422145.211  
 21  8 31  3  5 17.0000000  0 14G 3G 4G16G22G26G31R 7R 8R 9E 1E 4E19
                                E21E27
  21658507.952   113816227.497    21658508.345    88687968.058    21658507.684  
  21658508.792    84992640.068  
  21789887.746   114506632.640    21789886.298    89225939.719    21789885.905  
  21789890.390    85508209.825  
  20373672.791   107064372.753                    83426770.116    20373669.289  
                                
  22551388.024   118508343.802                    92344144.250    22551383.236  
                                
  20393368.868   107167876.767    20393369.083    83507436.133    20393368.797  
  20393368.314    80027957.875  
  22549576.910   118498826.420    22549574.015    92336732.572    22549573.264  
                                
  19300664.480   103317968.547    19300663.658    80358415.650    19300663.497  
                                
  20474368.292   109639312.345    20474366.719    85275014.252    20474366.683  
                                
  20163245.837   107670607.566    20163245.158    83743803.066    20163245.158  
                                
  26173971.226   137545147.937                                                  
  26173974.300   102712297.154  
  27597458.212   145025622.518                                                  
  27597460.732   108298363.911  
  23347980.956   122694468.139                                                  
  23347981.939    91622495.691  
  23478764.049   123381738.839                                                  
  23478766.300    92135721.707  
  25081121.313   131802181.989                                                  
  25081123.743    98423716.307  
 21  8 31  3  5 18.0000000  0 14G 3G 4G16G22G26G31R 7R 8R 9E 1E 4E19
                                E21E27
  21658787.388   113817695.892    21658787.763    88689112.262    21658787.120  
  21658788.192    84993736.599  
  21789414.377   114504145.085    21789412.912    89224001.364    21789412.537  
  21789417.022    85506352.241  
  20373362.031   107062739.759                    83425497.655    20373358.529  
                                
  22551839.807   118510717.879                    92345994.180    22551835.000  
                                
  20393594.608   107169063.059    20393594.822    83508360.519    20393594.536  
  20393594.089    80028843.744  
  22550029.800   118501206.413    22550026.905    92338587.114    22550026.190  
                                
  19300880.641   103319125.665    19300879.837    80359315.628    19300879.659  
                                
  20473859.596   109636588.209    20473857.988    85272895.484    20473857.952  
                                
  20163651.982   107672776.414    20163651.320    83745489.949    20163651.320  
                                
  26173515.941   137542755.425                                                  
  26173518.997   102710510.539  
  27596953.698   145022971.259                                                  
  27596956.235   108296384.086  
  23347824.923   122693648.230                                                  
  23347825.924    91621883.419  
  23478697.844   123381390.842                                                  
  23478700.078    92135461.846  
  25081521.686   131804286.100                                                  
  25081524.152    98425287.559  
 21  8 31  3  5 19.0000000  0 14G 3G 4G16G22G26G31R 7R 8R 9E 1E 4E19
                                E21E27
  21659066.913   113819164.927    21659067.306    88690256.967    21659066.681  
  21659067.753    84994833.604  
  21788941.063   114501657.805    21788939.598    89222063.229    21788939.240  
  21788943.690    85504494.859  
  20373051.414   107061107.466                    83424225.738    20373047.929  
                                
  22552291.643   118513092.318                    92347844.387    22552286.836  
                                
  20393820.472   107170249.961    20393820.686    83509285.375    20393820.401  
  20393819.918    80029730.069  
  22550482.708   118503586.515    22550479.813    92340441.737    22550479.099  
                                
  19301096.946   103320283.641    19301096.142    80360216.276    19301095.981  
                                
  20473350.972   109633864.701    20473349.400    85270777.205    20473349.364  
                                
  20164058.198   107674945.623    20164057.537    83747177.111    20164057.537  
                                
  26173060.728   137540363.178                                                  
  26173063.784   102708724.120  
  27596449.184   145020320.070                                                  
  27596451.704   108294404.297  
  23347668.980   122692828.680                                                  
  23347669.963    91621271.415  
  23478631.693   123381043.260                                                  
  23478633.945    92135202.292  
  25081922.149   131806390.440                                                  
  25081924.597    98426858.980  
 21  8 31  3  5 20.0000000  0 14G 3G 4G16G22G26G31R 7R 8R 9E 1E 4E19
                                E21E27
  21659346.581   113820634.558    21659346.974    88691402.131    21659346.331  
  21659347.403    84995931.059  
  21788467.802   114499170.781    21788466.336    89220125.288    21788465.961  
  21788470.446    85502637.668  
  20372740.922   107059475.830                    83422954.336    20372737.437  
                                
  22552743.551   118515467.134                    92349694.894    22552738.762  
                                
  20394046.426   107171437.438    20394046.658    83510210.680    20394046.372  
  20394045.908    80030616.818  
  22550935.670   118505966.720    22550932.775    92342296.444    22550932.025  
                                
  19301313.411   103321442.441    19301312.625    80361117.568    19301312.464  
                                
  20472842.509   109631141.835    20472840.901    85268659.425    20472840.865  
                                
  20164464.486   107677115.163    20164463.825    83748864.534    20164463.825  
                                
  26172605.533   137537971.180                                                  
  26172608.588   102706937.888  
  27595944.688   145017668.919                                                  
  27595947.207   108292424.551  
  23347513.091   122692009.464                                                  
  23347514.074    91620659.670  
  23478565.613   123380696.074                                                  
  23478567.883    92134943.027  
  25082322.629   131808494.974                                                  
  25082325.059    98428430.549  
 21  8 31  3  5 21.0000000  0 14G 3G 4G16G22G26G31R 7R 8R 9E 1E 4E19
                                E21E27
  21659626.303   113822104.546    21659626.696    88692547.577    21659626.035  
  21659627.143    84997028.778  
  21787994.541   114496683.768    21787993.058    89218187.358    21787992.700  
  21787997.167    85500780.481  
  20372430.519   107057844.620                    83421683.264    20372427.017  
                                
  22553195.494   118517842.063                    92351545.485    22553190.687  
                                
  20394272.469   107172625.244    20394272.683    83511136.243    20394272.415  
  20394271.951    80031503.813  
  22551388.561   118508346.763    22551385.666    92344151.021    22551384.933  
                                
  19301530.002   103322601.831    19301529.215    80362019.315    19301529.055  
                                
  20472334.100   109628419.356    20472332.510    85266541.941    20472332.474  
                                
  20164870.792   107679284.790    20164870.131    83750552.019    20164870.131  
                                
  26172150.355   137535579.188                                                  
  26172153.428   102705151.658  
  27595440.156   145015017.577                                                  
  27595442.676   108290444.655  
  23347357.220   122691190.348                                                  
  23347358.220    91620047.990  
  23478499.569   123380349.031                                                  
  23478501.839    92134683.872  
  25082723.092   131810599.469                                                  
  25082725.558    98430002.092  
 21  8 31  3  5 22.0000000  0 14G 3G 4G16G22G26G31R 7R 8R 9E 1E 4E19
                                E21E27
  21659906.150   113823575.142    21659906.561    88693693.496    21659905.900  
  21659906.990    84998126.948  
  21787521.333   114494197.005    21787519.850    89216249.623    21787519.493  
  21787523.942    85498923.487  
  20372120.223   107056214.088                    83420412.721    20372116.739  
                                
  22553647.491   118520217.355                    92353396.360    22553642.702  
                                
  20394498.601   107173813.646    20394498.852    83512062.273    20394498.566  
  20394498.083    80032391.256  
  22551841.487   118510726.897    22551838.592    92346005.673    22551837.877  
                                
  19301746.753   103323762.085    19301745.949    80362921.732    19301745.788  
                                
  20471825.816   109625697.507    20471824.225    85264424.945    20471824.189  
                                
  20165277.169   107681454.792    20165276.490    83752239.801    20165276.490  
                                
  26171695.231   137533187.445                                                  
  26171698.287   102703365.618  
  27594935.606   145012366.274                                                  
  27594938.126   108288464.790  
  23347201.402   122690371.575                                                  
  23347202.402    91619436.571  
  23478433.615   123380002.388                                                  
  23478435.866    92134425.017  
  25083123.590   131812704.167                                                  
  25083126.056    98431573.776  
 21  8 31  3  5 23.0000000  0 14G 3G 4G16G22G26G31R 7R 8R 9E 1E 4E19
                                E21E27
  21660186.122   113825046.430    21660186.533    88694839.957    21660185.889  
  21660186.961    84999225.633  
  21787048.179   114491710.606    21787046.714    89214312.169    21787046.357  
  21787050.806    85497066.756  
  20371810.089   107054584.304                    83419142.758    20371806.586  
                                
  22554099.577   118522593.131                    92355247.617    22554094.806  
                                
  20394724.877   107175002.702    20394725.109    83512988.808    20394724.823  
  20394724.359    80033279.190  
  22552294.449   118513107.219    22552291.536    92347860.467    22552290.821  
                                
  19301963.665   103324923.304    19301962.879    80363824.905    19301962.718  
                                
  20471317.656   109622976.314    20471316.066    85262308.461    20471316.012  
                                
  20165683.618   107683625.221    20165682.939    83753927.910    20165682.957  
                                
  26171240.143   137530796.031                                                  
  26171243.216   102701579.831  
  27594431.128   145009715.114                                                  
  27594433.648   108286485.034  
  23347045.691   122689553.237                                                  
  23347046.674    91618825.463  
  23478367.732   123379656.228                                                  
  23478370.001    92134166.522  
  25083524.160   131814809.155                                                  
  25083526.626    98433145.685  
 21  8 31  3  5 24.0000000  0 14G 3G 4G16G22G26G31R 7R 8R 9E 1E 4E19
                                E21E27
  21660466.254   113826518.461    21660466.647    88695986.991    21660466.004  
  21660467.076    85000324.877  
  21786575.097   114489224.600    21786573.632    89212375.019    21786573.274  
  21786577.742    85495210.325  
  20371500.115   107052955.351                    83417873.448    20371496.612  
                                
  22554551.771   118524969.412                    92357099.262    22554547.000  
                                
  20394951.295   107176192.495    20394951.510    83513915.921    20394951.224  
  20394950.777    80034167.676  
  22552747.464   118515487.772    22552744.551    92349715.446    22552743.837  
                                
  19302180.809   103326085.533    19302179.987    80364728.859    19302179.827  
                                
  20470809.640   109620255.867    20470808.050    85260192.554    20470807.996  
                                
  20166090.156   107685796.139    20166089.495    83755616.401    20166089.495  
                                
  26170785.144   137528405.036                                                  
  26170788.217   102699794.346  
  27593926.668   145007064.157                                                  
  27593929.187   108284505.425  
  23346890.052   122688735.377                                                  
  23346891.053    91618214.732  
  23478301.974   123379310.609                                                  
  23478304.225    92133908.434  
  25083924.801   131816914.499                                                  
  25083927.249    98434717.855  
 21  8 31  3  5 25.0000000  0 14G 3G 4G16G22G26G31R 7R 8R 9E 1E 4E19
                                E21E27
  21660746.476   113827991.038    21660746.869    88697134.454    21660746.208  
  21660747.316    85001424.526  
  21786102.050   114486738.770    21786100.603    89210438.009    21786100.246  
  21786104.695    85493354.024  
  20371190.230   107051326.978                    83416604.584    20371186.763  
                                
  22555004.036   118527345.972                    92358951.129    22554999.229  
                                
  20395177.785   107177382.786    20395178.017    83514843.421    20395177.732  
  20395177.267    80035056.532  
  22553200.462   118517868.350    22553197.567    92351570.443    22553196.852  
                                
  19302398.061   103327248.534    19302397.257    80365633.415    19302397.096  
                                
  20470301.713   109617535.917    20470300.105    85258077.037    20470300.069  
                                
  20166496.766   107687967.349    20166496.069    83757305.123    20166496.069  
                                
  26170330.181   137526014.189                                                  
  26170333.254   102698008.983  
  27593422.189   145004413.161                                                  
  27593424.709   108282525.793  
  23346734.466   122687917.795                                                  
  23346735.449    91617604.194  
  23478236.269   123378965.310                                                  
  23478238.521    92133650.578  
  25084325.461   131819019.954                                                  
  25084327.891    98436290.119  
 21  8 31  3  5 26.0000000  0 14G 3G 4G16G22G26G31R 7R 8R 9E 1E 4E19
                                E21E27
  21661026.788   113829464.093    21661027.163    88698282.289    21661026.537  
  21661027.610    85002524.543  
  21785629.057   114484253.093    21785627.574    89208501.120    21785627.217  
  21785631.684    85491497.841  
  20370880.470   107049699.187                    83415336.178    20370877.004  
                                
  22555456.319   118529722.805                    92360803.204    22555451.530  
                                
  20395404.382   107178573.565    20395404.614    83515771.300    20395404.329  
  20395403.864    80035945.748  
  22553653.459   118520248.909    22553650.564    92353425.425    22553649.832  
                                
  19302615.438   103328412.267    19302614.651    80366538.540    19302614.491  
                                
  20469793.857   109614816.449    20469792.285    85255961.893    20469792.231  
                                
  20166903.375   107690138.768    20166902.714    83758994.004    20166902.714  
                                
  26169875.235   137523623.508                                                  
  26169878.327   102696223.733  
  27592917.711   145001762.113                                                  
  27592920.213   108280546.109  
  23346578.952   122687100.440                                                  
  23346579.917    91616993.834  
  23478170.619   123378620.306                                                  
  23478172.870    92133392.939  
  25084726.138   131821125.526                                                  
  25084728.586    98437862.457  
 21  8 31  3  5 27.0000000  0 14G 3G 4G16G22G26G31R 7R 8R 9E 1E 4E19
                                E21E27
  21661307.242   113830937.849    21661307.617    88699430.670    21661306.956  
  21661308.064    85003625.069  
  21785156.100   114481767.765    21785154.653    89206564.498    21785154.277  
  21785158.745    85489641.905  
  20370570.854   107048072.138                    83414068.349    20370567.369  
                                
  22555908.691   118532100.090                    92362655.629    22555903.920  
                                
  20395631.122   107179765.007    20395631.337    83516699.697    20395631.051  
  20395630.604    80036835.458  
  22554106.510   118522629.659    22554103.616    92355280.557    22554102.883  
                                
  19302833.011   103329576.941    19302832.207    80367444.396    19302832.064  
                                
  20469286.145   109612097.674    20469284.572    85253847.295    20469284.501  
                                
  20167310.110   107692310.637    20167309.431    83760683.238    20167309.449  
                                
  26169420.379   137521233.153                                                  
  26169423.453   102694438.719  
  27592413.251   144999111.197                                                  
  27592415.770   108278566.544  
  23346423.474   122686283.507                                                  
  23346424.474    91616383.793  
  23478105.039   123378275.767                                                  
  23478107.309    92133135.664  
  25085126.868   131823231.375                                                  
  25085129.334    98439435.004  
 21  8 31  3  5 28.0000000  0 14G 3G 4G16G22G26G31R 7R 8R 9E 1E 4E19
                                E21E27
  21661587.821   113832412.301    21661588.197    88700579.591    21661587.535  
  21661588.643    85004726.127  
  21784683.232   114479282.789    21784681.767    89204628.153    21784681.409  
  21784685.877    85487786.248  
  20370261.398   107046445.870                    83412801.130    20370257.896  
                                
  22556361.170   118534477.835                    92364508.416    22556356.381  
                                
  20395857.952   107180957.135    20395858.202    83517628.628    20395857.916  
  20395857.433    80037725.689  
  22554559.579   118525010.597    22554556.685    92357135.829    22554555.970  
                                
  19303050.763   103330742.584    19303049.959    80368351.010    19303049.798  
                                
  20468778.575   109609379.620    20468776.967    85251733.255    20468776.931  
                                
  20167716.916   107694482.938    20167716.219    83762372.808    20167716.255  
                                
  26168965.577   137518843.151                                                  
  26168968.650   102692653.988  
  27591908.844   144996460.436                                                  
  27591911.346   108276587.076  
  23346268.103   122685467.029                                                  
  23346269.103    91615774.083  
  23478039.585   123377931.729                                                  
  23478041.837    92132878.751  
  25085527.653   131825337.528                                                  
  25085530.101    98441007.786  
 21  8 31  3  5 29.0000000  0 14G 3G 4G16G22G26G31R 7R 8R 9E 1E 4E19
                                E21E27
  21661868.508   113833887.428    21661868.919    88701729.041    21661868.258  
  21661869.348    85005827.681  
  21784210.418   114476798.115    21784208.952    89202692.051    21784208.577  
  21784213.044    85485930.818  
  20369952.068   107044820.314                    83411534.463    20369948.565  
                                
  22556813.721   118536856.000                    92366361.531    22556808.932  
                                
  20396084.942   107182149.895    20396085.156    83518558.051    20396084.888  
  20396084.424    80038616.386  
  22555012.702   118527391.694    22555009.789    92358991.234    22555009.075  
                                
  19303268.693   103331909.148    19303267.889    80369258.335    19303267.728  
                                
  20468271.131   109606662.233    20468269.523    85249619.734    20468269.487  
                                
  20168123.794   107696655.648    20168123.115    83764062.691    20168123.133  
                                
  26168510.828   137516453.465                                                  
  26168513.902   102690869.478  
  27591404.419   144993809.790                                                  
  27591406.939   108274607.704  
  23346112.803   122684650.944                                                  
  23346113.786    91615164.678  
  23477974.184   123377588.149                                                  
  23477976.454    92132622.179  
  25085928.491   131827443.948                                                  
  25085930.939    98442580.760  
 21  8 31  3  5 30.0000000  0 14G 3G 4G16G22G26G31R 7R 8R 9E 1E 4E19
                                E21E27
  21662149.284   113835362.886    21662149.677    88702878.751    21662149.016  
  21662150.124    85006929.484  
  21783737.603   114474313.453    21783736.138    89200755.951    21783735.781  
  21783740.230    85484075.382  
  20369642.808   107043195.176                    83410268.119    20369639.306  
                                
  22557266.308   118539234.277                    92368214.732    22557261.501  
                                
  20396311.968   107183342.977    20396312.200    83519487.728    20396311.914  
  20396311.467    80039507.321  
  22555465.771   118529772.620    22555462.859    92360846.499    22555462.144  
                                
  19303486.731   103333076.268    19303485.927    80370166.097    19303485.766  
                                
  20467763.704   109603945.172    20467762.132    85247506.469    20467762.096  
                                
  20168530.672   107698828.421    20168530.010    83765752.625    20168530.010  
                                
  26168056.079   137514063.750                                                  
  26168059.153   102689084.959  
  27590899.977   144991158.909                                                  
  27590902.496   108272628.154  
  23345957.521   122683834.933                                                  
  23345958.522    91614555.319  
  23477908.837   123377244.693                                                  
  23477911.107    92132365.702  
  25086329.329   131829550.301                                                  
  25086331.759    98444153.688  
 21  8 31  3  5 31.0000000  0 14G 3G 4G16G22G26G31R 7R 8R 9E 1E 4E19
                                E21E27
  21662430.149   113836838.849    21662430.542    88704028.850    21662429.881  
  21662430.971    85008031.662  
  21783264.807   114471828.926    21783263.342    89198819.958    21783262.984  
  21783267.434    85482220.062  
  20369333.674   107041570.592                    83409002.212    20369330.172  
                                
  22557718.912   118541612.803                    92370068.128    22557714.123  
                                
  20396539.101   107184536.534    20396539.351    83520417.770    20396539.047  
  20396538.583    80040398.612  
  22555918.840   118532153.535    22555915.946    92362701.757    22555915.213  
                                
  19303704.894   103334244.138    19303704.090    80371074.440    19303703.929  
                                
  20467256.420   109601228.604    20467254.830    85245393.581    20467254.776  
                                
  20168937.621   107701001.453    20168936.942    83767442.761    20168936.960  
                                
  26167601.348   137511674.191                                                  
  26167604.440   102687300.546  
  27590395.534   144988507.972                                                  
  27590398.018   108270648.563  
  23345802.293   122683019.171                                                  
  23345803.294    91613946.139  
  23477843.544   123376901.521                                                  
  23477845.796    92132109.439  
  25086730.149   131831656.745                                                  
  25086732.615    98445726.688  
 21  8 31  3  5 32.0000000  0 14G 3G 4G16G22G26G31R 7R 8R 9E 1E 4E19
                                E21E27
  21662711.157   113838315.449    21662711.533    88705179.449    21662710.872  
  21662711.979    85009134.318  
  21782792.082   114469344.704    21782790.599    89196884.203    21782790.241  
  21782794.709    85480364.964  
  20369024.647   107039946.736                    83407736.872    20369021.145  
                                
  22558171.606   118543991.728                    92371921.836    22558166.817  
                                
  20396766.341   107185730.720    20396766.591    83521348.307    20396766.306  
  20396765.823    80041290.374  
  22556371.945   118534534.564    22556369.050    92364557.102    22556368.336  
                                
  19303923.236   103335412.919    19303922.432    80371983.492    19303922.271  
                                
  20466749.244   109598512.694    20466747.654    85243281.209    20466747.618  
                                
  20169344.623   107703174.861    20169343.962    83769133.192    20169343.962  
                                
  26167146.689   137509284.922                                                  
  26167149.798   102685516.349  
  27589891.074   144985857.141                                                  
  27589893.576   108268669.055  
  23345647.136   122682203.782                                                  
  23345648.119    91613337.245  
  23477778.304   123376558.792                                                  
  23477780.574    92131853.505  
  25087131.058   131833763.447                                                  
  25087133.506    98447299.866  
 21  8 31  3  5 33.0000000  0 14G 3G 4G16G22G26G31R 7R 8R 9E 1E 4E19
                                E21E27
  21662992.237   113839792.691    21662992.648    88706330.547    21662991.987  
  21662993.077    85010237.453  
  21782319.410   114466860.773    21782317.945    89194948.674    21782317.570  
  21782322.019    85478510.075  
  20368715.781   107038323.572                    83406472.069    20368712.279  
                                
  22558624.389   118546371.073                    92373775.867    22558619.582  
                                
  20396993.707   107186925.498    20396993.921    83522279.300    20396993.653  
  20396993.188    80042182.585  
  22556825.068   118536915.737    22556822.155    92366412.568    22556821.440  
                                
  19304141.738   103336582.592    19304140.934    80372893.238    19304140.773  
                                
  20466242.193   109595797.427    20466240.602    85241169.334    20466240.566  
                                
  20169751.698   107705348.653    20169751.037    83770823.917    20169751.037  
                                
  26166692.083   137506895.926                                                  
  26166695.157   102683732.365  
  27589386.631   144983206.363                                                  
  27589389.133   108266689.589  
  23345492.033   122681388.759                                                  
  23345492.998    91612728.626  
  23477713.172   123376216.483                                                  
  23477715.423    92131597.887  
  25087531.985   131835870.373                                                  
  25087534.416    98448873.224  
 21  8 31  3  5 34.0000000  0 14G 3G 4G16G22G26G31R 7R 8R 9E 1E 4E19
                                E21E27
  21663273.460   113841270.476    21663273.835    88707482.068    21663273.192  
  21663274.300    85011340.996  
  21781846.775   114464377.050    21781845.309    89193013.305    21781844.934  
  21781849.384    85476655.341  
  20368407.022   107036701.027                    83405207.746    20368403.520  
                                
  22559077.226   118548750.722                    92375630.139    22559072.419  
                                
  20397221.161   107188120.822    20397221.412    83523210.722    20397221.126  
  20397220.643    80043075.193  
  22557278.190   118539296.951    22557275.296    92368268.059    22557274.563  
                                
  19304360.383   103337753.044    19304359.597    80373803.587    19304359.436  
                                
  20465735.231   109593082.707    20465733.640    85239057.885    20465733.604  
                                
  20170158.843   107707522.723    20170158.164    83772514.860    20170158.164  
                                
  26166237.513   137504507.141                                                  
  26166240.604   102681948.528  
  27588882.225   144980555.608                                                  
  27588884.726   108264710.134  
  23345337.001   122680574.033                                                  
  23345337.966    91612120.229  
  23477648.093   123375874.511                                                  
  23477650.362    92131342.518  
  25087932.948   131837977.450                                                  
  25087935.414    98450446.686  
 21  8 31  3  5 35.0000000  0 14G 3G 4G16G22G26G31R 7R 8R 9E 1E 4E19
                                E21E27
  21663554.790   113842748.822    21663555.165    88708634.028    21663554.522  
  21663555.612    85012444.956  
  21781374.157   114461893.520    21781372.692    89191078.090    21781372.334  
  21781376.784    85474800.768  
  20368098.371   107035079.114                    83403943.917    20368094.868  
                                
  22559530.116   118551130.695                    92377484.666    22559525.309  
                                
  20397448.724   107189316.681    20397448.956    83524142.559    20397448.670  
  20397448.205    80043968.208  
  22557731.313   118541678.194    22557728.418    92370123.574    22557727.704  
                                
  19304579.172   103338924.280    19304578.385    80374714.549    19304578.225  
                                
  20465228.376   109590368.531    20465226.803    85236946.858    20465226.750  
                                
  20170566.025   107709697.087    20170565.346    83774206.033    20170565.382  
                                
  26165782.979   137502118.558                                                  
  26165786.070   102680164.851  
  27588377.800   144977904.854                                                  
  27588380.302   108262730.667  
  23345182.023   122679759.612                                                  
  23345183.006    91611512.053  
  23477583.085   123375532.903                                                  
  23477585.355    92131087.422  
  25088333.929   131840084.684                                                  
  25088336.377    98452020.278  
 21  8 31  3  5 36.0000000  0 14G 3G 4G16G22G26G31R 7R 8R 9E 1E 4E19
                                E21E27
  21663836.227   113844227.802    21663836.602    88709786.477    21663835.941  
  21663837.049    85013549.386  
  21780901.611   114459410.284    21780900.145    89189143.106    21780899.770  
  21780904.237    85472946.408  
  20367789.862   107033457.895                    83402680.632    20367786.378  
                                
  22559983.078   118553511.046                    92379339.487    22559978.289  
                                
  20397676.393   107190513.140    20397676.625    83525074.866    20397676.357  
  20397675.892    80044861.671  
  22558184.489   118544059.575    22558181.595    92371979.193    22558180.880  
                                
  19304798.139   103340096.371    19304797.335    80375626.175    19304797.174  
                                
  20464721.646   109587654.987    20464720.038    85234836.323    20464720.002  
                                
  20170973.296   107711871.831    20170972.617    83775897.502    20170972.634  
                                
  26165328.480   137499730.243                                                  
  26165331.589   102678381.371  
  27587873.393   144975254.169                                                  
  27587875.877   108260751.269  
  23345027.099   122678945.540                                                  
  23345028.064    91610904.158  
  23477518.167   123375191.703                                                  
  23477520.418    92130832.627  
  25088734.982   131842192.146                                                  
  25088737.430    98453594.028  
 21  8 31  3  5 37.0000000  0 14G 3G 4G16G22G26G31R 7R 8R 9E 1E 4E19
                                E21E27
  21664117.753   113845707.268    21664118.146    88710939.306    21664117.485  
  21664118.575    85014654.183  
  21780429.100   114456927.210    21780427.635    89187208.240    21780427.260  
  21780431.709    85471092.160  
  20367481.461   107031837.238                    83401417.782    20367477.958  
                                
  22560436.094   118555891.664                    92381194.516    22560431.287  
                                
  20397904.169   107191710.081    20397904.419    83526007.549    20397904.133  
  20397903.651    80045755.490  
  22558637.648   118546440.945    22558634.753    92373834.808    22558634.020  
                                
  19305017.249   103341269.236    19305016.445    80376538.403    19305016.284  
                                
  20464215.006   109584941.938    20464213.415    85232726.176    20464213.379  
                                
  20171380.602   107714046.783    20171379.923    83777589.129    20171379.923  
                                
  26164874.035   137497342.077                                                  
  26164877.127   102676598.000  
  27587368.968   144972603.432                                                  
  27587371.452   108258771.825  
  23344872.246   122678131.724                                                  
  23344873.229    91610296.427  
  23477453.302   123374850.790                                                  
  23477455.554    92130578.050  
  25089136.034   131844299.714                                                  
  25089138.482    98455167.859  
 21  8 31  3  5 38.0000000  0 14G 3G 4G16G22G26G31R 7R 8R 9E 1E 4E19
                                E21E27
  21664399.387   113847187.278    21664399.780    88712092.563    21664399.119  
  21664400.209    85015759.387  
  21779956.625   114454444.311    21779955.160    89185273.516    21779954.785  
  21779959.234    85469238.049  
  20367173.184   107030217.182                    83400155.401    20367169.682  
                                
  22560889.163   118558272.564                    92383049.768    22560884.356  
                                
  20398132.035   107192907.524    20398132.267    83526940.624    20398131.999  
  20398131.517    80046649.685  
  22559090.824   118548822.320    22559087.912    92375690.420    22559087.197  
                                
  19305236.484   103342442.893    19305235.697    80377451.247    19305235.537  
                                
  20463708.454   109582229.425    20463706.864    85230616.451    20463706.810  
                                
  20171787.944   107716222.055    20171787.265    83779281.007    20171787.283  
                                
  26164419.626   137494954.097                                                  
  26164422.717   102674814.770  
  27586864.544   144969952.672                                                  
  27586867.028   108256792.369  
  23344717.429   122677318.166                                                  
  23344718.412    91609688.902  
  23477388.474   123374510.198                                                  
  23477390.725    92130323.718  
  25089537.122   131846407.393                                                  
  25089539.552    98456741.780  
 21  8 31  3  5 39.0000000  0 14G 3G 4G16G22G26G31R 7R 8R 9E 1E 4E19
                                E21E27
  21664681.128   113848667.804    21664681.503    88713246.222    21664680.842  
  21664681.968    85016864.977  
  21779484.168   114451961.598    21779482.703    89183338.937    21779482.346  
  21779486.813    85467384.079  
  20366864.997   107028597.724                    83398893.488    20366861.513  
                                
  22561342.285   118560653.784                    92384905.264    22561337.496  
                                
  20398359.990   107194105.483    20398360.240    83527874.098    20398359.954  
  20398359.490    80047544.262  
  22559543.983   118551203.728    22559541.088    92377546.060    22559540.373  
                                
  19305455.880   103343617.336    19305455.075    80378364.701    19305454.915  
                                
  20463202.011   109579517.450    20463200.402    85228507.137    20463200.367  
                                
  20172195.340   107718397.579    20172194.661    83780973.087    20172194.679  
                                
  26163965.235   137492566.283                                                  
  26163968.326   102673031.665  
  27586360.101   144967301.890                                                  
  27586362.603   108254812.890  
  23344562.665   122676504.886                                                  
  23344563.666    91609081.580  
  23477323.716   123374169.934                                                  
  23477325.986    92130069.622  
  25089938.228   131848515.222                                                  
  25089940.658    98458315.804  
 21  8 31  3  5 40.0000000  0 14G 3G 4G16G22G26G31R 7R 8R 9E 1E 4E19
                                E21E27
  21664962.976   113850148.955    21664963.369    88714400.363    21664962.708  
  21664963.816    85017971.027  
  21779011.765   114449479.145    21779010.300    89181404.560    21779009.942  
  21779014.410    85465530.302  
  20366556.971   107026978.947                    83397632.104    20366553.469  
                                
  22561795.497   118563035.356                    92386761.034    22561790.691  
                                
  20398588.088   107195304.023    20398588.320    83528808.030    20398588.035  
  20398587.552    80048439.280  
  22559997.159   118553585.226    22559994.264    92379401.774    22559993.531  
                                
  19305675.436   103344792.643    19305674.650    80379278.829    19305674.471  
                                
  20462695.674   109576806.086    20462694.084    85226398.298    20462694.030  
                                
  20172602.825   107720573.459    20172602.146    83782665.440    20172602.146  
                                
  26163510.897   137490178.731                                                  
  26163513.988   102671248.757  
  27585855.677   144964651.159                                                  
  27585858.178   108252833.452  
  23344407.973   122675691.947                                                  
  23344408.956    91608474.518  
  23477259.048   123373830.066                                                  
  23477261.318    92129815.823  
  25090339.370   131850623.244                                                  
  25090341.800    98459889.981  
 21  8 31  3  5 41.0000000  0 14G 3G 4G16G22G26G31R 7R 8R 9E 1E 4E19
                                E21E27
  21665244.931   113851630.593    21665245.324    88715554.889    21665244.663  
  21665245.753    85019077.447  
  21778539.415   114446996.863    21778537.950    89179470.315    21778537.593  
  21778542.024    85463676.645  
  20366249.034   107025360.737                    83396371.161    20366245.532  
                                
  22562248.727   118565417.204                    92388617.012    22562243.956  
                                
  20398816.240   107196503.045    20398816.490    83529742.333    20398816.204  
  20398815.722    80049334.654  
  22560450.353   118555966.731    22560447.440    92381257.491    22560446.726  
                                
  19305895.136   103345968.686    19305894.350    80380193.531    19305894.189  
                                
  20462189.445   109574095.232    20462187.836    85224289.861    20462187.801  
                                
  20173010.328   107722749.580    20173009.649    83784357.978    20173009.667  
                                
  26163056.595   137487791.337                                                  
  26163059.686   102669465.956  
  27585351.252   144962000.387                                                  
  27585353.754   108250853.983  
  23344253.317   122674879.252                                                  
  23344254.299    91607867.635  
  23477194.434   123373490.492                                                  
  23477196.685    92129562.249  
  25090740.529   131852731.370                                                  
  25090742.977    98461464.230  
 21  8 31  3  5 42.0000000  0 14G 3G 4G16G22G26G31R 7R 8R 9E 1E 4E19
                                E21E27
  21665527.012   113853112.965    21665527.387    88716709.984    21665526.744  
  21665527.852    85020184.409  
  21778067.119   114444514.936    21778065.654    89177536.345    21778065.279  
  21778069.728    85461823.267  
  20365941.240   107023743.307                    83395110.826    20365937.756  
                                
  22562702.082   118567799.521                    92390473.368    22562697.275  
                                
  20399044.517   107197702.750    20399044.767    83530677.168    20399044.481  
  20399044.016    80050230.542  
  22560903.565   118558348.414    22560900.652    92383113.348    22560899.956  
                                
  19306115.014   103347145.685    19306114.210    80381108.974    19306114.049  
                                
  20461683.358   109571385.099    20461681.750    85222181.975    20461681.714  
                                
  20173417.939   107724926.155    20173417.260    83786050.872    20173417.278  
                                
  26162602.364   137485404.304                                                  
  26162605.438   102667683.438  
  27584846.863   144959349.764                                                  
  27584849.347   108248874.633  
  23344098.750   122674067.017                                                  
  23344099.750    91607261.089  
  23477129.891   123373151.431                                                  
  23477132.178    92129309.054  
  25091141.742   131854839.818                                                  
  25091144.190    98463038.723  
 21  8 31  3  5 43.0000000  0 14G 3G 4G16G22G26G31R 7R 8R 9E 1E 4E19
                                E21E27
  21665809.199   113854595.912    21665809.592    88717865.522    21665808.931  
  21665810.039    85021291.802  
  21777594.859   114442033.258    21777593.393    89175602.573    21777593.036  
  21777597.503    85459970.062  
  20365633.571   107022126.532                    83393851.003    20365630.069  
                                
  22563155.473   118570182.173                    92392329.985    22563150.684  
                                
  20399272.954   107198903.033    20399273.186    83531612.454    20399272.901  
  20399272.418    80051126.855  
  22561356.813   118560730.197    22561353.918    92384969.279    22561353.185  
                                
  19306335.018   103348323.500    19306334.249    80382025.055    19306334.088  
                                
  20461177.361   109568675.541    20461175.753    85220074.538    20461175.717  
                                
  20173825.603   107727103.060    20173824.924    83787744.021    20173824.941  
                                
  26162148.151   137483017.509                                                  
  26162151.261   102665901.086  
  27584342.456   144956699.188                                                  
  27584344.940   108246895.307  
  23343944.236   122673255.096                                                  
  23343945.237    91606654.796  
  23477065.455   123372812.737                                                  
  23477067.707    92129056.135  
  25091543.009   131856948.451                                                  
  25091545.439    98464613.352  
 21  8 31  3  5 44.0000000  0 14G 3G 4G16G22G26G31R 7R 8R 9E 1E 4E19
                                E21E27
  21666091.512   113856079.458    21666091.905    88719021.534    21666091.244  
  21666092.352    85022399.651  
  21777122.652   114439551.830    21777121.204    89173668.992    21777120.847  
  21777125.279    85458117.052  
  20365326.046   107020510.440                    83392591.713    20365322.561  
                                
  22563608.953   118572565.200                    92394186.891    22563604.146  
                                
  20399501.463   107200103.892    20399501.713    83532548.185    20399501.428  
  20399500.945    80052023.593  
  22561810.061   118563112.045    22561807.166    92386825.269    22561806.433  
                                
  19306555.218   103349502.176    19306554.431    80382941.801    19306554.253  
                                
  20460671.489   109565966.574    20460669.881    85217967.562    20460669.845  
                                
  20174233.320   107729280.291    20174232.641    83789437.420    20174232.659  
                                
  26161694.010   137480630.948                                                  
  26161697.102   102664118.923  
  27583838.103   144954048.651                                                  
  27583840.587   108244916.012  
  23343789.830   122672443.524                                                  
  23343790.795    91606048.745  
  23477001.091   123372474.433                                                  
  23477003.343    92128803.506  
  25091944.312   131859057.278                                                  
  25091946.760    98466188.122  
 21  8 31  3  5 45.0000000  0 14G 3G 4G16G22G26G31R 7R 8R 9E 1E 4E19
                                E21E27
  21666373.932   113857563.552    21666374.307    88720177.971    21666373.646  
  21666374.772    85023507.904  
  21776650.499   114437070.616    21776649.051    89171735.581    21776648.658  
  21776653.125    85456264.199  
  20365018.627   107018894.964                    83391332.899    20365015.142  
                                
  22564062.487   118574948.559                    92396044.052    22564057.698  
                                
  20399730.097   107201305.290    20399730.312    83533484.338    20399730.044  
  20399729.561    80052920.739  
  22562263.308   118565493.949    22562260.414    92388681.297    22562259.717  
                                
  19306775.543   103350681.653    19306774.756    80383859.176    19306774.596  
                                
  20460165.724   109563258.154    20460164.116    85215861.011    20460164.080  
                                
  20174641.109   107731457.825    20174640.430    83791131.062    20174640.448  
                                
  26161239.905   137478244.611                                                  
  26161242.996   102662336.907  
  27583333.714   144951398.122                                                  
  27583336.198   108242936.717  
  23343635.424   122671632.249                                                  
  23343636.407    91605442.921  
  23476936.763   123372136.481                                                  
  23476939.032    92128551.135  
  25092345.632   131861166.260                                                  
  25092348.080    98467763.007  
 21  8 31  3  5 46.0000000  0 14G 3G 4G16G22G26G31R 7R 8R 9E 1E 4E19
                                E21E27
  21666656.495   113859048.407    21666656.870    88721335.001    21666656.209  
  21666657.335    85024616.726  
  21776178.435   114434589.813    21776176.970    89169802.495    21776176.594  
  21776181.044    85454411.656  
  20364711.369   107017280.305                    83390074.722    20364707.885  
                                
  22564516.128   118577332.414                    92397901.603    22564511.321  
                                
  20399958.839   107202507.405    20399959.071    83534421.050    20399958.785  
  20399958.338    80053818.427  
  22562716.628   118567876.101    22562713.715    92390537.518    22562713.000  
                                
  19306996.064   103351862.140    19306995.296    80384777.333    19306995.117  
                                
  20459660.066   109560550.495    20459658.476    85213755.056    20459658.440  
                                
  20175048.987   107733635.861    20175048.308    83792825.090    20175048.308  
                                
  26160785.871   137475858.667                                                  
  26160788.980   102660555.200  
  27582829.361   144948747.775                                                  
  27582831.845   108240957.575  
  23343481.143   122670821.461                                                  
  23343482.125    91604837.466  
  23476872.559   123371799.073                                                  
  23476874.811    92128299.183  
  25092747.024   131863275.588                                                  
  25092749.472    98469338.171  
 21  8 31  3  5 47.0000000  0 14G 3G 4G16G22G26G31R 7R 8R 9E 1E 4E19
                                E21E27
  21666939.165   113860533.786    21666939.522    88722492.442    21666938.879  
  21666939.987    85025725.929  
  21775706.371   114432109.186    21775704.906    89167869.538    21775704.548  
  21775708.998    85452559.239  
  20364404.218   107015666.250                    83388817.019    20364400.734  
                                
  22564969.804   118579716.572                    92399759.388    22564965.015  
                                
  20400187.687   107203710.027    20400187.920    83535358.161    20400187.652  
  20400187.169    80054716.489  
  22563169.929   118570258.272    22563167.034    92392393.757    22563166.337  
                                
  19307216.747   103353043.417    19307215.943    80385696.106    19307215.782  
                                
  20459154.534   109557843.385    20459152.926    85211649.528    20459152.890  
                                
  20175456.919   107735814.162    20175456.240    83794519.326    20175456.240  
                                
  26160331.873   137473472.893                                                  
  26160334.982   102658773.615  
  27582325.026   144946097.416                                                  
  27582327.492   108238978.424  
  23343326.915   122670010.940                                                  
  23343327.880    91604232.205  
  23476808.409   123371461.978                                                  
  23476810.661    92128047.454  
  25093148.434   131865385.046                                                  
  25093150.882    98470913.408  
 21  8 31  3  5 48.0000000  0 14G 3G 4G16G22G26G31R 7R 8R 9E 1E 4E19
                                E21E27
  21667221.942   113862019.797    21667222.300    88723650.372    21667221.638  
  21667222.764    85026835.619  
  21775234.379   114429628.837    21775232.913    89165936.799    21775232.538  
  21775236.987    85450707.038  
  20364097.211   107014052.887                    83387559.858    20364093.708  
                                
  22565423.570   118582101.116                    92401617.473    22565418.781  
                                
  20400416.661   107204913.256    20400416.893    83536295.742    20400416.607  
  20400416.143    80055615.004  
  22563623.266   118572640.569    22563620.389    92394250.092    22563619.657  
                                
  19307437.572   103354225.569    19307436.786    80386615.558    19307436.625  
                                
  20458649.126   109555136.897    20458647.518    85209544.487    20458647.483  
                                
  20175864.905   107737992.826    20175864.226    83796213.843    20175864.244  
                                
  26159877.928   137471087.397                                                  
  26159881.055   102656992.237  
  27581820.673   144943447.134                                                  
  27581823.156   108236999.319  
  23343172.741   122669200.795                                                  
  23343173.706    91603627.228  
  23476744.331   123371125.306                                                  
  23476746.600    92127796.045  
  25093549.897   131867494.732                                                  
  25093552.345    98472488.830  
 21  8 31  3  5 49.0000000  0 14G 3G 4G16G22G26G31R 7R 8R 9E 1E 4E19
                                E21E27
  21667504.845   113863506.570    21667505.238    88724808.894    21667504.576  
  21667505.684    85027945.867  
  21774762.458   114427148.914    21774760.992    89164004.394    21774760.635  
  21774765.084    85448855.138  
  20363790.346   107012440.355                    83386303.339    20363786.879  
                                
  22565877.425   118584486.162                    92403475.950    22565872.637  
                                
  20400645.760   107206117.222    20400645.992    83537233.897    20400645.724  
  20400645.259    80056514.067  
  22564076.657   118575023.091    22564073.762    92396106.604    22564073.029  
                                
  19307658.594   103355408.723    19307657.808    80387535.786    19307657.647  
                                
  20458143.844   109552431.166    20458142.254    85207440.032    20458142.200  
                                
  20176272.980   107740171.956    20176272.301    83797908.720    20176272.301  
                                
  26159424.073   137468702.310                                                  
  26159427.182   102655211.165  
  27581316.373   144940797.054                                                  
  27581318.857   108235020.361  
  23343018.657   122668391.133                                                  
  23343019.639    91603022.618  
  23476680.396   123370789.185                                                  
  23476682.647    92127545.048  
  25093951.432   131869604.780                                                  
  25093953.862    98474064.513  
 21  8 31  3  5 50.0000000  0 14G 3G 4G16G22G26G31R 7R 8R 9E 1E 4E19
                                E21E27
  21667787.908   113864993.975    21667788.283    88725967.911    21667787.622  
  21667788.748    85029056.587  
  21774290.608   114424669.276    21774289.143    89162072.208    21774288.786  
  21774293.217    85447003.465  
  20363483.624   107010828.500                    83385047.347    20363480.140  
                                
  22566331.370   118586871.619                    92405334.743    22566326.563  
                                
  20400874.984   107207321.799    20400875.216    83538172.528    20400874.948  
  20400874.483    80057413.591  
  22564530.065   118577405.746    22564527.171    92397963.215    22564526.438  
                                
  19307879.795   103356592.755    19307878.991    80388456.701    19307878.830  
                                
  20457638.687   109549726.084    20457637.097    85205336.081    20457637.025  
                                
  20176681.126   107742351.468    20176680.447    83799603.895    20176680.465  
                                
  26158970.253   137466317.504                                                  
  26158973.362   102653430.310  
  27580812.109   144938147.060                                                  
  27580814.575   108233041.478  
  23342864.679   122667581.857                                                  
  23342865.644    91602418.283  
  23476616.496   123370453.487                                                  
  23476618.765    92127294.364  
  25094352.985   131871715.059                                                  
  25094355.433    98475640.371  
 21  8 31  3  5 51.0000000  0 14G 3G 4G16G22G26G31R 7R 8R 9E 1E 4E19
                                E21E27
  21668071.042   113866481.937    21668071.418    88727127.362    21668070.756  
  21668071.882    85030167.732  
  21773818.777   114422189.864    21773817.329    89160140.197    21773816.936  
  21773821.403    85445151.958  
  20363177.027   107009217.289                    83383791.852    20363173.543  
                                
  22566785.368   118589257.388                    92407193.788    22566780.562  
                                
  20401104.297   107208526.918    20401104.547    83539111.580    20401104.261  
  20401103.796    80058313.520  
  22564983.474   118579788.468    22564980.579    92399819.882    22564979.864  
                                
  19308101.120   103357777.601    19308100.334    80389378.247    19308100.173  
                                
  20457133.637   109547021.599    20457132.046    85203232.591    20457131.993  
                                
  20177089.362   107744531.307    20177088.683    83801299.329    20177088.683  
                                
  26158516.469   137463932.907                                                  
  26158519.578   102651649.609  
  27580307.828   144935497.068                                                  
  27580310.276   108231062.601  
  23342710.720   122666772.885                                                  
  23342711.702    91601814.181  
  23476552.686   123370118.147                                                  
  23476554.955    92127043.948  
  25094754.591   131873825.503                                                  
  25094757.039    98477216.351  
 21  8 31  3  5 52.0000000  0 14G 3G 4G16G22G26G31R 7R 8R 9E 1E 4E19
                                E21E27
  21668354.266   113867970.348    21668354.660    88728287.163    21668353.998  
  21668355.106    85031279.208  
  21773346.981   114419710.545    21773345.533    89158208.260    21773345.140  
  21773349.608    85443300.523  
  20362870.520   107007606.576                    83382536.754    20362867.018  
                                
  22567239.402   118591643.382                    92409053.009    22567234.596  
                                
  20401333.699   107209732.460    20401333.949    83540050.966    20401333.664  
  20401333.199    80059213.767  
  22565436.883   118582171.111    22565433.988    92401676.487    22565433.273  
                                
  19308322.589   103358963.137    19308321.803    80390300.329    19308321.642  
                                
  20456628.694   109544317.555    20456627.086    85201129.443    20456627.050  
                                
  20177497.598   107746711.338    20177496.918    83802994.910    20177496.918  
                                
  26158062.703   137461548.409                                                  
  26158065.830   102649868.978  
  27579803.510   144932846.985                                                  
  27579805.994   108229083.643  
  23342556.814   122665964.101                                                  
  23342557.797    91601210.217  
  23476488.911   123369783.045                                                  
  23476491.199    92126793.707  
  25095156.197   131875935.993                                                  
  25095158.645    98478792.367  
 21  8 31  3  5 53.0000000  0 14G 3G 4G16G22G26G31R 7R 8R 9E 1E 4E19
                                E21E27
  21668637.615   113869459.202    21668637.991    88729447.306    21668637.330  
  21668638.455    85032391.008  
  21772875.203   114417231.327    21772873.738    89156276.404    21772873.362  
  21772877.812    85441449.159  
  20362564.120   107005996.391                    83381282.067    20362560.618  
                                
  22567693.472   118594029.555                    92410912.365    22567688.665  
                                
  20401563.191   107210938.413    20401563.423    83540990.671    20401563.155  
  20401562.691    80060114.316  
  22565890.255   118584553.693    22565887.379    92403533.044    22565886.664  
                                
  19308544.183   103360149.349    19308543.397    80391222.938    19308543.236  
                                
  20456123.805   109541613.943    20456122.196    85199026.632    20456122.161  
                                
  20177905.887   107748891.541    20177905.208    83804690.626    20177905.208  
                                
  26157608.991   137459163.991                                                  
  26157612.082   102648088.405  
  27579299.211   144930196.779                                                  
  27579301.676   108227104.593  
  23342402.944   122665155.481                                                  
  23342403.909    91600606.386  
  23476425.190   123369448.171                                                  
  23476427.460    92126543.642  
  25095557.821   131878046.513                                                  
  25095560.269    98480368.409  
 21  8 31  3  5 54.0000000  0 14G 3G 4G16G22G26G31R 7R 8R 9E 1E 4E19
                                E21E27
  21668921.036   113870948.707    21668921.429    88730607.964    21668920.768  
  21668921.876    85033503.307  
  21772403.496   114414752.440    21772402.031    89154344.808    21772401.656  
  21772406.105    85439598.042  
  20362257.845   107004386.919                    83380027.938    20362254.343  
                                
  22568147.631   118596416.195                    92412772.086    22568142.824  
                                
  20401792.808   107212145.034    20401793.040    83541930.898    20401792.772  
  20401792.308    80061015.362  
  22566343.682   118586936.427    22566340.787    92405389.717    22566340.072  
                                
  19308765.955   103361336.472    19308765.169    80392146.256    19308764.990  
                                
  20455619.041   109538910.972    20455617.450    85196924.323    20455617.397  
                                
  20178314.230   107751072.138    20178313.551    83806386.646    20178313.551  
                                
  26157155.296   137456779.907                                                  
  26157158.406   102646308.085  
  27578794.911   144927546.696                                                  
  27578797.359   108225125.640  
  23342249.145   122664347.293                                                  
  23342250.128    91600002.863  
  23476361.559   123369113.762                                                  
  23476363.810    92126293.922  
  25095959.499   131880157.312                                                  
  25095961.929    98481944.652  
 21  8 31  3  5 55.0000000  0 14G 3G 4G16G22G26G31R 7R 8R 9E 1E 4E19
                                E21E27
  21669204.582   113872438.717    21669204.957    88731769.011    21669204.296  
  21669205.422    85034615.975  
  21771931.790   114412273.699    21771930.343    89152413.327    21771929.967  
  21771934.417    85437747.032  
  20361951.659   107002778.032                    83378774.261    20361948.193  
                                
  22568601.844   118598803.063                    92414631.988    22568597.037  
                                
  20402022.514   107213352.108    20402022.747    83542871.475    20402022.479  
  20402022.014    80061916.746  
  22566797.090   118589319.140    22566794.214    92407246.375    22566793.499  
                                
  19308987.853   103362524.343    19308987.067    80393070.155    19308986.906  
                                
  20455114.366   109536208.491    20455112.775    85194822.394    20455112.740  
                                
  20178722.626   107753252.956    20178721.947    83808082.835    20178721.947  
                                
  26156701.655   137454395.958                                                  
  26156704.747   102644527.859  
  27578290.594   144924896.543                                                  
  27578293.059   108223146.633  
  23342095.400   122663539.325                                                  
  23342096.365    91599399.506  
  23476297.963   123368779.631                                                  
  23476300.232    92126044.407  
  25096361.195   131882268.201                                                  
  25096363.643    98483520.959  
 21  8 31  3  5 56.0000000  0 14G 3G 4G16G22G26G31R 7R 8R 9E 1E 4E19
                                E21E27
  21669488.217   113873929.165    21669488.574    88732930.399    21669487.913  
  21669489.057    85035728.974  
  21771460.119   114409795.047    21771458.654    89150481.909    21771458.297  
  21771462.746    85435896.099  
  20361645.616   107001169.652                    83377520.976    20361642.114  
                                
  22569056.075   118601190.143                    92416492.048    22569051.286  
                                
  20402252.292   107214559.604    20402252.542    83543812.384    20402252.256  
  20402251.774    80062818.452  
  22567250.517   118591701.792    22567247.604    92409102.989    22567246.890  
                                
  19309209.893   103363712.913    19309209.107    80393994.599    19309208.928  
                                
  20454609.780   109533506.444    20454608.172    85192720.804    20454608.136  
                                
  20179131.059   107755433.958    20179130.379    83809779.173    20179130.379  
                                
  26156248.015   137452012.092                                                  
  26156251.124   102642747.708  
  27577786.276   144922246.284                                                  
  27577788.724   108221167.553  
  23341941.673   122662731.545                                                  
  23341942.655    91598796.295  
  23476234.421   123368445.735                                                  
  23476236.708    92125795.071  
  25096762.890   131884379.117                                                  
  25096765.320    98485097.297  
 21  8 31  3  5 57.0000000  0 14G 3G 4G16G22G26G31R 7R 8R 9E 1E 4E19
                                E21E27
  21669771.941   113875420.181    21669772.298    88734092.230    21669771.637  
  21669772.763    85036842.397  
  21770988.502   114407316.641    21770987.037    89148550.684    21770986.662  
  21770991.129    85434045.333  
  20361339.681   106999561.920                    83376268.198    20361336.179  
                                
  22569510.394   118603577.549                    92418352.364    22569505.588  
                                
  20402482.159   107215767.649    20402482.409    83544753.713    20402482.141  
  20402481.659    80063720.561  
  22567703.926   118594084.511    22567701.031    92410959.653    22567700.316  
                                
  19309432.077   103364902.294    19309431.273    80394919.675    19309431.112  
                                
  20454105.302   109530804.983    20454103.712    85190619.670    20454103.658  
                                
  20179539.544   107757615.274    20179538.865    83811475.756    20179538.865  
                                
  26155794.427   137449628.451                                                  
  26155797.519   102640967.723  
  27577281.959   144919596.061                                                  
  27577284.407   108219188.488  
  23341788.035   122661924.076                                                  
  23341789.000    91598193.319  
  23476170.950   123368112.202                                                  
  23476173.237    92125546.000  
  25097164.622   131886490.215                                                  
  25097167.052    98486673.760  
 21  8 31  3  5 58.0000000  0 14G 3G 4G16G22G26G31R 7R 8R 9E 1E 4E19
                                E21E27
  21670055.844   113876912.078    21670056.201    88735254.750    21670055.540  
  21670056.666    85037956.478  
  21770516.956   114404838.755    21770515.509    89146619.863    21770515.152  
  21770519.583    85432194.970  
  20361033.888   106997955.122                    83375016.152    20361030.422  
                                
  22569964.804   118605965.600                    92420213.181    22569960.033  
                                
  20402712.223   107216976.554    20402712.455    83545695.716    20402712.187  
  20402711.723    80064623.315  
  22568157.406   118596467.597    22568154.511    92412816.606    22568153.814  
                                
  19309654.475   103366092.798    19309653.688    80395845.620    19309653.510  
                                
  20453601.002   109528104.407    20453599.376    85188519.228    20453599.341  
                                
  20179948.137   107759797.221    20179947.458    83813172.827    20179947.458  
                                
  26155340.929   137447245.330                                                  
  26155344.021   102639188.124  
  27576777.659   144916946.133                                                  
  27576780.125   108217209.659  
  23341634.468   122661117.217                                                  
  23341635.451    91597590.799  
  23476107.640   123367779.339                                                  
  23476109.891    92125297.433  
  25097566.425   131888601.777                                                  
  25097568.855    98488250.588  
 21  8 31  3  5 59.0000000  0 14G 3G 4G16G22G26G31R 7R 8R 9E 1E 4E19
                                E21E27
  21670339.836   113878404.536    21670340.212    88736417.701    21670339.551  
  21670340.676    85039070.972  
  21770045.464   114402361.071    21770043.999    89144689.201    21770043.642  
  21770048.091    85430344.753  
  20360728.257   106996348.949                    83373764.588    20360724.754  
                                
  22570419.302   118608353.977                    92422074.254    22570414.513  
                                
  20402942.358   107218185.978    20402942.608    83546638.127    20402942.322  
  20402941.858    80065526.456  
  22568610.904   118598850.742    22568608.027    92414673.604    22568607.294  
                                
  19309877.015   103367284.103    19309876.229    80396772.191    19309876.050  
                                
  20453096.774   109525404.387    20453095.166    85186419.215    20453095.113  
                                
  20180356.802   107761979.452    20180356.123    83814870.120    20180356.123  
                                
  26154887.485   137444862.422                                                  
  26154890.576   102637408.676  
  27576273.413   144914296.233                                                  
  27576275.879   108215230.846  
  23341480.991   122660310.654                                                  
  23341481.956    91596988.492  
  23476044.348   123367446.813                                                  
  23476046.599    92125049.119  
  25097968.281   131890713.503                                                  
  25097970.711    98489827.516  
 21  8 31  3  6  0.0000000  0 14G 3G 4G16G22G26G31R 7R 8R 9E 1E 4E19
                                E21E27
  21670623.954   113879897.492    21670624.311    88737581.046    21670623.650  
  21670624.776    85040185.844  
  21769574.026   114399883.575    21769572.579    89142758.686    21769572.203  
  21769576.653    85428494.669  
  20360422.714   106994743.368                    83372513.489    20360419.230  
                                
  22570873.854   118610742.612                    92423935.526    22570869.066  
                                
  20403172.600   107219395.889    20403172.851    83547580.917    20403172.565  
  20403172.100    80066429.966  
  22569064.384   118601233.875    22569061.507    92416530.589    22569060.792  
                                
  19310099.699   103368476.182    19310098.931    80397699.368    19310098.752  
                                
  20452592.671   109522704.914    20452591.063    85184319.623    20452591.027  
                                
  20180765.520   107764161.928    20180764.841    83816567.598    20180764.841  
                                
  26154434.059   137442479.674                                                  
  26154437.150   102635629.351  
  27575769.149   144911646.288                                                  
  27575771.597   108213251.986  
  23341327.550   122659504.353                                                  
  23341328.533    91596386.384  
  23475981.145   123367114.604                                                  
  23475983.397    92124801.036  
  25098370.137   131892825.334                                                  
  25098372.568    98491404.542  
 21  8 31  3  6  1.0000000  0 14G 3G 4G16G22G26G31R 7R 8R 9E 1E 4E19
                                E21E27
  21670908.161   113881391.053    21670908.518    88738744.860    21670907.857  
  21670908.983    85041301.161  
  21769102.605   114397406.308    21769101.158    89140828.351    21769100.801  
  21769105.232    85426644.770  
  20360117.333   106993138.454                    83371262.906    20360113.830  
                                
  22571328.460   118613131.585                    92425797.059    22571323.671  
                                
  20403402.950   107220606.378    20403403.182    83548524.158    20403402.914  
  20403402.450    80067333.903  
  22569517.899   118603617.082    22569515.022    92418387.637    22569514.308  
                                
  19310322.562   103369669.096    19310321.758    80398627.185    19310321.597  
                                
  20452088.676   109520006.046    20452087.049    85182220.505    20452087.014  
                                
  20181174.274   107766344.726    20181173.595    83818265.332    20181173.595  
                                
  26153980.668   137440097.166                                                  
  26153983.795   102633850.203  
  27575264.885   144908996.372                                                  
  27575267.351   108211273.166  
  23341174.198   122658698.380                                                  
  23341175.163    91595784.519  
  23475917.978   123366782.762                                                  
  23475920.247    92124553.239  
  25098772.048   131894937.354                                                  
  25098774.478    98492981.699  
 21  8 31  3  6  2.0000000  0 14G 3G 4G16G22G26G31R 7R 8R 9E 1E 4E19
                                E21E27
  21671192.457   113882885.090    21671192.814    88739909.044    21671192.153  
  21671193.297    85042416.842  
  21768631.238   114394929.193    21768629.773    89138898.129    21768629.416  
  21768633.865    85424794.977  
  20359812.022   106991534.082                    83370012.749    20359808.520  
                                
  22571783.138   118615520.830                    92427658.806    22571778.331  
                                
  20403633.389   107221817.331    20403633.621    83549467.755    20403633.353  
  20403632.871    80068238.186  
  22569971.415   118606000.270    22569968.503    92420244.668    22569967.806  
                                
  19310545.549   103370862.745    19310544.745    80399555.579    19310544.584  
                                
  20451584.769   109517307.668    20451583.161    85180121.767    20451583.125  
                                
  20181583.082   107768527.738    20181582.403    83819963.231    20181582.420  
                                
  26153527.331   137437714.796                                                  
  26153530.440   102632071.160  
  27574760.604   144906346.395                                                  
  27574763.070   108209294.285  
  23341020.846   122657892.628                                                  
  23341021.829    91595182.833  
  23475854.883   123366451.205                                                  
  23475857.152    92124305.651  
  25099173.975   131897049.464                                                  
  25099176.388    98494558.929  
 21  8 31  3  6  3.0000000  0 14G 3G 4G16G22G26G31R 7R 8R 9E 1E 4E19
                                E21E27
  21671476.896   113884379.780    21671477.253    88741073.740    21671476.592  
  21671477.736    85043533.005  
  21768159.925   114392452.398    21768158.460    89136968.161    21768158.102  
  21768162.534    85422945.420  
  20359506.855   106989930.447                    83368763.161    20359503.371  
                                
  22572237.868   118617910.466                    92429520.860    22572233.062  
                                
  20403863.935   107223028.909    20403864.167    83550411.847    20403863.899  
  20403863.435    80069142.940  
  22570424.931   118608383.612    22570422.036    92422101.817    22570421.339  
                                
  19310768.698   103372057.305    19310767.911    80400484.682    19310767.733  
                                
  20451080.988   109514609.932    20451079.397    85178023.526    20451079.344  
                                
  20181991.961   107770711.168    20181991.282    83821661.451    20181991.299  
                                
  26153074.029   137435332.725                                                  
  26153077.139   102630292.343  
  27574256.340   144903696.518                                                  
  27574258.806   108207315.485  
  23340867.601   122657087.277                                                  
  23340868.584    91594581.424  
  23475791.876   123366120.090                                                  
  23475794.146    92124058.391  
  25099575.939   131899161.818                                                  
  25099578.351    98496136.340  
 21  8 31  3  6  4.0000000  0 14G 3G 4G16G22G26G31R 7R 8R 9E 1E 4E19
                                E21E27
  21671761.442   113885875.140    21671761.800    88742238.956    21671761.139  
  21671762.264    85044649.680  
  21767688.665   114389975.926    21767687.200    89135038.448    21767686.825  
  21767691.256    85421096.117  
  20359201.831   106988327.552                    83367514.154    20359198.329  
                                
  22572692.671   118620300.542                    92431383.261    22572687.864  
                                
  20404094.606   107224241.150    20404094.856    83551356.450    20404094.571  
  20404094.106    80070048.183  
  22570878.500   118610767.118    22570875.606    92423959.094    22570874.909  
                                
  19310992.025   103373252.819    19310991.238    80401414.526    19310991.077  
                                
  20450577.331   109511912.867    20450575.723    85175925.811    20450575.670  
                                
  20182400.947   107772895.024    20182400.250    83823360.008    20182400.268  
                                
  26152620.817   137432950.986                                                  
  26152623.909   102628513.772  
  27573752.112   144901046.767                                                  
  27573754.560   108205336.788  
  23340714.428   122656282.349                                                  
  23340715.411    91593980.346  
  23475728.960   123365789.451                                                  
  23475731.229    92123811.483  
  25099977.956   131901274.468                                                  
  25099980.387    98497713.964  
 21  8 31  3  6  5.0000000  0 14G 3G 4G16G22G26G31R 7R 8R 9E 1E 4E19
                                E21E27
  21672046.096   113887371.034    21672046.453    88743404.587    21672045.828  
  21672046.936    85045766.731  
  21767217.441   114387499.639    21767215.994    89133108.876    21767215.601  
  21767220.050    85419246.935  
  20358896.932   106986725.249                    83366265.606    20358893.430  
                                
  22573147.545   118622690.900                    92433245.878    22573142.738  
                                
  20404325.403   107225453.876    20404325.635    83552301.433    20404325.349  
  20404324.884    80070953.794  
  22571332.088   118613150.626    22571329.175    92425816.371    22571328.478  
                                
  19311215.512   103374449.099    19311214.708    80402344.965    19311214.547  
                                
  20450073.765   109509216.319    20450072.156    85173828.500    20450072.121  
                                
  20182809.951   107775079.142    20182809.272    83825058.765    20182809.272  
                                
  26152167.605   137430569.414                                                  
  26152170.714   102626735.327  
  27573247.866   144898396.989                                                  
  27573250.332   108203358.054  
  23340561.309   122655477.685                                                  
  23340562.291    91593379.456  
  23475666.096   123365459.115                                                  
  23475668.366    92123564.805  
  25100380.009   131903387.218                                                  
  25100382.422    98499291.671  
 21  8 31  3  6  6.0000000  0 14G 3G 4G16G22G26G31R 7R 8R 9E 1E 4E19
                                E21E27
  21672330.857   113888867.423    21672331.214    88744570.605    21672330.553  
  21672331.696    85046884.167  
  21766746.253   114385023.505    21766744.788    89131179.422    21766744.413  
  21766748.844    85417397.883  
  20358592.122   106985123.507                    83365017.495    20358588.638  
                                
  22573602.454   118625081.539                    92435108.716    22573597.665  
                                
  20404556.252   107226667.085    20404556.503    83553246.791    20404556.217  
  20404555.752    80071859.760  
  22571785.657   118615534.123    22571782.744    92427673.644    22571782.030  
                                
  19311439.125   103375646.113    19311438.339    80403275.972    19311438.160  
                                
  20449570.287   109506520.291    20449568.697    85171731.590    20449568.643  
                                
  20183219.026   107777263.484    20183218.347    83826757.695    20183218.347  
                                
  26151714.429   137428187.991                                                  
  26151717.538   102624956.990  
  27572743.620   144895747.156                                                  
  27572746.086   108201379.282  
  23340408.225   122654673.241                                                  
  23340409.207    91592778.744  
  23475603.287   123365129.065                                                  
  23475605.556    92123318.344  
  25100782.062   131905500.062                                                  
  25100784.475    98500869.453  
 21  8 31  3  6  7.0000000  0 14G 3G 4G16G22G26G31R 7R 8R 9E 1E 4E19
                                E21E27
  21672615.707   113890364.362    21672616.064    88745737.048    21672615.403  
  21672616.547    85048002.010  
  21766275.101   114382547.590    21766273.635    89129250.141    21766273.278  
  21766277.692    85415548.981  
  20358287.437   106983522.393                    83363769.876    20358283.935  
                                
  22574057.435   118627472.469                    92436971.783    22574052.629  
                                
  20404787.227   107227880.835    20404787.478    83554192.573    20404787.210  
  20404786.727    80072766.127  
  22572239.227   118617917.661    22572236.314    92429530.946    22572235.599  
                                
  19311662.881   103376843.926    19311662.095    80404207.607    19311661.934  
                                
  20449066.934   109503824.834    20449065.344    85169635.128    20449065.290  
                                
  20183628.120   107779448.110    20183627.441    83828456.844    20183627.459  
                                
  26151261.306   137425806.760                                                  
  26151264.415   102623178.805  
  27572239.374   144893097.319                                                  
  27572241.822   108199400.510  
  23340255.212   122653869.100                                                  
  23340256.195    91592178.253  
  23475540.549   123364799.365                                                  
  23475542.818    92123072.137  
  25101184.151   131907613.067                                                  
  25101186.564    98502447.345  
 21  8 31  3  6  8.0000000  0 14G 3G 4G16G22G26G31R 7R 8R 9E 1E 4E19
                                E21E27
  21672900.664   113891861.723    21672901.021    88746903.823    21672900.360  
  21672901.504    85049120.165  
  21765803.948   114380071.755    21765802.501    89127320.921    21765802.108  
  21765806.557    85413700.147  
  20357982.860   106981921.783                    83362522.646    20357979.358  
                                
  22574512.452   118629863.607                    92438835.010    22574507.645  
                                
  20405018.256   107229094.983    20405018.524    83555138.658    20405018.238  
  20405017.756    80073672.796  
  22572692.760   118620301.114    22572689.865    92431388.180    22572689.169  
                                
  19311886.780   103378042.417    19311885.976    80405139.764    19311885.815  
                                
  20448563.671   109501129.832    20448562.045    85167539.020    20448562.027  
                                
  20184037.267   107781632.911    20184036.588    83830156.134    20184036.588  
                                
  26150808.184   137423425.619                                                  
  26150811.293   102621400.682  
  27571735.110   144890447.369                                                  
  27571737.558   108197421.660  
  23340102.218   122653065.143                                                  
  23340103.200    91591577.889  
  23475477.846   123364469.891                                                  
  23475480.116    92122826.104  
  25101586.258   131909726.111                                                  
  25101588.670    98504025.267  
 21  8 31  3  6  9.0000000  0 14G 3G 4G16G22G26G31R 7R 8R 9E 1E 4E19
                                E21E27
  21673185.711   113893359.723    21673186.086    88748071.090    21673185.425  
  21673186.551    85050238.798  
  21765332.885   114377596.213    21765331.420    89125391.923    21765331.044  
  21765335.476    85411851.524  
  20357678.407   106980321.869                    83361275.957    20357674.905  
                                
  22574967.540   118632255.130                    92440698.527    22574962.752  
                                
  20405249.428   107230309.742    20405249.660    83556085.214    20405249.410  
  20405248.927    80074579.917  
  22573146.365   118622684.711    22573143.453    92433245.526    22573142.756  
                                
  19312110.822   103379241.821    19312110.036    80406072.636    19312109.857  
                                
  20448060.515   109498435.496    20448058.907    85165443.423    20448058.871  
                                
  20184446.485   107783818.121    20184445.806    83831855.749    20184445.806  
                                
  26150355.132   137421044.772                                                  
  26150358.224   102619622.777  
  27571230.864   144887797.512                                                  
  27571233.312   108195442.868  
  23339949.294   122652261.556                                                  
  23339950.277    91590977.812  
  23475415.233   123364140.855                                                  
  23475417.503    92122580.395  
  25101988.400   131911839.389                                                  
  25101990.812    98505603.362  
 21  8 31  3  6 10.0000000  0 14G 3G 4G16G22G26G31R 7R 8R 9E 1E 4E19
                                E21E27
  21673470.954   113894858.578    21673471.311    88749239.028    21673470.650  
  21673471.776    85051358.072  
  21764861.911   114375121.200    21764860.446    89123463.338    21764860.071  
  21764864.502    85410003.298  
  20357374.134   106978722.888                    83360029.998    20357370.631  
                                
  22575422.754   118634647.286                    92442562.549    22575417.965  
                                
  20405480.742   107231525.338    20405480.992    83557032.431    20405480.706  
  20405480.242    80075487.667  
  22573599.988   118625068.639    22573597.111    92435103.134    22573596.397  
                                
  19312335.078   103380442.294    19312334.292    80407006.337    19312334.131  
                                
  20447557.538   109495742.010    20447555.912    85163348.485    20447555.876  
                                
  20184855.811   107786003.918    20184855.132    83833555.815    20184855.132  
                                
  26149902.153   137418664.427                                                  
  26149905.262   102617845.251  
  27570726.636   144885147.954                                                  
  27570729.084   108193464.316  
  23339796.496   122651458.580                                                  
  23339797.461    91590378.185  
  23475352.745   123363812.458                                                  
  23475355.015    92122335.163  
  25102390.632   131913953.122                                                  
  25102393.044    98507181.803  
 21  8 31  3  6 11.0000000  0 14G 3G 4G16G22G26G31R 7R 8R 9E 1E 4E19
                                E21E27
  21673756.269   113896357.990    21673756.626    88750407.401    21673755.965  
  21673757.108    85052477.763  
  21764390.937   114372646.386    21764389.490    89121534.914    21764389.132  
  21764393.546    85408155.227  
  20357069.967   106977124.526                    83358784.521    20357066.483  
                                
  22575878.039   118637039.765                    92444426.819    22575873.214  
                                
  20405712.164   107232741.470    20405712.414    83557980.067    20405712.146  
  20405711.663    80076395.815  
  22574053.665   118627452.629    22574050.752    92436960.789    22574050.055  
                                
  19312559.477   103381643.562    19312558.709    80407940.654    19312558.548  
                                
  20447054.650   109493049.071    20447053.042    85161253.972    20447053.006  
                                
  20185265.208   107788189.984    20185264.529    83835256.086    20185264.529  
                                
  26149449.227   137416284.278                                                  
  26149452.336   102616067.880  
  27570222.462   144882498.403                                                  
  27570224.892   108191485.757  
  23339643.752   122650655.882                                                  
  23339644.717    91589778.772  
  23475290.311   123363484.410                                                  
  23475292.598    92122090.197  
  25102792.864   131916066.999                                                  
  25102795.294    98508760.354  
 21  8 31  3  6 12.0000000  0 14G 3G 4G16G22G26G31R 7R 8R 9E 1E 4E19
                                E21E27
  21674041.708   113897857.981    21674042.066    88751576.220    21674041.405  
  21674042.548    85053597.888  
  21763920.053   114370171.818    21763918.587    89119606.680    21763918.230  
  21763922.644    85406307.342  
  20356765.944   106975526.825                    83357539.563    20356762.441  
                                
  22576333.377   118639432.576                    92446291.342    22576328.552  
                                
  20405943.693   107233958.142    20405943.961    83558928.123    20405943.675  
  20405943.192    80077304.371  
  22574507.324   118629836.683    22574504.429    92438818.498    22574503.732  
                                
  19312784.055   103382845.667    19312783.269    80408875.627    19312783.090  
                                
  20446551.869   109490356.701    20446550.243    85159159.904    20446550.208  
                                
  20185674.623   107790376.375    20185673.944    83836956.613    20185673.962  
                                
  26148996.336   137413904.364                                                  
  26148999.463   102614290.674  
  27569718.269   144879848.889                                                  
  27569720.735   108189507.222  
  23339491.061   122649853.521                                                  
  23339492.044    91589179.609  
  23475227.966   123363156.735                                                  
  23475230.235    92121845.500  
  25103195.185   131918181.073                                                  
  25103197.597    98510339.039  
 21  8 31  3  6 13.0000000  0 14G 3G 4G16G22G26G31R 7R 8R 9E 1E 4E19
                                E21E27
  21674327.255   113899358.584    21674327.613    88752745.522    21674326.952  
  21674328.095    85054718.466  
  21763449.204   114367697.515    21763447.757    89117678.653    21763447.363  
  21763451.813    85404459.643  
  20356462.027   106973929.789                    83356295.120    20356458.543  
                                
  22576788.769   118641825.748                    92448156.156    22576783.962  
                                
  20406175.329   107235175.422    20406175.579    83559876.652    20406175.311  
  20406174.829    80078213.374  
  22574961.018   118632220.826    22574958.123    92440676.269    22574957.409  
                                
  19313008.776   103384048.627    19313007.972    80409811.265    19313007.811  
                                
  20446049.196   109487664.922    20446047.606    85157066.300    20446047.552  
                                
  20186084.128   107792563.102    20186083.449    83838657.403    20186083.466  
                                
  26148543.517   137411524.706                                                  
  26148546.609   102612513.654  
  27569214.077   144877199.405                                                  
  27569216.525   108187528.715  
  23339338.424   122649051.504                                                  
  23339339.407    91588580.698  
  23475165.674   123362829.447                                                  
  23475167.944    92121601.096  
  25103597.506   131920295.328                                                  
  25103599.900    98511917.875  
 21  8 31  3  6 14.0000000  0 14G 3G 4G16G22G26G31R 7R 8R 9E 1E 4E19
                                E21E27
  21674612.910   113900859.613    21674613.267    88753915.155    21674612.588  
  21674613.732    85055839.360  
  21762978.373   114365223.299    21762976.908    89115750.693    21762976.550  
  21762980.982    85402612.017  
  20356158.218   106972333.264                    83355051.077    20356154.734  
                                
  22577244.215   118644219.105                    92450021.107    22577239.408  
                                
  20406407.054   107236393.100    20406407.305    83560825.491    20406407.019  
  20406406.554    80079122.682  
  22575414.695   118634604.913    22575411.800    92442533.999    22575411.085  
                                
  19313233.622   103385252.296    19313232.854    80410747.452    19313232.675  
                                
  20445546.612   109484973.586    20445545.004    85154973.043    20445544.968  
                                
  20186493.686   107794749.997    20186492.989    83840358.321    20186492.989  
                                
  26148090.680   137409145.132                                                  
  26148093.790   102610736.702  
  27568709.902   144874549.818                                                  
  27568712.315   108185550.132  
  23339185.858   122648249.666                                                  
  23339186.841    91587981.919  
  23475103.437   123362502.391                                                  
  23475105.724    92121356.868  
  25103999.827   131922409.625                                                  
  25104002.257    98513496.728  
 21  8 31  3  6 15.0000000  0 14G 3G 4G16G22G26G31R 7R 8R 9E 1E 4E19
                                E21E27
  21674898.671   113902361.285    21674899.028    88755085.286    21674898.349  
  21674899.511    85056960.741  
  21762507.614   114362749.398    21762506.166    89113822.975    21762505.773  
  21762510.223    85400764.621  
  20355854.552   106970737.461                    83353807.592    20355851.050  
                                
  22577699.750   118646612.878                    92451886.383    22577694.925  
                                
  20406638.887   107237611.392    20406639.119    83561774.811    20406638.869  
  20406638.387    80080032.448  
  22575868.389   118636989.114    22575865.495    92444391.818    22575864.798  
                                
  19313458.664   103386456.894    19313457.878    80411684.360    19313457.700  
                                
  20445044.135   109482282.892    20445042.527    85152880.282    20445042.491  
                                
  20186903.279   107796937.276    20186902.600    83842059.538    20186902.600  
                                
  26147637.933   137406765.858                                                  
  26147641.042   102608959.975  
  27568205.710   144871900.328                                                  
  27568208.140   108183571.619  
  23339033.346   122647448.216                                                  
  23339034.329    91587383.430  
  23475041.288   123362175.772                                                  
  23475043.575    92121112.965  
  25104402.219   131924524.165                                                  
  25104404.632    98515075.772  
 21  8 31  3  6 16.0000000  0 14G 3G 4G16G22G26G31R 7R 8R 9E 1E 4E19
                                E21E27
  21675184.557   113903863.631    21675184.915    88756255.946    21675184.236  
  21675185.397    85058082.614  
  21762036.908   114360275.810    21762035.443    89111895.507    21762035.085  
  21762039.499    85398917.459  
  20355551.011   106969142.398                    83352564.688    20355547.526  
                                
  22578155.338   118649007.080                    92453751.992    22578150.532  
                                
  20406870.845   107238830.339    20406871.077    83562724.640    20406870.827  
  20406870.345    80080942.696  
  22576322.120   118639373.488    22576319.225    92446249.768    22576318.528  
                                
  19313683.850   103387662.389    19313683.064    80412621.967    19313682.903  
                                
  20444541.801   109479592.866    20444540.175    85150788.046    20444540.139  
                                
  20187312.962   107799124.943    20187312.283    83843761.057    20187312.283  
                                
  26147185.221   137404386.903                                                  
  26147188.348   102607183.477  
  27567701.553   144869250.950                                                  
  27567703.966   108181593.200  
  23338880.906   122646647.158                                                  
  23338881.871    91586785.243  
  23474979.229   123361849.611                                                  
  23474981.481    92120869.405  
  25104804.665   131926638.978                                                  
  25104807.060    98516655.011  
 21  8 31  3  6 17.0000000  0 14G 3G 4G16G22G26G31R 7R 8R 9E 1E 4E19
                                E21E27
  21675470.515   113905366.354    21675470.873    88757426.896    21675470.194  
  21675471.355    85059204.781  
  21761566.202   114357802.287    21761564.737    89109968.084    21761564.379  
  21761568.811    85397070.348  
  20355247.577   106967547.798                    83351322.140    20355244.075  
                                
  22578610.981   118651401.426                    92455617.714    22578606.156  
                                
  20407102.874   107240049.643    20407103.106    83563674.752    20407102.856  
  20407102.374    80081853.222  
  22576775.832   118641757.731    22576772.937    92448107.621    22576772.240  
                                
  19313909.178   103388868.497    19313908.374    80413560.051    19313908.213  
                                
  20444039.521   109476903.252    20444037.912    85148696.129    20444037.859  
                                
  20187722.663   107801312.762    20187721.984    83845462.690    20187721.984  
                                
  26146732.545   137402007.987                                                  
  26146735.637   102605407.018  
  27567197.343   144866601.419                                                  
  27567199.791   108179614.659  
  23338728.501   122645846.247                                                  
  23338729.483    91586187.166  
  23474917.206   123361523.635                                                  
  23474919.457    92120625.984  
  25105207.094   131928753.773                                                  
  25105209.488    98518234.244  
 21  8 31  3  6 18.0000000  0 14G 3G 4G16G22G26G31R 7R 8R 9E 1E 4E19
                                E21E27
  21675756.616   113906869.857    21675756.974    88758598.461    21675756.313  
  21675757.456    85060327.536  
  21761095.586   114355329.184    21761094.120    89108040.993    21761093.763  
  21761098.194    85395223.557  
  20354944.304   106965954.046                    83350080.253    20354940.802  
                                
  22579066.694   118653796.308                    92457483.856    22579061.888  
                                
  20407335.028   107241269.708    20407335.297    83564625.451    20407335.011  
  20407334.546    80082764.311  
  22577229.580   118644142.252    22577226.703    92449965.692    22577225.988  
                                
  19314134.667   103390075.594    19314133.881    80414498.906    19314133.703  
                                
  20443537.419   109474214.452    20443535.793    85146604.840    20443535.757  
                                
  20188132.472   107803501.091    20188131.793    83847164.723    20188131.793  
                                
  26146279.905   137399629.490                                                  
  26146283.032   102603630.874  
  27566693.204   144863952.108                                                  
  27566695.617   108177636.275  
  23338576.185   122645045.865                                                  
  23338577.168    91585589.467  
  23474855.272   123361198.228                                                  
  23474857.541    92120382.981  
  25105609.593   131930868.944                                                  
  25105612.006    98519813.755  
 21  8 31  3  6 19.0000000  0 14G 3G 4G16G22G26G31R 7R 8R 9E 1E 4E19
                                E21E27
  21676042.842   113908374.011    21676043.182    88759770.527    21676042.521  
  21676043.682    85061450.768  
  21760625.023   114352856.398    21760623.575    89106114.149    21760623.218  
  21760627.632    85393376.998  
  20354641.138   106964361.008                    83348838.929    20354637.654  
                                
  22579522.515   118656191.607                    92459350.318    22579517.708  
                                
  20407567.326   107242490.409    20407567.576    83565576.642    20407567.290  
  20407566.825    80083675.874  
  22577683.382   118646526.914    22577680.469    92451823.870    22577679.772  
                                
  19314360.335   103391283.576    19314359.531    80415438.448    19314359.370  
                                
  20443035.424   109471526.342    20443033.816    85144514.085    20443033.780  
                                
  20188542.369   107805689.823    20188541.654    83848867.068    20188541.690  
                                
  26145827.372   137397251.308                                                  
  26145830.481   102601854.948  
  27566189.066   144861302.911                                                  
  27566191.514   108175657.977  
  23338423.959   122644245.861                                                  
  23338424.942    91584992.068  
  23474793.427   123360873.258                                                  
  23474795.714    92120140.311  
  25106012.147   131932984.370                                                  
  25106014.541    98521393.456  
 21  8 31  3  6 20.0000000  0 14G 3G 4G16G22G26G31R 7R 8R 9E 1E 4E19
                                E21E27
  21676329.193   113909878.837    21676329.569    88760943.121    21676328.908  
  21676330.033    85062574.495  
  21760154.531   114350383.940    21760153.066    89104187.559    21760152.709  
  21760157.140    85391530.686  
  20354338.151   106962768.726                    83347598.188    20354334.667  
                                
  22579978.408   118658587.338                    92461217.122    22579973.601  
                                
  20407799.730   107243711.747    20407799.998    83566528.337    20407799.712  
  20407799.248    80084587.910  
  22578137.183   118648911.734    22578134.307    92453682.169    22578133.574  
                                
  19314586.164   103392492.482    19314585.378    80416378.708    19314585.199  
                                
  20442533.573   109468838.911    20442531.965    85142423.859    20442531.929  
                                
  20188952.302   107807878.936    20188951.623    83850569.713    20188951.623  
                                
  26145374.893   137394873.436                                                  
  26145378.002   102600079.267  
  27565684.963   144858653.814                                                  
  27565687.411   108173679.759  
  23338271.804   122643446.274                                                  
  23338272.787    91584394.974  
  23474731.689   123360548.746                                                  
  23474733.941    92119897.983  
  25106414.754   131935100.061                                                  
  25106417.148    98522973.353  
 21  8 31  3  6 21.0000000  0 14G 3G 4G16G22G26G31R 7R 8R 9E 1E 4E19
                                E21E27
  21676615.705   113911384.373    21676616.063    88762116.269    21676615.402  
  21676616.545    85063698.761  
  21759684.111   114347911.852    21759682.664    89102261.256    21759682.289  
  21759686.720    85389684.642  
  20354035.289   106961177.207                    83346358.050    20354031.787  
                                
  22580434.371   118660983.526                    92463084.281    22580429.583  
                                
  20408032.278   107244933.777    20408032.546    83567480.568    20408032.260  
  20408031.795    80085500.467  
  22578591.039   118651296.768    22578588.144    92455540.640    22578587.447  
                                
  19314812.189   103393702.386    19314811.385    80417319.744    19314811.224  
                                
  20442031.829   109466152.180    20442030.238    85140334.177    20442030.185  
                                
  20189362.325   107810068.535    20189361.646    83852272.737    20189361.664  
                                
  26144922.467   137392495.929                                                  
  26144925.576   102598303.855  
  27565180.878   144856004.894                                                  
  27565183.308   108171701.671  
  23338119.739   122642647.147                                                  
  23338120.704    91583798.217  
  23474670.023   123360224.748                                                  
  23474672.293    92119656.034  
  25106817.396   131937216.056                                                  
  25106819.827    98524553.481  
 21  8 31  3  6 22.0000000  0 14G 3G 4G16G22G26G31R 7R 8R 9E 1E 4E19
                                E21E27
  21676902.307   113912890.564    21676902.646    88763289.924    21676901.985  
  21676903.146    85064823.523  
  21759213.763   114345440.087    21759212.298    89100335.210    21759211.923  
  21759216.354    85387838.846  
  20353732.570   106959586.446                    83345118.494    20353729.085  
                                
  22580890.443   118663380.143                    92464951.773    22580885.636  
                                
  20408264.950   107246156.436    20408265.200    83568433.289    20408264.915  
  20408264.468    80086413.491  
  22579044.912   118653681.938    22579042.035    92457399.211    22579041.320  
                                
  19315038.375   103394913.229    19315037.589    80418261.511    19315037.411  
                                
  20441530.245   109463466.094    20441528.619    85138244.995    20441528.583  
                                
  20189772.455   107812258.537    20189771.776    83853976.074    20189771.776  
                                
  26144470.095   137390118.735                                                  
  26144473.222   102596528.680  
  27564676.828   144853356.079                                                  
  27564679.276   108169723.667  
  23337967.745   122641848.416                                                  
  23337968.710    91583201.773  
  23474608.447   123359901.199                                                  
  23474610.734    92119414.424  
  25107220.111   131939332.319                                                  
  25107222.523    98526133.816  
 21  8 31  3  6 23.0000000  0 14G 3G 4G16G22G26G31R 7R 8R 9E 1E 4E19
                                E21E27
  21677189.015   113914397.145    21677189.355    88764463.888    21677188.693  
  21677189.855    85065948.563  
  21758743.397   114342968.375    21758741.949    89098409.203    21758741.574  
  21758746.006    85385993.089  
  20353429.958   106957996.139                    83343879.296    20353426.456  
                                
  22581346.531   118665776.901                    92466819.383    22581341.707  
                                
  20408497.694   107247379.473    20408497.927    83569386.305    20408497.659  
  20408497.194    80087326.796  
  22579498.785   118656067.002    22579495.890    92459257.707    22579495.193  
                                
  19315264.705   103396124.723    19315263.900    80419203.782    19315263.740  
                                
  20441028.697   109460780.389    20441027.089    85136156.115    20441027.036  
                                
  20190182.585   107814448.625    20190181.906    83855679.479    20190181.906  
                                
  26144017.740   137387741.582                                                  
  26144020.850   102594753.534  
  27564172.743   144850707.105                                                  
  27564175.173   108167745.544  
  23337815.769   122641049.818                                                  
  23337816.752    91582605.417  
  23474546.906   123359577.831                                                  
  23474549.193    92119172.951  
  25107622.843   131941448.569                                                  
  25107625.237    98527714.129  
 21  8 31  3  6 24.0000000  0 14G 3G 4G16G22G26G31R 7R 8R 9E 1E 4E19
                                E21E27
  21677475.795   113915904.207    21677476.135    88765638.222    21677475.473  
  21677476.617    85067073.962  
  21758273.066   114340496.792    21758271.619    89096483.294    21758271.244  
  21758275.657    85384147.426  
  20353127.417   106956406.372                    83342640.519    20353123.933  
                                
  22581802.656   118668173.902                    92468687.185    22581797.849  
                                
  20408730.510   107248602.965    20408730.742    83570339.675    20408730.492  
  20408730.010    80088240.442  
  22579952.640   118658452.025    22579949.746    92461116.171    22579949.031  
                                
  19315491.123   103397336.905    19315490.355    80420146.588    19315490.194  
                                
  20440527.257   109458095.183    20440525.649    85134067.624    20440525.613  
                                
  20190592.768   107816638.937    20190592.071    83857383.054    20190592.089  
                                
  26143565.386   137385364.550                                                  
  26143568.513   102592978.479  
  27563668.640   144848058.058                                                  
  27563671.088   108165767.351  
  23337663.846   122640251.446                                                  
  23337664.829    91582009.223  
  23474485.419   123359254.731                                                  
  23474487.706    92118931.675  
  25108025.557   131943564.891                                                  
  25108027.969    98529294.494  
 21  8 31  3  6 25.0000000  0 14G 3G 4G16G22G26G31R 7R 8R 9E 1E 4E19
                                E21E27
  21677762.664   113917411.689    21677763.004    88766812.879    21677762.343  
  21677763.504    85068199.679  
  21757802.771   114338025.294    21757801.306    89094557.449    21757800.931  
  21757805.345    85382301.831  
  20352825.002   106954817.122                    83341402.142    20352821.500  
                                
  22582258.834   118670571.097                    92470555.129    22582254.028  
                                
  20408963.415   107249826.853    20408963.647    83571293.354    20408963.379  
  20408962.914    80089154.387  
  22580406.460   118660836.963    22580403.583    92462974.564    22580402.868  
                                
  19315717.702   103398549.735    19315716.916    80421089.905    19315716.755  
                                
  20440025.870   109455410.410    20440024.280    85131979.474    20440024.244  
                                
  20191002.969   107818829.413    20191002.272    83859086.753    20191002.290  
                                
  26143113.085   137382987.608                                                  
  26143116.195   102591203.493  
  27563164.537   144845408.894                                                  
  27563166.967   108163789.085  
  23337511.960   122639453.240                                                  
  23337512.925    91581413.168  
  23474424.003   123358931.851                                                  
  23474426.254    92118690.563  
  25108428.271   131945681.241                                                  
  25108430.683    98530874.888  
 21  8 31  3  6 26.0000000  0 14G 3G 4G16G22G26G31R 7R 8R 9E 1E 4E19
                                E21E27
  21678049.623   113918919.729    21678049.980    88767987.975    21678049.319  
  21678050.463    85069325.815  
  21757332.494   114335554.033    21757331.047    89092631.794    21757330.672  
  21757335.085    85380456.403  
  20352522.712   106953228.485                    83340164.241    20352519.210  
                                
  22582715.066   118672968.621                    92472423.332    22582710.242  
                                
  20409196.409   107251051.281    20409196.659    83572247.456    20409196.373  
  20409195.909    80090068.737  
  22580860.315   118663221.953    22580857.438    92464832.998    22580856.724  
                                
  19315944.424   103399763.376    19315943.638    80422033.848    19315943.477  
                                
  20439524.626   109452726.197    20439523.000    85129891.753    20439522.982  
                                
  20191413.224   107821020.190    20191412.527    83860790.691    20191412.563  
                                
  26142660.803   137380610.870                                                  
  26142663.912   102589428.655  
  27562660.416   144842759.747                                                  
  27562662.828   108161810.828  
  23337360.127   122638655.343                                                  
  23337361.092    91580817.331  
  23474362.605   123358609.328                                                  
  23474364.892    92118449.716  
  25108831.039   131947797.750                                                  
  25108833.433    98532455.405  
 21  8 31  3  6 27.0000000  0 14G 3G 4G16G22G26G31R 7R 8R 9E 1E 4E19
                                E21E27
  21678336.707   113920428.293    21678337.046    88769163.477    21678336.385  
  21678337.529    85070452.336  
  21756862.253   114333082.937    21756860.806    89090706.264    21756860.431  
  21756864.862    85378611.110  
  20352220.511   106951640.461                    83338926.820    20352217.009  
                                
  22583171.334   118675366.406                    92474291.740    22583166.527  
                                
  20409429.492   107252276.202    20409429.743    83573201.938    20409429.475  
  20409428.992    80090983.446  
  22581314.171   118665606.952    22581311.294    92466691.442    22581310.561  
                                
  19316171.289   103400977.797    19316170.521    80422978.397    19316170.324  
                                
  20439023.471   109450042.516    20439021.845    85127804.450    20439021.810  
                                
  20191823.533   107823211.247    20191822.854    83862494.847    20191822.854  
                                
  26142208.555   137378234.301                                                  
  26142211.683   102587653.949  
  27562156.295   144840110.545                                                  
  27562158.708   108159832.530  
  23337208.329   122637857.705                                                  
  23337209.312    91580221.694  
  23474301.278   123358287.108                                                  
  23474303.566    92118209.101  
  25109233.824   131949914.377                                                  
  25109236.219    98534035.998  
 21  8 31  3  6 28.0000000  0 14G 3G 4G16G22G26G31R 7R 8R 9E 1E 4E19
                                E21E27
  21678623.916   113921937.674    21678624.255    88770339.616    21678623.594  
  21678624.755    85071579.473  
  21756392.119   114330612.331    21756390.654    89088781.114    21756390.297  
  21756394.710    85376766.182  
  20351918.489   106950053.318                    83337690.082    20351915.004  
                                
  22583627.727   118677764.789                    92476160.608    22583622.920  
                                
  20409662.737   107253501.930    20409663.005    83574157.055    20409662.719  
  20409662.254    80091898.767  
  22581768.080   118667992.275    22581765.203    92468550.134    22581764.488  
                                
  19316398.369   103402193.323    19316397.583    80423923.804    19316397.404  
                                
  20438522.478   109447359.696    20438520.851    85125717.814    20438520.816  
                                
  20192233.966   107825402.886    20192233.287    83864199.452    20192233.287  
                                
  26141756.398   137375858.213                                                  
  26141759.525   102585879.596  
  27561652.228   144837461.636                                                  
  27561654.640   108157854.449  
  23337056.657   122637060.641                                                  
  23337057.640    91579626.480  
  23474240.095   123357965.516                                                  
  23474242.382    92117968.949  
  25109636.664   131952031.429                                                  
  25109639.076    98535616.913  
 21  8 31  3  6 29.0000000  0 14G 3G 4G16G22G26G31R 7R 8R 9E 1E 4E19
                                E21E27
  21678911.249   113923447.586    21678911.589    88771516.172    21678910.928  
  21678912.089    85072707.002  
  21755922.021   114328141.922    21755920.556    89086856.125    21755920.180  
  21755924.594    85374921.398  
  20351616.574   106948466.791                    83336453.832    20351613.071  
                                
  22584084.191   118680163.466                    92478029.705    22584079.366  
                                
  20409896.088   107254728.156    20409896.339    83575112.556    20409896.070  
  20409895.588    80092814.458  
  22582222.006   118670377.614    22582219.112    92470408.838    22582218.397  
                                
  19316625.591   103403409.651    19316624.787    80424869.837    19316624.626  
                                
  20438021.573   109444677.435    20438019.965    85123631.609    20438019.911  
                                
  20192644.436   107827594.778    20192643.757    83865904.260    20192643.774  
                                
  26141304.276   137373482.305                                                  
  26141307.385   102584105.385  
  27561148.143   144834812.709                                                  
  27561150.555   108155876.359  
  23336905.021   122636263.841                                                  
  23336906.003    91579031.478  
  23474178.947   123357644.235                                                  
  23474181.234    92117729.038  
  25110039.557   131954148.607                                                  
  25110041.951    98537197.927  
 21  8 31  3  6 30.0000000  0 14G 3G 4G16G22G26G31R 7R 8R 9E 1E 4E19
                                E21E27
  21679198.691   113924958.105    21679199.030    88772693.198    21679198.369  
  21679199.530    85073834.983  
  21755451.958   114325671.773    21755450.511    89084931.336    21755450.136  
  21755454.549    85373076.802  
  20351314.802   106946880.936                    83335218.101    20351311.299  
                                
  22584540.709   118682562.504                    92479899.080    22584535.902  
                                
  20410129.547   107255954.976    20410129.815    83576068.522    20410129.529  
  20410129.047    80093730.585  
  22582675.933   118672763.045    22582673.056    92472267.618    22582672.324  
                                
  19316852.957   103404626.822    19316852.171    80425816.523    19316852.010  
                                
  20437520.812   109441995.796    20437519.186    85121545.890    20437519.150  
                                
  20193054.976   107829787.016    20193054.297    83867609.332    20193054.297  
                                
  26140852.207   137371106.646                                                  
  26140855.299   102582331.363  
  27560644.076   144832163.835                                                  
  27560646.488   108153898.306  
  23336753.473   122635467.394                                                  
  23336754.456    91578436.722  
  23474117.888   123357323.356                                                  
  23474120.176    92117489.419  
  25110442.485   131956265.999                                                  
  25110444.880    98538779.086  
 21  8 31  3  6 31.0000000  0 14G 3G 4G16G22G26G31R 7R 8R 9E 1E 4E19
                                E21E27
  21679486.221   113926469.084    21679486.560    88773870.585    21679485.899  
  21679487.061    85074963.318  
  21754981.932   114323201.751    21754980.466    89083006.648    21754980.109  
  21754984.523    85371232.307  
  20351013.119   106945295.621                    83333982.792    20351009.634  
                                
  22584997.280   118684961.753                    92481768.620    22584992.473  
                                
  20410363.095   107257182.224    20410363.328    83577024.819    20410363.042  
  20410362.595    80094647.038  
  22583129.860   118675148.444    22583126.983    92474126.370    22583126.268  
                                
  19317080.465   103405844.686    19317079.679    80426763.753    19317079.518  
                                
  20437020.104   109439314.612    20437018.496    85119460.522    20437018.460  
                                
  20193465.535   107831979.407    20193464.856    83869314.526    20193464.856  
                                
  26140400.139   137368731.110                                                  
  26140403.266   102580557.428  
  27560139.990   144829514.882                                                  
  27560142.403   108151920.200  
  23336601.944   122634671.152                                                  
  23336602.927    91577842.134  
  23474056.884   123357002.736                                                  
  23474059.171    92117249.996  
  25110845.414   131958383.439                                                  
  25110847.808    98540360.302  
 21  8 31  3  6 32.0000000  0 14G 3G 4G16G22G26G31R 7R 8R 9E 1E 4E19
                                E21E27
  21679773.859   113927980.654    21679774.216    88775048.431    21679773.537  
  21679774.698    85076092.081  
  21754511.941   114320731.973    21754510.493    89081082.145    21754510.100  
  21754514.532    85369387.999  
  20350711.579   106943710.963                    83332747.994    20350708.077  
                                
  22585453.905   118687361.345                    92483638.428    22585449.098  
                                
  20410596.733   107258410.053    20410597.001    83577981.567    20410596.715  
  20410596.232    80095563.922  
  22583583.805   118677533.915    22583580.910    92475985.177    22583580.213  
                                
  19317308.134   103407063.385    19317307.348    80427711.628    19317307.170  
                                
  20436519.521   109436634.011    20436517.913    85117375.610    20436517.877  
                                
  20193876.165   107834172.140    20193875.486    83871019.985    20193875.486  
                                
  26139948.142   137366355.815                                                  
  26139951.251   102578783.669  
  27559635.923   144826865.973                                                  
  27559638.336   108149942.119  
  23336450.486   122633875.250                                                  
  23336451.469    91577247.790  
  23473995.932   123356682.505                                                  
  23473998.220    92117010.859  
  25111248.396   131960501.066                                                  
  25111250.772    98541941.649  
 21  8 31  3  6 33.0000000  0 14G 3G 4G16G22G26G31R 7R 8R 9E 1E 4E19
                                E21E27
  21680061.604   113929492.649    21680061.943    88776226.611    21680061.282  
  21680062.443    85077221.166  
  21754041.967   114318262.291    21754040.538    89079157.718    21754040.145  
  21754044.576    85367543.752  
  20350410.111   106942126.795                    83331513.580    20350406.609  
                                
  22585910.584   118689761.125                    92485508.387    22585905.759  
                                
  20410830.460   107259638.278    20410830.692    83578938.621    20410830.442  
  20410829.959    80096481.100  
  22584037.714   118679919.305    22584034.837    92477843.922    22584034.140  
                                
  19317535.911   103408282.738    19317535.125    80428660.013    19317534.964  
                                
  20436019.027   109433953.813    20436017.401    85115291.012    20436017.366  
                                
  20194286.813   107836365.022    20194286.134    83872725.560    20194286.152  
                                
  26139496.145   137363980.593                                                  
  26139499.272   102577009.962  
  27559131.820   144824216.924                                                  
  27559134.233   108147963.934  
  23336299.082   122633079.507                                                  
  23336300.029    91576653.566  
  23473935.053   123356362.471                                                  
  23473937.322    92116771.872  
  25111651.360   131962618.725                                                  
  25111653.773    98543523.018  
 21  8 31  3  6 34.0000000  0 14G 3G 4G16G22G26G31R 7R 8R 9E 1E 4E19
                                E21E27
  21680349.456   113931005.401    21680349.795    88777405.379    21680349.134  
  21680350.295    85078350.830  
  21753572.102   114315793.032    21753570.636    89077233.627    21753570.279  
  21753574.675    85365699.831  
  20350108.821   106940543.487                    83330279.836    20350105.319  
                                
  22586367.334   118692161.431                    92487378.757    22586362.509  
                                
  20411064.311   107260867.245    20411064.579    83579896.260    20411064.294  
  20411063.829    80097398.840  
  22584491.712   118682304.956    22584488.799    92479702.873    22584488.102  
                                
  19317763.884   103409503.116    19317763.098    80429609.196    19317762.937  
                                
  20435518.641   109431274.432    20435517.051    85113207.053    20435517.015  
                                
  20194697.586   107838558.429    20194696.889    83874431.546    20194696.889  
                                
  26139044.255   137361605.800                                                  
  26139047.364   102575236.580  
  27558627.771   144821568.106                                                  
  27558630.165   108145985.930  
  23336147.749   122632284.289                                                  
  23336148.714    91576059.734  
  23473874.244   123356043.012                                                  
  23473876.532    92116533.318  
  25112054.414   131964736.751                                                  
  25112056.808    98545104.659  
 21  8 31  3  6 35.0000000  0 14G 3G 4G16G22G26G31R 7R 8R 9E 1E 4E19
                                E21E27
  21680637.451   113932518.770    21680637.790    88778584.625    21680637.129  
  21680638.290    85079480.934  
  21753102.253   114313324.052    21753100.806    89075309.746    21753100.431  
  21753104.844    85363856.114  
  20349807.639   106938960.859                    83329046.622    20349804.154  
                                
  22586824.173   118694562.106                    92489249.413    22586819.349  
                                
  20411298.306   107262096.803    20411298.539    83580854.357    20411298.271  
  20411297.806    80098317.018  
  22584945.692   118684690.703    22584942.815    92481561.897    22584942.101  
                                
  19317992.036   103410724.358    19317991.232    80430559.053    19317991.071  
                                
  20435018.416   109428595.667    20435016.790    85111123.574    20435016.754  
                                
  20195108.377   107840752.197    20195107.716    83876137.808    20195107.716  
                                
  26138592.383   137359231.271                                                  
  26138595.511   102573463.397  
  27558123.721   144818919.352                                                  
  27558126.116   108144007.971  
  23335996.488   122631489.426                                                  
  23335997.471    91575466.170  
  23473813.543   123355723.956                                                  
  23473815.831    92116295.063  
  25112457.503   131966854.989                                                  
  25112459.898    98546686.459  
 21  8 31  3  6 36.0000000  0 14G 3G 4G16G22G26G31R 7R 8R 9E 1E 4E19
                                E21E27
  21680925.517   113934032.646    21680925.857    88779764.269    21680925.196  
  21680926.357    85080611.428  
  21752632.459   114310855.247    21752630.994    89073386.003    21752630.636  
  21752635.032    85362012.529  
  20349506.599   106937378.813                    83327813.859    20349503.115  
                                
  22587281.048   118696963.071                    92491120.297    22587276.242  
                                
  20411532.373   107263326.850    20411532.605    83581812.835    20411532.355  
  20411531.872    80099235.563  
  22585399.690   118687076.463    22585396.796    92483420.930    22585396.081  
                                
  19318220.295   103411946.371    19318219.526    80431509.508    19318219.365  
                                
  20434518.262   109425917.434    20434516.654    85109040.509    20434516.618  
                                
  20195519.276   107842946.236    20195518.597    83877844.282    20195518.597  
                                
  26138140.565   137356856.909                                                  
  26138143.674   102571690.330  
  27557619.654   144816270.563                                                  
  27557622.084   108142029.988  
  23335845.280   122630694.825                                                  
  23335846.263    91574872.794  
  23473752.878   123355405.201                                                  
  23473755.165    92116057.034  
  25112860.611   131968973.338                                                  
  25112863.005    98548268.341  
 21  8 31  3  6 37.0000000  0 14G 3G 4G16G22G26G31R 7R 8R 9E 1E 4E19
                                E21E27
  21681213.745   113935547.191    21681214.084    88780944.434    21681213.423  
  21681214.584    85081742.415  
  21752162.718   114308386.766    21752161.271    89071462.511    21752160.895  
  21752165.309    85360169.180  
  20349205.685   106935797.503                    83326581.669    20349202.183  
                                
  22587738.031   118699364.433                    92492991.491    22587733.206  
                                
  20411766.546   107264557.540    20411766.814    83582771.817    20411766.528  
  20411766.064    80100154.584  
  22585853.707   118689462.360    22585850.812    92485280.076    22585850.115  
                                
  19318448.768   103413169.299    19318447.964    80432460.672    19318447.803  
                                
  20434018.251   109423239.862    20434016.625    85106957.953    20434016.607  
                                
  20195930.209   107845140.660    20195929.530    83879551.059    20195929.530  
                                
  26137688.801   137354482.858                                                  
  26137691.910   102569917.499  
  27557115.658   144813621.901                                                  
  27557118.053   108140052.078  
  23335694.144   122629900.610                                                  
  23335695.127    91574279.717  
  23473692.320   123355086.905                                                  
  23473694.589    92115819.341  
  25113263.772   131971091.942                                                  
  25113266.166    98549850.413  
 21  8 31  3  6 38.0000000  0 14G 3G 4G16G22G26G31R 7R 8R 9E 1E 4E19
                                E21E27
  21681502.079   113937062.455    21681502.419    88782125.159    21681501.757  
  21681502.919    85082873.948  
  21751693.049   114305918.663    21751691.583    89069539.320    21751691.226  
  21751695.640    85358326.125  
  20348904.914   106934216.992                    83325350.104    20348901.429  
                                
  22588195.085   118701766.300                    92494863.075    22588190.260  
                                
  20412000.881   107265788.923    20412001.131    83583731.338    20412000.845  
  20412000.398    80101074.126  
  22586307.758   118691848.489    22586304.882    92487139.399    22586304.185  
                                
  19318677.402   103414393.217    19318676.616    80433412.608    19318676.455  
                                
  20433518.365   109420563.049    20433516.757    85104875.985    20433516.721  
                                
  20196341.233   107847335.543    20196340.554    83881258.190    20196340.554  
                                
  26137237.090   137352109.185                                                  
  26137240.217   102568144.956  
  27556611.645   144810973.406                                                  
  27556614.075   108138074.316  
  23335543.115   122629106.883                                                  
  23335544.062    91573687.000  
  23473631.851   123354769.130                                                  
  23473634.103    92115582.040  
  25113666.986   131973210.884                                                  
  25113669.380    98551432.744  
 21  8 31  3  6 39.0000000  0 14G 3G 4G16G22G26G31R 7R 8R 9E 1E 4E19
                                E21E27
  21681790.503   113938578.186    21681790.842    88783306.248    21681790.181  
  21681791.343    85084005.827  
  21751223.433   114303450.721    21751221.968    89067616.244    21751221.592  
  21751226.006    85356483.173  
  20348604.267   106932637.029                    83324118.964    20348600.783  
                                
  22588652.174   118704168.387                    92496734.829    22588647.368  
                                
  20412235.304   107267020.763    20412235.537    83584691.211    20412235.269  
  20412234.804    80101994.002  
  22586761.828   118694234.589    22586758.951    92488998.693    22586758.237  
                                
  19318906.161   103415617.837    19318905.375    80434365.090    19318905.214  
                                
  20433018.604   109417886.721    20433016.978    85102794.396    20433016.942  
                                
  20196752.310   107849530.644    20196751.631    83882965.488    20196751.648  
                                
  26136785.432   137349735.645                                                  
  26136788.541   102566372.505  
  27556107.649   144808324.831                                                  
  27556110.043   108136096.491  
  23335392.086   122628313.370                                                  
  23335393.069    91573094.438  
  23473571.418   123354451.614                                                  
  23473573.705    92115344.936  
  25114070.236   131975329.890                                                  
  25114072.613    98553015.115  
 21  8 31  3  6 40.0000000  0 14G 3G 4G16G22G26G31R 7R 8R 9E 1E 4E19
                                E21E27
  21682079.070   113940094.509    21682079.391    88784487.801    21682078.730  
  21682079.892    85085138.148  
  21750753.835   114300983.023    21750752.370    89065693.365    21750752.012  
  21750756.408    85354640.413  
  20348303.746   106931057.747                    83322888.357    20348300.244  
                                
  22589109.353   118706570.825                    92498606.856    22589104.529  
                                
  20412469.817   107268253.170    20412470.067    83585651.528    20412469.782  
  20412469.317    80102914.310  
  22587215.898   118696620.771    22587213.021    92490858.061    22587212.324  
                                
  19319135.081   103416843.284    19319134.313    80435318.216    19319134.152  
                                
  20432518.933   109415211.012    20432517.306    85100713.285    20432517.271  
                                
  20197163.458   107851726.075    20197162.761    83884673.046    20197162.761  
                                
  26136333.810   137347362.342                                                  
  26136336.920   102564600.242  
  27555603.635   144805676.313                                                  
  27555606.048   108134118.706  
  23335241.164   122627520.206                                                  
  23335242.147    91572502.136  
  23473511.056   123354134.488                                                  
  23473513.344    92115108.130  
  25114473.504   131977449.090                                                  
  25114475.881    98554597.639  
 21  8 31  3  6 41.0000000  0 14G 3G 4G16G22G26G31R 7R 8R 9E 1E 4E19
                                E21E27
  21682367.708   113941611.314    21682368.048    88785669.729    21682367.351  
  21682368.548    85086270.825  
  21750284.273   114298515.452    21750282.808    89063770.582    21750282.432  
  21750286.864    85352797.750  
  20348003.314   106929478.996                    83321658.164    20347999.830  
                                
  22589566.550   118708973.505                    92500479.079    22589561.761  
                                
  20412704.420   107269486.037    20412704.670    83586612.204    20412704.402  
  20412703.919    80103834.953  
  22587669.968   118699006.906    22587667.091    92492717.386    22587666.394  
                                
  19319364.162   103418069.447    19319363.358    80436271.896    19319363.197  
                                
  20432019.350   109412535.772    20432017.724    85098632.543    20432017.689  
                                
  20197574.606   107853921.692    20197573.927    83886380.748    20197573.927  
                                
  26135882.207   137344989.169                                                  
  26135885.316   102562828.063  
  27555099.622   144803027.706                                                  
  27555102.034   108132140.857  
  23335090.260   122626727.239                                                  
  23335091.243    91571909.996  
  23473450.784   123353817.629                                                  
  23473453.054    92114871.510  
  25114876.790   131979568.357                                                  
  25114879.167    98556180.211  
 21  8 31  3  6 42.0000000  0 14G 3G 4G16G22G26G31R 7R 8R 9E 1E 4E19
                                E21E27
  21682656.436   113943128.664    21682656.775    88786852.080    21682656.114  
  21682657.276    85087403.911  
  21749814.746   114296048.082    21749813.281    89061847.956    21749812.924  
  21749817.319    85350955.245  
  20347702.990   106927900.862                    83320428.446    20347699.505  
                                
  22590023.836   118711376.486                    92502351.527    22590019.012  
                                
  20412939.129   107270719.412    20412939.362    83587573.275    20412939.111  
  20412938.629    80104755.980  
  22588124.055   118701393.094    22588121.178    92494576.749    22588120.446  
                                
  19319593.350   103419296.392    19319592.564    80437226.191    19319592.403  
                                
  20431519.858   109409861.068    20431518.232    85096552.215    20431518.214  
                                
  20197985.844   107856117.592    20197985.165    83888088.673    20197985.165  
                                
  26135430.656   137342616.192                                                  
  26135433.783   102561056.028  
  27554595.608   144800379.090                                                  
  27554598.002   108130163.003  
  23334939.428   122625934.568                                                  
  23334940.393    91571318.068  
  23473390.530   123353501.105                                                  
  23473392.817    92114635.147  
  25115280.094   131981687.769                                                  
  25115282.471    98557762.884  
 21  8 31  3  6 43.0000000  0 14G 3G 4G16G22G26G31R 7R 8R 9E 1E 4E19
                                E21E27
  21682945.271   113944646.505    21682945.610    88788034.813    21682944.931  
  21682946.111    85088537.368  
  21749345.256   114293580.904    21749343.808    89059925.482    21749343.415  
  21749347.847    85349112.863  
  20347402.790   106926323.323                    83319199.195    20347399.323  
                                
  22590481.140   118713779.732                    92504224.187    22590476.351  
                                
  20413173.928   107271953.281    20413174.178    83588534.731    20413173.893  
  20413173.428    80105677.373  
  22588578.125   118703779.273    22588575.248    92496436.109    22588574.533  
                                
  19319822.717   103420524.139    19319821.913    80438181.103    19319821.752  
                                
  20431020.472   109407186.901    20431018.864    85094472.312    20431018.828  
                                
  20198397.100   107858313.754    20198396.421    83889796.801    20198396.421  
                                
  26134979.106   137340243.373                                                  
  26134982.233   102559284.120  
  27554091.594   144797730.463                                                  
  27554094.007   108128185.128  
  23334788.649   122625142.164                                                  
  23334789.614    91570726.327  
  23473330.365   123353184.886                                                  
  23473332.652    92114399.007  
  25115683.416   131983807.285                                                  
  25115685.810    98559345.633  
 21  8 31  3  6 44.0000000  0 14G 3G 4G16G22G26G31R 7R 8R 9E 1E 4E19
                                E21E27
  21683234.249   113946165.137    21683234.588    88789218.163    21683233.927  
  21683235.088    85089671.412  
  21748875.836   114291114.151    21748874.389    89058003.341    21748874.032  
  21748878.427    85347270.809  
  20347102.769   106924746.623                    83317970.598    20347099.285  
                                
  22590938.587   118716183.512                    92506097.266    22590933.763  
                                
  20413408.870   107273187.906    20413409.120    83589496.777    20413408.834  
  20413408.370    80106599.333  
  22589032.248   118706165.713    22589029.371    92498295.671    22589028.675  
                                
  19320052.262   103421752.926    19320051.476    80439136.828    19320051.298  
                                
  20430521.247   109404513.552    20430519.621    85092393.042    20430519.585  
                                
  20198808.480   107860510.417    20198807.783    83891505.319    20198807.783  
                                
  26134527.663   137337870.989                                                  
  26134530.790   102557512.539  
  27553587.616   144795082.059                                                  
  27553590.011   108126207.432  
  23334637.942   122624350.277                                                  
  23334638.925    91570134.990  
  23473270.307   123352869.239                                                  
  23473272.576    92114163.290  
  25116086.827   131985927.184                                                  
  25116089.204    98560928.683  
 21  8 31  3  6 45.0000000  0 14G 3G 4G16G22G26G31R 7R 8R 9E 1E 4E19
                                E21E27
  21683523.316   113947684.158    21683523.655    88790401.817    21683522.976  
  21683524.156    85090805.739  
  21748406.453   114288647.453    21748404.988    89056081.242    21748404.630  
  21748409.026    85345428.797  
  20346802.820   106923170.390                    83316742.367    20346799.317  
                                
  22591396.016   118718587.450                    92507970.467    22591391.227  
                                
  20413643.884   107274422.898    20413644.116    83590459.108    20413643.866  
  20413643.383    80107521.568  
  22589486.354   118708552.053    22589483.477    92500155.155    22589482.780  
                                
  19320281.915   103422982.349    19320281.129    80440093.049    19320280.968  
                                
  20430022.094   109401840.629    20430020.468    85090314.105    20430020.450  
                                
  20199219.861   107862707.212    20199219.182    83893213.940    20199219.182  
                                
  26134076.220   137335498.640                                                  
  26134079.347   102555740.978  
  27553083.603   144792433.487                                                  
  27553086.015   108124229.603  
  23334487.270   122623558.522                                                  
  23334488.253    91569543.744  
  23473210.285   123352553.763                                                  
  23473212.537    92113927.713  
  25116490.220   131988047.065                                                  
  25116492.597    98562511.713  
 21  8 31  3  6 46.0000000  0 14G 3G 4G16G22G26G31R 7R 8R 9E 1E 4E19
                                E21E27
  21683812.508   113949203.879    21683812.848    88791586.016    21683812.168  
  21683813.348    85091940.598  
  21747937.105   114286181.126    21747935.676    89054159.430    21747935.282  
  21747939.696    85343587.066  
  20346503.031   106921594.937                    83315514.741    20346499.529  
                                
  22591853.571   118720991.846                    92509844.020    22591848.764  
                                
  20413879.022   107275658.562    20413879.254    83591421.961    20413878.986  
  20413878.522    80108444.308  
  22589940.513   118710938.605    22589937.618    92502014.801    22589936.921  
                                
  19320511.764   103424212.714    19320510.978    80441049.997    19320510.817  
                                
  20429523.084   109399168.440    20429521.458    85088235.738    20429521.422  
                                
  20199631.331   107864904.445    20199630.652    83894922.901    20199630.652  
                                
  26133624.849   137333126.661                                                  
  26133627.976   102553969.697  
  27552579.625   144789785.083                                                  
  27552582.019   108122251.889  
  23334336.706   122622767.216                                                  
  23334337.689    91568952.831  
  23473150.335   123352238.791                                                  
  23473152.622    92113692.511  
  25116893.685   131990167.262                                                  
  25116896.061    98564094.971  
 21  8 31  3  6 47.0000000  0 14G 3G 4G16G22G26G31R 7R 8R 9E 1E 4E19
                                E21E27
  21684101.825   113950724.293    21684102.165    88792770.754    21684101.504  
  21684102.665    85093075.972  
  21747467.847   114283715.156    21747466.399    89052237.893    21747466.042  
  21747470.438    85341745.593  
  20346203.368   106920020.245                    83314287.708    20346199.883  
                                
  22592311.196   118723396.697                    92511717.928    22592306.389  
                                
  20414114.286   107276894.895    20414114.518    83592385.339    20414114.268  
  20414113.785    80109367.539  
  22590394.672   118713325.315    22590391.795    92503874.577    22590391.098  
                                
  19320741.774   103425443.994    19320740.988    80442007.659    19320740.810  
                                
  20429024.198   109396496.941    20429022.590    85086157.908    20429022.537  
                                
  20200042.872   107867102.107    20200042.193    83896632.191    20200042.193  
                                
  26133173.549   137330755.016                                                  
  26133176.658   102552198.666  
  27552075.683   144787136.811                                                  
  27552078.077   108120274.297  
  23334186.213   122621976.355                                                  
  23334187.160    91568362.256  
  23473090.491   123351924.306                                                  
  23473092.778    92113457.669  
  25117297.185   131992287.736                                                  
  25117299.580    98565678.450  
 21  8 31  3  6 48.0000000  0 14G 3G 4G16G22G26G31R 7R 8R 9E 1E 4E19
                                E21E27
  21684391.286   113952245.400    21684391.625    88793956.030    21684390.946  
  21684392.125    85094211.865  
  21746998.660   114281249.544    21746997.212    89050316.644    21746996.837  
  21747001.233    85339904.393  
  20345903.865   106918446.327                    83313061.281    20345900.380  
                                
  22592768.911   118725801.994                    92513592.183    22592764.087  
                                
  20414349.674   107278131.897    20414349.924    83593349.239    20414349.656  
  20414349.174    80110291.279  
  22590848.903   118715712.225    22590846.026    92505734.507    22590845.329  
                                
  19320971.963   103426676.230    19320971.177    80442966.063    19320971.016  
                                
  20428525.438   109393826.121    20428523.830    85084080.603    20428523.794  
                                
  20200454.485   107869300.180    20200453.806    83898341.804    20200453.842  
                                
  26132722.302   137328383.721                                                  
  26132725.411   102550427.906  
  27551571.758   144784488.694                                                  
  27551574.153   108118296.814  
  23334035.791   122621185.932                                                  
  23334036.774    91567772.007  
  23473030.719   123351610.308                                                  
  23473033.006    92113223.194  
  25117700.757   131994408.517                                                  
  25117703.134    98567262.144  
 21  8 31  3  6 49.0000000  0 14G 3G 4G16G22G26G31R 7R 8R 9E 1E 4E19
                                E21E27
  21684680.889   113953767.208    21684681.228    88795141.854    21684680.567  
  21684681.729    85095348.272  
  21746529.544   114278784.303    21746528.097    89048395.674    21746527.722  
  21746532.117    85338063.462  
  20345604.505   106916873.190                    83311835.458    20345601.003  
                                
  22593226.716   118728207.755                    92515466.804    22593221.909  
                                
  20414585.188   107279369.588    20414585.438    83594313.677    20414585.170  
  20414584.688    80111215.536  
  22591303.151   118718099.305    22591300.274    92507594.569    22591299.542  
                                
  19321202.331   103427909.423    19321201.544    80443925.215    19321201.384  
                                
  20428026.803   109391155.979    20428025.195    85082003.824    20428025.159  
                                
  20200866.205   107871498.692    20200865.544    83900051.758    20200865.544  
                                
  26132271.109   137326012.780                                                  
  26132274.236   102548657.399  
  27551067.870   144781840.742                                                  
  27551070.264   108116319.440  
  23333885.459   122620395.958                                                  
  23333886.442    91567182.093  
  23472971.072   123351296.815                                                  
  23472973.360    92112989.086  
  25118104.383   131996529.595                                                  
  25118106.777    98568846.066  
 21  8 31  3  6 50.0000000  0 14G 3G 4G16G22G26G31R 7R 8R 9E 1E 4E19
                                E21E27
  21684970.599   113955289.693    21684970.939    88796328.204    21684970.260  
  21684971.439    85096485.195  
  21746060.482   114276319.386    21746059.017    89046474.963    21746058.660  
  21746063.056    85336222.786  
  20345305.288   106915300.795                    83310610.217    20345301.786  
                                
  22593684.609   118730613.947                    92517341.756    22593679.785  
                                
  20414820.845   107280607.928    20414821.095    83595278.619    20414820.809  
  20414820.362    80112140.268  
  22591757.435   118720486.584    22591754.558    92509454.787    22591753.844  
                                
  19321432.895   103429143.576    19321432.091    80444885.109    19321431.930  
                                
  20427528.311   109388486.511    20427526.703    85079927.571    20427526.649  
                                
  20201277.997   107873697.643    20201277.318    83901762.052    20201277.318  
                                
  26131820.006   137323642.172                                                  
  26131823.133   102546887.139  
  27550563.999   144779192.927                                                  
  27550566.393   108114342.176  
  23333735.199   122619606.410                                                  
  23333736.182    91566592.493  
  23472911.515   123350983.783                                                  
  23472913.802    92112755.330  
  25118508.080   131998650.949                                                  
  25118510.456    98570430.198  
 21  8 31  3  6 51.0000000  0 14G 3G 4G16G22G26G31R 7R 8R 9E 1E 4E19
                                E21E27
  21685260.435   113956812.734    21685260.774    88797514.989    21685260.095  
  21685261.275    85097622.528  
  21745591.456   114273854.708    21745590.027    89044554.436    21745589.652  
  21745594.047    85334382.280  
  20345006.197   106913729.046                    83309385.475    20345002.712  
                                
  22594142.539   118733020.459                    92519216.963    22594137.732  
                                
  20415056.609   107281846.803    20415056.841    83596243.976    20415056.555  
  20415056.108    80113065.406  
  22592211.719   118722873.908    22592208.842    92511315.039    22592208.146  
                                
  19321663.584   103430378.544    19321662.798    80445845.641    19321662.637  
                                
  20427029.926   109385817.622    20427028.282    85077851.769    20427028.264  
                                
  20201689.860   107875896.891    20201689.163    83903472.577    20201689.199  
                                
  26131368.920   137321271.783                                                  
  26131372.047   102545117.052  
  27550060.128   144776545.104                                                  
  27550062.541   108112364.910  
  23333585.028   122618817.163                                                  
  23333586.010    91566003.121  
  23472852.011   123350671.103                                                  
  23472854.298    92112521.840  
  25118911.777   132000772.459                                                  
  25118914.171    98572014.440  
 21  8 31  3  6 52.0000000  0 14G 3G 4G16G22G26G31R 7R 8R 9E 1E 4E19
                                E21E27
  21685550.306   113958336.044    21685550.646    88798701.984    21685549.967  
  21685551.146    85098760.063  
  21745122.448   114271389.968    21745120.983    89042633.862    21745120.625  
  21745125.021    85332541.729  
  20344707.159   106912157.637                    83308161.003    20344703.674  
                                
  22594600.486   118735427.009                    92521092.201    22594595.679  
                                
  20415292.390   107283085.923    20415292.623    83597209.532    20415292.355  
  20415291.890    80113990.730  
  22592665.968   118725260.993    22592663.091    92513175.103    22592662.394  
                                
  19321894.398   103431614.015    19321893.594    80446806.560    19321893.433  
                                
  20426531.595   109383149.048    20426529.951    85075776.213    20426529.915  
                                
  20202101.705   107878096.155    20202101.009    83905183.115    20202101.044  
                                
  26130917.835   137318901.312                                                  
  26130920.962   102543346.895  
  27549556.204   144773897.011                                                  
  27549558.598   108110387.444  
  23333434.838   122618027.938                                                  
  23333435.821    91565413.764  
  23472792.525   123350358.493                                                  
  23472794.795    92112288.395  
  25119315.474   132002893.833                                                  
  25119317.832    98573598.592  
 21  8 31  3  6 53.0000000  0 14G 3G 4G16G22G26G31R 7R 8R 9E 1E 4E19
                                E21E27
  21685840.303   113959859.959    21685840.624    88799889.448    21685839.963  
  21685841.142    85099898.051  
  21744653.476   114268925.492    21744652.010    89040713.491    21744651.653  
  21744656.049    85330701.372  
  20344408.263   106910586.909                    83306937.059    20344404.779  
                                
  22595058.505   118737833.916                    92522967.714    22595053.698  
                                
  20415528.279   107284325.643    20415528.547    83598175.547    20415528.261  
  20415527.815    80114916.490  
  22593120.234   118727648.173    22593117.357    92515035.241    22593116.660  
                                
  19322125.337   103432850.329    19322124.551    80447768.139    19322124.372  
                                
  20426033.353   109380481.101    20426031.727    85073701.148    20426031.691  
                                
  20202513.604   107880295.746    20202512.943    83906893.911    20202512.943  
                                
  26130466.820   137316531.108                                                  
  26130469.948   102541576.944  
  27549052.297   144771248.979                                                  
  27549054.710   108108410.020  
  23333284.721   122617239.055                                                  
  23333285.704    91564824.668  
  23472733.111   123350046.276                                                  
  23472735.380    92112055.249  
  25119719.188   132005015.413                                                  
  25119721.565    98575182.886  
 21  8 31  3  6 54.0000000  0 14G 3G 4G16G22G26G31R 7R 8R 9E 1E 4E19
                                E21E27
  21686130.406   113961384.419    21686130.728    88801077.339    21686130.067  
  21686131.228    85101036.454  
  21744184.539   114266461.245    21744183.091    89038793.299    21744182.716  
  21744187.112    85328861.185  
  20344109.493   106909016.815                    83305713.611    20344105.991  
                                
  22595516.595   118740241.150                    92524843.478    22595511.771  
                                
  20415764.311   107285565.893    20415764.544    83599141.976    20415764.293  
  20415763.811    80115842.651  
  22593574.500   118730035.406    22593571.624    92516895.422    22593570.927  
                                
  19322356.437   103434087.449    19322355.669    80448730.342    19322355.490  
                                
  20425535.236   109377813.762    20425533.610    85071626.553    20425533.574  
                                
  20202925.575   107882495.630    20202924.913    83908604.929    20202924.913  
                                
  26130015.824   137314161.118                                                  
  26130018.933   102539807.140  
  27548548.391   144768600.957                                                  
  27548550.803   108106432.605  
  23333134.675   122616450.484                                                  
  23333135.622    91564235.800  
  23472673.768   123349734.421                                                  
  23472676.037    92111822.363  
  25120122.957   132007137.166                                                  
  25120125.333    98576767.312  
 21  8 31  3  6 55.0000000  0 14G 3G 4G16G22G26G31R 7R 8R 9E 1E 4E19
                                E21E27
  21686420.581   113962909.370    21686420.921    88802265.608    21686420.242  
  21686421.421    85102175.216  
  21743715.620   114263997.124    21743714.173    89036873.207    21743713.797  
  21743718.193    85327021.108  
  20343810.813   106907447.287                    83304490.605    20343807.310  
                                
  22595974.721   118742648.613                    92526719.423    22595969.897  
                                
  20416000.397   107286806.587    20416000.647    83600108.750    20416000.379  
  20415999.896    80116769.147  
  22594028.785   118732422.615    22594025.890    92518755.587    22594025.193  
                                
  19322587.680   103435325.275    19322586.894    80449693.096    19322586.733  
                                
  20425037.226   109375146.934    20425035.600    85069552.356    20425035.564  
                                
  20203337.599   107884695.749    20203336.919    83910316.137    20203336.919  
                                
  26129564.846   137311791.264                                                  
  26129567.973   102538037.448  
  27548044.485   144765952.872                                                  
  27548046.897   108104455.150  
  23332984.628   122615662.144                                                  
  23332985.611    91563647.100  
  23472614.460   123349422.826                                                  
  23472616.730    92111589.688  
  25120526.707   132009258.995                                                  
  25120529.102    98578351.786  
 21  8 31  3  6 56.0000000  0 14G 3G 4G16G22G26G31R 7R 8R 9E 1E 4E19
                                E21E27
  21686710.846   113964434.793    21686711.185    88803454.252    21686710.506  
  21686711.685    85103314.328  
  21743246.755   114261533.167    21743245.307    89034953.240    21743244.932  
  21743249.328    85325181.136  
  20343512.239   106905878.302                    83303268.019    20343508.755  
                                
  22596432.883   118745056.345                    92528595.573    22596428.076  
                                
  20416236.607   107288047.750    20416236.840    83601075.890    20416236.554  
  20416236.107    80117695.988  
  22594483.051   118734809.791    22594480.156    92520615.725    22594479.459  
                                
  19322819.048   103436563.852    19322818.280    80450656.438    19322818.101  
                                
  20424539.306   109372480.599    20424537.680    85067478.545    20424537.644  
                                
  20203749.640   107886896.059    20203748.961    83912027.492    20203748.961  
                                
  26129113.903   137309421.544                                                  
  26129117.030   102536267.850  
  27547540.542   144763304.717                                                  
  27547542.937   108102477.636  
  23332834.654   122614874.022                                                  
  23332835.636    91563058.574  
  23472555.225   123349111.511                                                  
  23472557.512    92111357.212  
  25120930.512   132011380.892                                                  
  25120932.870    98579936.331  
 21  8 31  3  6 57.0000000  0 14G 3G 4G16G22G26G31R 7R 8R 9E 1E 4E19
                                E21E27
  21687001.289   113965960.953    21687001.610    88804643.469    21687000.949  
  21687002.129    85104453.988  
  21742777.943   114259069.604    21742776.496    89033033.578    21742776.120  
  21742780.516    85323341.462  
  20343213.826   106904310.127                    83302046.067    20343210.342  
                                
  22596891.170   118747464.539                    92530472.083    22596886.345  
                                
  20416472.907   107289289.620    20416473.157    83602043.579    20416472.889  
  20416472.407    80118623.359  
  22594937.353   118737197.200    22594934.476    92522476.046    22594933.779  
                                
  19323050.613   103437803.448    19323049.845    80451620.568    19323049.666  
                                
  20424041.529   109369814.985    20424039.885    85065405.289    20424039.849  
                                
  20204161.771   107889096.855    20204161.110    83913739.220    20204161.110  
                                
  26128663.050   137307052.209                                                  
  26128666.159   102534498.543  
  27547036.654   144760656.774                                                  
  27547039.066   108100500.272  
  23332684.786   122614086.398                                                  
  23332685.769    91562470.409  
  23472496.096   123348800.729                                                  
  23472498.365    92111125.130  
  25121334.351   132013503.135                                                  
  25121336.728    98581521.114  
 21  8 31  3  6 58.0000000  0 14G 3G 4G16G22G26G31R 7R 8R 9E 1E 4E19
                                E21E27
  21687291.803   113967487.623    21687292.125    88805833.080    21687291.446  
  21687292.625    85105594.037  
  21742309.185   114256606.220    21742307.737    89031114.060    21742307.362  
  21742311.758    85321501.917  
  20342915.521   106902742.533                    83300824.565    20342912.019  
                                
  22597349.492   118749873.013                    92532348.817    22597344.668  
                                
  20416709.332   107290531.987    20416709.565    83603011.659    20416709.314  
  20416708.832    80119551.097  
  22595391.655   118739584.597    22595388.778    92524336.353    22595388.081  
                                
  19323282.321   103439043.797    19323281.552    80452585.284    19323281.374  
                                
  20423543.841   109367149.849    20423542.197    85063332.408    20423542.161  
                                
  20204573.956   107891297.919    20204573.295    83915451.154    20204573.295  
                                
  26128212.197   137304683.041                                                  
  26128215.341   102532729.353  
  27546532.765   144758008.774                                                  
  27546535.160   108098522.865  
  23332534.954   122613299.015                                                  
  23332535.937    91561882.437  
  23472437.003   123348490.244                                                  
  23472439.290    92110893.276  
  25121738.227   132015625.472                                                  
  25121740.604    98583105.980  
 21  8 31  3  6 59.0000000  0 14G 3G 4G16G22G26G31R 7R 8R 9E 1E 4E19
                                E21E27
  21687582.425   113969014.874    21687582.765    88807023.151    21687582.086  
  21687583.265    85106734.514  
  21741840.463   114254143.079    21741839.015    89029194.732    21741838.640  
  21741843.054    85319662.561  
  20342617.358   106901175.599                    83299603.582    20342613.856  
                                
  22597807.869   118752281.826                    92534225.813    22597803.044  
                                
  20416945.847   107291774.904    20416946.097    83603980.166    20416945.829  
  20416945.346    80120479.246  
  22595845.993   118741972.093    22595843.098    92526196.739    22595842.401  
                                
  19323514.189   103440284.968    19323513.385    80453550.639    19323513.242  
                                
  20423046.242   109364485.282    20423044.598    85061259.967    20423044.580  
                                
  20204986.212   107893499.297    20204985.533    83917163.339    20204985.533  
                                
  26127761.415   137302314.105                                                  
  26127764.542   102530960.342  
  27546028.859   144755360.813                                                  
  27546031.271   108096545.509  
  23332385.176   122612511.958                                                  
  23332386.159    91561294.697  
  23472377.982   123348180.134                                                  
  23472380.269    92110661.701  
  25122142.103   132017747.996                                                  
  25122144.479    98584690.984  
 21  8 31  3  7  0.0000000  0 14G 3G 4G16G22G26G31R 7R 8R 9E 1E 4E19
                                E21E27
  21687873.154   113970542.704    21687873.476    88808213.667    21687872.815  
  21687873.994    85107875.434  
  21741371.794   114251680.191    21741370.346    89027275.601    21741369.971  
  21741374.367    85317823.396  
  20342319.303   106899609.340                    83298383.118    20342315.801  
                                
  22598266.316   118754690.990                    92536103.084    22598261.492  
                                
  20417182.468   107293018.380    20417182.719    83604949.108    20417182.433  
  20417181.968    80121407.822  
  22596300.331   118744359.657    22596297.454    92528057.177    22596296.757  
                                
  19323746.201   103441526.958    19323745.414    80454516.634    19323745.253  
                                
  20422548.768   109361821.330    20422547.142    85059188.002    20422547.106  
                                
  20205398.522   107895700.994    20205397.843    83918875.767    20205397.843  
                                
  26127310.669   137299945.415                                                  
  26127313.796   102529191.515  
  27545524.988   144752712.893                                                  
  27545527.383   108094568.171  
  23332235.470   122611725.247                                                  
  23332236.452    91560707.225  
  23472319.050   123347870.409                                                  
  23472321.319    92110430.417  
  25122546.050   132019870.721                                                  
  25122548.444    98586276.129  
 21  8 31  3  7  1.0000000  0 14G 3G 4G16G22G26G31R 7R 8R 9E 1E 4E19
                                E21E27
  21688164.008   113972071.100    21688164.330    88809404.623    21688163.669  
  21688164.848    85109016.758  
  21740903.161   114249217.516    21740901.713    89025356.634    21740901.338  
  21740905.734    85315984.388  
  20342021.355   106898043.703                    83297163.142    20342017.889  
                                
  22598724.817   118757100.445                    92537980.582    22598719.993  
                                
  20417419.197   107294262.384    20417419.429    83605918.464    20417419.161  
  20417418.697    80122336.788  
  22596754.686   118746747.280    22596751.809    92529917.662    22596751.095  
                                
  19323978.373   103442769.743    19323977.586    80455483.242    19323977.408  
                                
  20422051.420   109359157.962    20422049.776    85057116.494    20422049.722  
                                
  20205810.868   107897902.976    20205810.207    83920588.421    20205810.207  
                                
  26126859.976   137297576.931                                                  
  26126863.085   102527422.842  
  27545021.099   144750064.988                                                  
  27545023.494   108092590.845  
  23332085.834   122610938.835                                                  
  23332086.799    91560119.961  
  23472260.171   123347561.036                                                  
  23472262.458    92110199.392  
  25122950.015   132021993.580                                                  
  25122952.409    98587861.385  
 21  8 31  3  7  2.0000000  0 14G 3G 4G16G22G26G31R 7R 8R 9E 1E 4E19
                                E21E27
  21688454.970   113973600.132    21688455.291    88810596.076    21688454.612  
  21688455.809    85110158.579  
  21740434.599   114246755.180    21740433.134    89023437.932    21740432.777  
  21740437.155    85314145.625  
  20341723.568   106896478.800                    83295943.737    20341720.083  
                                
  22599183.390   118759510.335                    92539858.413    22599178.601  
                                
  20417656.033   107295507.039    20417656.283    83606888.325    20417656.015  
  20417655.551    80123266.236  
  22597209.042   118749135.038    22597206.165    92531778.257    22597205.468  
                                
  19324210.688   103444013.446    19324209.920    80456450.566    19324209.759  
                                
  20421554.178   109356495.317    20421552.534    85055045.545    20421552.499  
                                
  20206223.321   107900105.344    20206222.642    83922301.373    20206222.659  
                                
  26126409.301   137295208.754                                                  
  26126412.446   102525654.401  
  27544517.247   144747417.197                                                  
  27544519.623   108090613.601  
  23331936.253   122610152.823                                                  
  23331937.218    91559533.014  
  23472201.382   123347252.118                                                  
  23472203.669    92109968.706  
  25123354.051   132024116.706                                                  
  25123356.410    98589446.835  
 21  8 31  3  7  3.0000000  0 14G 3G 4G16G22G26G31R 7R 8R 9E 1E 4E19
                                E21E27
  21688746.002   113975129.543    21688746.324    88811787.828    21688745.663  
  21688746.842    85111300.669  
  21739966.038   114244292.872    21739964.572    89021519.251    21739964.215  
  21739968.593    85312306.889  
  20341425.870   106894914.343                    83294724.679    20341422.368  
                                
  22599642.017   118761920.342                    92541736.338    22599637.192  
                                
  20417892.959   107296752.034    20417893.209    83607858.451    20417892.941  
  20417892.458    80124195.936  
  22597663.397   118751522.672    22597660.521    92533638.751    22597659.842  
                                
  19324443.164   103445257.762    19324442.360    80457418.368    19324442.199  
                                
  20421057.026   109353833.097    20421055.383    85052974.937    20421055.347  
                                
  20206635.756   107902307.813    20206635.077    83924014.405    20206635.094  
                                
  26125958.663   137292840.602                                                  
  26125961.790   102523885.980  
  27544013.340   144744769.227                                                  
  27544015.735   108088636.218  
  23331786.707   122609366.934                                                  
  23331787.672    91558946.142  
  23472142.629   123346943.347                                                  
  23472144.898    92109738.132  
  25123758.052   132026239.803                                                  
  25123760.447    98591032.262  
 21  8 31  3  7  4.0000000  0 14G 3G 4G16G22G26G31R 7R 8R 9E 1E 4E19
                                E21E27
  21689037.160   113976659.597    21689037.482    88812980.079    21689036.803  
  21689038.000    85112443.246  
  21739497.530   114241830.861    21739496.082    89019600.801    21739495.707  
  21739500.085    85310468.379  
  20341128.297   106893350.593                    83293506.173    20341124.813  
                                
  22600100.696   118764330.744                    92543614.572    22600095.890  
                                
  20418129.991   107297997.631    20418130.223    83608829.046    20418129.973  
  20418129.491    80125126.096  
  22598117.771   118753910.424    22598114.894    92535499.335    22598114.197  
                                
  19324675.765   103446502.971    19324674.961    80458386.864    19324674.800  
                                
  20420559.982   109351171.534    20420558.374    85050904.833    20420558.320  
                                
  20207048.280   107904510.655    20207047.601    83925727.726    20207047.637  
                                
  26125508.077   137290472.742                                                  
  26125511.204   102522117.780  
  27543509.452   144742121.342                                                  
  27543511.864   108086658.915  
  23331637.233   122608581.435                                                  
  23331638.197    91558359.568  
  23472083.965   123346635.015                                                  
  23472086.234    92109507.885  
  25124162.107   132028363.126                                                  
  25124164.483    98592617.865  
 21  8 31  3  7  5.0000000  0 14G 3G 4G16G22G26G31R 7R 8R 9E 1E 4E19
                                E21E27
  21689328.407   113978190.205    21689328.747    88814172.761    21689328.068  
  21689329.247    85113586.231  
  21739029.058   114239369.088    21739027.628    89017682.540    21739027.253  
  21739031.649    85308630.040  
  20340830.831   106891787.488                    83292288.169    20340827.365  
                                
  22600559.448   118766741.464                    92545493.062    22600554.623  
                                
  20418367.113   107299243.780    20418367.381    83609800.071    20418367.095  
  20418366.613    80126056.662  
  22598572.145   118756298.229    22598569.285    92537359.962    22598568.589  
                                
  19324908.527   103447748.988    19324907.723    80459355.985    19324907.562  
                                
  20420063.062   109348510.531    20420061.436    85048835.166    20420061.382  
                                
  20207460.858   107906713.800    20207460.197    83927441.289    20207460.197  
                                
  26125057.546   137288105.097                                                  
  26125060.655   102520349.737  
  27543005.599   144739473.487                                                  
  27543007.975   108084681.627  
  23331487.812   122607796.238                                                  
  23331488.777    91557773.220  
  23472025.354   123346327.036                                                  
  23472027.642    92109277.898  
  25124566.197   132030486.613                                                  
  25124568.555    98594203.592  
 21  8 31  3  7  6.0000000  0 14G 3G 4G16G22G26G31R 7R 8R 9E 1E 4E19
                                E21E27
  21689619.815   113979721.447    21689620.137    88815365.935    21689619.476  
  21689620.655    85114729.684  
  21738560.639   114236907.584    21738559.210    89015764.484    21738558.834  
  21738563.230    85306791.913  
  20340533.527   106890225.085                    83291070.710    20340530.042  
                                
  22601018.271   118769152.577                    92547371.853    22601013.446  
                                
  20418604.378   107300490.530    20418604.610    83610771.563    20418604.360  
  20418603.878    80126987.672  
  22599026.554   118758686.154    22599023.695    92539220.683    22599022.998  
                                
  19325141.450   103448995.898    19325140.681    80460325.807    19325140.503  
                                
  20419566.250   109345850.126    20419564.606    85046765.964    20419564.570  
                                
  20207873.507   107908917.292    20207872.828    83929155.118    20207872.846  
                                
  26124607.032   137285737.737                                                  
  26124610.159   102518581.899  
  27542501.746   144736825.710                                                  
  27542504.123   108082704.383  
  23331338.462   122607011.408                                                  
  23331339.427    91557187.146  
  23471966.833   123346019.480                                                  
  23471969.121    92109048.229  
  25124970.322   132032610.323                                                  
  25124972.681    98595789.480  
 21  8 31  3  7  7.0000000  0 14G 3G 4G16G22G26G31R 7R 8R 9E 1E 4E19
                                E21E27
  21689911.277   113981253.171    21689911.599    88816559.483    21689910.938  
  21689912.117    85115873.506  
  21738092.274   114234446.272    21738090.827    89013846.580    21738090.469  
  21738094.847    85304953.911  
  20340236.329   106888663.257                    83289853.703    20340232.827  
                                
  22601477.129   118771563.931                    92549250.830    22601472.305  
                                
  20418841.696   107301737.741    20418841.965    83611743.413    20418841.679  
  20418841.196    80127919.027  
  22599480.963   118761074.073    22599478.104    92541081.399    22599477.407  
                                
  19325374.533   103450243.583    19325373.747    80461296.226    19325373.586  
                                
  20419069.544   109343190.209    20419067.900    85044697.137    20419067.865  
                                
  20208286.192   107911121.025    20208285.513    83930869.130    20208285.531  
                                
  26124156.572   137283370.526                                                  
  26124159.699   102516814.179  
  27541997.857   144734177.866                                                  
  27542000.252   108080727.108  
  23331189.167   122606226.830                                                  
  23331190.132    91556601.258  
  23471908.348   123345712.208                                                  
  23471910.635    92108818.773  
  25125374.466   132034734.127                                                  
  25125376.825    98597375.433  
 21  8 31  3  7  8.0000000  0 14G 3G 4G16G22G26G31R 7R 8R 9E 1E 4E19
                                E21E27
  21690202.882   113982785.490    21690203.203    88817753.500    21690202.542  
  21690203.721    85117017.766  
  21737623.945   114231985.194    21737622.498    89011928.859    21737622.140  
  21737626.518    85303116.104  
  20339939.239   106887102.087                    83288637.207    20339935.754  
                                
  22601936.060   118773975.657                    92551130.100    22601931.235  
                                
  20419079.158   107302985.536    20419079.408    83612715.719    20419079.122  
  20419078.675    80128850.822  
  22599935.390   118763462.063    22599932.531    92542942.168    22599931.834  
                                
  19325607.760   103451492.101    19325606.991    80462267.300    19325606.813  
                                
  20418572.929   109340530.892    20418571.285    85042628.777    20418571.267  
                                
  20208698.931   107913325.095    20208698.270    83932583.409    20208698.270  
                                
  26123706.147   137281003.556                                                  
  26123709.274   102515046.641  
  27541494.022   144731530.099                                                  
  27541496.399   108078749.876  
  23331039.907   122605442.581                                                  
  23331040.890    91556015.624  
  23471849.970   123345405.323                                                  
  23471852.239    92108589.608  
  25125778.663   132036858.131                                                  
  25125781.022    98598961.537  
 21  8 31  3  7  9.0000000  0 14G 3G 4G16G22G26G31R 7R 8R 9E 1E 4E19
                                E21E27
  21690494.593   113984318.451    21690494.915    88818948.011    21690494.236  
  21690495.433    85118162.510  
  21737155.687   114229524.453    21737154.240    89010011.399    21737153.882  
  21737158.260    85301278.529  
  20339642.291   106885541.653                    83287421.287    20339638.825  
                                
  22602395.061   118776387.794                    92553009.687    22602390.237  
                                
  20419316.727   107304233.947    20419316.977    83613688.509    20419316.709  
  20419316.226    80129783.075  
  22600389.835   118765850.202    22600386.976    92544803.056    22600386.279  
                                
  19325841.165   103452741.522    19325840.379    80463239.070    19325840.218  
                                
  20418076.456   109337872.260    20418074.812    85040560.955    20418074.758  
                                
  20209111.759   107915529.556    20209111.080    83934297.994    20209111.098  
                                
  26123255.794   137278636.891                                                  
  26123258.903   102513279.333  
  27540990.170   144728882.414                                                  
  27540992.546   108076772.726  
  23330890.754   122604658.743                                                  
  23330891.737    91555430.290  
  23471791.645   123345098.884                                                  
  23471793.915    92108360.774  
  25126182.896   132038982.378                                                  
  25126185.255    98600547.835  
 21  8 31  3  7 10.0000000  0 14G 3G 4G16G22G26G31R 7R 8R 9E 1E 4E19
                                E21E27
  21690786.412   113985851.930    21690786.734    88820142.929    21690786.055  
  21690787.252    85119307.638  
  21736687.465   114227063.877    21736686.000    89008094.072    21736685.643  
  21736690.020    85299441.097  
  20339345.469   106883981.809                    83286205.824    20339341.984  
                                
  22602854.134   118778800.190                    92554889.480    22602849.310  
                                
  20419554.367   107305482.843    20419554.635    83614661.672    20419554.349  
  20419553.866    80130715.696  
  22600844.280   118768238.370    22600841.421    92546663.968    22600840.724  
                                
  19326074.713   103453991.682    19326073.927    80464211.419    19326073.766  
                                
  20417580.072   109335214.184    20417578.428    85038493.563    20417578.392  
                                
  20209524.623   107917734.262    20209523.961    83936012.765    20209523.961  
                                
  26122805.459   137276270.411                                                  
  26122808.586   102511512.154  
  27540486.335   144726234.722                                                  
  27540488.729   108074795.537  
  23330741.637   122603875.163                                                  
  23330742.620    91554845.149  
  23471733.375   123344792.754                                                  
  23471735.662    92108132.172  
  25126587.129   132041106.734                                                  
  25126589.488    98602134.204  
 21  8 31  3  7 11.0000000  0 14G 3G 4G16G22G26G31R 7R 8R 9E 1E 4E19
                                E21E27
  21691078.321   113987385.992    21691078.642    88821338.305    21691077.963  
  21691079.161    85120453.206  
  21736219.261   114224603.562    21736217.814    89006176.943    21736217.438  
  21736221.816    85297603.851  
  20339048.772   106882422.639                    83284990.891    20339045.287  
                                
  22603313.261   118781212.946                    92556769.548    22603308.436  
                                
  20419792.132   107306732.313    20419792.400    83615635.285    20419792.114  
  20419791.632    80131648.742  
  22601298.761   118770626.583    22601295.866    92548524.913    22601295.169  
                                
  19326308.404   103455242.666    19326307.618    80465184.409    19326307.439  
                                
  20417083.813   109332556.743    20417082.170    85036426.663    20417082.134  
                                
  20209937.558   107919939.268    20209936.897    83937727.773    20209936.897  
                                
  26122355.178   137273904.166                                                  
  26122358.305   102509745.157  
  27539982.500   144723587.055                                                  
  27539984.876   108072818.391  
  23330592.592   122603091.918                                                  
  23330593.574    91554260.263  
  23471675.211   123344487.014                                                  
  23471677.498    92107903.858  
  25126991.416   132043231.280                                                  
  25126993.793    98603720.716  
 21  8 31  3  7 12.0000000  0 14G 3G 4G16G22G26G31R 7R 8R 9E 1E 4E19
                                E21E27
  21691370.390   113988920.814    21691370.712    88822534.268    21691370.033  
  21691371.230    85121599.348  
  21735751.164   114222143.688    21735749.717    89004260.160    21735749.359  
  21735753.737    85295766.932  
  20338752.235   106880864.318                    83283776.615    20338748.733  
                                
  22603772.495   118783626.228                    92558650.025    22603767.670  
                                
  20420030.040   107307982.529    20420030.308    83616609.482    20420030.022  
  20420029.540    80132582.351  
  22601753.259   118773015.074    22601750.400    92550386.080    22601749.704  
                                
  19326542.309   103456494.676    19326541.505    80466158.195    19326541.345  
                                
  20416587.698   109329900.105    20416586.054    85034360.392    20416586.018  
                                
  20210350.582   107922144.787    20210349.903    83939443.177    20210349.921  
                                
  26121904.985   137271538.346                                                  
  26121908.095   102507978.480  
  27539478.683   144720939.601                                                  
  27539481.077   108070841.412  
  23330443.653   122602309.204                                                  
  23330444.636    91553675.766  
  23471617.137   123344181.828                                                  
  23471619.406    92107675.966  
  25127395.774   132045356.205                                                  
  25127398.151    98605307.506  
 21  8 31  3  7 13.0000000  0 14G 3G 4G16G22G26G31R 7R 8R 9E 1E 4E19
                                E21E27
  21691662.584   113990456.270    21691662.906    88823730.729    21691662.245  
  21691663.424    85122745.944  
  21735283.121   114219684.095    21735281.691    89002343.589    21735281.298  
  21735285.694    85293930.218  
  20338455.824   106879306.681                    83282562.871    20338452.339  
                                
  22604231.782   118786039.873                    92560530.783    22604226.993  
                                
  20420268.073   107309233.335    20420268.324    83617584.140    20420268.056  
  20420267.573    80133516.394  
  22602207.812   118775403.686    22602204.935    92552247.336    22602204.220  
                                
  19326776.358   103457747.562    19326775.554    80467132.654    19326775.393  
                                
  20416091.707   109327244.075    20416090.064    85032294.593    20416090.028  
                                
  20210763.661   107924350.662    20210763.000    83941158.854    20210763.000  
                                
  26121454.829   137269172.793                                                  
  26121457.956   102506211.989  
  27538974.919   144718292.250                                                  
  27538977.296   108068864.483  
  23330294.786   122601526.827                                                  
  23330295.734    91553091.528  
  23471559.134   123343877.050                                                  
  23471561.403    92107448.372  
  25127800.186   132047481.330                                                  
  25127802.545    98606894.455  
 21  8 31  3  7 14.0000000  0 14G 3G 4G16G22G26G31R 7R 8R 9E 1E 4E19
                                E21E27
  21691954.850   113991992.163    21691955.172    88824927.527    21691954.493  
  21691955.690    85123892.875  
  21734815.095   114217224.622    21734813.648    89000427.117    21734813.291  
  21734817.668    85292093.599  
  20338159.520   106877749.577                    83281349.544    20338156.017  
                                
  22604691.141   118788453.733                    92562411.708    22604686.334  
                                
  20420506.178   107310484.572    20420506.428    83618559.128    20420506.160  
  20420505.678    80134450.758  
  22602662.310   118777792.224    22602659.451    92554108.535    22602658.754  
                                
  19327010.531   103459001.171    19327009.745    80468107.686    19327009.584  
                                
  20415595.806   109324588.517    20415594.145    85030229.159    20415594.127  
                                
  20211176.792   107926556.742    20211176.131    83942874.694    20211176.131  
                                
  26121004.708   137266807.361                                                  
  26121007.835   102504445.592  
  27538471.120   144715644.788                                                  
  27538473.496   108066887.484  
  23330145.937   122600744.679                                                  
  23330146.902    91552507.446  
  23471501.185   123343572.528                                                  
  23471503.472    92107220.965  
  25128204.598   132049606.519                                                  
  25128206.956    98608481.442  
 21  8 31  3  7 15.0000000  0 14G 3G 4G16G22G26G31R 7R 8R 9E 1E 4E19
                                E21E27
  21692247.241   113993528.637    21692247.562    88826124.782    21692246.901  
  21692248.081    85125040.237  
  21734347.123   114214765.393    21734345.676    88998510.835    21734345.319  
  21734349.697    85290257.161  
  20337863.323   106876193.131                    83280136.726    20337859.856  
                                
  22605150.554   118790867.930                    92564292.898    22605145.747  
                                
  20420744.372   107311736.361    20420744.640    83619534.550    20420744.354  
  20420743.872    80135385.535  
  22603116.862   118780180.827    22603114.003    92555969.783    22603113.307  
                                
  19327244.884   103460255.626    19327244.080    80469083.369    19327243.919  
                                
  20415100.012   109321933.557    20415098.351    85028164.193    20415098.333  
                                
  20211589.978   107928763.138    20211589.317    83944590.775    20211589.317  
                                
  26120554.623   137264442.151                                                  
  26120557.750   102502679.364  
  27537967.338   144712997.376                                                  
  27537969.715   108064910.527  
  23329997.142   122599962.839                                                  
  23329998.125    91551923.611  
  23471443.307   123343268.370                                                  
  23471445.576    92106993.840  
  25128609.009   132051731.879                                                  
  25128611.404    98610068.563  
 21  8 31  3  7 16.0000000  0 14G 3G 4G16G22G26G31R 7R 8R 9E 1E 4E19
                                E21E27
  21692539.757   113995065.804    21692540.078    88827322.574    21692539.381  
  21692540.597    85126188.128  
  21733879.223   114212306.536    21733877.776    88996594.845    21733877.418  
  21733881.778    85288421.005  
  20337567.305   106874637.465                    83278924.522    20337563.820  
                                
  22605610.038   118793282.591                    92566174.450    22605605.231  
                                
  20420982.727   107312988.830    20420982.977    83620510.500    20420982.709  
  20420982.227    80136320.818  
  22603571.450   118782569.653    22603568.574    92557831.202    22603567.859  
                                
  19327479.415   103461511.047    19327478.611    80470059.807    19327478.450  
                                
  20414604.361   109319279.354    20414602.718    85026099.810    20414602.682  
                                
  20212003.235   107930969.972    20212002.592    83946307.204    20212002.609  
                                
  26120104.610   137262077.315                                                  
  26120107.719   102500913.417  
  27537463.593   144710350.122                                                  
  27537465.951   108062933.686  
  23329848.472   122599181.469                                                  
  23329849.437    91551340.118  
  23471385.518   123342964.719                                                  
  23471387.806    92106767.083  
  25129013.528   132053857.543                                                  
  25129015.905    98611655.908  
 21  8 31  3  7 17.0000000  0 14G 3G 4G16G22G26G31R 7R 8R 9E 1E 4E19
                                E21E27
  21692832.362   113996603.578    21692832.684    88828520.840    21692832.005  
  21692833.202    85127336.482  
  21733411.358   114209847.964    21733409.911    88994679.075    21733409.554  
  21733413.932    85286585.060  
  20337271.394   106873082.484                    83277712.850    20337267.909  
                                
  22606069.629   118795697.621                    92568056.292    22606064.805  
                                
  20421221.171   107314241.893    20421221.404    83621486.915    20421221.153  
  20421220.671    80137256.555  
  22604026.038   118784958.564    22604023.179    92559692.693    22604022.465  
                                
  19327714.071   103462767.295    19327713.302    80471036.891    19327713.124  
                                
  20414108.818   109316625.796    20414107.174    85024035.932    20414107.138  
                                
  20212416.581   107933177.161    20212415.938    83948023.907    20212415.938  
                                
  26119654.650   137259712.748                                                  
  26119657.759   102499147.671  
  27536959.847   144707702.938                                                  
  27536962.224   108060956.897  
  23329699.837   122598400.457                                                  
  23329700.820    91550756.897  
  23471327.819   123342661.470                                                  
  23471330.089    92106540.636  
  25129418.083   132055983.416                                                  
  25129420.442    98613243.419  
 21  8 31  3  7 18.0000000  0 14G 3G 4G16G22G26G31R 7R 8R 9E 1E 4E19
                                E21E27
  21693125.164   113998142.154    21693125.485    88829719.730    21693124.806  
  21693126.004    85128485.405  
  21732943.601   114207389.827    21732942.154    88992763.647    21732941.778  
  21732946.156    85284749.440  
  20336975.661   106871528.367                    83276501.850    20336972.159  
                                
  22606529.274   118798113.197                    92569938.559    22606524.467  
                                
  20421459.776   107315495.712    20421460.009    83622463.917    20421459.723  
  20421459.258    80138192.847  
  22604480.680   118787347.766    22604477.821    92561554.411    22604477.124  
                                
  19327948.941   103464024.536    19327948.137    80472014.743    19327947.976  
                                
  20413613.417   109313973.025    20413611.791    85021972.666    20413611.737  
                                
  20212830.017   107935384.842    20212829.355    83949740.990    20212829.355  
                                
  26119204.779   137257348.604                                                  
  26119207.906   102497382.235  
  27536456.137   144705055.989                                                  
  27536458.514   108058980.278  
  23329551.328   122597619.973                                                  
  23329552.293    91550174.068  
  23471270.210   123342358.793                                                  
  23471272.497    92106314.609  
  25129822.691   132058109.668                                                  
  25129825.050    98614831.207  
 21  8 31  3  7 19.0000000  0 14G 3G 4G16G22G26G31R 7R 8R 9E 1E 4E19
                                E21E27
  21693418.001   113999681.087    21693418.323    88830918.901    21693417.662  
  21693418.841    85129634.606  
  21732475.826   114204931.725    21732474.378    88990848.243    21732474.021  
  21732478.399    85282913.847  
  20336680.018   106869974.686                    83275291.187    20336676.516  
                                
  22606988.955   118800528.871                    92571820.904    22606984.166  
                                
  20421698.417   107316749.875    20421698.667    83623441.186    20421698.399  
  20421697.917    80139129.395  
  22604935.286   118789736.803    22604932.427    92563416.003    22604931.730  
                                
  19328183.919   103465282.381    19328183.133    80472993.067    19328182.972  
                                
  20413118.105   109311320.601    20413116.462    85019909.667    20413116.426  
                                
  20213243.470   107937592.646    20213242.809    83951458.171    20213242.809  
                                
  26118754.891   137254984.477                                                  
  26118758.018   102495616.820  
  27535952.392   144702408.844                                                  
  27535954.768   108057003.522  
  23329402.836   122596839.594                                                  
  23329403.783    91549591.318  
  23471212.653   123342056.272                                                  
  23471214.923    92106088.700  
  25130227.300   132060235.890                                                  
  25130229.658    98616418.963  
 21  8 31  3  7 20.0000000  0 14G 3G 4G16G22G26G31R 7R 8R 9E 1E 4E19
                                E21E27
  21693710.946   114001220.610    21693711.268    88832118.529    21693710.607  
  21693711.786    85130784.256  
  21732008.122   114202473.916    21732006.692    88988933.067    21732006.317  
  21732010.677    85281078.468  
  20336384.482   106868421.690                    83274081.063    20336380.998  
                                
  22607448.707   118802944.916                    92573703.539    22607443.900  
                                
  20421937.201   107318004.621    20421937.433    83624418.909    20421937.165  
  20421936.683    80140066.383  
  22605389.927   118792125.954    22605387.068    92565277.682    22605386.371  
                                
  19328419.057   103466541.111    19328418.253    80473972.081    19328418.092  
                                
  20412622.919   109308668.784    20412621.257    85017847.142    20412621.239  
                                
  20213656.977   107939800.801    20213656.316    83953175.622    20213656.334  
                                
  26118305.074   137252620.623                                                  
  26118308.201   102493851.604  
  27535448.664   144699761.784                                                  
  27535451.040   108055026.817  
  23329254.398   122596059.577                                                  
  23329255.363    91549008.837  
  23471155.169   123341754.162                                                  
  23471157.420    92105863.098  
  25130631.926   132062362.305                                                  
  25130634.284    98618006.880  
 21  8 31  3  7 21.0000000  0 14G 3G 4G16G22G26G31R 7R 8R 9E 1E 4E19
                                E21E27
  21694004.034   114002760.717    21694004.355    88833318.615    21694003.676  
  21694004.874    85131934.341  
  21731540.472   114200016.347    21731539.024    88987018.081    21731538.667  
  21731543.027    85279243.270  
  20336089.090   106866869.361                    83272871.454    20336085.587  
                                
  22607908.530   118805361.309                    92575586.447    22607903.741  
                                
  20422176.056   107319259.926    20422176.306    83625397.070    20422176.038  
  20422175.556    80141003.786  
  22605844.587   118794515.179    22605841.710    92567139.418    22605841.013  
                                
  19328654.357   103467800.695    19328653.552    80474951.760    19328653.392  
                                
  20412127.822   109306017.562    20412126.160    85015785.083    20412126.125  
                                
  20214070.556   107942009.267    20214069.895    83954893.320    20214069.895  
                                
  26117855.293   137250257.007                                                  
  26117858.420   102492086.569  
  27534944.954   144697114.744                                                  
  27534947.313   108053050.151  
  23329106.014   122595279.897                                                  
  23329106.997    91548426.604  
  23471097.738   123341452.424                                                  
  23471100.025    92105637.777  
  25131036.606   132064488.921                                                  
  25131038.964    98619594.937  
 21  8 31  3  7 22.0000000  0 14G 3G 4G16G22G26G31R 7R 8R 9E 1E 4E19
                                E21E27
  21694297.211   114004301.300    21694297.515    88834519.071    21694296.853  
  21694298.051    85133084.771  
  21731072.839   114197558.899    21731071.392    88985103.194    21731071.017  
  21731075.395    85277408.172  
  20335793.786   106865317.560                    83271662.258    20335790.284  
                                
  22608368.407   118807777.921                    92577469.524    22608363.583  
                                
  20422415.019   107320515.661    20422415.269    83626375.568    20422415.001  
  20422414.518    80141941.512  
  22606299.228   118796904.369    22606296.369    92569001.124    22606295.672  
                                
  19328889.781   103469061.003    19328888.977    80475932.000    19328888.816  
                                
  20411632.797   109303366.842    20411631.153    85013723.415    20411631.117  
                                
  20214484.170   107944217.911    20214483.509    83956611.155    20214483.509  
                                
  26117405.530   137247893.503                                                  
  26117408.657   102490321.618  
  27534441.208   144694467.643                                                  
  27534443.585   108051073.413  
  23328957.683   122594500.419                                                  
  23328958.666    91547844.535  
  23471040.360   123341150.948                                                  
  23471042.648    92105412.651  
  25131441.303   132066615.589                                                  
  25131443.662    98621183.029  
 21  8 31  3  7 23.0000000  0 14G 3G 4G16G22G26G31R 7R 8R 9E 1E 4E19
                                E21E27
  21694590.477   114005842.595    21694590.799    88835720.083    21694590.120  
  21694591.317    85134235.747  
  21730605.279   114195101.874    21730603.831    88983188.628    21730603.474  
  21730607.834    85275573.376  
  20335498.644   106863766.587                    83270453.712    20335495.159  
                                
  22608828.374   118810195.020                    92579352.980    22608823.532  
                                
  20422654.106   107321772.110    20422654.356    83627354.619    20422654.088  
  20422653.606    80142879.772  
  22606753.906   118799293.770    22606751.046    92570862.993    22606750.350  
                                
  19329125.402   103470322.294    19329124.598    80476913.006    19329124.437  
                                
  20411137.950   109300716.906    20411136.306    85011662.353    20411136.270  
                                
  20214897.874   107946427.053    20214897.195    83958329.379    20214897.212  
                                
  26116955.856   137245530.386                                                  
  26116958.947   102488556.962  
  27533937.516   144691820.720                                                  
  27533939.911   108049096.824  
  23328809.460   122593721.429                                                  
  23328810.425    91547262.822  
  23470983.090   123340849.997                                                  
  23470985.377    92105187.915  
  25131846.037   132068742.586                                                  
  25131848.413    98622771.373  
 21  8 31  3  7 24.0000000  0 14G 3G 4G16G22G26G31R 7R 8R 9E 1E 4E19
                                E21E27
  21694883.904   114007384.422    21694884.226    88836921.506    21694883.547  
  21694884.744    85135387.101  
  21730137.736   114192645.013    21730136.288    88981274.193    21730135.931  
  21730140.291    85273738.714  
  20335203.608   106862216.195                    83269245.619    20335200.124  
                                
  22609288.376   118812612.404                    92581236.660    22609283.552  
                                
  20422893.319   107323029.048    20422893.551    83628334.056    20422893.283  
  20422892.801    80143818.393  
  22607208.619   118801683.192    22607205.742    92572724.882    22607205.045  
                                
  19329361.166   103471584.345    19329360.362    80477894.599    19329360.219  
                                
  20410643.192   109298067.541    20410641.548    85009601.740    20410641.513  
                                
  20215311.613   107948636.443    20215310.934    83960047.793    20215310.952  
                                
  26116506.182   137243167.444                                                  
  26116509.309   102486792.423  
  27533433.842   144689173.777                                                  
  27533436.201   108047120.215  
  23328661.272   122592942.705                                                  
  23328662.237    91546681.308  
  23470925.891   123340549.348                                                  
  23470928.161    92104963.408  
  25132250.841   132070869.697                                                  
  25132253.182    98624359.804  
 21  8 31  3  7 25.0000000  0 14G 3G 4G16G22G26G31R 7R 8R 9E 1E 4E19
                                E21E27
  21695177.403   114008926.762    21695177.707    88838123.328    21695177.028  
  21695178.243    85136538.848  
  21729670.264   114190188.351    21729668.817    88979359.912    21729668.459  
  21729672.819    85271904.191  
  20334908.680   106860666.407                    83268037.992    20334905.213  
                                
  22609748.450   118815030.067                    92583120.553    22609743.625  
                                
  20423132.585   107324286.480    20423132.817    83629313.877    20423132.567  
  20423132.085    80144757.390  
  22607663.296   118804072.619    22607660.437    92574586.767    22607659.740  
                                
  19329597.073   103472847.176    19329596.268    80478876.803    19329596.108  
                                
  20410148.542   109295418.726    20410146.916    85007541.551    20410146.844  
                                
  20215725.406   107950846.065    20215724.745    83961766.388    20215724.745  
                                
  26116056.561   137240804.682                                                  
  26116059.688   102485028.030  
  27532930.132   144686526.811                                                  
  27532932.509   108045143.591  
  23328513.120   122592164.243                                                  
  23328514.103    91546099.993  
  23470868.728   123340249.028                                                  
  23470871.016    92104739.139  
  25132655.628   132072996.937                                                  
  25132657.987    98625948.324  
 21  8 31  3  7 26.0000000  0 14G 3G 4G16G22G26G31R 7R 8R 9E 1E 4E19
                                E21E27
  21695470.991   114010469.569    21695471.295    88839325.515    21695470.634  
  21695471.831    85137690.944  
  21729202.810   114187731.842    21729201.363    88977445.744    21729200.988  
  21729205.366    85270069.785  
  20334613.895   106859117.179                    83266830.797    20334610.392  
                                
  22610208.542   118817447.967                    92585004.627    22610203.717  
                                
  20423371.941   107325544.384    20423372.209    83630294.060    20423371.923  
  20423371.440    80145696.734  
  22608117.991   118806462.023    22608115.132    92576448.640    22608114.435  
                                
  19329833.122   103474110.742    19329832.318    80479859.572    19329832.157  
                                
  20409653.999   109292770.387    20409652.337    85005481.731    20409652.301  
                                
  20216139.235   107953055.906    20216138.573    83963485.153    20216138.573  
                                
  26115606.977   137238442.064                                                  
  26115610.086   102483263.737  
  27532426.405   144683879.783                                                  
  27532428.781   108043166.912  
  23328365.039   122591386.022                                                  
  23328366.004    91545518.851  
  23470811.655   123339948.971                                                  
  23470813.906    92104515.071  
  25133060.433   132075124.251                                                  
  25133062.792    98627536.904  
 21  8 31  3  7 27.0000000  0 14G 3G 4G16G22G26G31R 7R 8R 9E 1E 4E19
                                E21E27
  21695764.669   114012012.916    21695764.990    88840528.120    21695764.311  
  21695765.508    85138843.441  
  21728735.357   114185275.513    21728733.927    88975531.726    21728733.570  
  21728737.930    85268235.522  
  20334319.199   106857568.560                    83265624.078    20334315.714  
                                
  22610668.723   118819866.155                    92586888.925    22610663.898  
                                
  20423611.421   107326802.781    20423611.671    83631274.629    20423611.385  
  20423610.903    80146636.442  
  22608572.704   118808851.448    22608569.845    92578310.524    22608569.130  
                                
  19330069.333   103475375.076    19330068.529    80480842.943    19330068.350  
                                
  20409159.509   109290122.561    20409157.883    85003422.310    20409157.830  
                                
  20216553.117   107955265.996    20216552.456    83965204.110    20216552.456  
                                
  26115157.410   137236079.625                                                  
  26115160.537   102481499.577  
  27531922.695   144681232.737                                                  
  27531925.053   108041190.224  
  23328216.994   122590608.070                                                  
  23328217.977    91544937.918  
  23470754.599   123339649.238                                                  
  23470756.886    92104291.246  
  25133465.274   132077251.685                                                  
  25133467.633    98629125.575  
 21  8 31  3  7 28.0000000  0 14G 3G 4G16G22G26G31R 7R 8R 9E 1E 4E19
                                E21E27
  21696058.471   114013556.805    21696058.793    88841731.151    21696058.096  
  21696059.311    85139996.344  
  21728267.993   114182819.420    21728266.545    88973617.890    21728266.188  
  21728270.548    85266401.422  
  20334024.628   106856020.565                    83264417.848    20334021.125  
                                
  22611128.939   118822284.651                    92588773.465    22611124.115  
                                
  20423850.991   107328061.716    20423851.241    83632255.617    20423850.973  
  20423850.473    80147576.558  
  22609027.381   118811240.922    22609024.540    92580172.452    22609023.825  
                                
  19330305.651   103476640.197    19330304.847    80481826.928    19330304.686  
                                
  20408665.163   109287475.295    20408663.519    85001363.325    20408663.483  
                                
  20216967.035   107957476.394    20216966.374    83966923.310    20216966.410  
                                
  26114707.897   137233717.391                                                  
  26114711.006   102479735.576  
  27531418.967   144678585.701                                                  
  27531421.361   108039213.545  
  23328069.021   122589830.429                                                  
  23328070.004    91544357.208  
  23470697.632   123339349.854                                                  
  23470699.902    92104067.682  
  25133870.150   132079379.272                                                  
  25133872.491    98630714.359  
 21  8 31  3  7 29.0000000  0 14G 3G 4G16G22G26G31R 7R 8R 9E 1E 4E19
                                E21E27
  21696352.399   114015101.435    21696352.720    88842934.758    21696352.041  
  21696353.238    85141149.796  
  21727800.664   114180363.715    21727799.234    88971704.353    21727798.877  
  21727803.237    85264567.632  
  20333730.218   106854473.383                    83263212.256    20333726.715  
                                
  22611589.263   118824703.628                    92590658.380    22611584.439  
                                
  20424090.704   107329321.363    20424090.936    83633237.158    20424090.651  
  20424090.186    80148517.203  
  22609482.130   118813630.611    22609479.271    92582034.550    22609478.574  
                                
  19330542.165   103477906.313    19330541.379    80482811.680    19330541.218  
                                
  20408170.941   109284828.780    20408169.297    84999304.926    20408169.262  
                                
  20217381.060   107959687.289    20217380.417    83968642.896    20217380.435  
                                
  26114258.455   137231355.556                                                  
  26114261.564   102477971.866  
  27530915.311   144675938.866                                                  
  27530917.669   108037237.013  
  23327921.137   122589053.279                                                  
  23327922.102    91543776.868  
  23470640.755   123339051.004                                                  
  23470643.043    92103844.513  
  25134275.080   132081507.204                                                  
  25134277.439    98632303.400  
 21  8 31  3  7 30.0000000  0 14G 3G 4G16G22G26G31R 7R 8R 9E 1E 4E19
                                E21E27
  21696646.451   114016646.680    21696646.755    88844138.845    21696646.094  
  21696647.291    85142303.719  
  21727333.425   114177908.330    21727331.995    88969791.069    21727331.638  
  21727335.998    85262734.061  
  20333435.915   106852926.914                    83262007.216    20333432.431  
                                
  22612049.659   118827123.002                    92592543.604    22612044.834  
                                
  20424330.506   107330581.617    20424330.757    83634219.172    20424330.489  
  20424330.006    80149458.298  
  22609936.897   118816020.437    22609934.056    92583896.750    22609933.341  
                                
  19330778.858   103479173.316    19330778.054    80483797.128    19330777.893  
                                
  20407676.845   109282182.946    20407675.201    84997247.058    20407675.165  
                                
  20217795.157   107961898.528    20217794.496    83970362.750    20217794.514  
                                
  26113809.067   137228994.006                                                  
  26113812.176   102476208.379  
  27530411.636   144673292.111                                                  
  27530413.995   108035260.549  
  23327773.306   122588276.492                                                  
  23327774.289    91543196.800  
  23470583.985   123338752.582                                                  
  23470586.255    92103621.668  
  25134680.046   132083635.363                                                  
  25134682.404    98633892.605  
 21  8 31  3  7 31.0000000  0 14G 3G 4G16G22G26G31R 7R 8R 9E 1E 4E19
                                E21E27
  21696940.593   114018192.462    21696940.915    88845343.349    21696940.236  
  21696941.433    85143458.037  
  21726866.239   114175453.148    21726864.792    88967877.939    21726864.417  
  21726868.777    85260900.646  
  20333141.737   106851381.064                    83260802.655    20333138.253  
                                
  22612510.090   118829542.660                    92594429.049    22612505.301  
                                
  20424570.434   107331842.374    20424570.666    83635201.578    20424570.416  
  20424569.916    80150399.774  
  22610391.681   118818410.299    22610388.822    92585758.980    22610388.125  
                                
  19331015.694   103480441.133    19331014.908    80484783.210    19331014.747  
                                
  20407182.874   109279537.696    20407181.230    84995189.646    20407181.176  
                                
  20218209.307   107964110.047    20218208.646    83972082.818    20218208.664  
                                
  26113359.733   137226632.652                                                  
  26113362.824   102474445.029  
  27529907.980   144670645.353                                                  
  27529910.339   108033284.076  
  23327625.548   122587500.011                                                  
  23327626.530    91542616.953  
  23470527.251   123338454.486                                                  
  23470529.521    92103399.064  
  25135085.047   132085763.657                                                  
  25135087.388    98635481.922  
 21  8 31  3  7 32.0000000  0 14G 3G 4G16G22G26G31R 7R 8R 9E 1E 4E19
                                E21E27
  21697234.878   114019738.831    21697235.182    88846548.314    21697234.503  
  21697235.718    85144612.794  
  21726399.054   114172998.200    21726397.624    88965964.995    21726397.267  
  21726401.609    85259067.410  
  20332847.702   106849835.854                    83259598.600    20332844.218  
                                
  22612970.610   118831962.662                    92596314.765    22612965.785  
                                
  20424810.450   107333103.688    20424810.701    83636184.420    20424810.415  
  20424809.932    80151341.667  
  22610846.448   118820800.193    22610843.607    92587621.237    22610842.910  
                                
  19331252.691   103481709.757    19331251.887    80485769.915    19331251.726  
                                
  20406688.992   109276893.049    20406687.348    84993132.698    20406687.312  
                                
  20218623.511   107966321.855    20218622.850    83973803.116    20218622.868  
                                
  26112910.416   137224271.527                                                  
  26112913.525   102472681.849  
  27529404.306   144667998.627                                                  
  27529406.683   108031307.631  
  23327477.860   122586723.837                                                  
  23327478.825    91542037.350  
  23470470.589   123338156.751                                                  
  23470472.876    92103176.731  
  25135490.084   132087892.115                                                  
  25135492.425    98637071.355  
 21  8 31  3  7 33.0000000  0 14G 3G 4G16G22G26G31R 7R 8R 9E 1E 4E19
                                E21E27
  21697529.252   114021285.802    21697529.574    88847753.744    21697528.895  
  21697530.092    85145767.997  
  21725931.957   114170543.551    21725930.528    88964052.284    21725930.153  
  21725934.513    85257234.391  
  20332553.793   106848291.348                    83258395.091    20332550.308  
                                
  22613431.184   118834383.021                    92598200.766    22613426.377  
                                
  20425050.574   107334365.594    20425050.825    83637167.726    20425050.557  
  20425050.074    80152283.995  
  22611301.250   118823190.219    22611298.409    92589483.598    22611297.712  
                                
  19331489.849   103482979.233    19331489.045    80486757.285    19331488.866  
                                
  20406195.253   109274249.046    20406193.591    84991076.253    20406193.555  
                                
  20219037.769   107968534.024    20219037.108    83975523.692    20219037.143  
                                
  26112461.153   137221910.676                                                  
  26112464.262   102470918.880  
  27528900.686   144665351.990                                                  
  27528903.044   108029331.237  
  23327330.226   122585948.043                                                  
  23327331.209    91541458.027  
  23470414.015   123337859.445                                                  
  23470416.285    92102954.712  
  25135895.157   132090020.799                                                  
  25135897.516    98638660.957  
 21  8 31  3  7 34.0000000  0 14G 3G 4G16G22G26G31R 7R 8R 9E 1E 4E19
                                E21E27
  21697823.716   114022833.342    21697824.038    88848959.621    21697823.359  
  21697824.556    85146923.634  
  21725464.897   114168089.141    21725463.467    88962139.757    21725463.110  
  21725467.470    85255401.552  
  20332259.990   106846747.493                    83257192.087    20332256.524  
                                
  22613891.830   118836803.727                    92600087.030    22613887.005  
                                
  20425290.823   107335628.047    20425291.056    83638151.453    20425290.788  
  20425290.305    80153226.740  
  22611756.070   118825580.318    22611753.211    92591346.013    22611752.515  
                                
  19331727.132   103484249.531    19331726.327    80487745.297    19331726.185  
                                
  20405701.621   109271605.619    20405699.959    84989020.253    20405699.924  
                                
  20219452.098   107970746.500    20219451.437    83977244.502    20219451.455  
                                
  26112011.944   137219550.056                                                  
  26112015.053   102469156.083  
  27528397.065   144662705.367                                                  
  27528399.424   108027354.861  
  23327182.664   122585172.574                                                  
  23327183.629    91540878.936  
  23470357.513   123337562.499                                                  
  23470359.783    92102732.969  
  25136300.266   132092149.651                                                  
  25136302.607    98640250.688  
 21  8 31  3  7 35.0000000  0 14G 3G 4G16G22G26G31R 7R 8R 9E 1E 4E19
                                E21E27
  21698118.341   114024381.504    21698118.644    88850165.981    21698117.983  
  21698119.180    85148079.729  
  21724997.890   114165635.014    21724996.442    88960227.457    21724996.085  
  21725000.445    85253568.931  
  20331966.349   106845204.340                    83255989.631    20331962.864  
                                
  22614352.547   118839224.799                    92601973.585    22614347.722  
                                
  20425531.162   107336891.101    20425531.412    83639135.655    20425531.144  
  20425530.644    80154169.930  
  22612210.926   118827970.535    22612208.067    92593208.522    22612207.371  
                                
  19331964.593   103485520.698    19331963.807    80488733.983    19331963.646  
                                
  20405208.079   109268962.836    20405206.453    84986964.754    20405206.399  
                                
  20219866.480   107972959.343    20219865.855    83978965.604    20219865.855  
                                
  26111562.788   137217189.720                                                  
  26111565.897   102467393.500  
  27527893.409   144660058.829                                                  
  27527895.767   108025378.561  
  23327035.155   122584397.465                                                  
  23327036.138    91540300.133  
  23470301.083   123337265.970                                                  
  23470303.352    92102511.537  
  25136705.410   132094278.725                                                  
  25136707.751    98641840.583  
 21  8 31  3  7 36.0000000  0 14G 3G 4G16G22G26G31R 7R 8R 9E 1E 4E19
                                E21E27
  21698413.054   114025930.295    21698413.376    88851372.831    21698412.697  
  21698413.894    85149236.287  
  21724530.954   114163181.185    21724529.507    88958315.384    21724529.150  
  21724533.492    85251736.526  
  20331672.832   106843661.889                    83254787.722    20331669.348  
                                
  22614813.335   118841646.259                    92603860.441    22614808.511  
                                
  20425771.625   107338154.748    20425771.875    83640120.318    20425771.607  
  20425771.107    80155113.562  
  22612665.782   118830360.858    22612662.923    92595071.111    22612662.227  
                                
  19332202.251   103486792.757    19332201.447    80489723.364    19332201.268  
                                
  20404714.697   109266320.683    20404713.035    84984909.749    20404712.982  
                                
  20220280.952   107975172.543    20220280.291    83980686.987    20220280.309  
                                
  26111113.686   137214829.655                                                  
  26111116.795   102465631.107  
  27527389.806   144657412.361                                                  
  27527392.165   108023402.309  
  23326887.736   122583622.736                                                  
  23326888.701    91539721.594  
  23470244.724   123336969.849                                                  
  23470247.011    92102290.408  
  25137110.590   132096408.020                                                  
  25137112.949    98643430.638  
 21  8 31  3  7 37.0000000  0 14G 3G 4G16G22G26G31R 7R 8R 9E 1E 4E19
                                E21E27
  21698707.858   114027479.481    21698708.179    88852579.987    21698707.500  
  21698708.697    85150393.149  
  21724064.019   114160727.443    21724062.572    88956403.376    21724062.214  
  21724066.574    85249904.186  
  20331379.423   106842119.930                    83253586.198    20331375.920  
                                
  22615274.142   118844067.889                    92605747.430    22615269.335  
                                
  20426012.160   107339418.788    20426012.392    83641105.286    20426012.142  
  20426011.660    80156057.495  
  22613120.638   118832751.077    22613117.779    92596933.617    22613117.082  
                                
  19332439.981   103488065.500    19332439.194    80490713.275    19332439.033  
                                
  20404221.369   109263678.949    20404219.707    84982855.067    20404219.672  
                                
  20220695.442   107977385.887    20220694.781    83982408.474    20220694.799  
                                
  26110664.584   137212469.666                                                  
  26110667.711   102463868.779  
  27526886.185   144654765.782                                                  
  27526888.544   108021425.966  
  23326740.334   122582848.168                                                  
  23326741.299    91539143.183  
  23470188.419   123336673.942                                                  
  23470190.706    92102069.439  
  25137515.788   132098537.326                                                  
  25137518.147    98645020.707  
 21  8 31  3  7 38.0000000  0 14G 3G 4G16G22G26G31R 7R 8R 9E 1E 4E19
                                E21E27
  21699002.768   114029029.251    21699003.090    88853787.600    21699002.410  
  21699003.608    85151550.438  
  21723597.137   114158273.939    21723595.690    88954491.554    21723595.314  
  21723599.675    85248072.026  
  20331086.103   106840578.617                    83252385.175    20331082.618  
                                
  22615735.019   118846489.842                    92607634.664    22615730.213  
                                
  20426252.820   107340683.380    20426253.070    83642090.680    20426252.784  
  20426252.302    80157001.822  
  22613575.477   118835141.368    22613572.635    92598796.179    22613571.921  
                                
  19332677.907   103489339.065    19332677.085    80491703.828    19332676.942  
                                
  20403728.148   109261037.789    20403726.487    84980800.834    20403726.451  
                                
  20221109.986   107979599.520    20221109.325    83984130.189    20221109.343  
                                
  26110215.553   137210109.906                                                  
  26110218.644   102462106.623  
  27526382.547   144652119.209                                                  
  27526384.906   108019449.646  
  23326593.004   122582073.922                                                  
  23326593.969    91538565.017  
  23470132.185   123336378.399                                                  
  23470134.454    92101848.743  
  25137921.022   132100666.811                                                  
  25137923.381    98646610.898  
 21  8 31  3  7 39.0000000  0 14G 3G 4G16G22G26G31R 7R 8R 9E 1E 4E19
                                E21E27
  21699297.768   114030579.409    21699298.071    88854995.517    21699297.410  
  21699298.607    85152708.026  
  21723130.255   114155820.499    21723128.808    88952579.783    21723128.433  
  21723132.793    85246239.915  
  20330792.890   106839037.779                    83251184.522    20330789.405  
                                
  22616195.951   118848911.956                    92609522.026    22616191.126  
                                
  20426493.534   107341948.332    20426493.766    83643076.360    20426493.516  
  20426493.016    80157946.438  
  22614030.333   118837531.561    22614027.473    92600658.667    22614026.759  
                                
  19332915.940   103490613.257    19332915.136    80492694.864    19332914.957  
                                
  20403235.017   109258397.072    20403233.355    84978746.940    20403233.319  
                                
  20221524.565   107981813.302    20221523.904    83985852.017    20221523.922  
                                
  26109766.504   137207750.190                                                  
  26109769.614   102460344.502  
  27525878.891   144649472.501                                                  
  27525881.249   108017473.206  
  23326445.692   122581299.824                                                  
  23326446.657    91537986.954  
  23470075.969   123336083.044                                                  
  23470078.256    92101628.188  
  25138326.238   132102796.273                                                  
  25138328.579    98648201.087  
 21  8 31  3  7 40.0000000  0 14G 3G 4G16G22G26G31R 7R 8R 9E 1E 4E19
                                E21E27
  21699592.839   114032130.130    21699593.160    88856203.869    21699592.481  
  21699593.679    85153866.034  
  21722663.427   114153367.312    21722661.998    88950668.207    21722661.622  
  21722665.982    85244407.981  
  20330499.820   106837497.595                    83249984.379    20330496.318  
                                
  22616656.918   118851334.402                    92611409.641    22616652.111  
                                
  20426734.355   107343213.849    20426734.587    83644062.476    20426734.337  
  20426733.836    80158891.460  
  22614485.171   118839921.804    22614482.329    92602521.192    22614481.615  
                                
  19333154.116   103491888.239    19333153.294    80493686.519    19333153.133  
                                
  20402741.975   109255756.964    20402740.349    84976693.524    20402740.295  
                                
  20221939.180   107984027.356    20221938.519    83987574.058    20221938.537  
                                
  26109317.527   137205390.711                                                  
  26109320.619   102458582.554  
  27525375.234   144646825.834                                                  
  27525377.593   108015496.805  
  23326298.451   122580526.051                                                  
  23326299.416    91537409.139  
  23470019.825   123335788.056                                                  
  23470022.112    92101407.911  
  25138731.489   132104925.919                                                  
  25138733.848    98649791.410  
 21  8 31  3  7 41.0000000  0 14G 3G 4G16G22G26G31R 7R 8R 9E 1E 4E19
                                E21E27
  21699888.053   114033681.470    21699888.375    88857412.701    21699887.695  
  21699888.893    85155024.500  
  21722196.652   114150914.404    21722195.223    88948756.847    21722194.848  
  21722199.208    85242576.265  
  20330206.857   106835958.113                    83248784.783    20330203.355  
                                
  22617117.957   118853757.218                    92613297.547    22617113.150  
                                
  20426975.283   107344479.943    20426975.515    83645049.041    20426975.265  
  20426974.764    80159836.920  
  22614940.044   118842312.159    22614937.203    92604383.804    22614936.506  
                                
  19333392.453   103493164.094    19333391.649    80494678.850    19333391.488  
                                
  20402249.111   109253117.527    20402247.450    84974640.628    20402247.396  
                                
  20222353.866   107986241.776    20222353.205    83989296.388    20222353.223  
                                
  26108868.586   137203031.514                                                  
  26108871.677   102456820.809  
  27524871.614   144644179.237                                                  
  27524873.973   108013520.451  
  23326151.282   122579752.644                                                  
  23326152.247    91536831.602  
  23469963.787   123335493.490                                                  
  23469966.057    92101187.939  
  25139136.794   132107055.780                                                  
  25139139.135    98651381.886  
 21  8 31  3  7 42.0000000  0 14G 3G 4G16G22G26G31R 7R 8R 9E 1E 4E19
                                E21E27
  21700183.356   114035233.312    21700183.678    88858621.928    21700182.999  
  21700184.196    85156183.349  
  21721729.896   114148461.675    21721728.466    88946845.632    21721728.109  
  21721732.469    85240744.688  
  20329914.002   106834419.209                    83247585.635    20329910.535  
                                
  22617579.085   118856180.301                    92615185.659    22617574.260  
                                
  20427216.300   107345746.521    20427216.550    83646035.983    20427216.264  
  20427215.782    80160782.743  
  22615394.918   118844702.531    22615392.059    92606246.434    22615391.362  
                                
  19333630.933   103494440.720    19333630.129    80495671.782    19333629.968  
                                
  20401756.302   109250478.622    20401754.640    84972588.144    20401754.604  
                                
  20222768.606   107988456.426    20222767.945    83991018.888    20222767.963  
                                
  26108419.663   137200672.467                                                  
  26108422.754   102455059.198  
  27524367.993   144641532.614                                                  
  27524370.352   108011544.076  
  23326004.148   122578979.494                                                  
  23326005.131    91536254.245  
  23469907.786   123335199.223                                                  
  23469910.073    92100968.192  
  25139542.135   132109185.747                                                  
  25139544.476    98652972.441  
 21  8 31  3  7 43.0000000  0 14G 3G 4G16G22G26G31R 7R 8R 9E 1E 4E19
                                E21E27
  21700478.821   114036785.902    21700479.107    88859831.739    21700478.445  
  21700479.660    85157342.751  
  21721263.264   114146009.374    21721261.835    88944934.746    21721261.459  
  21721265.801    85238913.414  
  20329621.325   106832881.142                    83246387.143    20329617.841  
                                
  22618040.266   118858603.882                    92617074.157    22618035.460  
                                
  20427457.460   107347013.824    20427457.711    83647023.492    20427457.425  
  20427456.942    80161729.108  
  22615849.828   118847093.135    22615846.987    92608109.242    22615846.272  
                                
  19333869.610   103495718.374    19333868.788    80496665.510    19333868.627  
                                
  20401263.653   109247840.473    20401261.991    84970536.250    20401261.955  
                                
  20223183.418   107990671.571    20223182.757    83992741.779    20223182.792  
                                
  26107970.846   137198313.837                                                  
  26107973.938   102453297.881  
  27523864.391   144638886.185                                                  
  27523866.749   108009567.849  
  23325857.122   122578206.847                                                  
  23325858.087    91535677.267  
  23469851.892   123334905.497                                                  
  23469854.161    92100748.853  
  25139947.494   132111316.050                                                  
  25139949.835    98654563.266  
 21  8 31  3  7 44.0000000  0 14G 3G 4G16G22G26G31R 7R 8R 9E 1E 4E19
                                E21E27
  21700774.392   114038339.117    21700774.696    88861042.039    21700774.035  
  21700775.232    85158502.613  
  21720796.650   114143557.343    21720795.203    88943024.074    21720794.845  
  21720799.188    85237082.365  
  20329328.774   106831343.770                    83245189.190    20329325.271  
                                
  22618501.537   118861027.836                    92618962.946    22618496.713  
                                
  20427698.728   107348281.720    20427698.978    83648011.465    20427698.692  
  20427698.210    80162675.918  
  22616304.773   118849483.854    22616301.914    92609972.140    22616301.217  
                                
  19334108.465   103496996.907    19334107.643    80497659.925    19334107.482  
                                
  20400771.111   109245202.949    20400769.449    84968484.843    20400769.413  
                                
  20223598.319   107992887.073    20223597.675    83994464.943    20223597.675  
                                
  26107522.048   137195955.473                                                  
  26107525.157   102451536.772  
  27523360.788   144636239.840                                                  
  27523363.165   108007591.683  
  23325710.149   122577434.568                                                  
  23325711.132    91535100.569  
  23469796.087   123334612.187                                                  
  23469798.338    92100529.823  
  25140352.924   132113446.589                                                  
  25140355.283    98656154.239  
 21  8 31  3  7 45.0000000  0 14G 3G 4G16G22G26G31R 7R 8R 9E 1E 4E19
                                E21E27
  21701070.071   114039892.964    21701070.393    88862252.828    21701069.713  
  21701070.911    85159662.955  
  21720330.090   114141105.637    21720328.643    88941113.657    21720328.285  
  21720332.645    85235251.555  
  20329036.365   106829807.110                    83243991.794    20329032.863  
                                
  22618962.880   118863452.189                    92620852.055    22618958.055  
                                
  20427940.121   107349550.241    20427940.353    83648999.923    20427940.103  
  20427939.602    80163623.190  
  22616759.719   118851874.711    22616756.877    92611835.147    22616756.180  
                                
  19334347.463   103498276.337    19334346.659    80498655.037    19334346.480  
                                
  20400278.694   109242566.083    20400277.032    84966433.947    20400276.979  
                                
  20224013.273   107995102.943    20224012.612    83996188.401    20224012.648  
                                
  26107073.321   137193597.412                                                  
  26107076.412   102449775.893  
  27522857.239   144633593.608                                                  
  27522859.598   108005615.600  
  23325563.284   122576662.694                                                  
  23325564.249    91534524.169  
  23469740.335   123334319.314                                                  
  23469742.622    92100311.122  
  25140758.390   132115577.360                                                  
  25140760.731    98657745.405  
 21  8 31  3  7 46.0000000  0 14G 3G 4G16G22G26G31R 7R 8R 9E 1E 4E19
                                E21E27
  21701365.839   114041447.279    21701366.161    88863463.988    21701365.482  
  21701366.679    85160823.648  
  21719863.566   114138654.085    21719862.154    88939203.358    21719861.779  
  21719866.139    85233420.841  
  20328744.046   106828271.015                    83242794.838    20328740.561  
                                
  22619424.258   118865876.766                    92622741.335    22619419.433  
                                
  20428181.602   107350819.217    20428181.835    83649988.735    20428181.567  
  20428181.084    80164570.802  
  22617214.682   118854265.544    22617211.841    92613698.134    22617211.144  
                                
  19334586.604   103499556.484    19334585.800    80499650.709    19334585.621  
                                
  20399786.367   109239929.735    20399784.723    84964383.458    20399784.652  
                                
  20224428.281   107997319.030    20224427.620    83997912.027    20224427.638  
                                
  26106624.612   137191239.492                                                  
  26106627.703   102448015.109  
  27522353.636   144630947.287                                                  
  27522356.013   108003639.464  
  23325416.436   122575891.034                                                  
  23325417.401    91533947.932  
  23469684.655   123334026.712                                                  
  23469686.943    92100092.615  
  25141163.892   132117708.203                                                  
  25141166.233    98659336.622  
 21  8 31  3  7 47.0000000  0 14G 3G 4G16G22G26G31R 7R 8R 9E 1E 4E19
                                E21E27
  21701661.732   114043002.261    21701662.054    88864675.662    21701661.375  
  21701662.572    85161984.838  
  21719397.130   114136202.872    21719395.701    88937293.321    21719395.344  
  21719399.668    85231590.390  
  20328451.887   106826735.673                    83241598.468    20328448.403  
                                
  22619885.708   118868301.767                    92624630.956    22619880.901  
                                
  20428423.192   107352088.832    20428423.424    83650978.053    20428423.174  
  20428422.673    80165518.896  
  22617669.663   118856656.526    22617666.822    92615561.237    22617666.125  
                                
  19334825.924   103500837.567    19334825.102    80500647.105    19334824.941  
                                
  20399294.183   109237294.101    20399292.521    84962333.521    20399292.485  
                                
  20224843.361   107999535.534    20224842.717    83999635.975    20224842.717  
                                
  26106175.992   137188881.909                                                  
  26106179.084   102446254.570  
  27521850.105   144628301.116                                                  
  27521852.464   108001663.423  
  23325269.660   122575119.793                                                  
  23325270.625    91533372.010  
  23469629.083   123333734.578                                                  
  23469631.334    92099874.466  
  25141569.412   132119839.317                                                  
  25141571.753    98660928.045  
 21  8 31  3  7 48.0000000  0 14G 3G 4G16G22G26G31R 7R 8R 9E 1E 4E19
                                E21E27
  21701957.768   114044557.877    21701958.072    88865887.835    21701957.393  
  21701958.608    85163146.501  
  21718930.731   114133751.959    21718929.302    88935383.521    21718928.944  
  21718933.304    85229760.163  
  20328159.854   106825201.039                    83240402.654    20328156.369  
                                
  22620347.247   118870727.168                    92626520.883    22620342.440  
                                
  20428664.906   107353359.052    20428665.156    83651967.839    20428664.870  
  20428664.388    80166467.441  
  22618124.697   118859047.650    22618121.856    92617424.450    22618121.142  
                                
  19335065.405   103502119.508    19335064.600    80501644.170    19335064.440  
                                
  20398802.123   109234659.128    20398800.461    84960284.104    20398800.408  
                                
  20225258.494   108001752.402    20225257.868    84001360.208    20225257.868  
                                
  26105727.408   137186524.591                                                  
  26105730.500   102444494.245  
  27521346.556   144625655.012                                                  
  27521348.915   107999687.443  
  23325122.991   122574348.952                                                  
  23325123.956    91532796.377  
  23469573.564   123333442.862                                                  
  23469575.833    92099656.628  
  25141975.003   132121970.666                                                  
  25141977.344    98662519.623  
